size,lat,lon,price,name
2.94,34.46784,-93.06667,20041.85,ST JOSEPHS MERCY HEALTH CENTER INC
2.30,36.34295,-92.39442,9884.12,BAXTER REGIONAL MEDICAL CENTER
3.04,35.28275,-93.14901,21650.38,ST MARYS REGIONAL MEDICAL CENTER
2.54,35.37445,-94.41868,13672.44,SPARKS REGIONAL MEDICAL CENTER
3.42,34.18894,-92.01886,27559.40,JEFFERSON REGIONAL MEDICAL CENTER
2.49,34.51764,-91.55932,12887.75,BAPTIST HEALTH MEDICAL CENTER-STUTTGART
3.78,34.48600,-93.03521,33287.86,NATIONAL PARK MEDICAL CENTER
3.45,34.51022,-90.62718,28164.07,HELENA REGIONAL MEDICAL CENTER
2.42,33.64905,-93.58704,11857.45,MEDICAL PARK HOSPITAL
3.13,34.74866,-92.35422,23002.02,BAPTIST HEALTH MEDICAL CENTER-LITTLE ROCK
2.79,35.80838,-90.66658,17745.13,NEA BAPTIST MEMORIAL HOSPITAL
2.90,35.76927,-91.63408,19489.57,WHITE RIVER MEDICAL CENTER
2.84,34.81290,-92.20814,18396.94,ST VINCENT MEDICAL CENTER/NORTH
4.26,40.78366,-124.14246,40805.68,ST JOSEPH HOSPITAL
6.53,37.76862,-122.43525,76641.72,CALIFORNIA PACIFIC MEDICAL CTR-DAVIES CAMPUS HOSP
5.37,38.32472,-122.29671,58294.41,QUEEN OF THE VALLEY MEDICAL CENTER
4.98,38.54384,-122.47401,52189.57,ST HELENA HOSPITAL
3.92,35.11346,-120.59054,35434.73,ARROYO GRANDE COMMUNITY HOSPITAL
4.65,38.57053,-121.45216,47081.35,MERCY GENERAL HOSPITAL
3.59,39.50528,-121.54100,30233.21,OROVILLE HOSPITAL
5.21,35.38736,-119.01690,55820.20,BAKERSFIELD MEMORIAL HOSPITAL
5.46,37.31288,-121.93329,59767.30,SANTA CLARA VALLEY MEDICAL CENTER
3.52,40.14813,-122.21934,29193.62,ST ELIZABETH COMMUNITY HOSPITAL
5.82,37.79100,-122.43125,65422.02,CALIFORNIA PACIFIC MEDICAL CTR-PACIFIC CAMPUS HOSP
6.76,37.74717,-122.42088,80213.73,CALIFORNIA PACIFIC MEDICAL CTR - ST. LUKE'S CAMPUS
3.27,34.67486,-118.15771,25237.02,ANTELOPE VALLEY HOSPITAL MED CENTER
3.90,36.32737,-119.29548,35254.51,KAWEAH DELTA MEDICAL CENTER
4.71,34.12834,-118.25777,47893.48,GLENDALE MEM HOSPITAL & HLTH CENTER
4.49,33.78036,-117.86495,44436.71,ST JOSEPH HOSPITAL
3.47,37.33569,-121.99595,28403.46,KAISER FOUNDATION HOSPITAL-SANTA CLARA
3.36,37.82448,-122.25759,26691.03,KAISER FOUNDATION HOSPITAL OAKLAND/RICHMOND
5.01,33.73798,-118.30525,52682.00,PROVIDENCE LITTLE CO OF MARY MED CTR SAN PEDRO
5.53,37.95337,-122.33672,60816.34,DOCTORS MEDICAL CENTER-SAN PABLO
5.81,37.96987,-121.28873,65237.19,ST JOSEPHS MED CENTER OF STOCKTON
3.29,38.28820,-122.46533,25514.15,SONOMA VALLEY HOSPITAL
3.64,36.83532,-119.76562,31060.50,SAINT AGNES MEDICAL CENTER
4.04,34.10130,-117.63651,37370.41,SAN ANTONIO COMMUNITY HOSPITAL
4.98,32.79949,-117.15394,52263.22,SHARP MEMORIAL HOSPITAL
5.55,38.13118,-122.23732,61136.80,SUTTER SOLANO MEDICAL CENTER
4.28,33.92798,-117.43847,41239.09,PARKVIEW COMMUNITY HOSPITAL MEDICAL CENTER
6.21,34.04932,-118.21746,71537.31,WHITE MEMORIAL MEDICAL CENTER
4.69,34.95099,-120.41322,47604.21,MARIAN MEDICAL CENTER
4.48,38.57155,-121.46874,44365.46,SUTTER GENERAL HOSPITAL
2.33,34.64075,-120.43958,10353.73,LOMPOC VALLEY MEDICAL CENTER
4.85,34.02685,-118.48651,50089.07,SANTA MONICA - UCLA MED CTR & ORTHOPAEDIC HOSPITAL
3.55,36.32362,-119.66726,29735.00,ADVENTIST MEDICAL CENTER
9.05,37.36257,-121.84974,116470.57,REGIONAL MEDICAL CENTER OF SAN JOSE
4.36,34.19494,-118.46319,42495.46,VALLEY PRESBYTERIAN HOSPITAL
3.72,33.18402,-117.29661,32294.93,TRI-CITY MEDICAL CENTER
4.18,39.13822,-121.59436,39540.66,RIDEOUT MEMORIAL HOSPITAL
6.40,38.25455,-122.63177,74652.94,PETALUMA VALLEY HOSPITAL
3.88,34.09816,-118.29541,34796.38,KAISER FOUNDATION HOSPITAL - LOS ANGELES
4.08,34.03705,-118.26575,38094.92,CALIFORNIA HOSPITAL MEDICAL CENTER LA
3.75,39.22809,-121.04721,32843.18,SIERRA NEVADA MEMORIAL HOSPITAL
6.77,37.32710,-121.93863,80433.79,O'CONNOR HOSPITAL
3.83,34.28029,-119.25410,34044.67,VENTURA COUNTY MEDICAL CENTER
5.66,33.96860,-118.04831,62873.45,PRESBYTERIAN INTERCOMMUNITY HOSPITAL
6.08,38.44369,-122.70138,69577.11,SANTA ROSA MEMORIAL HOSPITAL
7.10,37.55717,-121.98126,85715.26,WASHINGTON HOSPITAL
6.93,37.48000,-122.25441,82961.41,SEQUOIA HOSPITAL
4.24,34.58305,-118.14490,40570.40,PALMDALE REGIONAL MEDICAL CENTER
3.87,37.76288,-122.25412,34666.91,ALAMEDA HOSPITAL
5.67,32.61972,-117.02278,63167.89,SHARP CHULA VISTA MEDICAL CENTER
3.26,33.62229,-117.92995,25032.98,HOAG MEMORIAL HOSPITAL PRESBYTERIAN
4.91,33.84780,-117.93661,51183.17,AHMC ANAHEIM REGIONAL MEDICAL CENTER
4.52,33.77483,-117.91329,45039.24,GARDEN GROVE HOSPITAL & MEDICAL CENTER
4.66,35.27882,-120.65047,47142.61,FRENCH HOSPITAL MEDICAL CENTER
7.02,34.15601,-118.32834,84423.49,PROVIDENCE SAINT JOSEPH MEDICAL CTR
4.87,34.28920,-118.74484,50484.19,SIMI VALLEY HOSPITAL & HEALTH CARE SERVICES
6.25,33.83862,-116.54557,72176.29,DESERT REGIONAL MEDICAL CENTER
5.22,38.72562,-120.79096,55950.40,MARSHALL MEDICAL CENTER (1-RH)
3.41,36.06956,-119.02748,27478.23,SIERRA VIEW DISTRICT HOSPITAL
5.64,34.06675,-118.44613,62601.40,RONALD REAGAN UCLA MEDICAL CENTER
4.46,34.03721,-117.20474,44094.64,REDLANDS COMMUNITY HOSPITAL
3.84,34.13075,-116.27502,34236.76,HI-DESERT MEDICAL CENTER
4.35,40.58654,-122.39168,42281.40,MERCY MEDICAL CENTER REDDING
4.75,34.09049,-118.14410,48666.36,ALHAMBRA HOSPITAL MEDICAL CENTER
5.80,37.69502,-121.88095,65153.19,VALLEYCARE MEDICAL CENTER
4.09,34.03009,-118.47833,38198.07,SAINT JOHN'S HEALTH CENTER
4.15,34.50107,-117.17285,39169.27,ST MARY MEDICAL CENTER
5.55,37.85593,-122.25730,61149.14,ALTA BATES SUMMIT MEDICAL CENTER - ALTA BATES CAMP
5.50,37.36934,-122.08047,60476.97,EL CAMINO HOSPITAL
4.14,38.76514,-121.24979,38909.82,SUTTER ROSEVILLE MEDICAL CENTER
4.04,37.74409,-121.43469,37397.46,SUTTER TRACY COMMUNITY HOSPITAL
5.90,32.88461,-117.22244,66787.62,SCRIPPS MEMORIAL HOSPITAL LA JOLLA
4.06,34.05076,-117.26395,37681.67,LOMA LINDA UNIVERSITY MEDICAL CENTER
3.70,33.87236,-117.56809,31965.67,CORONA REGIONAL MEDICAL CENTER
4.24,37.97780,-120.37150,40531.93,SONORA REGIONAL MEDICAL CENTER
6.58,38.12186,-121.28665,77457.52,LODI MEMORIAL HOSPITAL
4.01,32.95813,-115.55388,36874.36,PIONEERS MEMORIAL HEALTHCARE DISTRICT
3.03,34.01501,-118.10064,21538.39,BEVERLY HOSPITAL
3.11,36.22008,-119.33764,22651.67,TULARE REGIONAL MEDICAL CENTER
6.92,37.94748,-122.53677,82804.63,MARIN GENERAL HOSPITAL
7.59,38.26174,-122.04662,93309.47,NORTHBAY MEDICAL CENTER
6.84,34.06034,-118.21014,81605.08,LAC+USC MEDICAL CENTER
3.92,33.83043,-118.29402,35467.55,LAC/HARBOR-UCLA MED CENTER
7.20,37.25153,-121.94684,87154.05,GOOD SAMARITAN HOSPITAL
3.09,38.39711,-122.81924,22481.54,PALM DRIVE HOSPITAL
3.11,33.75117,-116.96028,22765.17,HEMET VALLEY MEDICAL CENTER
5.96,33.93530,-118.13030,67644.21,DOWNEY REGIONAL MEDICAL CENTER
3.80,41.77451,-124.19400,33610.46,SUTTER COAST HOSPITAL
4.30,32.89810,-117.24217,41501.48,SCRIPPS GREEN HOSPITAL
4.26,33.82557,-117.99493,40854.35,WEST ANAHEIM MEDICAL CENTER
5.14,34.13364,-118.15275,54742.59,HUNTINGTON MEMORIAL HOSPITAL
9.14,37.43436,-122.18013,117787.77,STANFORD HOSPITAL
7.07,37.76421,-122.45716,85166.11,UCSF MEDICAL CENTER
4.26,35.38338,-119.01969,40801.17,SAN JOAQUIN COMMUNITY HOSPITAL
9.65,37.66540,-120.99743,125909.74,DOCTORS MEDICAL CENTER
4.89,34.05336,-118.26558,50857.36,GOOD SAMARITAN HOSPITAL
5.68,34.20285,-118.62962,63254.03,WEST HILLS HOSPITAL & MEDICAL CENTER
5.41,37.69824,-122.08730,58963.95,EDEN MEDICAL CENTER
5.00,34.06389,-118.27347,52464.24,SAINT VINCENT MEDICAL CENTER
6.99,35.29188,-120.66635,83908.94,SIERRA VISTA REGIONAL MEDICAL CENTER
3.64,38.56276,-121.77207,31155.00,SUTTER DAVIS HOSPITAL
3.60,37.48897,-122.22322,30525.54,KAISER FOUNDATION HOSPITAL - REDWOOD CITY
4.96,34.20777,-118.88305,51829.01,LOS ROBLES HOSPITAL & MEDICAL CENTER
5.99,33.80441,-118.06665,68074.00,LOS ALAMITOS MEDICAL CENTER
5.34,33.71466,-117.93322,57908.57,FOUNTAIN VALLEY REGIONAL HOSPITAL & MEDICAL CENTER
3.52,33.84753,-118.03841,29263.00,LA PALMA INTERCOMMUNITY HOSPITAL
4.95,38.46387,-121.41645,51722.33,METHODIST HOSPITAL OF SACRAMENTO
7.77,38.55484,-121.45628,96271.54,UNIVERSITY OF CALIFORNIA DAVIS MEDICAL CENTER
4.48,33.60883,-117.70881,44291.51,SADDLEBACK MEMORIAL MEDICAL CENTER
4.40,35.76216,-119.23889,43118.09,DELANO REGIONAL MEDICAL CENTER
4.70,34.24359,-119.01992,47832.89,ST JOHNS PLEASANT VALLEY HOSPITAL
7.69,34.07664,-118.37955,94985.26,CEDARS-SINAI MEDICAL CENTER
3.25,38.46958,-121.41947,24996.50,KAISER FOUNDATION HOSP SO SACRAMENTO
4.37,33.70167,-117.95566,42640.61,ORANGE COAST MEMORIAL MEDICAL CENTER
6.88,37.03560,-121.57109,82190.71,SAINT LOUISE REGIONAL HOSPITAL
3.43,34.47174,-117.29791,27739.07,DESERT VALLEY HOSPITAL
4.28,35.38506,-119.03992,41133.65,BAKERSFIELD HEART HOSPITAL
6.67,33.78824,-118.14563,78897.58,COMMUNITY HOSPITAL OF LONG BEACH
6.41,34.06760,-118.12291,74761.21,GARFIELD MEDICAL CENTER
4.71,33.95076,-118.34828,48018.60,CENTINELA HOSPITAL MEDICAL CENTER
6.67,34.05723,-118.36025,78829.91,OLYMPIA MEDICAL CENTER
3.68,32.77629,-117.05730,31792.00,ALVARADO HOSPITAL MEDICAL CENTER
7.41,34.17067,-118.53200,90474.38,PROVIDENCE TARZANA MEDICAL CENTER
4.20,40.58532,-122.38702,39984.96,SHASTA REGIONAL MEDICAL CENTER
3.79,40.18134,-105.12769,33460.23,LONGMONT UNITED HOSPITAL
2.67,37.47150,-105.88350,15717.50,SAN LUIS VALLEY REGIONAL MEDICAL CENTER
3.08,40.57315,-105.05741,22253.24,POUDRE VALLEY HOSPITAL
3.83,38.23421,-104.62292,34156.82,CENTURA HEALTH-ST MARY CORWIN MEDICAL CENTER
3.02,37.23629,-107.82578,21343.38,MERCY REGIONAL MEDICAL CENTER
4.00,39.71712,-105.12874,36714.21,CENTURA HEALTH-ST ANTHONY HOSPITAL
3.52,38.28184,-104.61256,29128.94,PARKVIEW MEDICAL CENTER INC
5.07,39.74234,-104.84156,53608.47,UNIVERSITY OF COLORADO HOSPITAL ANSCHUTZ INPATIENT
3.74,40.02615,-105.28391,32703.30,BOULDER COMMUNITY HOSPITAL
2.99,40.41320,-105.05139,20757.77,MCKEE MEDICAL CENTER
3.45,38.86559,-104.82182,28115.69,CENTURA HEALTH-PENROSE ST FRANCIS HEALTH SERVICES
4.64,39.73231,-104.93396,46845.83,ROSE MEDICAL CENTER
4.88,39.65399,-104.98116,50717.84,SWEDISH MEDICAL CENTER
4.01,39.67005,-104.97490,36926.33,CENTURA HEALTH-PORTER ADVENTIST HOSPITAL
3.95,39.84960,-105.01825,36017.08,CENTURA HEALTH-ST ANTHONY NORTH HOSPITAL
4.38,39.52910,-104.87121,42788.76,SKY RIDGE MEDICAL CENTER
3.61,41.77507,-72.69941,30623.78,ST FRANCIS HOSPITAL & MEDICAL CENTER
4.31,41.55959,-73.05941,41615.87,WATERBURY HOSPITAL
4.53,41.05562,-73.55390,45089.47,STAMFORD HOSPITAL
2.99,41.33722,-72.10380,20810.11,LAWRENCE & MEMORIAL HOSPITAL
3.18,41.97762,-72.39127,23850.50,JOHNSON MEMORIAL HOSPITAL
3.47,41.18881,-73.16645,28394.03,BRIDGEPORT HOSPITAL
2.35,41.79153,-73.13382,10745.04,CHARLOTTE HUNGERFORD HOSPITAL
2.89,41.55241,-73.03554,19213.08,SAINT MARYS HOSPITAL
3.12,41.54874,-72.80148,22936.37,MIDSTATE MEDICAL CENTER
3.70,41.03431,-73.63020,32067.50,GREENWICH HOSPITAL ASSOCIATION
2.85,41.21646,-73.06525,18612.00,MILFORD HOSPITAL, INC
2.68,41.71622,-72.22399,15871.20,WINDHAM COMM MEM HOSP & HATCH HOSP
2.91,41.54301,-72.08799,19604.88,WILLIAM W BACKUS HOSPITAL
3.49,41.75412,-72.67927,28717.43,HARTFORD HOSPITAL
2.67,41.78185,-72.52591,15723.79,MANCHESTER MEMORIAL HOSPITAL
3.22,41.20049,-73.20281,24399.94,ST VINCENT'S MEDICAL CENTER
2.89,41.40474,-73.44739,19191.12,DANBURY HOSPITAL
3.26,41.66107,-72.78671,25041.27,HOSPITAL OF CENTRAL CONNECTICUT, THE
2.96,41.73545,-72.79489,20320.81,JOHN DEMPSEY HOSPITAL
3.57,39.74954,-75.56662,30025.43,ST FRANCIS HOSPITAL
2.95,39.15135,-75.52309,20227.03,BAYHEALTH - KENT GENERAL HOSPITAL
2.79,38.64231,-75.60660,17750.60,NANTICOKE MEMORIAL HOSPITAL
3.29,38.77159,-75.14210,25490.08,BEEBE MEDICAL CENTER
5.26,38.90106,-77.05079,56647.28,GEORGE WASHINGTON UNIV HOSPITAL
4.39,38.91770,-77.02193,42920.90,HOWARD UNIVERSITY HOSPITAL
4.71,38.91221,-77.07588,47935.08,GEORGETOWN UNIVERSITY HOSPITAL
3.24,38.93576,-77.10909,24711.59,SIBLEY MEMORIAL HOSPITAL
3.11,38.94397,-76.99040,22669.97,PROVIDENCE HOSPITAL
3.65,38.83504,-76.98388,31247.17,UNITED MEDICAL CENTER
3.76,38.92944,-77.01473,32926.97,WASHINGTON HOSPITAL CENTER
3.63,30.34913,-81.66391,30954.77,SHANDS JACKSONVILLE MEDICAL CENTER
4.51,26.50479,-80.06979,44823.70,BETHESDA MEMORIAL HOSPITAL
4.08,28.52517,-81.37729,38041.08,ORLANDO HEALTH
5.24,25.68309,-80.34038,56325.81,BAPTIST HOSPITAL OF MIAMI INC
5.71,25.78846,-80.21644,63728.80,UNIVERSITY OF MIAMI HOSPITAL
3.37,29.20117,-81.05828,26777.00,HALIFAX HEALTH MEDICAL CENTER
3.28,26.15053,-81.79919,25387.53,NAPLES COMMUNITY HOSPITAL
5.02,25.79143,-80.21250,52844.45,JACKSON MEMORIAL HOSPITAL
2.92,28.83363,-82.33561,19669.18,CITRUS MEMORIAL HOSPITAL
2.87,30.47650,-87.21219,18920.02,SACRED HEART HOSPITAL
3.09,30.15963,-85.64818,22366.00,BAY MEDICAL CENTER
5.92,25.86166,-80.21398,67107.73,NORTH SHORE MEDICAL CENTER
4.75,25.81317,-80.13996,48607.55,MOUNT SINAI MEDICAL CENTER
4.47,26.01867,-80.17981,44219.79,MEMORIAL REGIONAL HOSPITAL
3.30,30.30835,-81.68919,25773.36,ST VINCENT'S MEDICAL CENTER
4.06,27.19837,-80.24306,37761.27,MARTIN MEMORIAL MEDICAL CENTER
3.20,29.04263,-81.31635,24067.68,FLORIDA HOSPITAL DELAND
4.64,28.26092,-82.18802,46834.17,FLORIDA HOSPITAL ZEPHYRHILLS
3.90,26.94042,-82.04094,35177.77,CHARLOTTE REGIONAL MEDICAL CENTER
3.61,28.55140,-81.72120,30537.95,SOUTH LAKE HOSPITAL
3.39,28.13321,-82.75839,27094.96,HELEN ELLIS MEMORIAL HOSPITAL
3.12,29.17594,-82.13898,22898.83,MUNROE REGIONAL MEDICAL CENTER
3.20,28.25431,-82.71447,24168.59,MORTON PLANT NORTH BAY HOSPITAL
3.46,27.78088,-82.65126,28290.97,ST ANTHONY'S HOSPITAL
3.26,29.24333,-81.10760,25023.47,FLORIDA HOSPITAL MEMORIAL MEDICAL CENTER
2.94,27.09043,-82.44499,20051.08,VENICE REGIONAL MEDICAL CENTER
4.88,28.53906,-82.44193,50563.62,BROOKSVILLE REGIONAL HOSPITAL
3.96,26.18711,-80.11941,36209.67,HOLY CROSS HOSPITAL INC
3.86,26.98905,-82.09559,34608.37,PEACE RIVER REGIONAL MEDICAL CENTER
4.59,26.59805,-80.09271,46114.64,JFK MEDICAL CENTER
3.19,28.80659,-81.86906,23943.31,LEESBURG REGIONAL MEDICAL CENTER
3.43,26.27623,-80.12220,27765.81,BROWARD HEALTH NORTH BROWARD MEDICAL CENTER
4.85,30.31525,-81.66398,50098.28,BAPTIST MEDICAL CENTER
3.11,28.33522,-80.72319,22759.91,WUESTHOFF MEDICAL CENTER  ROCKLEDGE
3.47,30.43066,-87.23191,28326.76,BAPTIST HOSPITAL
2.54,27.65832,-80.39307,13712.43,INDIAN RIVER MEDICAL CENTER
3.70,26.61563,-81.65945,32100.31,LEHIGH REGIONAL MEDICAL CENTER
3.42,29.64155,-82.34844,27571.43,SHANDS HOSPITAL AT THE UNIVERSITY OF FLORIDA
3.72,30.27449,-81.40071,32330.00,BAPTIST MEDICAL CENTER  BEACHES
3.06,27.91798,-81.84402,21942.65,BARTOW REGIONAL MEDICAL CENTER
3.50,27.75214,-82.73951,28860.27,PALMS OF PASADENA HOSPITAL
3.51,28.01563,-82.13900,29031.36,SOUTH FLORIDA BAPTIST HOSPITAL
2.66,30.78675,-85.24189,15618.00,JACKSON HOSPITAL
3.24,30.26389,-81.44283,24757.02,MAYO CLINIC
4.60,25.70328,-80.29391,46273.61,SOUTH MIAMI HOSPITAL, INC
4.19,28.06172,-81.95304,39793.88,LAKELAND REGIONAL MEDICAL CENTER
3.88,28.81611,-81.28351,34826.59,CENTRAL FLORIDA REGIONAL HOSPITAL
3.85,27.30187,-82.45428,34331.63,DOCTORS HOSPITAL OF SARASOTA
2.86,27.22739,-81.85108,18742.54,DESOTO MEMORIAL HOSPITAL
3.44,28.36005,-80.62309,27892.68,CAPE CANAVERAL HOSPITAL
5.40,27.80541,-82.72694,58909.54,ST PETERSBURG GENERAL HOSPITAL
4.43,26.26259,-80.20292,43604.22,NORTHWEST MEDICAL CENTER
6.07,25.73195,-80.38580,69358.50,KENDALL REGIONAL MEDICAL CENTER
3.55,28.34805,-82.19963,29701.21,PASCO REGIONAL MEDICAL CENTER
3.94,27.48213,-82.62126,35877.76,BLAKE MEDICAL CENTER
4.75,26.12354,-80.25951,48662.25,WESTSIDE REGIONAL MEDICAL CENTER
3.48,29.64481,-81.69431,28500.70,PUTNAM COMMUNITY MEDICAL CENTER
4.71,27.93259,-82.28759,47931.94,BRANDON REGIONAL HOSPITAL
5.40,27.43392,-80.34350,58899.16,LAWNWOOD REGIONAL MEDICAL CENTER & HEART INSTITUTE
3.86,27.25983,-80.82855,34527.36,RAULERSON HOSPITAL
4.06,26.92138,-80.09708,37684.32,JUPITER MEDICAL CENTER
4.38,28.36128,-82.68883,42796.08,REGIONAL MEDICAL CENTER BAYONET POINT
4.89,26.43709,-80.12728,50807.77,DELRAY MEDICAL CENTER
4.78,27.71350,-82.36512,49072.93,SOUTH BAY HOSPITAL
4.30,27.28861,-80.29431,41489.89,ST LUCIE MEDICAL CENTER
5.06,28.53585,-82.53404,53403.44,OAK HILL HOSPITAL
3.34,28.03957,-82.70875,26305.68,MEASE COUNTRYSIDE HOSPITAL
4.15,26.35614,-80.19956,39194.68,WEST BOCA MEDICAL CENTER
5.30,26.68337,-80.25269,57236.78,PALMS WEST HOSPITAL
4.50,26.01394,-80.30980,44661.98,MEMORIAL HOSPITAL WEST
4.20,25.99079,-80.37333,39955.79,MEMORIAL HOSPITAL MIRAMAR
3.59,26.21388,-81.73257,30340.35,PHYSICIANS REGIONAL MEDICAL CENTER - PINE RIDGE
3.59,26.70181,-80.05055,30273.20,GOOD SAMARITAN MEDICAL CENTER
3.29,26.08155,-80.36449,25572.61,CLEVELAND CLINIC HOSPITAL
3.85,27.38993,-82.43343,34420.28,LAKEWOOD RANCH MEDICAL CENTER
2.95,34.78963,-84.98398,20242.86,HAMILTON MEDICAL CENTER
2.77,32.88710,-84.33393,17344.14,UPSON REGIONAL MEDICAL CENTER
2.89,31.22516,-82.34898,19223.40,SATILLA REGIONAL MEDICAL CENTER
2.95,31.59023,-84.15756,20167.04,PHOEBE PUTNEY MEMORIAL HOSPITAL
3.65,34.24569,-84.49068,31320.87,NORTHSIDE HOSPITAL CHEROKEE
3.67,33.79230,-84.32107,31545.23,EMORY UNIVERSITY HOSPITAL
2.77,33.03204,-85.05781,17412.85,WEST GEORGIA MEDICAL CENTER
2.60,33.60237,-83.84809,14707.03,NEWTON MEDICAL CENTER
3.20,34.51192,-84.92579,24107.67,GORDON HOSPITAL
3.23,32.02825,-81.09977,24591.33,CANDLER HOSPITAL
3.13,33.47096,-81.98176,23081.56,UNIVERSITY HOSPITAL
3.16,34.30335,-83.81737,23541.35,NORTHEAST GEORGIA MEDICAL CENTER, INC
4.28,34.19990,-84.79378,41178.00,CARTERSVILLE MEDICAL CENTER
3.09,33.47091,-81.98988,22379.16,MEDICAL COLLEGE OF GA HOSPITALS AND CLINICS
3.69,33.96770,-84.55011,31866.39,WELLSTAR KENNESTONE HOSPITAL
2.82,33.46767,-82.01807,18087.00,TRINITY HOSPITAL OF AUGUSTA
3.26,31.98515,-81.15475,25104.16,ST JOSEPH'S HOSPITAL - SAVANNAH
2.88,32.06513,-84.25260,19143.54,PHOEBE SUMTER MEDICAL CENTER
3.33,34.26000,-85.17000,26242.51,FLOYD MEDICAL CENTER
3.01,32.61642,-83.63065,21091.48,HOUSTON MEDICAL CENTER
2.89,31.71491,-83.25265,19209.64,DORMINY MEDICAL CENTER
3.11,33.96117,-83.39832,22785.34,ATHENS REGIONAL MEDICAL CENTER
2.81,33.78956,-84.28077,18045.64,DEKALB MEDICAL CENTER
3.44,33.76810,-84.38616,27996.35,EMORY UNIVERSITY HOSPITAL MIDTOWN
4.17,33.75205,-84.38272,39374.27,GRADY MEMORIAL HOSPITAL
3.01,33.90877,-84.35180,21074.52,SAINT JOSEPH'S HOSPITAL OF ATLANTA, INC
3.10,33.68072,-84.00200,22593.12,ROCKDALE MEDICAL CENTER
3.40,31.47069,-83.50473,27252.07,TIFT REGIONAL MEDICAL CENTER
2.59,31.97683,-83.78280,14538.85,CRISP REGIONAL HOSPITAL
3.47,32.83041,-83.63476,28388.23,MEDICAL CENTER OF CENTRAL GEORGIA
2.56,32.59212,-82.34541,14040.64,EMANUEL MEDICAL CENTER
5.01,33.76372,-84.37315,52736.77,ATLANTA MEDICAL CENTER
3.04,30.86250,-83.28630,21645.72,SOUTH GEORGIA MEDICAL CENTER
2.63,31.60200,-81.89172,15194.82,WAYNE MEMORIAL HOSPITAL
3.03,32.20903,-82.37585,21470.70,MEADOWS REGIONAL MEDICAL CENTER
3.76,33.85638,-84.60446,33041.68,WELLSTAR COBB HOSPITAL
2.75,33.08014,-83.23210,17038.83,OCONEE REGIONAL MEDICAL CENTER
3.50,33.90903,-84.35410,28934.26,NORTHSIDE HOSPITAL
3.99,32.84705,-83.61823,36583.67,COLISEUM MEDICAL CENTER
3.57,33.57843,-84.38897,29927.57,SOUTHERN REGIONAL MEDICAL CENTER
4.34,33.48259,-82.09038,42132.25,DOCTORS HOSPITAL
3.26,33.51144,-84.22200,25151.47,HENRY MEDICAL CENTER, INC
5.35,34.06334,-84.31976,58077.37,NORTH FULTON REGIONAL HOSPITAL
3.03,33.45252,-84.50697,21494.07,PIEDMONT FAYETTE HOSPITAL
6.28,33.68000,-84.42685,72728.19,SOUTH FULTON MEDICAL CENTER
2.84,33.70365,-84.14697,18443.69,DEKALB MEDICAL CENTER AT HILLANDALE
2.86,34.06670,-84.17643,18860.55,EMORY JOHNS CREEK HOSPITAL
3.46,21.30780,-157.85505,28264.13,THE QUEENS MEDICAL CENTER
3.10,19.71761,-155.11327,22605.18,HILO MEDICAL CENTER
3.44,21.38095,-157.75759,27963.43,CASTLE MEDICAL CENTER
3.31,21.32239,-157.85662,25879.64,KUAKINI MEDICAL CENTER
3.25,21.36339,-157.89951,25010.92,KAISER FOUNDATION HOSPITAL
3.49,21.98514,-159.36388,28713.95,WILCOX MEMORIAL HOSPITAL
3.76,21.30226,-157.85092,32917.88,STRAUB CLINIC AND HOSPITAL
3.22,21.37080,-158.02746,24524.29,HAWAII MEDICAL CENTER WEST
3.08,43.61218,-116.19234,22213.25,ST LUKES REGIONAL MEDICAL CENTER
2.72,43.55374,-116.57267,16505.42,SAINT ALPHONSUS MEDICAL CENTER - NAMPA
2.80,43.65510,-116.69360,17772.38,WEST VALLEY MEDICAL CENTER
3.01,43.46987,-111.99208,21204.53,EASTERN IDAHO REGIONAL MEDICAL CENTER
3.68,42.06550,-87.68428,31700.82,EVANSTON HOSPITAL
2.91,40.75318,-89.59321,19508.93,PROCTOR HOSPITAL
3.21,39.93563,-91.39833,24267.49,BLESSING HOSPITAL
3.65,41.86011,-87.69571,31320.90,MT SINAI HOSPITAL MEDICAL CENTER
4.18,41.72930,-88.26976,39631.85,COPLEY MEMORIAL HOSPITAL
2.59,39.12680,-88.55059,14558.09,ST ANTHONYS MEMORIAL HOSPITAL
2.90,38.52908,-89.11604,19443.25,ST MARYS HOSPITAL
4.57,40.95560,-90.36618,45809.08,GALESBURG COTTAGE HOSPITAL
3.41,41.80160,-89.69714,27405.68,CGH MEDICAL CENTER
2.75,38.32292,-88.91026,17063.69,GOOD SAMARITAN REGIONAL HLTH CENTER
3.63,41.72636,-87.56727,30851.47,ADVOCATE TRINITY HOSPITAL
3.51,41.89141,-87.77618,29052.42,WEST SUBURBAN MEDICAL CENTER
3.55,42.05624,-87.74012,29738.69,SKOKIE HOSPITAL
3.39,38.90787,-90.17207,27196.07,SAINT ANTHONY'S HEALTH CENTER
3.35,39.80726,-89.64496,26487.10,ST JOHNS HOSPITAL
3.61,41.83195,-87.79266,30604.48,MACNEAL  HOSPITAL
3.54,41.66900,-87.81414,29502.16,PALOS COMMUNITY HOSPITAL
2.96,40.98818,-90.36374,20402.71,ST MARY MEDICAL CENTER
3.87,40.70200,-89.59222,34763.40,SAINT FRANCIS MEDICAL CENTER
4.38,42.37840,-87.83329,42713.83,VISTA MEDICAL CENTER EAST
4.99,41.78829,-87.60485,52434.44,THE UNIVERSITY OF CHICAGO MEDICAL CENTER
3.40,40.13811,-87.64569,27335.00,PROVENA UNITED SAMARITANS MEDCTR-LOGAN
3.38,41.36897,-88.42537,27060.46,MORRIS HOSPITAL & HEALTHCARE CENTERS
3.66,40.11739,-88.22714,31425.84,PROVENA COVENANT MEDICAL CENTER- URBANA
4.43,41.97532,-87.69958,43568.26,SWEDISH COVENANT HOSPITAL
3.48,42.31832,-88.27920,28607.69,CENTEGRA HEALTH SYSTEM - MC HENRY HOSPITAL
3.84,41.80555,-87.92059,34204.65,HINSDALE HOSPITAL
2.70,41.87381,-87.67421,16226.08,JOHN H STROGER JR HOSPITAL
5.21,38.70148,-90.14382,55860.53,GATEWAY REGIONAL MEDICAL CENTER
3.28,40.49639,-88.99106,25473.94,BROMENN HEALTHCARE
3.05,41.76946,-87.69239,21703.60,HOLY CROSS HOSPITAL
5.02,41.86927,-87.67052,52805.18,UNIVERSITY OF ILLINOIS HOSPITAL
4.48,41.12049,-87.87187,44360.44,PROVENA ST MARYS HOSPITAL
2.80,41.84639,-87.62345,17793.01,MERCY HOSPITAL AND MEDICAL CENTER
2.87,42.29592,-89.63773,18946.25,FHN MEMORIAL HOSPITAL
2.68,37.72790,-89.22058,15961.21,MEMORIAL HOSPITAL OF CARBONDALE
3.39,39.82659,-88.93119,27153.81,ST MARYS HOSPITAL
3.72,41.78566,-88.32886,32417.95,PROVENA MERCY MEDICAL CENTER
3.58,42.27597,-88.40019,30097.67,CENTEGRA HEALTH SYSTEM - WOODSTOCK HOSPITAL
3.64,41.72094,-87.69220,31046.85,LITTLE COMPANY OF MARY HOSPITAL
4.27,41.90414,-87.68254,41040.23,ST MARY & ELIZABETH MED CTR-DIVISION CAMPUS
3.21,41.12572,-87.88526,24347.07,RIVERSIDE MEDICAL CENTER
2.86,38.51081,-89.99014,18835.24,ST ELIZABETH HOSPITAL
2.48,39.48849,-88.27581,12862.67,SARAH BUSH LINCOLN HEALTH CENTER
3.86,41.86362,-87.93567,34592.91,ELMHURST MEMORIAL HOSPITAL
3.99,42.27447,-87.95764,36656.86,ADVOCATE CONDELL MEDICAL CENTER
3.45,41.72031,-87.73249,28035.15,ADVOCATE CHRIST HOSPITAL & MEDICAL CENTER
4.01,41.88566,-88.34311,36851.07,DELNOR COMMUNITY HOSPITAL
4.18,42.03576,-88.32575,39634.87,PROVENA - SAINT JOSEPH HOSPITAL
3.39,42.03837,-87.84820,27112.46,ADVOCATE LUTHERAN GENERAL HOSPITAL
3.65,41.93418,-87.63579,31320.40,SAINT JOSEPH HOSPITAL
3.86,42.26584,-89.07428,34595.29,SWEDISH AMERICAN HOSPITAL
3.20,42.26634,-89.00900,24141.92,SAINT ANTHONY MEDICAL CENTER
3.82,42.29844,-89.09897,33948.92,ROCKFORD MEMORIAL HOSPITAL
3.34,41.89166,-87.84838,26365.29,WESTLAKE COMMUNITY HOSPITAL
3.49,41.56720,-87.69566,28711.65,ADVOCATE SOUTH SUBURBAN HOSPITAL
4.17,41.94560,-87.76897,39400.69,OUR LADY OF THE RESURRECTION MED CTR
2.81,41.49581,-90.41871,17981.67,GENESIS MEDICAL CENTER ILLINI CAMPUS
2.54,41.48200,-90.57158,13660.96,TRINITY ROCK ISLAND
3.05,41.96185,-88.72130,21859.69,KISHWAUKEE COMMUNITY HOSPITAL
3.59,41.81791,-88.00907,30287.30,ADVOCATE GOOD SAMARITAN HOSPITAL
3.04,38.73818,-89.94728,21610.49,ANDERSON HOSPITAL
2.92,39.76255,-86.50165,19733.76,HENDRICKS REGIONAL HEALTH
2.96,41.61055,-86.72511,20348.50,INDIANA UNIVERSITY HEALTH LA PORTE HOSPITAL
3.04,40.44665,-86.12707,21678.86,HOWARD REGIONAL HEALTH SYSTEM
3.24,41.63466,-87.44901,24846.84,ST CATHERINE HOSPITAL INC
3.41,40.48720,-86.15548,27431.12,ST JOSEPH HOSPITAL & HEALTH CENTER INC
2.58,40.56435,-85.66576,14366.81,MARION GENERAL HOSPITAL
2.93,41.70639,-86.89936,19958.91,FRANCISCAN ST ANTHONY HEALTH - MICHIGAN CITY
2.77,41.70568,-85.93404,17354.91,ELKHART GENERAL HOSPITAL
3.02,39.94340,-85.36306,21346.69,HENRY COUNTY MEMORIAL HOSPITAL
3.26,41.51266,-87.26125,25074.27,ST MARY MEDICAL CENTER INC
3.69,41.46729,-87.05130,31882.76,PORTER VALPARAISO HOSPITAL
3.59,39.42628,-86.40515,30356.64,INDIANA UNIVERSITY HEALTH MORGAN HOSPITAL INC
3.76,39.79009,-86.16260,32942.39,INDIANA UNIVERSITY HEALTH
3.00,40.04526,-86.02297,21008.68,RIVERVIEW HOSPITAL
2.79,39.65626,-85.13265,17691.57,FAYETTE REGIONAL HEALTH SYSTEM
2.80,38.95542,-85.89223,17851.47,SCHNECK MEDICAL CENTER
3.21,39.78704,-86.07673,24368.31,COMMUNITY HOSPITAL EAST
3.27,37.98293,-87.57072,25238.56,DEACONESS HOSPITAL INC
3.54,39.91001,-86.19660,29558.42,ST VINCENT HOSPITAL & HEALTH SERVICES
2.94,39.11138,-84.88343,20110.94,DEARBORN COUNTY HOSPITAL
3.19,40.09594,-85.68152,24036.18,SAINT JOHN'S HEALTH SYSTEM
3.13,40.19679,-85.41573,23041.16,INDIANA UNIVERSITY HEALTH BALL MEMORIAL HOSPITAL
2.61,40.90491,-85.48821,14902.42,PARKVIEW HUNTINGTON HOSPITAL
3.24,39.52494,-85.78113,24726.94,MAJOR HOSPITAL
3.18,37.96320,-87.50292,23796.54,ST MARY'S MEDICAL CENTER OF EVANSVILLE INC
2.71,40.07620,-86.47506,16372.23,WITHAM HEALTH SERVICES
2.72,39.21585,-85.89683,16602.13,COLUMBUS REGIONAL HOSPITAL
2.33,38.39499,-86.94089,10418.05,MEMORIAL HOSPITAL AND HEALTH CARE CENTER
3.07,39.95930,-86.16016,22019.64,INDIANA UNIVERSITY HEALTH NORTH HOSPITAL
3.36,39.64935,-86.07960,26723.93,FRANCISCAN ST FRANCIS HEALTH - INDIANAPOLIS
3.09,39.90060,-86.04218,22406.16,COMMUNITY HOSPITAL NORTH
3.76,40.40296,-86.80885,32927.11,INDIANA UNIVERSITY HEALTH ARNETT HOSPITAL
2.36,41.69967,-86.17647,10956.07,UNITY MEDICAL AND SURGICAL HOSPITAL
3.17,42.49388,-94.18926,23598.96,TRINITY REGIONAL MEDICAL CENTER
2.99,41.66411,-91.52841,20795.57,MERCY HOSPITAL
2.88,41.54190,-90.55691,19093.45,GENESIS MEDICAL CENTER-DAVENPORT
2.92,41.98570,-91.66093,19733.41,ST LUKES HOSPITAL
2.87,41.26786,-95.83505,18914.47,JENNIE EDMUNDSON HOSPITAL
3.57,41.66092,-91.54800,29925.81,UNIVERSITY OF IOWA HOSPITAL & CLINICS
2.63,43.15063,-93.21718,15227.31,MERCY MEDICAL CENTER-NORTH IOWA
2.84,41.97864,-91.65507,18464.08,MERCY MEDICAL CENTER - CEDAR RAPIDS
2.71,41.86141,-90.18921,16444.18,MERCY MEDICAL CENTER-CLINTON
3.13,41.59886,-93.62344,23060.37,MERCY MEDICAL CENTER-DES MOINES
2.40,41.02751,-92.38994,11598.58,OTTUMWA REGIONAL HEALTH CENTER
2.53,43.14994,-95.14317,13528.20,SPENCER MUNICIPAL HOSPITAL
2.48,42.49632,-90.68587,12750.28,THE FINLEY HOSPITAL
2.71,42.51846,-96.40581,16360.27,ST LUKES REGIONAL MEDICAL CENTER
2.28,41.74325,-92.73450,9647.33,GRINNELL REGIONAL MEDICAL CENTER
3.03,42.49250,-96.39975,21523.07,MERCY MEDICAL CENTER-SIOUX CITY
2.76,38.41149,-96.19524,17143.18,NEWMAN REGIONAL HEALTH
2.84,37.37991,-94.68739,18444.00,VIA CHRISTI HOSPITAL PITTSBURG INC
3.07,38.83324,-97.61028,22052.80,SALINA REGIONAL HEALTH CENTER
3.52,38.87847,-99.29923,29250.50,HAYS MEDICAL CENTER
2.88,39.05660,-95.69599,19109.10,ST FRANCIS HEALTH CENTER INC
3.05,38.85279,-94.82413,21849.19,OLATHE MEDICAL CENTER
2.78,38.02419,-97.33117,17501.13,NEWTON MEDICAL CENTER
4.69,37.69556,-97.29785,47676.64,WESLEY MEDICAL CENTER
2.78,38.97848,-95.24771,17562.96,LAWRENCE MEMORIAL HOSPITAL
3.57,39.12677,-94.78643,29962.86,PROVIDENCE MEDICAL CENTER
2.78,37.78537,-100.01492,17550.09,WESTERN PLAINS MEDICAL COMPLEX
4.77,38.93763,-94.72630,48907.25,OVERLAND PARK REG MED CTR
4.38,38.91047,-94.65205,42765.37,MENORAH MEDICAL CENTER
3.56,38.90355,-94.66966,29756.36,SAINT LUKE'S SOUTH HOSPITAL
2.51,37.73142,-97.26078,13265.53,GALICHIA HEART HOSPITAL LLC
3.32,39.07816,-84.46695,25967.29,ST ELIZABETH FT THOMAS
2.86,38.47021,-82.63498,18721.36,KING'S DAUGHTERS' MEDICAL CENTER
3.37,37.11784,-84.10910,26749.47,SAINT JOSEPH HOSPITAL LONDON
2.67,37.01079,-85.90342,15817.05,T J SAMSON COMMUNITY HOSPITAL
2.75,36.60615,-83.74024,17004.09,MIDDLESBORO APPALACHIAN REGIONAL HEALTHCARE HOSPIT
3.07,36.60798,-88.30957,22127.09,MURRAY-CALLOWAY COUNTY HOSPITAL
3.14,37.27729,-83.22802,23194.72,HAZARD ARH REGIONAL MEDICAL CENTER
3.04,39.06704,-84.49946,21607.84,ST ELIZABETH MEDICAL CENTER NORTH
2.68,37.76518,-87.10197,15922.18,OWENSBORO MEDICAL HEALTH SYSTEM
3.87,37.47264,-82.52605,34790.65,PIKEVILLE MEDICAL CENTER
2.77,37.33959,-87.48988,17298.11,REGIONAL MEDICAL CENTER OF HOPKINS COUNTY
3.24,38.01849,-84.51236,24852.19,CENTRAL BAPTIST HOSPITAL
2.36,36.70006,-85.67862,10911.07,MONROE COUNTY MEDICAL CENTER
3.30,37.08724,-84.61828,25702.91,LAKE CUMBERLAND REGIONAL HOSPITAL
3.31,37.56166,-83.37202,25952.08,KENTUCKY RIVER MEDICAL CENTER
3.34,30.20227,-92.01906,26331.56,LAFAYETTE GENERAL MEDICAL CENTER
3.89,30.00890,-91.79475,35021.15,DAUTERIVE HOSPITAL
3.39,29.59851,-90.71397,27079.95,TERREBONNE GENERAL MEDICAL CENTER
5.00,30.46813,-90.45814,52482.75,NORTH OAKS MEDICAL CENTER, LLC
2.65,30.54354,-92.07608,15406.56,OPELOUSAS GENERAL HEALTH SYSTEM
3.22,31.28258,-92.46060,24432.27,CHRISTUS ST FRANCES CABRINI HOSPITAL
2.91,30.65001,-91.13821,19537.88,LANE REGIONAL MEDICAL CENTER
4.26,31.31451,-92.44997,40887.32,RAPIDES REGIONAL MEDICAL CENTER
3.57,30.28456,-89.77038,29955.84,SLIDELL MEMORIAL HOSPITAL AND MEDICAL CENTER
2.14,30.22762,-92.36253,7406.92,AMERICAN LEGION HOSPITAL
3.37,30.20458,-93.19774,26845.35,LAKE CHARLES MEMORIAL HOSPITAL
2.83,30.40118,-91.11160,18290.88,OUR LADY OF THE LAKE REGIONAL MEDICAL CENTER
2.60,30.45015,-91.15273,14620.29,BATON ROUGE GENERAL MEDICAL CENTER
3.43,32.51544,-92.63343,27848.17,NORTHERN LOUISIANA MEDICAL CENTER
2.57,32.48177,-93.76264,14186.75,LSU HEALTH SCIENCES CENTER - SHREVEPORT
3.35,32.48393,-93.77884,26446.13,WILLIS KNIGHTON MEDICAL CENTER
3.09,32.61700,-93.28566,22336.75,MINDEN MEDICAL CENTER
2.86,30.01438,-90.18155,18822.86,EAST JEFFERSON GENERAL HOSPITAL
2.73,30.68494,-92.26601,16772.31,MERCY REGIONAL MEDICAL CENTER
6.47,29.95570,-90.07587,75697.07,TULANE MEDICAL CENTER
2.81,30.43973,-91.00727,17961.54,OCHSNER MEDICAL CENTER-BATON ROUGE
2.78,44.02611,-69.52811,17518.47,MILES MEMORIAL HOSPITAL (LINCOLN COUNTY HEALTHCARE
2.55,43.65159,-70.26482,13962.46,MERCY HOSPITAL
2.94,43.65325,-70.27533,20009.62,MAINE MEDICAL CENTER
2.77,43.47840,-70.49221,17351.27,SOUTHERN MAINE MEDICAL CENTER
2.66,44.10107,-70.21432,15627.87,CENTRAL MAINE MEDICAL CENTER
2.76,44.10276,-70.20093,17199.56,ST MARYS REGIONAL MEDICAL CENTER
2.84,44.62294,-70.16307,18406.00,FRANKLIN MEMORIAL HOSPITAL
2.72,44.14436,-69.08577,16500.03,PENOBSCOT BAY MEDICAL CENTER
2.25,39.62183,-77.68219,9165.48,MERITUS MEDICAL CENTER
2.72,39.28817,-76.62438,16653.12,UNIVERSITY OF MARYLAND MEDICAL CENTER
2.51,38.93090,-76.92161,13200.20,PRINCE GEORGES HOSPITAL CENTER
2.37,39.01578,-77.03591,11064.34,HOLY CROSS HOSPITAL
2.35,39.42366,-77.41386,10746.76,FREDERICK MEMORIAL HOSPITAL
2.34,39.54345,-76.09153,10653.50,HARFORD MEMORIAL HOSPITAL
2.29,39.38813,-76.61068,9866.95,SAINT JOSEPH MEDICAL CENTER
3.14,39.29688,-76.59242,23181.71,JOHNS HOPKINS HOSPITAL, THE
2.34,39.27352,-76.67219,10519.12,SAINT AGNES HOSPITAL
2.40,39.35262,-76.66196,11464.31,SINAI HOSPITAL OF BALTIMORE
2.33,39.35169,-76.47919,10378.49,FRANKLIN SQUARE HOSPITAL CENTER
2.17,39.41339,-79.40103,7835.82,GARRETT COUNTY MEMORIAL HOSPITAL
2.40,39.15402,-77.05431,11483.37,MONTGOMERY GENERAL HOSPITAL INC
2.25,38.36248,-75.59799,9229.31,PENINSULA REGIONAL MEDICAL CENTER
2.28,38.99014,-76.53398,9688.79,ANNE ARUNDEL MEDICAL CENTER
2.37,39.32930,-76.61432,11003.53,UNION MEMORIAL HOSPITAL
2.19,38.29124,-76.63579,8208.37,SAINT MARY'S HOSPITAL
2.24,39.60859,-75.83201,9019.69,UNION HOSPITAL OF CECIL COUNTY
2.26,39.55808,-76.99107,9387.27,CARROLL HOSPITAL CENTER
2.25,38.52905,-76.97068,9180.34,CIVISTA MEDICAL CENTER
2.31,38.76970,-76.07697,10172.64,MEMORIAL HOSPITAL AT EASTON
2.59,39.29994,-76.62138,14572.12,MARYLAND GENERAL  HOSPITAL
2.24,38.55963,-76.59455,9030.22,CALVERT MEMORIAL HOSPITAL
2.29,39.35852,-76.78208,9792.20,NORTHWEST HOSPITAL CENTER
2.26,39.13732,-76.62228,9305.91,BALTIMORE WASHINGTON  MEDICAL CENTER
2.31,39.21273,-76.88526,10149.81,HOWARD COUNTY GENERAL HOSPITAL
2.13,39.51870,-76.34688,7226.74,UPPER CHESAPEAKE MEDICAL CENTER
2.25,38.74827,-76.87590,9231.38,SOUTHERN MARYLAND HOSPITAL CENTER
2.21,39.35962,-76.58851,8609.21,GOOD SAMARITAN HOSPITAL
2.25,39.09796,-77.19799,9158.39,SHADY GROVE ADVENTIST HOSPITAL
2.09,38.33876,-75.21128,6631.11,ATLANTIC GENERAL HOSPITAL
2.70,42.37441,-71.13378,16225.45,MOUNT AUBURN HOSPITAL
2.85,42.70912,-71.14877,18600.52,LAWRENCE GENERAL HOSPITAL
2.78,42.59584,-72.59255,17465.29,BAYSTATE FRANKLIN MEDICAL CENTER
2.60,42.27872,-71.06625,14650.20,CARNEY HOSPITAL
2.58,42.07708,-72.04298,14344.53,HARRINGTON MEMORIAL HOSPITAL
2.55,41.69217,-71.16474,13885.53,SAINT ANNE'S HOSPITAL
2.42,42.20038,-72.62762,11846.50,HOLYOKE MEDICAL CENTER
2.39,42.81476,-70.89068,11395.11,ANNA JAQUES HOSPITAL
2.50,42.56407,-70.87543,13171.46,BEVERLY HOSPITAL CORPORATION
3.71,42.51078,-70.90712,32132.21,NORTH SHORE MEDICAL CENTER
2.85,42.34896,-71.14768,18556.07,ST ELIZABETH'S MEDICAL CENTER
2.86,42.35375,-71.55485,18730.27,MARLBOROUGH HOSPITAL
2.64,42.70589,-73.10840,15247.20,NORTH ADAMS REGIONAL HOSPITAL
2.59,42.03597,-71.09792,14543.09,SIGNATURE HEALTHCARE BROCKTON HOSPITAL
2.56,41.94445,-70.64511,14076.30,JORDAN HOSPITAL INC
2.83,42.64636,-71.34118,18319.53,LOWELL GENERAL HOSPITAL
2.71,42.46049,-71.06203,16491.23,HALLMARK HEALTH SYSTEM
4.73,42.36227,-71.06941,48295.77,MASSACHUSETTS GENERAL HOSPITAL
2.47,41.90456,-71.09562,12690.38,MORTON HOSPITAL
2.76,41.70928,-71.14519,17141.87,SOUTHCOAST HOSPITAL GROUP, INC
2.88,42.12077,-72.60525,19043.96,BAYSTATE MEDICAL CENTER
2.64,42.72846,-71.16830,15368.97,HOLY FAMILY HOSPITAL
2.55,42.64529,-71.30052,13830.86,SAINTS  MEDICAL CENTER INC
2.83,42.43082,-71.37554,18383.20,EMERSON HOSPITAL
2.79,42.17644,-70.95398,17628.31,SOUTH SHORE HOSPITAL
2.69,42.25232,-71.07515,16092.89,MILTON HOSPITAL INC
4.37,42.33600,-71.10704,42633.83,BRIGHAM AND WOMEN'S HOSPITAL
2.39,42.09864,-71.06607,11378.78,GOOD SAMARITAN MEDICAL CENTER
3.28,42.34951,-71.06331,25461.52,TUFTS MEDICAL CENTER
2.53,42.18869,-71.20197,13594.67,NORWOOD HOSPITAL
2.55,41.56412,-70.62200,13960.98,FALMOUTH HOSPITAL
2.52,42.76256,-71.04507,13441.53,MERRIMACK VALLEY HOSPITAL
2.74,42.28385,-71.41896,16872.60,METROWEST MEDICAL CENTER
2.38,43.20588,-86.20839,11258.37,MERCY HEALTH PARTNERS, MERCY CAMPUS
3.25,42.45741,-83.20513,24956.64,PROVIDENCE HOSPITAL AND MEDICAL CENTERS
3.12,42.29077,-83.21504,22958.29,OAKWOOD HOSPITAL AND MEDICAL CENTER
2.47,41.93815,-84.98935,12611.95,COMMUNITY HEALTH CENTER OF BRANCH COUNTY
2.94,42.61425,-83.27602,20082.51,ST JOSEPH MERCY OAKLAND
2.42,43.17554,-85.26879,11913.00,SPECTRUM HEALTH UNITED MEMORIAL - UNITED CAMPUS
2.66,42.96881,-85.66649,15623.37,SPECTRUM HEALTH - BUTTERWORTH CAMPUS
2.33,42.64303,-85.30706,10387.16,PENNOCK HOSPITAL
3.10,43.58941,-83.86908,22627.34,MCLAREN BAY REGION
2.68,42.61490,-82.96060,15929.23,HENRY FORD MACOMB HOSPITAL
3.84,42.36762,-83.08461,34296.88,HENRY FORD HOSPITAL
2.40,43.22169,-86.24283,11460.68,MERCY HEALTH PARTNERS, HACKLEY CAMPUS
2.83,43.42857,-83.95556,18345.76,COVENANT MEDICAL CENTER, INC
2.44,42.77487,-86.11378,12222.74,HOLLAND COMMUNITY HOSPITAL
2.61,42.33111,-85.17817,14806.10,BRONSON BATTLE CREEK HOSPITAL
3.56,43.42612,-83.94185,29772.36,ST MARY'S OF MICHIGAN MEDICAL CENTER
2.65,43.59935,-84.76097,15415.44,CENTRAL MICHIGAN COMMUNITY HOSPITAL
3.04,42.25117,-84.39240,21578.06,ALLEGIANCE HEALTH
2.11,43.69399,-85.47533,7024.08,MECOSTA COUNTY MEDICAL CENTER
2.59,43.46517,-85.95072,14575.62,SPECTRUM HEALTH GERBER MEMORIAL
2.51,43.95934,-86.42921,13313.79,MEMORIAL MEDICAL CENTER OF WEST MICHIGAN
3.00,43.00546,-84.18145,21047.14,MEMORIAL HEALTHCARE
3.59,43.02135,-83.70308,30289.39,HURLEY MEDICAL CENTER
2.71,42.21065,-83.14861,16374.55,HENRY FORD WYANDOTTE HOSPITAL
3.31,42.70417,-84.55488,25941.75,MCLAREN - GREATER LANSING
3.16,42.11695,-83.21365,23469.19,OAKWOOD SOUTHSHORE MEDICAL CENTER
2.82,42.89254,-83.63621,18216.60,GENESYS REGIONAL MEDICAL CENTER - HEALTH PARK
2.79,42.63849,-83.29062,17616.94,MCLAREN OAKLAND
2.30,43.17597,-84.84268,9962.67,CARSON CITY HOSPITAL
2.85,42.98625,-82.42802,18684.71,PORT HURON HOSPITAL
2.45,46.43131,-84.28107,12397.20,CHIPPEWA COUNTY WAR MEMORIAL HOSPITAL
2.56,42.33215,-83.31195,14096.82,GARDEN CITY HOSPITAL
2.87,42.67850,-83.14771,19000.00,CRITTENTON HOSPITAL MEDICAL CENTER
2.74,42.31028,-84.01594,16840.44,CHELSEA COMMUNITY HOSPITAL
3.28,42.61826,-83.09239,25331.34,WILLIAM BEAUMONT HOSPITAL-TROY
4.19,42.35295,-83.05447,39802.49,DETROIT RECEIVING HOSPITAL & UNIV HEALTH CENTER
2.87,42.59290,-83.49920,18902.71,HURON VALLEY-SINAI HOSPITAL
3.35,42.53914,-83.40777,26578.78,HENRY FORD WEST BLOOMFIELD HOSPITAL
2.97,46.79380,-92.09573,20460.73,ESSENTIA HEALTH ST MARY'S MEDICAL CENTER
3.93,44.97210,-93.26240,35677.86,HENNEPIN COUNTY MEDICAL CENTER
3.17,45.57390,-94.16942,23624.25,ST CLOUD HOSPITAL
2.49,47.41117,-92.93183,12936.58,UNIVERSITY MEDICAL CENTER-MESABI/ MESABA CLINICS
2.37,46.79634,-92.08793,11036.72,ST LUKES HOSPITAL
2.65,46.27712,-96.07244,15475.70,LAKE REGION HEALTHCARE CORPORATION
3.78,44.95248,-93.26196,33238.41,ABBOTT NORTHWESTERN HOSPITAL
2.71,46.36166,-94.20573,16487.81,ESSENTIA HEALTH ST JOSEPH'S MEDICAL CENTER
3.11,44.88645,-93.32693,22720.79,FAIRVIEW SOUTHDALE HOSPITAL
2.51,47.53102,-92.55580,13320.93,VIRGINIA REGIONAL MEDICAL CENTER
3.33,44.77252,-93.50323,26250.18,ST FRANCIS REGIONAL MEDICAL CENTER
3.49,44.95570,-93.09429,28671.06,REGIONS HOSPITAL
3.55,45.18355,-93.36789,29674.90,MERCY HOSPITAL
3.32,45.10789,-93.25685,26079.79,UNITY HOSPITAL
2.67,43.63765,-94.44962,15741.75,MAYO CLINIC HEALTH SYSTEM - FAIRMONT
3.46,44.74846,-93.27289,28264.63,FAIRVIEW RIDGES HOSPITAL
2.63,34.80355,-88.20905,15081.00,TISHOMINGO HEALTH SERVICES INC
2.91,34.24336,-88.71753,19595.95,NORTH MISSISSIPPI MEDICAL CENTER
3.12,33.97458,-88.47761,22925.74,GILMORE MEMORIAL HOSPITAL
2.83,34.34899,-89.52062,18304.43,BAPTIST MEMORIAL HOSPITAL NORTH MS
2.16,31.14529,-90.45945,7689.15,BEACHAM MEMORIAL HOSPITAL
2.62,33.47600,-88.82100,15054.17,OCH REGIONAL MEDICAL CENTER
2.48,31.57544,-90.45670,12796.67,KING'S DAUGHTERS MEDICAL CENTER-BROOKHAVEN
4.27,32.28805,-90.25566,40945.74,CENTRAL MISSISSIPPI MEDICAL CENTER
3.32,33.74750,-90.71908,26025.67,BOLIVAR MEDICAL CENTER
2.51,31.24000,-90.45000,13249.33,SOUTHWEST MS REGIONAL MEDICAL CENTER
3.03,33.51824,-90.19832,21515.98,GREENWOOD LEFLORE HOSPITAL
3.18,33.52568,-88.42742,23871.19,BAPTIST MEM HOSP/GOLDEN TRIANGLE INC
3.19,32.31643,-90.17922,23911.03,MISSISSIPPI BAPTIST MEDICAL CENTER
2.81,32.37280,-88.69954,17952.00,ANDERSON REGIONAL MEDICAL CENTER
3.90,31.56044,-91.40317,35132.67,NATCHEZ COMMUNITY HOSPITAL/SWING BED
3.10,37.06032,-94.52747,22580.60,ST JOHN'S REGIONAL MEDICAL CENTER
2.96,36.23658,-90.04315,20395.07,TWIN RIVERS REGIONAL MEDICAL CENTER
3.10,37.95144,-91.75940,22494.54,PHELPS COUNTY REGIONAL MEDICAL CENTER
3.62,40.19296,-92.59085,30806.58,NORTHEAST REGIONAL MEDICAL CENTER
2.52,38.16498,-90.38082,13435.97,JEFFERSON REGIONAL MEDICAL CENTER
2.57,39.71116,-91.45071,14202.22,HANNIBAL REGIONAL HOSPITAL
5.51,39.00717,-94.55925,60523.55,RESEARCH MEDICAL CENTER
3.12,38.63524,-90.26508,22953.77,BARNES JEWISH HOSPITAL
3.45,39.08401,-94.57591,28046.57,TRUMAN MEDICAL CENTER HOSPITAL HILL
2.45,37.68142,-92.63587,12353.08,ST JOHNS HOSPITAL-LEBANON
2.65,39.17288,-91.87692,15468.36,AUDRAIN MEDICAL CENTER
3.04,37.17999,-93.27409,21664.15,ST JOHN'S REGIONAL HEALTH CENTER
2.82,38.94903,-92.31563,18098.93,BOONE HOSPITAL CENTER
2.78,38.50661,-90.38025,17578.43,ST ANTHONY'S MEDICAL CENTER
2.71,36.73801,-91.87553,16394.00,OZARKS MEDICAL CENTER
3.46,38.63268,-90.31089,28264.77,SSM ST MARYS HEALTH CENTER
2.75,36.64970,-93.22138,17091.27,SKAGGS REGIONAL MEDICAL CENTER
4.60,39.04749,-94.34105,46281.85,CENTERPOINT MEDICAL CENTER OF INDEPENDENCE, LLC
3.87,38.75097,-90.43255,34689.64,SSM DEPAUL HEALTH CENTER
4.09,38.62280,-90.24049,38156.68,ST LOUIS UNIVERSITY HOSPITAL
3.22,37.31072,-89.53990,24472.70,SOUTHEAST MISSOURI HOSPITAL
2.45,38.19579,-91.16917,12289.00,MISSOURI BAPTIST HOSPITAL SULLIVAN
3.67,36.78510,-90.42779,31632.98,POPLAR BLUFF REGIONAL MEDICAL CENTER
3.15,37.05238,-94.52777,23396.81,FREEMAN HEALTH SYSTEM - FREEMAN WEST
4.35,39.04761,-94.59037,42286.20,ST LUKES HOSPITAL OF KANSAS CITY
3.49,38.95171,-92.33407,28725.28,UNIVERSITY OF MISSOURI HEALTH CARE
2.37,37.78031,-90.43967,11059.00,PARKLAND HEALTH CENTER
2.83,39.27591,-94.42572,18314.63,LIBERTY HOSPITAL
3.36,38.77576,-90.23906,26669.09,CHRISTIAN HOSPITAL NORTHEAST
3.29,38.12027,-92.68146,25603.98,LAKE REGIONAL HEALTH SYSTEM
3.66,38.90359,-94.33308,31475.53,LEE'S SUMMIT MEDICAL CENTER
2.65,38.79427,-90.58049,15545.62,BARNES-JEWISH ST PETERS HOSPITAL
2.73,37.60022,-93.42237,16762.32,CITIZENS MEMORIAL HOSPITAL
3.98,38.94062,-94.37842,36472.78,SAINT LUKE'S EAST LEE'S SUMMIT HOSPITAL
2.48,46.58297,-111.99684,12774.07,ST PETER'S HOSPITAL
2.97,46.00924,-112.54613,20557.24,ST JAMES HEALTHCARE
3.70,40.70646,-99.08136,32089.42,GOOD SAMARITAN HOSPITAL
3.74,41.25522,-95.97892,32678.16,THE NEBRASKA MEDICAL CENTER
3.11,40.80816,-96.62689,22793.13,SAINT ELIZABETH REGIONAL MEDICAL CENTER
2.95,40.92425,-98.37053,20132.25,ST FRANCIS MEDICAL CENTER
5.20,41.26509,-95.95494,55660.45,CREIGHTON UNIVERSITY MEDICAL CENTER - SAINT JOSEPH
2.76,40.59160,-98.38755,17240.96,MARY LANNING MEMORIAL HOSPITAL
3.07,41.25797,-96.04164,22050.25,THE NEBRASKA METHODIST HOSPITAL
3.07,41.88690,-103.66400,22056.64,REGIONAL WEST MEDICAL CENTER
2.96,41.12081,-100.77062,20299.17,GREAT PLAINS REGIONAL MEDICAL CENTER
2.88,41.45152,-96.49184,19111.57,FREMONT AREA MEDICAL CENTER
2.70,41.45328,-97.38382,16201.85,COLUMBUS COMMUNITY HOSPITAL
3.03,42.03257,-97.45100,21450.56,FAITH REGIONAL HEALTH SERVICES
3.53,41.23771,-96.18052,29387.61,ALEGENT HEALTH LAKESIDE HOSPITAL
5.57,36.13459,-115.13576,61465.58,SUNRISE HOSPITAL AND MEDICAL CENTER
3.55,39.53066,-119.82067,29647.07,SAINT MARY'S REGIONAL MEDICAL CENTER
3.44,39.20247,-119.78446,27915.84,CARSON TAHOE REGIONAL MEDICAL CENTER
5.95,36.16380,-115.16574,67582.35,VALLEY HOSPITAL MEDICAL CENTER
4.34,39.54241,-119.69736,42165.00,NORTHERN NEVADA MEDICAL CENTER
4.84,36.21599,-115.25095,49965.48,MOUNTAINVIEW HOSPITAL
4.65,36.16586,-115.32436,47041.72,SUMMERLIN HOSPITAL MEDICAL CENTER
4.56,36.00527,-115.11618,45543.06,SAINT ROSE DOMINICAN HOSPITAL - SIENA CAMPUS
6.09,36.28588,-115.28772,69783.36,CENTENNIAL HILLS HOSPITAL MEDICAL CENTER
2.99,43.19846,-71.56230,20840.06,CONCORD HOSPITAL
3.56,43.67286,-72.27232,29763.50,MARY HITCHCOCK MEMORIAL HOSPITAL
3.10,43.52835,-71.46291,22595.42,LAKES REGION GENERAL HOSPITAL
2.94,42.75004,-71.48100,20108.49,ST JOSEPH HOSPITAL
2.78,43.00792,-71.46807,17530.95,ELLIOT HOSPITAL
2.95,43.21231,-70.87499,20252.42,WENTWORTH-DOUGLASS HOSPITAL
2.68,42.94925,-72.28978,15947.46,CHESHIRE MEDICAL CENTER
2.90,42.75623,-71.46059,19423.32,SOUTHERN NH MEDICAL CENTER
2.77,42.98369,-70.93511,17442.17,EXETER HOSPITAL INC
3.49,43.06469,-70.78916,28660.38,PORTSMOUTH REGIONAL HOSPITAL
5.56,40.88346,-74.05564,61402.91,HACKENSACK UNIVERSITY MEDICAL CENTER
6.44,40.71011,-74.21368,75203.22,NEWARK BETH ISRAEL MEDICAL CENTER
5.12,40.79576,-73.99575,54441.42,PALISADES MEDICAL CTR-NY PRESBYTERIAN HEALTHCARE S
3.39,40.53142,-74.86080,27204.58,HUNTERDON MEDICAL CENTER
4.18,40.88275,-74.01021,39522.58,HOLY NAME MEDICAL CENTER
4.24,40.35684,-74.66166,40554.50,UNIVERSITY MEDICAL CENTER AT PRINCETON
3.31,39.08752,-74.81657,25922.90,CAPE REGIONAL MEDICAL CENTER INC
3.91,40.98359,-74.10047,35410.48,VALLEY HOSPITAL
5.71,39.94152,-75.11680,63711.45,COOPER UNIVERSITY HOSPITAL
4.26,40.78883,-74.46620,40812.29,MORRISTOWN MEMORIAL HOSPITAL
7.09,40.73417,-74.04977,85469.81,CHRIST HOSPITAL
7.02,40.21634,-74.74143,84329.00,ST FRANCIS MEDICAL CENTER
5.37,39.78261,-74.91670,58288.81,VIRTUA WEST JERSEY HOSPITALS BERLIN
6.91,40.61288,-74.29092,82635.00,ROBERT WOOD JOHNSON UNIVERSITY HOSPITAL AT RAHWAY
12.00,40.66805,-74.11334,162922.50,BAYONNE HOSPITAL CENTER
5.39,39.44743,-75.05838,58669.55,SOUTH JERSEY HEALTHCARE REGIONAL MEDICAL CENTER
5.47,40.35309,-74.06484,59902.83,RIVERVIEW MEDICAL CENTER
5.38,40.51891,-74.28183,58564.77,RARITAN BAY MEDICAL CENTER
5.30,40.90400,-73.96847,57268.68,ENGLEWOOD HOSPITAL AND MEDICAL CENTER
4.89,40.89538,-74.46479,50809.84,SAINT CLARE'S HOSPITAL
4.03,40.71264,-74.35460,37183.72,OVERLOOK HOSPITAL
4.84,40.07832,-74.13009,49962.78,OCEAN MEDICAL CENTER
4.61,40.81058,-74.20459,46383.34,MOUNTAINSIDE HOSPITAL
5.05,40.04632,-74.88059,53305.21,LOURDES MEDICAL CENTER OF BURLINGTON COUNTY
6.62,39.35775,-74.43449,78089.39,ATLANTICARE REGIONAL MEDICAL CENTER - CITY DIV
5.43,40.76190,-74.30335,59324.96,SAINT BARNABAS MEDICAL CENTER
4.87,40.75402,-74.21335,50481.58,EAST ORANGE GENERAL HOSPITAL
5.56,40.07503,-74.21832,61380.13,KIMBALL MEDICAL CENTER
8.52,40.23629,-74.75256,108099.55,CAPITAL HEALTH SYSTEM-FULD CAMPUS
4.94,40.55784,-74.34970,51652.66,JFK MEDICAL CTR - ANTHONY M. YELENCSICS COMMUNITY
5.09,40.21575,-74.67273,53931.51,ROBERT WOOD JOHNSON UNIVERSITY HOSPITAL HAMILTON
3.19,35.65960,-105.94578,23996.98,ST VINCENT HOSPITAL
3.22,36.72387,-108.21749,24499.09,SAN JUAN REGIONAL MEDICAL CENTER
3.76,33.42340,-104.52748,33009.62,EASTERN NEW MEXICO MEDICAL CENTER
4.01,32.76065,-103.18088,36881.95,LEA REGIONAL MEDICAL CENTER
3.27,32.32310,-106.72900,25187.94,MOUNTAIN VIEW REGIONAL MEDICAL CENTER
3.65,41.92720,-73.99535,31281.70,KINGSTON HOSPITAL
3.22,42.87482,-78.84942,24393.71,KALEIDA HEALTH
2.97,40.92963,-73.89840,20458.42,ST JOSEPH'S MEDICAL CENTER
2.35,42.09299,-75.93704,10699.66,OUR LADY OF LOURDES MEMORIAL HOSPITAL, INC
5.25,42.65345,-73.77543,56421.52,ALBANY MEDICAL CENTER HOSPITAL
2.78,40.70141,-73.81630,17529.69,JAMAICA HOSPITAL MEDICAL CENTER
4.19,41.69441,-73.93432,39741.33,VASSAR BROTHERS MEDICAL CENTER
3.91,40.79041,-73.95386,35342.65,MOUNT SINAI HOSPITAL
3.24,40.72548,-73.55287,24851.04,NASSAU UNIVERSITY MEDICAL CENTER
4.13,40.63588,-74.10556,38775.61,RICHMOND UNIVERSITY MEDICAL CENTER
2.95,43.09840,-75.27819,20194.91,FAXTON-ST LUKE'S HEALTHCARE
4.82,40.80556,-73.96131,49756.80,ST LUKE'S ROOSEVELT HOSPITAL
2.74,42.95425,-74.21527,16834.81,ST MARY'S HOSPITAL AT AMSTERDAM
2.17,43.22352,-78.39720,7962.55,MEDINA MEMORIAL HOSPITAL
3.65,40.74722,-73.82521,31242.00,NEW YORK HOSPITAL MEDICAL CENTER OF QUEENS
3.54,40.68983,-73.97794,29534.61,BROOKLYN HOSPITAL CENTER AT DOWNTOWN CAMPUS
3.27,42.65583,-73.80372,25176.30,ST PETER'S HOSPITAL
5.78,41.71846,-73.92710,64825.29,ST FRANCIS HOSPITAL
2.25,44.85685,-74.29199,9104.67,ALICE HYDE MEDICAL CENTER
2.33,42.45748,-75.05244,10380.85,AURELIA OSBORN FOX MEMORIAL HOSPITAL
2.76,42.10076,-76.82800,17213.73,ARNOT OGDEN MEDICAL CENTER
2.63,42.24595,-73.77855,15140.62,COLUMBIA MEMORIAL HOSPITAL
3.94,41.09642,-73.92501,35802.31,NYACK HOSPITAL
4.96,40.77686,-73.70212,51843.98,NORTH SHORE UNIVERSITY HOSPITAL
3.69,40.93376,-72.67383,31835.64,PECONIC BAY MEDICAL CENTER
2.87,43.19244,-77.58590,18909.16,ROCHESTER GENERAL HOSPITAL
4.57,41.44138,-74.36821,45780.07,ORANGE REGIONAL MEDICAL CENTER
4.56,41.36763,-74.68150,45588.29,BON SECOURS COMMUNITY HOSPITAL
2.46,43.05571,-76.14981,12507.79,ST JOSEPH'S HOSPITAL HEALTH CENTER
5.58,40.78000,-72.97763,61703.78,BROOKHAVEN MEMORIAL HOSPITAL MEDICAL CENTER
3.16,42.81963,-73.91653,23577.53,ELLIS HOSPITAL
3.08,41.19677,-73.72572,22198.12,NORTHERN WESTCHESTER HOSPITAL
2.30,43.13562,-77.60602,10013.29,HIGHLAND HOSPITAL
4.35,40.73265,-73.98162,42245.71,BETH ISRAEL MEDICAL CENTER
2.60,42.73354,-73.67249,14702.58,SAMARITAN HOSPITAL
4.18,40.80462,-73.67023,39625.20,ST FRANCIS HOSPITAL, ROSLYN
2.90,40.91276,-73.78720,19450.00,SOUND SHORE MEDICAL CENTER OF WESTSCHESTER
2.56,43.30652,-73.64663,14048.18,GLENS FALLS HOSPITAL
3.08,40.75543,-73.81532,22302.94,FLUSHING HOSPITAL MEDICAL CENTER
4.96,40.75332,-73.70899,51947.87,LONG ISLAND JEWISH MEDICAL CENTER
2.45,44.67677,-74.98237,12241.19,CANTON-POTSDAM HOSPITAL
4.12,40.65189,-73.63096,38704.34,SOUTH NASSAU COMMUNITIES HOSPITAL
4.06,40.65957,-73.93378,37713.48,KINGSBROOK JEWISH MEDICAL CENTER
3.41,40.96967,-73.88447,27536.43,ST JOHN'S RIVERSIDE HOSPITAL
2.35,43.79534,-75.49925,10727.27,LEWIS COUNTY GENERAL HOSPITAL
4.80,40.74335,-73.97408,49444.61,NYU HOSPITALS CENTER
3.17,42.92531,-78.83111,23701.85,ERIE COUNTY MEDICAL CENTER
3.81,40.70419,-73.91754,33731.21,WYCKOFF HEIGHTS MEDICAL CENTER
2.90,43.08561,-73.79712,19382.62,SARATOGA HOSPITAL
3.36,40.59411,-73.65106,26609.17,LONG BEACH MEDICAL CENTER
2.40,43.19054,-77.70177,11473.76,UNITY HOSPITAL OF ROCHESTER
3.13,40.71730,-73.80353,23037.93,QUEENS HOSPITAL CENTER
3.38,42.74285,-73.67673,26976.68,SETON HEALTH SYSTEM-ST MARY'S CAMPUS
3.27,40.65533,-73.91221,25309.55,BROOKDALE HOSPITAL MEDICAL CENTER
7.62,41.08773,-73.80395,93843.36,WESTCHESTER MEDICAL CENTER
2.84,42.94136,-76.56474,18487.42,AUBURN COMMUNITY HOSPITAL
3.52,40.66762,-73.97850,29224.69,NEW YORK METHODIST HOSPITAL
2.40,42.08997,-79.23058,11529.37,WOMAN'S CHRISTIAN ASSOCIATION
3.26,40.81477,-73.94027,25168.46,HARLEM HOSPITAL CENTER
3.84,43.04269,-76.14043,34220.64,UNIVERSITY HOSPITAL S U N Y HEALTH SCIENCE CENTER
4.10,41.10880,-73.86355,38295.36,PHELPS MEMORIAL HOSPITAL ASSN
3.96,41.50307,-74.01517,36098.77,ST LUKE'S CORNWALL HOSPITAL
4.01,41.38421,-73.66323,36934.06,PUTNAM HOSPITAL CENTER
2.75,42.84782,-78.81264,17027.07,MERCY HOSPITAL
4.45,40.69327,-73.29412,43895.65,GOOD SAMARITAN HOSPITAL MEDICAL CENTER
2.94,40.64666,-74.02049,20055.27,LUTHERAN MEDICAL CENTER
2.35,42.47286,-76.53849,10757.73,CAYUGA MEDICAL CENTER AT ITHACA
3.06,40.83778,-73.85417,21908.14,NEW YORK WESTCHESTER SQUARE MEDICAL CENTER
3.83,40.72593,-73.47844,34122.41,ST JOSEPH HOSPITAL
4.20,40.88512,-72.38030,39937.83,SOUTHAMPTON HOSPITAL
3.29,40.65508,-73.94521,25503.60,UNIVERSITY HOSPITAL OF BROOKLYN ( DOWNSTATE )
2.74,42.11422,-75.95851,16899.03,UNITED HEALTH SERVICES HOSPITALS, INC
3.93,40.59803,-73.75296,35636.19,ST JOHN'S EPISCOPAL HOSPITAL AT SOUTH SHORE
4.65,40.85738,-73.18681,47031.03,ST CATHERINE OF SIENA HOSPITAL
2.89,35.57658,-82.54922,19276.09,MEMORIAL MISSION HOSPITAL AND ASHEVILLE SURGERY CE
3.01,35.95000,-80.00000,21114.91,HIGH POINT REGIONAL HOSPITAL
3.16,34.75124,-79.46789,23558.26,SCOTLAND MEMORIAL HOSPITAL
2.69,36.07581,-80.29779,16031.13,FORSYTH MEMORIAL HOSPITAL
2.68,35.68172,-80.47072,15939.08,ROWAN REGIONAL MEDICAL CENTER
2.51,35.32080,-82.46812,13292.22,MARGARET R PARDEE MEMORIAL HOSPITAL
3.03,35.30288,-81.53571,21416.43,CLEVELAND REGIONAL MEDICAL CENTER
2.80,35.29053,-77.58307,17890.27,LENOIR MEMORIAL HOSPITAL
3.76,36.00850,-78.94006,33053.17,DUKE UNIVERSITY HOSPITAL
2.81,36.09904,-78.30111,17954.36,FRANKLIN REGIONAL MEDICAL CENTER
2.71,35.24106,-81.35660,16353.75,KINGS MOUNTAIN HOSPITAL INC
2.33,35.54918,-77.03985,10356.75,BEAUFORT COUNTY MEDICAL CENTER
3.33,35.79986,-80.87863,26246.25,IREDELL MEMORIAL HOSPITAL INC
3.69,35.60726,-77.40477,31844.78,PITT COUNTY MEMORIAL HOSPITAL
2.57,35.91058,-81.53512,14181.32,CALDWELL MEMORIAL HOSPITAL
3.23,34.76273,-77.38582,24601.41,ONSLOW MEMORIAL HOSPITAL
3.23,36.09062,-80.27161,24547.78,NORTH CAROLINA BAPTIST HOSPITAL
3.38,35.22196,-80.83287,27026.39,PRESBYTERIAN HOSPITAL
2.96,35.90529,-79.04963,20424.56,UNIVERSITY OF NORTH CAROLINA HOSPITAL
2.86,34.33747,-78.69425,18862.47,COLUMBUS REGIONAL HEALTHCARE SYSTEM
3.40,35.78523,-78.58836,27289.98,WAKEMED, RALEIGH CAMPUS
2.49,36.06347,-79.50208,12918.09,ALAMANCE REGIONAL MEDICAL CENTER
2.69,35.88264,-80.08199,16048.47,THOMASVILLE MEDICAL CENTER
2.45,35.66344,-82.02770,12290.55,THE MCDOWELL HOSPITAL
2.78,36.09251,-79.78855,17527.10,MOSES H CONE MEMORIAL HOSPITAL, THE
3.25,35.21029,-80.82084,24904.23,CAROLINAS MED CENTER-MERCY
2.94,36.28555,-76.99489,19981.54,ROANOKE CHOWAN HOSPITAL
3.43,34.90228,-79.71125,27772.75,SANDHILLS REGIONAL MEDICAL CENTER
2.95,36.32690,-76.22370,20234.00,ALBEMARLE HOSPITAL AUTHORITY
2.91,35.36457,-80.19450,19598.35,STANLY REGIONAL MEDICAL CENTER
2.93,34.96500,-77.96165,19842.36,DUPLIN GENERAL HOSPITAL
2.67,35.71177,-79.81489,15769.25,RANDOLPH HOSPITAL
3.08,35.71850,-77.94518,22247.95,WILSON MEDICAL CENTER
3.41,35.54775,-80.85563,27416.75,LAKE NORMAN REGIONAL MEDICAL CENTER
2.62,34.97382,-80.52250,14981.04,CAROLINAS MEDICAL CENTER-UNION
2.88,36.32959,-78.39916,19033.97,MARIA PARHAM MEDICAL CENTER
3.35,35.83976,-77.07310,26590.00,MARTIN GENERAL HOSPITAL
2.51,34.72615,-76.75452,13192.12,CARTERET GENERAL HOSPITAL
2.94,35.71664,-81.26661,20086.79,CATAWBA VALLEY MEDICAL CENTER
2.58,36.43295,-77.64729,14355.96,HALIFAX REGIONAL MEDICAL CENTER INC
3.14,36.04960,-78.90617,23241.56,DURHAM REGIONAL HOSPITAL
3.16,34.00906,-78.28992,23501.44,BRUNSWICK COMMUNITY HOSPITAL
2.86,35.11432,-80.71971,18753.20,PRESBYTERIAN HOSPITAL MATTHEWS
2.61,35.40634,-80.86005,14865.61,PRESBYTERIAN HOSPITAL HUNTERSVILLE
2.42,35.52586,-82.94351,11860.96,MEDWEST HAYWOOD
2.62,46.80739,-100.77773,15039.53,ST ALEXIUS MEDICAL CENTER
2.62,48.23258,-101.28843,14923.04,TRINITY HOSPITALS
2.78,46.88496,-96.78609,17524.21,SANFORD MEDICAL CENTER FARGO
2.47,46.80798,-100.78229,12559.46,MEDCENTER ONE
2.63,47.91045,-97.06742,15174.28,ALTRU HOSPITAL
2.71,46.83250,-96.82805,16351.31,ESSENTIA HEALTH-FARGO
2.86,39.08582,-84.34886,18819.76,MERCY HOSPITAL ANDERSON
2.33,40.85871,-82.31023,10431.67,SAMARITAN HOSPITAL - PEOPLES HOSPITAL
3.33,39.13707,-84.50392,26178.89,UNIVERSITY HOSPITAL, INC
3.44,40.03064,-83.03440,27886.37,RIVERSIDE METHODIST HOSPITAL
2.86,38.75320,-82.97800,18746.00,SOUTHERN OHIO MEDICAL CENTER
2.77,40.73578,-84.08630,17417.52,LIMA MEMORIAL HEALTH SYSTEM
2.29,40.51393,-81.45644,9799.62,UNION HOSPITAL
3.16,39.20680,-84.38093,23482.50,JEWISH HOSPITAL, LLC
3.29,39.96098,-82.99077,25534.91,GRANT MEDICAL CENTER
3.97,41.01476,-81.58913,36223.93,SUMMA HEALTH SYSTEM BARBERTON HOSPITAL
2.84,41.44642,-82.70864,18463.89,FIRELANDS REGIONAL MEDICAL CENTER
3.78,39.70022,-83.92782,33338.12,GREENE MEMORIAL HOSPITAL
3.43,41.07747,-81.53042,27779.70,AKRON GENERAL MEDICAL CENTER
2.62,41.37576,-83.66556,15065.93,WOOD COUNTY HOSPITAL
2.30,40.82041,-81.93422,9887.04,WOOSTER COMMUNITY HOSPITAL
3.76,41.49640,-81.67376,32958.27,ST VINCENT CHARITY MEDICAL CENTER
2.55,41.38265,-81.73127,13887.69,PARMA COMMUNITY GENERAL HOSPITAL
2.40,39.51256,-84.74034,11565.50,MCCULLOUGH-HYDE MEMORIAL HOSPITAL
3.08,41.61788,-83.61632,22290.95,UNIVERSITY OF TOLEDO MEDICAL CENTER
4.29,39.74547,-84.18523,41310.85,MIAMI VALLEY HOSPITAL
4.37,39.78778,-84.23493,42569.52,GOOD SAMARITAN HOSPITAL
2.61,38.84439,-82.23902,14821.05,HOLZER MEDICAL CENTER
3.19,39.31257,-84.51774,24029.74,MERCY HOSPITAL FAIRFIELD
2.55,40.48074,-84.63943,13934.36,MERCER COUNTY JOINT TOWNSHIP COMMUNITY HOSPITAL
2.97,41.22570,-82.60491,20462.69,FISHER-TITUS HOSPITAL
2.51,40.81219,-81.39625,13200.23,MERCY MEDICAL CENTER
2.49,39.71750,-82.57772,13017.88,FAIRFIELD MEDICAL CENTER
3.44,41.17554,-81.24915,27902.29,ROBINSON MEMORIAL HOSPITAL
3.50,41.63639,-83.48640,28905.64,MERCY ST CHARLES HOSPITAL
3.29,41.59825,-81.54884,25619.53,EUCLID HOSPITAL
3.99,39.99445,-83.01872,36549.48,OHIO STATE UNIVERSITY HOSPITALS
2.88,41.55725,-83.68141,19117.71,ST LUKE'S HOSPITAL
2.60,41.01785,-83.65165,14623.79,BLANCHARD VALLEY HOSPITAL
3.48,41.66317,-81.24696,28557.83,LAKE HEALTH
2.82,41.28550,-82.88405,18180.73,BELLEVUE HOSPITAL
4.32,41.66810,-83.54275,41841.58,MERCY ST VINCENT MEDICAL CENTER
3.50,41.39496,-81.53484,28918.64,UHHS BEDFORD MEDICAL CENTER
2.93,40.75264,-82.52803,19879.59,MEDCENTRAL HEALTH SYSTEM
3.07,41.43653,-81.94451,22123.80,ST JOHN MEDICAL CENTER
2.82,41.88034,-80.79553,18145.28,ASHTABULA COUNTY MEDICAL CENTER
3.54,41.42112,-81.59808,29540.83,MARYMOUNT HOSPITAL
2.78,41.36649,-82.09708,17499.66,EMH REGIONAL MEDICAL CENTER
2.90,39.43061,-81.46454,19403.12,MARIETTA MEMORIAL HOSPITAL
2.99,40.80656,-81.51633,20808.72,AFFINITY MEDICAL CENTER
3.46,41.37028,-81.83189,28192.47,SOUTHWEST GENERAL HEALTH CENTER
3.12,41.43688,-82.23761,22829.79,MERCY REGIONAL MEDICAL CENTER
4.78,41.50248,-81.62110,49012.83,CLEVELAND CLINIC
2.96,40.30562,-83.08915,20387.71,GRADY MEMORIAL HOSPITAL
3.67,41.48479,-81.79649,31560.97,LAKEWOOD HOSPITAL
3.54,41.52013,-81.43291,29471.75,HILLCREST HOSPITAL
3.99,41.69195,-83.62455,36628.57,MERCY ST ANNE HOSPITAL
2.82,40.99498,-80.66192,18220.33,ST ELIZABETH BOARDMAN HEALTH CENTER
3.21,39.35830,-84.36785,24284.48,WEST CHESTER MEDICAL CENTER
2.54,36.87520,-94.87633,13723.32,INTEGRIS BAPTIST REG HEALTH CENTER
2.94,36.72564,-97.06859,20057.74,PONCA CITY MEDICAL CENTER
4.41,34.00655,-96.39398,43222.54,MEDICAL CENTER OF SOUTHEASTERN OKLAHOMA
2.78,36.75199,-95.94089,17525.11,JANE PHILLIPS MEDICAL CENTER
2.47,34.77442,-96.63477,12614.25,VALLEY VIEW REGIONAL HOSPITAL
2.62,34.63509,-99.31700,14944.47,JACKSON COUNTY MEMORIAL HOSPITAL
3.07,35.75351,-95.40612,22104.09,MUSKOGEE REGIONAL MEDICAL CENTER
3.79,36.39385,-97.87094,33424.45,ST MARY'S REGIONAL MEDICAL CENTER
3.20,35.52531,-97.58461,24070.72,DEACONESS HOSPITAL
3.12,35.47800,-97.52352,22833.55,ST ANTHONY HOSPITAL
2.68,36.32303,-95.60538,15883.57,CLAREMORE REGIONAL HOSPITAL
2.99,34.18908,-97.14128,20849.40,MERCY MEMORIAL HEALTH CENTER
2.40,36.65318,-95.15577,11530.45,CRAIG GENERAL HOSPITAL
3.14,36.14675,-95.99969,23127.29,OKLAHOMA STATE UNIVERSITY MEDICAL CENTER
2.51,35.91530,-94.94996,13294.50,TAHLEQUAH CITY HOSPITAL
4.06,35.46721,-97.39370,37656.97,MIDWEST REGIONAL MEDICAL CENTER
4.49,34.59434,-98.46105,44433.71,SOUTHWESTERN MEDICAL CENTER
2.72,36.58133,-94.75864,16511.15,INTEGRIS GROVE HOSPITAL
3.16,36.13393,-95.96718,23536.76,ST JOHN MEDICAL CENTER, INC
3.87,36.03590,-95.86511,34710.09,SOUTHCREST HOSPITAL
2.93,42.42112,-123.34326,19875.51,THREE RIVERS COMMUNITY HOSPITAL
3.98,45.54248,-122.66972,36415.00,LEGACY EMANUEL MEDICAL CENTER
2.95,44.60322,-123.25312,20191.29,GOOD SAMARITAN REGIONAL MEDICAL CENTER
3.13,45.53028,-122.69692,23039.08,LEGACY GOOD SAMARITAN MEDICAL CENTER
2.92,42.31769,-122.83333,19750.75,ROGUE VALLEY MEDICAL CENTER
3.22,45.51993,-122.97759,24510.65,TUALITY COMMUNITY HOSPITAL
2.58,44.63225,-123.11580,14371.65,SAMARITAN ALBANY GENERAL HOSPITAL
3.29,45.51716,-122.40750,25494.65,LEGACY MOUNT HOOD MEDICAL CENTER
2.70,44.28804,-121.16952,16233.08,ST CHARLES MEDICAL CENTER - REDMOND
3.12,44.06773,-121.26817,22879.15,ST CHARLES MEDICAL CENTER - BEND
2.83,44.93267,-123.03418,18358.10,SALEM HOSPITAL
2.69,45.51288,-122.55630,16126.79,ADVENTIST MEDICAL CENTER
2.84,45.52677,-122.61469,18432.44,PROVIDENCE PORTLAND MEDICAL CENTER
3.25,45.19897,-123.16482,24900.14,WILLAMETTE VALLEY MEDICAL CENTER
2.98,42.34086,-122.86108,20655.30,PROVIDENCE MEDFORD MEDICAL CENTER
2.22,45.43061,-122.56202,8639.36,KAISER SUNNYSIDE MEDICAL CENTER
3.16,41.40075,-75.64594,23509.23,COMMUNITY MEDICAL CENTER
4.11,40.96789,-76.60506,38445.97,GEISINGER MEDICAL CENTER
4.11,42.11102,-80.07912,38453.44,SAINT VINCENT HEALTH CENTER
2.47,40.97877,-76.88593,12566.20,EVANGELICAL COMMUNITY HOSPITAL
2.33,41.01409,-80.35398,10431.46,JAMESON MEMORIAL HOSPITAL
5.51,40.07880,-75.21107,60653.48,CHESTNUT HILL HOSPITAL
3.57,40.43609,-79.98537,29913.85,UPMC MERCY
2.59,40.69101,-76.18682,14485.48,SCHUYLKILL MEDICAL CENTER - EAST NORWEGIAN STREET
4.11,40.43850,-75.34895,38525.91,ST LUKE'S QUAKERTOWN HOSPITAL
2.79,40.71251,-80.32136,17604.43,HERITAGE VALLEY BEAVER
2.90,40.00729,-79.07854,19371.67,SOMERSET HOSPITAL
2.22,39.90180,-79.73854,8717.86,UNIONTOWN HOSPITAL
2.71,40.18302,-80.24767,16410.17,WASHINGTON HOSPITAL, THE
2.57,41.74508,-77.30043,14135.00,SOLDIERS AND SAILORS MEMORIAL HOSPITAL
2.74,41.24548,-77.01438,16868.66,WILLIAMSPORT REGIONAL MEDICAL CENTER
2.53,40.61795,-77.56734,13634.29,LEWISTOWN HOSPITAL
4.10,40.45705,-80.00363,38352.75,ALLEGHENY GENERAL HOSPITAL
2.49,41.03301,-78.44915,13024.07,CLEARFIELD HOSPITAL
3.36,40.36358,-75.32621,26742.93,GRAND VIEW HOSPITAL
3.44,42.13338,-80.08703,27931.33,UPMC HAMOT
6.02,40.10226,-74.86338,68590.12,LOWER BUCKS HOSPITAL
2.92,40.52204,-78.39824,19697.34,ALTOONA REGIONAL HEALTH SYSTEM
2.47,41.11492,-78.77515,12652.34,DUBOIS REGIONAL MEDICAL CENTER
2.62,41.36116,-79.70065,15010.14,UPMC NORTHWEST
2.29,41.19016,-79.39934,9854.14,CLARION HOSPITAL
2.57,41.57235,-75.49676,14166.62,MARIAN COMMUNITY HOSPITAL
2.96,40.04740,-76.30540,20439.98,LANCASTER GENERAL HOSPITAL
3.04,40.48928,-79.89596,21655.92,UPMC ST MARGARET
5.99,39.95045,-75.19259,68179.49,HOSPITAL OF UNIV OF PENNSYLVANIA
2.92,41.64205,-80.14579,19755.62,MEADVILLE MEDICAL CENTER
4.37,40.07160,-74.98341,42568.61,ARIA HEALTH
4.51,40.13916,-75.31510,44853.60,MERCY SUBURBAN HOSPITAL
3.32,41.41107,-75.65091,25977.52,MOSES TAYLOR HOSPITAL
4.89,40.24397,-75.61364,50775.85,POTTSTOWN MEMORIAL MEDICAL CENTER
2.63,41.57647,-75.26049,15111.95,WAYNE MEMORIAL HOSPITAL
4.41,40.60000,-75.47000,43307.03,LEHIGH VALLEY HOSPITAL
3.12,39.75368,-77.57415,22901.29,WAYNESBORO HOSPITAL
2.69,40.30103,-79.55505,16154.24,EXCELA HEALTH WESTMORELAND REGIONAL HOSPITAL
2.67,41.83752,-79.14728,15808.11,WARREN GENERAL HOSPITAL
3.24,39.93492,-77.64744,24837.55,CHAMBERSBURG HOSPITAL
4.95,40.04475,-75.50425,51679.97,MAIN LINE HOSPITAL PAOLI
5.44,39.92871,-75.26873,59457.15,MERCY FITZGERALD HOSPITAL
4.39,40.68708,-75.24272,42863.95,EASTON HOSPITAL
2.54,40.81645,-79.52199,13783.10,ACMH HOSPITAL
2.40,40.60755,-79.15657,11557.38,INDIANA REGIONAL MEDICAL CENTER
5.71,39.94969,-75.15712,63767.12,THOMAS JEFFERSON UNIVERSITY HOSPITAL
2.69,41.41133,-80.37169,16110.97,UPMC HORIZON
3.15,39.97024,-75.60259,23430.77,CHESTER COUNTY HOSPITAL
9.71,39.85598,-75.36791,126863.99,CROZER CHESTER MEDICAL CENTER
3.27,40.82134,-75.91392,25205.09,ST LUKE'S MINERS MEMORIAL HOSPITAL
2.52,40.83130,-75.72794,13351.19,GNADEN HUETTEN MEMORIAL HOSPITAL
3.60,40.99225,-75.17466,30450.80,POCONO MEDICAL CENTER
2.94,40.14526,-79.54992,20081.64,EXCELA HEALTH FRICK HOSPITAL
2.99,40.18739,-76.18224,20907.73,EPHRATA COMMUNITY HOSPITAL
2.63,40.37782,-80.06589,15208.03,ST CLAIR MEMORIAL HOSPITAL
5.24,40.12077,-75.11818,56332.92,ABINGTON MEMORIAL HOSPITAL
2.60,39.80858,-76.98306,14710.72,HANOVER HOSPITAL
3.58,40.20064,-74.92952,30121.97,ST MARY MEDICAL CENTER
2.47,40.31802,-79.93494,12620.95,JEFFERSON REGIONAL MEDICAL CENTER
2.83,40.42897,-79.74808,18363.59,WESTERN PENNSYLVANIA HOSP FORBES REGIONAL CAMPUS
3.13,40.81936,-77.84273,23021.64,MOUNT NITTANY MEDICAL CENTER
3.59,41.25855,-75.81041,30252.74,GEISINGER WYOMING VALLEY MEDICAL CENTER
10.86,39.95658,-75.16249,145004.72,HAHNEMANN UNIVERSITY HOSPITAL
3.80,41.86943,-71.37561,33646.47,MEMORIAL HOSPITAL OF RHODE ISLAND
2.80,41.85574,-71.45945,17806.58,ST JOSEPH HEALTH SERVICES OF RI
3.63,41.81254,-71.40760,30891.14,RHODE ISLAND HOSPITAL
2.90,42.00497,-71.49561,19475.50,LANDMARK MEDICAL CENTER,  INC
3.39,41.85172,-71.39826,27163.95,MIRIAM HOSPITAL
3.26,34.96733,-81.94021,25014.66,SPARTANBURG REGIONAL MEDICAL CENTER
3.18,34.69403,-82.98884,23862.97,OCONEE MEDICAL CENTER
4.76,34.02839,-81.03539,48808.99,PALMETTO HEALTH RICHLAND
5.17,34.71787,-80.78844,55148.47,SPRINGS MEMORIAL HOSPITAL
2.98,35.08901,-81.63335,20753.58,UPSTATE CAROLINA MEDICAL CENTER
2.72,34.24654,-80.60702,16504.85,KERSHAW HEALTH
3.31,33.78555,-79.00178,25907.19,CONWAY MEDICAL CENTER
3.75,34.19543,-79.76256,32753.33,MCLEOD REGIONAL MEDICAL CENTER-PEE DEE
2.83,34.28829,-81.60568,18278.70,NEWBERRY COUNTY MEMORIAL HOSPITAL
3.11,34.18661,-79.32541,22654.05,MARION REGIONAL HOSPITAL
3.26,34.05671,-78.89903,25075.00,LORIS COMMUNITY HOSPITAL
3.18,33.62185,-80.74922,23784.05,TRMC OF ORANGEBURG & CALHOUN
3.18,34.17571,-82.15791,23770.85,SELF REGIONAL HEALTHCARE
3.49,34.81904,-82.41308,28683.92,GREENVILLE MEMORIAL HOSPITAL
3.81,32.97605,-80.07302,33720.39,TRIDENT MEDICAL CENTER
3.42,32.22325,-80.71444,27585.90,HILTON HEAD REGIONAL MEDICAL CENTER
3.47,33.70704,-78.89487,28335.97,GRAND STRAND REG MED CENTER
4.53,34.00754,-81.03270,45066.61,PALMETTO HEALTH BAPTIST
3.49,32.78211,-79.95018,28775.56,ROPER HOSPITAL
3.02,33.59553,-79.02412,21230.58,WACCAMAW COMMUNITY HOSPITAL
2.42,44.91113,-97.12063,11903.00,PRAIRIE LAKES HOSPITAL
2.94,42.87249,-97.40741,20079.90,AVERA SACRED HEART HOSPITAL
3.03,45.46141,-98.47929,21517.75,AVERA ST LUKES
2.78,44.35976,-100.33441,17581.62,ST MARYS HOSPITAL
3.01,43.53460,-96.71136,21120.65,AVERA MCKENNAN HOSPITAL & UNIVERSITY HEALTH CENTER
3.24,43.53562,-96.74305,24718.97,SANFORD USD MEDICAL CENTER
2.64,35.63906,-88.83207,15371.91,JACKSON-MADISON COUNTY GENERAL HOSPITAL
4.36,36.24440,-86.75204,42425.26,SKYLINE MEDICAL CENTER
2.77,35.93917,-85.01865,17349.18,CUMBERLAND MEDICAL CENTER
2.67,36.58587,-82.25703,15841.34,WELLMONT BRISTOL REGIONAL MEDICAL CENTER
2.99,36.55401,-82.55483,20900.38,WELLMONT HOLSTON VALLEY MEDICAL CENTER
2.41,36.17561,-82.79033,11736.47,LAUGHLIN MEMORIAL HOSPITAL, INC
2.63,35.98589,-84.28055,15225.86,METHODIST MEDICAL CENTER OF OAK RIDGE
3.46,36.58199,-87.27050,28240.18,GATEWAY MEDICAL CENTER
3.90,34.50579,-92.96678,35228.67,HORIZON MEDICAL CENTER
3.44,35.12837,-89.86202,27936.94,BAPTIST MEMORIAL HOSPITAL
3.19,35.86074,-86.42434,24011.59,MIDDLE TENNESSEE MEDICAL CENTER INC
2.84,36.10641,-83.51924,18443.00,TENNOVA HEALTHCARE-JEFFERSON MEMORIAL HOSPITAL
2.83,35.17733,-86.09081,18241.89,SOUTHERN TENNESSEE MEDICAL CENTER
2.77,36.17121,-85.50938,17430.79,COOKEVILLE REGIONAL MEDICAL CENTER
3.32,36.30767,-82.38497,26049.00,JOHNSON CITY MEDICAL CENTER
2.80,36.47927,-86.88632,17894.64,NORTHCREST MEDICAL CENTER
2.57,35.85418,-83.53731,14218.42,LECONTE MEDICAL CENTER
2.84,36.12859,-86.84559,18542.38,ST THOMAS HOSPITAL
3.21,35.05068,-85.28823,24246.39,ERLANGER MEDICAL CENTER
3.05,35.99233,-83.92697,21807.85,TENNOVA HEALTHCARE
2.69,35.95747,-83.93660,16059.90,FORT SANDERS REGIONAL MEDICAL CENTER
2.62,36.29611,-88.31178,14953.33,HENRY COUNTY MEDICAL CENTER
3.09,36.15388,-86.80249,22411.92,BAPTIST HOSPITAL
3.67,35.03467,-85.26735,31558.63,PARKRIDGE MEDICAL CENTER
2.56,35.91765,-84.10080,14115.38,PARKWEST MEDICAL CENTER
2.83,35.24230,-87.33474,18244.31,CROCKETT HOSPITAL
3.51,36.55057,-82.51465,29003.86,INDIAN PATH MEDICAL CENTER
4.79,35.09925,-89.86301,49202.61,ST FRANCIS HOSPITAL
3.80,35.17731,-84.86873,33531.00,SKYRIDGE MEDICAL CENTER
3.32,35.68445,-88.85461,26035.92,REGIONAL HOSPITAL OF JACKSON
3.53,36.22069,-86.32731,29286.57,UNIVERSITY MEDICAL CENTER
3.87,35.20713,-89.80059,34643.44,SAINT FRANCIS BARTLETT MEDICAL CENTER
5.23,31.77031,-106.50085,56191.36,PROVIDENCE MEMORIAL HOSPITAL
2.77,30.04413,-99.15217,17327.56,PETERSON REGIONAL MEDICAL CENTER
3.19,33.90296,-98.50035,24048.53,UNITED REGIONAL HEALTH CARE SYSTEM
3.68,30.65598,-96.34672,31722.20,ST JOSEPH REGIONAL HEALTH CENTER
3.96,32.81043,-96.83699,36168.63,PARKLAND HEALTH AND HOSPITAL SYSTEM
4.03,29.31233,-94.77317,37305.00,UNIVERSITY OF TEXAS MEDICAL BRANCH GAL
3.29,32.78994,-96.78044,25587.89,BAYLOR UNIVERSITY MEDICAL CENTER
3.71,28.81269,-96.97780,32187.89,CITIZENS MEDICAL CENTER
5.02,27.53249,-99.47808,52814.12,LAREDO MEDICAL CENTER
4.37,26.17446,-97.67014,42623.48,VHS HARLINGEN HOSPITAL COMPANY LLC
4.64,29.74802,-95.36609,46870.29,ST JOSEPH MEDICAL CENTER
3.75,32.50219,-94.73025,32805.54,GOOD SHEPHERD MEDICAL CENTER
4.09,32.72621,-97.32659,38174.28,JPS HEALTH NETWORK
6.01,33.57524,-101.89272,68452.71,COVENANT MEDICAL CENTER
3.08,31.51444,-97.19927,22306.04,PROVIDENCE HEALTH CENTER
3.75,32.81224,-96.83795,32824.00,UT SOUTHWESTERN UNIVERSITY HOSPITAL
3.80,32.76017,-96.82437,33664.62,METHODIST DALLAS MEDICAL CENTER
3.00,31.07837,-97.36403,20922.75,SCOTT & WHITE MEMORIAL HOSPITAL
4.05,29.43360,-98.49265,37608.75,BAPTIST MEDICAL CENTER
3.32,32.74944,-97.11630,26104.30,TEXAS HEALTH ARLINGTON MEMORIAL HOSPITAL
3.89,29.71431,-95.39680,35003.46,MEMORIAL HERMANN TEXAS MEDICAL CENTER
3.28,32.83520,-96.96101,25343.76,BAYLOR MEDICAL CENTER AT IRVING
2.55,33.17573,-94.97180,13822.55,TITUS REGIONAL MEDICAL CENTER
4.10,32.82932,-97.21399,38296.03,NORTH HILLS HOSPITAL
3.05,33.64346,-97.16215,21726.92,NORTH TEXAS MEDICAL CENTER
4.58,29.66575,-95.18131,45902.66,BAYSHORE MEDICAL CENTER
2.93,29.56876,-97.94776,19956.69,GUADALUPE REGIONAL MEDICAL CENTER
5.46,31.76998,-106.49897,59744.36,LAS PALMAS MEDICAL CENTER
5.45,26.26353,-98.18455,59561.98,SOUTH TEXAS HEALTH SYSTEM
4.66,30.27438,-97.73395,47185.22,UNIVERSITY MEDICAL CENTER AT BRACKENRIDGE
3.18,31.99616,-102.09950,23783.08,MIDLAND MEMORIAL HOSPITAL
3.65,32.73780,-97.33899,31198.15,TEXAS HEALTH HARRIS METHODIST FORT WORTH
5.41,28.80765,-96.99896,58959.98,DETAR HOSPITAL NAVARRO
3.10,31.11326,-97.80076,22514.56,METROPLEX HOSPITAL
2.80,29.37402,-100.89265,17888.80,VAL VERDE REGIONAL MEDICAL CENTER
4.26,27.49018,-97.85078,40914.65,CHRISTUS SPOHN HOSPITAL KLEBERG
3.14,26.19665,-98.31409,23124.54,MISSION REGIONAL MEDICAL CENTER
3.40,29.81230,-95.43010,27332.77,MEMORIAL HERMANN HOSPITAL SYSTEM
4.22,29.70719,-95.40048,40274.92,ST LUKES EPISCOPAL HOSPITAL
4.49,31.96072,-95.27098,44500.64,EAST TEXAS MEDICAL CENTER JACKSONVILLE
3.71,35.19934,-101.92186,32154.15,NORTHWEST TEXAS HOSPITAL
5.45,30.28473,-95.46714,59604.68,CONROE REGIONAL MEDICAL CENTER
3.05,35.19533,-101.91907,21776.33,BAPTIST ST ANTHONYS HEALTH SYSTEM-BAPTIST CAMPUS
2.34,31.89737,-98.60366,10614.18,COMANCHE COUNTY MEDICAL CENTER
3.46,33.21990,-97.59383,28231.21,WISE REGIONAL HEALTH SYSTEM
3.62,29.68674,-95.38652,30777.88,HARRIS COUNTY HOSPITAL DISTRICT
2.96,32.59083,-96.31474,20364.62,TEXAS HEALTH PRESBYTERIAN HOSPITAL KAUFMAN
3.68,33.71085,-96.58493,31682.18,TEXOMA MEDICAL CENTER
3.69,29.57653,-95.77057,31857.47,OAKBEND MEDICAL CENTER
4.00,31.42009,-100.47013,36784.00,SAN ANGELO COMMUNITY MEDICAL CENTER
3.33,30.69934,-95.55927,26254.61,HUNTSVILLE MEMORIAL HOSPITAL
2.97,33.12242,-96.12404,20467.48,HUNT REGIONAL MEDICAL CENTER
3.04,32.39611,-96.86404,21683.26,BAYLOR MEDICAL CENTER AT WAXAHACHIE
4.22,29.50795,-98.57224,40305.62,METHODIST HOSPITAL
4.05,32.17167,-95.84417,37480.07,EAST TEXAS MEDICAL CENTER ATHENS
3.22,32.08509,-96.50376,24516.22,NAVARRO REGIONAL HOSPITAL
4.54,31.32794,-94.75614,45266.11,WOODLAND HEIGHTS MEDICAL CENTER
2.85,33.56197,-97.83528,18577.36,BOWIE MEMORIAL HOSPITAL
4.03,29.93570,-93.98900,37186.40,THE MEDICAL CENTER OF SOUTHEAST TEXAS
4.79,29.39378,-94.98682,49192.05,MAINLAND MEDICAL CENTER
4.99,32.40574,-99.76486,52302.44,ABILENE REGIONAL MEDICAL CENTER
3.13,32.93228,-97.09436,23099.70,BAYLOR REGIONAL MEDICAL CENTER AT GRAPEVINE
3.20,31.46574,-100.43466,24154.22,SHANNON MEDICAL CENTER
3.74,31.32376,-95.43900,32645.46,EAST TEXAS MEDICAL CENTER CROCKETT
2.54,30.26290,-98.88017,13681.31,HILL COUNTRY MEMORIAL HOSPITAL INC
3.48,29.78143,-95.54541,28536.66,MEMORIAL HERMANN MEMORIAL CITY MEDICAL CENTER
4.50,33.17345,-97.11382,44696.14,DENTON REGIONAL MEDICAL CENTER
5.01,30.01994,-95.44379,52635.86,HOUSTON NORTHWEST MEDICAL CENTER
4.62,29.72913,-95.59429,46539.76,WEST HOUSTON MEDICAL CENTER
5.54,33.02168,-96.76621,60996.13,MEDICAL CENTER OF PLANO
4.13,31.65212,-94.65488,38774.39,NACOGDOCHES MEDICAL CENTER
4.67,25.97780,-97.51442,47256.50,VALLEY REGIONAL MEDICAL CENTER
3.82,33.04634,-97.00473,33883.38,MEDICAL CENTER OF LEWISVILLE
3.73,30.08682,-95.62403,32477.31,TOMBALL REGIONAL MEDICAL CENTER
5.30,32.73563,-97.34483,57232.04,PLAZA MEDICAL CENTER OF FORT WORTH
3.56,32.67614,-97.32079,29886.13,HUGULEY HEALTH SYSTEM
3.37,29.99677,-95.27641,26769.48,MEMORIAL HERMANN NORTHEAST
3.51,33.58838,-101.89214,29029.91,UNIVERSITY MEDICAL CENTER
4.05,29.35295,-98.54601,37542.37,SOUTHWEST GENERAL HOSPITAL
4.38,32.53312,-94.73022,42813.57,LONGVIEW REGIONAL MEDICAL CENTER
3.37,29.54946,-95.08660,26761.40,CHRISTUS ST JOHN HOSPITAL
4.05,30.22723,-97.77447,37565.83,ST DAVID'S SOUTH AUSTIN MEDICAL CENTER
4.52,29.92772,-95.59016,44998.79,CYPRESS FAIRBANKS MEDICAL CENTER
3.40,32.64448,-96.87635,27355.44,METHODIST CHARLTON MEDICAL CENTER
3.08,33.02769,-96.88471,22194.00,BAYLOR MEDICAL CENTER AT CARROLLTON
3.43,32.81073,-96.83618,27737.19,UT SOUTHWESTERN UNIVERSITY HOSPITAL-ZALE LIPSHY
3.60,32.65818,-97.42078,30446.08,TEXAS HEALTH HARRIS METHODIST HOSPITAL SOUTHWEST F
4.57,27.69288,-97.34476,45734.50,CORPUS CHRISTI MEDICAL CENTER,THE
3.86,30.41163,-97.70649,34499.64,NORTH AUSTIN MEDICAL CENTER
4.08,29.58896,-95.63112,38042.15,METHODIST SUGAR LAND HOSPITAL
4.47,29.96603,-95.55127,44110.17,METHODIST WILLOWBROOK HOSPITAL
3.31,29.78747,-95.78578,25930.73,MEMORIAL HERMANN KATY HOSPITAL
4.16,30.20579,-95.45830,39235.71,ST LUKE'S THE WOODLANDS HOSPITAL
3.35,33.01358,-96.78823,26517.71,BAYLOR REGIONAL MEDICAL CENTER AT PLANO
2.94,40.24999,-111.66524,19995.42,UTAH VALLEY REGIONAL MEDICAL CENTER
2.51,37.09986,-113.55271,13229.00,DIXIE REGIONAL MEDICAL CENTER
3.14,44.47966,-73.19412,23188.14,FLETCHER ALLEN HOSPITAL OF VERMONT
2.63,43.59828,-72.95512,15184.14,RUTLAND REGIONAL MEDICAL CENTER
2.64,42.84340,-72.56527,15323.36,BRATTLEBORO MEMORIAL HOSPITAL
2.56,38.40552,-78.85730,14018.80,ROCKINGHAM MEMORIAL HOSPITAL
2.71,39.19345,-78.19599,16344.78,WINCHESTER MEDICAL CENTER INC
3.41,36.86268,-76.30355,27470.95,SENTARA NORFOLK GENERAL HOSPITAL
3.27,38.02573,-78.51526,25303.53,UNIVERSITY OF VIRGINIA MEDICAL CENTER
3.16,36.89933,-76.28157,23520.64,BON SECOURS - DEPAUL MEDICAL CENTER
2.84,36.83716,-76.34786,18459.26,BON SECOURS MARYVIEW MEDICAL CENTER
2.38,38.09436,-78.98659,11157.65,AUGUSTA HEALTH
2.68,37.41368,-79.16870,15904.60,CENTRA  HEALTH, INC
3.23,38.71322,-77.80895,24628.77,THE FAUQUIER HOSPITAL, INC
3.14,37.25129,-79.94125,23201.70,CARILION ROANOKE MEMORIAL CENTER
4.16,37.54330,-77.42932,39276.79,MEDICAL COLLEGE OF VIRGINIA HOSPITALS
2.66,37.47512,-75.86264,15703.16,RIVERSIDE SHORE MEMORIAL HOSPITAL
3.11,38.82218,-77.10533,22717.84,INOVA ALEXANDRIA HOSPITAL
3.04,37.14463,-76.51197,21617.71,MARY IMMACULATE HOSPITAL
2.74,37.09020,-80.50370,16916.06,CARILION NEW RIVER VALLEY MEDICAL CENTER
2.98,39.07405,-77.47754,20688.95,INOVA LOUDOUN HOSPITAL
3.26,36.77378,-76.57856,25104.38,SENTARA OBICI HOSPITAL
3.08,36.85098,-76.18989,22202.21,SENTARA LEIGH HOSPITAL
2.73,37.06523,-76.48417,16714.22,RIVERSIDE REGIONAL MEDICAL CENTER
2.78,37.09990,-81.79024,17512.89,CLINCH VALLEY MEDICAL CENTER
3.08,38.85764,-77.22772,22219.25,INOVA FAIRFAX HOSPITAL
3.06,37.33700,-76.74046,21959.05,SENTARA WILLIAMSBURG REGIONAL MEDICAL CENTER
4.91,37.18253,-77.35957,51034.77,SOUTHSIDE REGIONAL MEDICAL CENTER
3.29,37.62931,-77.38804,25504.02,BON SECOURS - MEMORIAL REGIONAL MEDICAL
2.52,38.02176,-78.44530,13452.21,MARTHA JEFFERSON HOSPITAL
2.99,36.69555,-79.86374,20804.46,MEMORIAL HOSPITAL OF MARTINSVILLE & HENRY COUNTY
3.07,37.30288,-78.40196,22139.33,SOUTHSIDE COMMUNITY HOSPITAL, INC
3.65,36.69095,-76.93626,31199.41,SOUTHAMPTON MEMORIAL HOSPITAL
3.12,37.05580,-76.39048,22877.40,SENTARA CAREPLEX HOSPITAL
2.62,38.88483,-77.37995,14984.67,INOVA FAIR OAKS HOSPITAL
2.82,36.95477,-81.09687,18175.12,WYTHE COUNTY COMMUNITY HOSPITAL
2.92,38.63463,-77.28361,19739.85,SENTARA POTOMAC HOSPITAL
3.44,36.77664,-76.09682,27967.24,SENTARA PRINCESS ANNE HOSPITAL
3.33,38.74009,-77.07732,26160.85,INOVA MOUNT VERNON HOSPITAL
3.26,37.79106,-79.88263,25042.33,LEWISGALE HOSPITAL ALLEGHANY
3.00,37.46807,-77.66143,21051.54,BON SECOURS - ST FRANCIS MEDICAL CENTER
3.64,47.71468,-122.33762,31093.45,NORTHWEST HOSPITAL
2.36,48.50066,-122.61584,10859.43,ISLAND HOSPITAL
3.40,47.33947,-122.26677,27225.03,AUBURN REGIONAL MEDICAL CENTER
3.19,46.71265,-122.98504,23982.34,PROVIDENCE CENTRALIA HOSPITAL
3.45,47.58295,-122.62506,28071.38,HARRISON MEDICAL CENTER
2.93,46.13039,-122.94110,19910.88,PEACHEALTH ST JOHN MEDICAL CENTER
3.61,45.62460,-122.58145,30663.62,PEACEHEALTH SOUTHWEST MEDICAL CENTER
3.78,47.64936,-117.41194,33286.86,PROVIDENCE SACRED HEART MEDICAL CENTER
3.23,46.28132,-119.28218,24588.23,KADLEC REGIONAL MEDICAL CENTER
4.25,47.60351,-122.32305,40721.71,HARBORVIEW MEDICAL CENTER
2.37,48.11504,-123.41519,11023.80,OLYMPIC MEDICAL CENTER
2.90,47.70969,-117.40722,19441.77,PROVIDENCE HOLY FAMILY HOSPITAL
3.80,47.17742,-122.28943,33682.97,MULTICARE GOOD SAMARITAN HOSPITAL
3.12,47.44243,-122.21392,22850.12,VALLEY MEDICAL CENTER
3.55,47.25980,-122.45243,29709.20,TACOMA GENERAL ALLENMORE HOSPITAL
4.19,47.29252,-122.32729,39751.41,ST FRANCIS COMMUNITY HOSPITAL
3.77,47.36373,-122.61353,33061.21,ST ANTHONY HOSPITAL
2.94,39.65498,-79.95814,20092.82,WEST VIRGINIA UNIVERSITY HOSPITALS
2.19,37.77324,-80.46826,8166.14,GREENBRIER VALLEY MEDICAL CENTER
2.44,39.32836,-80.23964,12083.76,UNITED HOSPITAL CENTER
2.73,38.43236,-82.40067,16763.01,ST MARY'S MEDICAL CENTER
2.36,39.94672,-80.75423,10834.92,REYNOLDS MEMORIAL HOSPITAL
3.07,38.34739,-81.62600,22031.49,CHARLESTON AREA MEDICAL CENTER
2.66,40.39520,-80.52796,15685.00,WEIRTON MEDICAL CENTER
2.88,39.66383,-79.94681,19073.93,MONONGALIA COUNTY GENERAL HOSPITAL
2.25,38.92594,-79.84673,9233.53,DAVIS MEMORIAL HOSPITAL
2.95,40.05876,-80.72237,20206.53,OHIO VALLEY MEDICAL CENTER
2.66,39.48229,-80.16519,15676.35,FAIRMONT GENERAL HOSPITAL
2.74,37.84674,-81.99565,16835.27,LOGAN REGIONAL MEDICAL CENTER
2.79,39.27035,-81.56026,17706.85,CAMDEN CLARK MEDICAL CENTER
2.63,37.78754,-81.20183,15228.12,RALEIGH GENERAL HOSPITAL
2.63,44.52660,-89.56580,15181.57,MINISTRY ST MICHAELS HOSPITAL OF STEVENS POINT
2.68,44.24830,-88.40268,15937.12,ST ELIZABETH HSPTL
3.00,45.63932,-89.37481,20993.93,MINISTRY ST MARYS HOSPITAL
2.88,42.60783,-89.63494,19105.07,THE MONROE CLINIC
3.06,44.12383,-87.62011,21883.41,AURORA MED CTR MANITOWOC CTY
2.79,43.77292,-87.71108,17748.17,AURORA SHEBOYGAN MEM MED CTR
2.53,44.18700,-88.45431,13533.13,THEDA CLARK MED CTR
2.66,44.01282,-88.60296,15555.38,MERCY MED CTR OF OSHKOSH
2.90,44.50233,-88.01140,19416.72,BELLIN MEMORIAL HSPTL
3.20,43.06195,-87.87861,24221.62,COLUMBIA ST MARYS HSPTL  MILW (COL & MILW CAMPUS)
3.41,42.67269,-88.28138,27419.69,AURORA MEMORIAL HSPTL BURLINGTON
3.21,42.68685,-89.03244,24319.29,MERCY HLTH SYS CORP
2.81,44.81192,-91.51352,18023.05,MAYO CLINIC HEALTH SYSTEM EAU CLAIRE HOSPITAL
2.82,42.93133,-88.82794,18120.54,FORT HEALTHCARE
2.99,43.77733,-88.42866,20827.39,ST AGNES HSPTL
2.95,45.89438,-89.70190,20145.87,HOWARD YOUNG MED CTR
3.12,42.73444,-87.82788,22860.67,WHEATON FRANCISCAN HEALTHCARE- ALL SAINTS
2.83,44.53265,-88.06664,18321.75,ST MARYS HSPTL MED CTR
3.39,43.07633,-89.43133,27188.68,UNIVERSITY OF WI  HOSPITALS & CLINICS AUTHORITY
3.44,42.54868,-89.00822,27978.68,BELOIT MEM HSPTL
3.35,42.66123,-88.49611,26514.14,AURORA LAKELAND MED CTR
3.60,43.07393,-87.97612,30382.71,WHEATON FRANCISCAN, INC- ST JOSEPH
3.72,42.98958,-87.95079,32334.93,AURORA ST LUKES MEDICAL CENTER
3.43,43.00120,-88.02675,27791.11,AURORA WEST ALLIS MEDICAL CENTER
2.33,44.27860,-88.39550,10399.50,APPLETON MED CTR
3.36,43.04008,-88.02523,26639.25,FROEDTERT MEM LUTHERAN HSPTL
3.19,43.32426,-87.92776,24057.54,AURORA MEDICAL CENTER
3.17,42.82063,-108.72688,23665.39,LANDER REGIONAL HOSPITAL
3.21,42.84802,-106.30851,24314.26,WYOMING MEDICAL CENTER
2.91,41.14037,-104.81660,19620.61,CHEYENNE REGIONAL MEDICAL CENTER
3.76,30.56899,-97.65104,32994.74,SETON MEDICAL CENTER WILLIAMSON
5.87,31.79047,-106.26500,66252.30,SIERRA PROVIDENCE EAST MEDICAL CENTER
4.06,29.61578,-98.47479,37663.29,METHODIST STONE OAK HOSPITAL
4.20,32.77776,-96.56763,39952.38,TEXAS REGIONAL MEDICAL CENTER AT SUNNYVALE
2.59,34.36605,-86.42127,14580.42,MARSHALL MEDICAL CENTER NORTH
2.73,33.59616,-86.66750,16743.50,ST VINCENT'S EAST
3.33,34.43845,-85.75574,26139.71,DEKALB REGIONAL MEDICAL CENTER
3.75,33.25607,-86.81035,32865.13,SHELBY BAPTIST MEDICAL CENTER
2.65,34.74649,-87.69895,15412.86,HELEN KELLER MEMORIAL HOSPITAL
2.47,32.82377,-85.17019,12620.00,GEORGE H. LANIER MEMORIAL HOSPITAL
2.54,32.63806,-85.40413,13762.62,EAST ALABAMA MEDICAL CENTER AND SNF
4.06,33.50619,-86.80210,37680.25,UNIVERSITY OF ALABAMA HOSPITAL
2.90,34.20768,-86.87489,19354.57,CULLMAN REGIONAL MEDICAL CENTER
3.67,33.66767,-85.83420,31537.08,STRINGFELLOW MEMORIAL HOSPITAL
5.76,34.00941,-85.97078,64503.63,GADSDEN REGIONAL MEDICAL CENTER
4.51,34.00426,-86.00339,44769.83,RIVERVIEW REGIONAL MEDICAL CENTER
2.89,34.48290,-87.28601,19319.09,LAWRENCE MEDICAL CENTER
2.26,34.66171,-86.04665,9263.27,HIGHLANDS MEDICAL CENTER
2.30,32.94573,-85.98570,9975.36,RUSSELL HOSPITAL
3.24,33.65640,-85.82284,24790.24,NORTHEAST ALABAMA REGIONAL MED CENTER
3.54,30.42700,-87.68386,29484.67,SOUTH BALDWIN REGIONAL MEDICAL CENTER
2.25,34.59052,-86.97262,9198.35,DECATUR GENERAL HOSPITAL
3.24,33.20521,-87.52546,24715.49,D C H REGIONAL MEDICAL CENTER
3.96,33.49854,-86.84633,36098.13,BAPTIST MEDICAL CENTER-PRINCETON
2.95,32.43020,-87.05515,20217.55,VAUGHAN REG MED CENTER PARKWAY CAMPUS
2.67,31.85636,-85.99737,15720.58,TROY REGIONAL MEDICAL CENTER
2.00,31.53030,-87.89319,5222.50,JACKSON MEDICAL CENTER
6.38,33.46420,-86.77409,74280.16,BROOKWOOD MEDICAL CENTER
2.87,30.68546,-88.13170,18879.74,SPRINGHILL MEDICAL CENTER
2.11,31.43128,-86.94142,6969.91,EVERGREEN MEDICAL CENTER
3.08,32.38797,-86.17576,22327.77,BAPTIST MEDICAL CENTER EAST
2.71,34.49384,-87.72713,16422.71,RUSSELLVILLE HOSPITAL
3.02,33.16547,-86.25380,21369.62,COOSA VALLEY MEDICAL CENTER
3.00,31.01668,-87.47680,20995.00,ATMORE COMMUNITY HOSPITAL
4.67,60.94901,-149.17033,47362.62,PROVIDENCE ALASKA MEDICAL CENTER
3.86,61.56297,-149.25782,34568.82,MAT-SU REGIONAL MEDICAL CENTER
3.64,61.21082,-149.82866,31073.18,ALASKA REGIONAL HOSPITAL
3.19,60.49315,-151.07770,24046.83,CENTRAL PENINSULA GENERAL HOSPITAL
3.74,33.46514,-112.05797,32731.97,BANNER GOOD SAMARITAN MEDICAL CENTER
3.19,32.25294,-110.88135,24039.71,TUCSON MEDICAL CENTER
2.97,34.56017,-112.48217,20543.64,YAVAPAI REGIONAL MEDICAL CENTER
2.93,32.88123,-111.71067,19834.27,CASA GRANDE REGIONAL MEDICAL CENTER
4.19,35.20923,-111.64486,39827.45,FLAGSTAFF MEDICAL CENTER
4.39,33.48073,-112.07948,42872.30,ST JOSEPH'S HOSPITAL AND MEDICAL CENTER
4.18,33.29750,-111.87461,39587.98,CHANDLER REGIONAL MEDICAL CENTER
3.52,33.48885,-111.92387,29181.12,SCOTTSDALE HEALTHCARE-OSBORN MEDICAL CENTER
2.94,31.55116,-110.27248,19982.83,SIERRA VISTA REGIONAL HEALTH CENTER INC
3.63,35.22024,-114.03585,30916.76,KINGMAN REGIONAL MEDICAL CENTER
3.86,33.60432,-112.28378,34606.15,BANNER BOSWELL MEDICAL CENTER
3.53,33.39097,-111.87638,29370.93,BANNER DESERT MEDICAL CENTER
3.43,34.47988,-114.33938,27736.31,HAVASU REGIONAL MEDICAL CENTER
3.34,33.41128,-111.68916,26353.75,BANNER BAYWOOD MEDICAL CENTER
3.73,33.60949,-112.18129,32543.33,BANNER THUNDERBIRD MEDICAL CENTER
3.56,33.66596,-112.11618,29889.84,JOHN C LINCOLN DEER VALLEY HOSPITAL
3.92,33.65965,-112.37283,35559.48,BANNER DEL E WEBB MEDICAL CENTER
5.61,35.11068,-114.55505,62161.02,WESTERN ARIZONA REGIONAL MEDICAL CTR
2.96,34.58822,-112.33095,20415.44,YAVAPAI REGIONAL MEDICAL CENTER-EAST
4.26,33.28686,-111.75246,40877.40,MERCY GILBERT MEDICAL CENTER
3.23,33.67102,-111.92184,24643.64,SCOTTSDALE HEALTHCARE-THOMPSON PEAK HOSPITAL
2.95,36.18181,-94.54005,20175.00,SILOAM SPRINGS MEMORIAL HOSPITAL
3.08,36.10940,-94.16036,22176.11,WASHINGTON REGIONAL MED CTR AT NORTH HILLS
3.08,34.75031,-92.33897,22288.10,ST VINCENT INFIRMARY MEDICAL CENTER
2.61,36.31007,-94.18471,14819.68,MERCY MEDICAL CENTER
2.75,35.25046,-91.70056,16993.11,WHITE COUNTY MEDICAL CENTER
2.79,36.23579,-93.10717,17733.33,NORTH ARKANSAS REGIONAL MEDICAL CENTER
2.34,35.83746,-90.70386,10637.15,ST BERNARDS MEDICAL CTR
