size_charge,size_pay,lat,lon,charge,pay,name,Air,BloodInf,UrinaryInf,Falls double,Mismatch,Objects,Sores,Sugar
6.59,2.25,36.18082,-94.13644,31084.60,6636.36,NW ARKANSAS HOSPITALS, LLC,0.0,0.327,0.245,0.818,0.0,0.0,0.164,0.0
4.63,2.21,34.46784,-93.06667,20041.85,6409.23,ST JOSEPHS MERCY HEALTH CENTER INC,0.0,0.343,0.942,0.171,0.0,0.0,0.171,0.0
2.83,2.04,36.34295,-92.39442,9884.12,5439.79,BAXTER REGIONAL MEDICAL CENTER,0.0,0.0,0.484,0.194,0.0,0.097,0.194,0.0
4.03,2.17,35.08546,-92.45774,16627.68,6192.05,CONWAY REGIONAL MEDICAL CENTER,0.0,0.62,1.24,0.155,0.0,0.0,0.0,0.0
4.55,2.15,34.77770,-92.12539,19586.56,6089.11,BAPTIST HEALTH MEDICAL CENTER NORTH LITTLE ROCK,0.0,0.625,0.803,0.0,0.0,0.0,0.357,0.089
2.88,2.15,36.05214,-90.49908,10162.04,6068.48,ARKANSAS METHODIST MEDICAL CENTER,0.0,0.0,0.51,0.255,0.0,0.0,0.0,0.0
4.92,2.21,35.28275,-93.14901,21650.38,6415.71,ST MARYS REGIONAL MEDICAL CENTER,0.0,0.429,1.287,0.0,0.0,0.0,0.0,0.215
4.79,2.53,35.14320,-90.18837,20924.24,8208.76,CRITTENDEN MEMORIAL HOSPITAL,0.0,0.303,0.303,0.0,0.0,0.0,0.0,0.0
3.02,2.23,33.57575,-92.83683,10972.28,6530.44,OUACHITA COUNTY MEDICAL CENTER,0.0,0.0,1.123,0.0,0.0,0.0,0.0,0.0
3.50,2.21,35.37445,-94.41868,13672.44,6383.44,SPARKS REGIONAL MEDICAL CENTER,0.0,0.277,1.248,0.486,0.0,0.0,0.139,0.069
5.14,2.18,35.35395,-94.35262,22880.12,6216.36,ST EDWARD MERCY MEDICAL CENTER,0.0,0.604,0.302,0.906,0.0,0.0,0.101,0.0
2.79,2.28,33.27510,-93.24001,9673.91,6810.64,MAGNOLIA HOSPITAL,0.0,0.563,0.0,0.0,0.0,0.0,0.0,0.0
5.97,2.33,34.18894,-92.01886,27559.40,7078.09,JEFFERSON REGIONAL MEDICAL CENTER,0.0,0.453,0.567,0.0,0.0,0.0,0.113,0.0
3.36,2.34,34.51764,-91.55932,12887.75,7164.92,BAPTIST HEALTH MEDICAL CENTER-STUTTGART,0.0,0.0,0.537,0.0,0.0,0.0,0.0,0.0
3.07,2.26,34.35877,-92.78638,11265.18,6701.47,HOT SPRING COUNTY MEDICAL CENTER,0.0,0.0,1.401,0.0,0.0,0.0,0.0,0.0
6.98,2.29,34.48600,-93.03521,33287.86,6873.73,NATIONAL PARK MEDICAL CENTER,0.0,0.423,0.846,0.423,0.212,0.0,0.212,0.0
4.59,2.11,34.57290,-92.58508,19798.22,5846.81,SALINE MEMORIAL HOSPITAL,0.0,0.442,0.221,0.0,0.0,0.0,0.0,0.0
6.07,2.39,34.51022,-90.62718,28164.07,7393.00,HELENA REGIONAL MEDICAL CENTER,0.0,0.0,0.0,0.0,0.0,0.0,0.0,0.0
5.28,2.23,33.22053,-92.67102,23696.48,6530.35,MEDICAL CENTER SOUTH ARKANSAS,0.0,0.379,0.947,0.0,0.0,0.189,0.0,0.0
3.18,2.21,33.64905,-93.58704,11857.45,6427.65,MEDICAL PARK HOSPITAL,0.0,0.0,0.569,0.0,0.0,0.0,0.0,0.0
5.16,2.24,34.74866,-92.35422,23002.02,6575.56,BAPTIST HEALTH MEDICAL CENTER-LITTLE ROCK,0.0,0.656,0.656,0.231,0.0,0.039,0.347,0.077
4.22,2.27,35.80838,-90.66658,17745.13,6740.68,NEA BAPTIST MEMORIAL HOSPITAL,0.0,0.134,0.939,0.402,0.0,0.0,0.134,0.134
4.53,2.32,35.76927,-91.63408,19489.57,7047.64,WHITE RIVER MEDICAL CENTER,0.0,0.87,0.497,0.249,0.0,0.0,0.373,0.0
4.34,2.16,34.81290,-92.20814,18396.94,6146.35,ST VINCENT MEDICAL CENTER/NORTH,0.0,0.0,0.432,0.0,0.0,0.0,0.0,0.0
8.32,2.70,40.78366,-124.14246,40805.68,9160.14,ST JOSEPH HOSPITAL,0.0,0.179,0.716,0.0,0.0,0.179,0.179,0.0
8.82,2.60,37.59283,-122.38249,43636.98,8612.90,PENINSULA MEDICAL CENTER,0.0,0.495,0.619,1.114,0.0,0.0,0.0,0.0
14.68,2.77,37.76862,-122.43525,76641.72,9582.53,CALIFORNIA PACIFIC MEDICAL CTR-DAVIES CAMPUS HOSP,0.0,0.824,0.412,0.824,0.0,0.0,0.412,0.412
11.42,2.88,38.32472,-122.29671,58294.41,10189.12,QUEEN OF THE VALLEY MEDICAL CENTER,0.0,0.306,1.073,0.613,0.0,0.0,0.0,0.0
10.34,2.92,38.54384,-122.47401,52189.57,10432.10,ST HELENA HOSPITAL,0.0,0.206,0.618,1.648,0.0,0.0,0.0,0.0
7.12,2.58,38.35073,-120.76468,34064.12,8505.38,SUTTER AMADOR HOSPITAL,0.0,0.486,0.0,0.0,0.0,0.0,0.0,0.0
7.36,2.37,35.11346,-120.59054,35434.73,7330.27,ARROYO GRANDE COMMUNITY HOSPITAL,0.0,0.0,1.088,0.0,0.0,0.0,0.363,0.363
9.43,2.61,38.57053,-121.45216,47081.35,8650.98,MERCY GENERAL HOSPITAL,0.0,0.499,0.666,0.416,0.0,0.0,0.166,0.083
4.94,3.38,34.06505,-118.23913,21805.17,12989.00,PACIFIC ALLIANCE MEDICAL CENTER,0.0,0.0,0.0,0.0,0.0,0.0,0.0,0.356
11.11,2.84,33.97659,-117.38184,56524.11,9941.33,RIVERSIDE COMMUNITY HOSPITAL,0.0,0.54,0.432,0.324,0.0,0.0,0.0,0.216
6.25,2.85,32.68425,-117.08161,29165.10,10018.57,PARADISE VALLEY HOSPITAL,0.0,0.267,0.0,0.0,0.0,0.0,0.0,0.0
6.17,3.22,32.75426,-117.16592,28698.68,12103.29,UNIVERSITY OF CALIFORNIA SAN DIEGO MEDICAL CENTER,0.0,0.475,0.158,0.079,0.0,0.238,0.0,0.0
10.25,2.58,32.77495,-117.01467,51682.30,8478.70,GROSSMONT HOSPITAL,0.0,0.131,0.327,0.523,0.0,0.065,0.0,0.0
6.44,2.66,39.50528,-121.54100,30233.21,8911.71,OROVILLE HOSPITAL,0.0,0.366,0.61,0.0,0.0,0.0,0.244,0.0
10.98,2.63,35.38736,-119.01690,55820.20,8756.93,BAKERSFIELD MEMORIAL HOSPITAL,0.0,0.381,0.507,0.0,0.0,0.0,0.0,0.0
11.68,4.03,37.31288,-121.93329,59767.30,16656.75,SANTA CLARA VALLEY MEDICAL CENTER,0.0,0.196,0.589,0.786,0.0,0.0,0.589,0.0
8.65,2.39,39.74221,-121.85000,42688.41,7407.89,ENLOE MEDICAL CENTER,0.0,0.144,0.433,0.0,0.0,0.072,0.072,0.0
6.26,2.58,40.14813,-122.21934,29193.62,8487.69,ST ELIZABETH COMMUNITY HOSPITAL,0.0,0.0,0.392,0.0,0.0,0.0,0.0,0.0
12.21,3.16,37.82206,-122.26275,62737.60,11782.63,ALTA BATES SUMMIT MEDICAL CENTER,0.0,0.897,0.489,0.489,0.0,0.0,0.163,0.0
9.47,2.82,32.78037,-115.56848,47296.48,9863.07,EL CENTRO REGIONAL MEDICAL CENTER,0.0,0.0,0.23,0.0,0.0,0.0,0.0,0.0
12.69,3.31,37.79100,-122.43125,65422.02,12604.22,CALIFORNIA PACIFIC MEDICAL CTR-PACIFIC CAMPUS HOSP,0.0,0.689,0.536,0.842,0.0,0.0,0.153,0.0
6.01,2.56,33.93183,-116.94587,27787.62,8400.85,SAN GORGONIO MEMORIAL HOSPITAL,0.0,0.0,0.0,0.0,0.0,0.0,0.0,0.0
15.31,3.49,37.74717,-122.42088,80213.73,13587.82,CALIFORNIA PACIFIC MEDICAL CTR - ST. LUKE'S CAMPUS,0.0,0.821,0.821,0.41,0.0,0.0,0.41,0.0
5.55,2.83,34.67486,-118.15771,25237.02,9918.13,ANTELOPE VALLEY HOSPITAL MED CENTER,0.0,0.369,0.462,0.092,0.0,0.185,0.0,0.0
7.33,2.65,36.32737,-119.29548,35254.51,8889.27,KAWEAH DELTA MEDICAL CENTER,0.0,0.4,0.599,0.4,0.0,0.0,0.2,0.067
9.58,3.07,34.12834,-118.25777,47893.48,11232.36,GLENDALE MEM HOSPITAL & HLTH CENTER,0.0,0.231,0.463,0.116,0.0,0.0,0.116,0.0
8.49,3.06,36.73000,-119.78000,41769.11,11202.47,COMMUNITY REGIONAL MEDICAL CENTER,0.0,0.42,0.18,0.12,0.0,0.0,0.48,0.0
10.33,3.38,34.09643,-118.29103,52116.06,12969.88,HOLLYWOOD PRESBYTERIAN MEDICAL CENTER,0.0,0.695,0.139,0.834,0.0,0.0,0.0,0.0
8.96,2.48,33.78036,-117.86495,44436.71,7925.42,ST JOSEPH HOSPITAL,0.0,0.106,0.53,0.212,0.0,0.106,0.212,0.0
6.12,3.25,37.33569,-121.99595,28403.46,12280.77,KAISER FOUNDATION HOSPITAL-SANTA CLARA,0.0,0.112,0.56,1.456,0.0,0.0,0.112,0.112
6.28,2.74,37.89135,-122.05971,29304.91,9411.09,KAISER FOUNDATION HOSPITAL - WALNUT CREEK,0.0,0.298,0.149,0.596,0.0,0.0,0.149,0.149
5.23,2.58,38.12852,-122.24704,23432.85,8499.08,KAISER FOUNDATION HOSPITAL AND REHAB CENTER,0.0,0.0,0.0,0.784,0.0,0.0,0.392,0.392
5.81,2.86,37.82448,-122.25759,26691.03,10047.33,KAISER FOUNDATION HOSPITAL OAKLAND/RICHMOND,0.0,0.124,0.994,0.621,0.0,0.0,0.621,0.0
8.84,2.94,32.75143,-117.16083,43724.02,10522.62,SCRIPPS MERCY HOSPITAL,0.052,0.105,0.472,0.21,0.0,0.0,0.052,0.0
10.43,2.54,33.73798,-118.30525,52682.00,8288.82,PROVIDENCE LITTLE CO OF MARY MED CTR SAN PEDRO,0.0,0.294,0.0,0.0,0.0,0.294,0.0,0.0
11.87,3.02,37.95337,-122.33672,60816.34,10986.06,DOCTORS MEDICAL CENTER-SAN PABLO,0.0,0.0,0.203,1.829,0.0,0.0,0.406,0.203
10.85,2.66,34.21674,-119.15631,55078.79,8927.62,ST JOHNS REGIONAL MEDICAL CENTER,0.0,0.601,0.601,0.241,0.0,0.12,0.0,0.0
12.66,2.79,37.96987,-121.28873,65237.19,9663.54,ST JOSEPHS MED CENTER OF STOCKTON,0.0,0.222,0.296,0.518,0.0,0.148,0.0,0.0
7.03,3.02,34.13101,-117.32181,33549.39,10941.22,COMMUNITY HOSPITAL OF SAN BERNARDINO,0.0,1.585,0.396,0.0,0.0,0.0,0.0,0.0
5.60,2.73,38.28820,-122.46533,25514.15,9333.38,SONOMA VALLEY HOSPITAL,0.0,0.0,0.0,0.0,0.0,0.0,0.0,0.603
6.59,2.57,36.83532,-119.76562,31060.50,8413.84,SAINT AGNES MEDICAL CENTER,0.0,0.275,0.826,0.138,0.0,0.0,0.184,0.0
7.71,2.52,34.10130,-117.63651,37370.41,8161.37,SAN ANTONIO COMMUNITY HOSPITAL,0.0,0.539,0.673,0.135,0.0,0.0,0.135,0.0
10.35,2.68,32.79949,-117.15394,52263.22,9058.56,SHARP MEMORIAL HOSPITAL,0.0,0.288,0.672,0.48,0.0,0.096,0.0,0.0
11.93,3.10,38.13118,-122.23732,61136.80,11395.80,SUTTER SOLANO MEDICAL CENTER,0.0,0.0,1.022,0.341,0.0,0.0,0.0,0.0
8.39,2.81,33.92798,-117.43847,41239.09,9789.18,PARKVIEW COMMUNITY HOSPITAL MEDICAL CENTER,0.0,0.306,0.306,0.0,0.0,0.0,0.0,0.0
13.77,3.29,34.04932,-118.21746,71537.31,12468.38,WHITE MEMORIAL MEDICAL CENTER,0.0,0.339,0.904,0.0,0.0,0.0,0.113,0.0
10.33,3.48,33.92963,-118.20332,52111.67,13554.50,SAINT FRANCIS MEDICAL CENTER,0.0,0.684,0.171,0.342,0.0,0.0,0.0,0.0
9.52,2.67,34.95099,-120.41322,47604.21,9015.94,MARIAN MEDICAL CENTER,0.0,0.0,0.485,0.0,0.0,0.0,0.0,0.0
8.95,2.80,38.57155,-121.46874,44365.46,9755.72,SUTTER GENERAL HOSPITAL,0.0,0.129,0.579,0.643,0.0,0.0,0.0,0.0
2.91,2.46,34.64075,-120.43958,10353.73,7835.64,LOMPOC VALLEY MEDICAL CENTER,0.0,0.0,0.592,0.0,0.0,0.0,0.0,0.0
9.97,2.64,34.02685,-118.48651,50089.07,8850.17,SANTA MONICA - UCLA MED CTR & ORTHOPAEDIC HOSPITAL,0.0,0.45,0.36,0.629,0.0,0.0,0.0,0.0
8.48,2.44,33.12535,-117.07336,41742.15,7727.75,PALOMAR MEDICAL CENTER,0.0,0.56,0.56,0.224,0.0,0.0,0.224,0.112
15.12,2.77,34.22014,-118.53410,79128.95,9567.74,NORTHRIDGE HOSPITAL MEDICAL CENTER,0.0,1.27,0.098,0.586,0.0,0.195,0.098,0.0
16.60,2.46,37.80132,-121.19690,87431.32,7798.45,DOCTORS HOSPITAL OF MANTECA,0.0,0.31,0.0,1.862,0.0,0.0,0.31,0.0
6.35,2.65,36.32362,-119.66726,29735.00,8877.42,ADVENTIST MEDICAL CENTER,0.0,0.129,0.516,0.0,0.0,0.0,0.0,0.0
12.73,2.62,37.96125,-121.30103,65660.44,8741.19,DAMERON HOSPITAL,0.0,0.265,0.0,0.531,0.0,0.265,0.796,0.265
6.29,2.45,34.20495,-118.21589,29400.47,7765.33,VERDUGO HILLS HOSPITAL,0.0,0.0,0.0,0.0,0.0,0.0,0.545,0.0
21.75,3.53,37.36257,-121.84974,116470.57,13818.69,REGIONAL MEDICAL CENTER OF SAN JOSE,0.0,0.248,0.124,0.372,0.0,0.0,0.372,0.0
8.62,2.98,34.19494,-118.46319,42495.46,10757.29,VALLEY PRESBYTERIAN HOSPITAL,0.0,0.295,0.59,0.295,0.0,0.0,0.0,0.0
6.81,2.55,33.18402,-117.29661,32294.93,8313.52,TRI-CITY MEDICAL CENTER,0.0,0.196,0.294,2.551,0.0,0.196,0.196,0.0
7.31,2.72,34.13495,-117.27603,35125.48,9289.00,ST BERNARDINE MEDICAL CENTER,0.0,0.42,0.42,0.0,0.0,0.14,0.14,0.0
11.21,2.86,34.10081,-118.10588,57097.97,10073.40,SAN GABRIEL VALLEY MEDICAL CENTER,0.0,0.207,0.414,0.414,0.0,0.0,0.414,0.0
8.09,2.65,39.13822,-121.59436,39540.66,8908.74,RIDEOUT MEMORIAL HOSPITAL,0.0,0.727,0.83,0.311,0.0,0.104,0.0,0.104
14.33,2.75,38.25455,-122.63177,74652.94,9436.19,PETALUMA VALLEY HOSPITAL,0.0,0.776,0.0,0.0,0.0,0.0,0.0,0.0
7.25,2.99,34.09816,-118.29541,34796.38,10787.69,KAISER FOUNDATION HOSPITAL - LOS ANGELES,0.116,0.231,0.231,0.347,0.0,0.0,0.116,0.0
9.82,3.04,36.57886,-121.91316,49269.76,11094.25,COMMUNITY HOSPITAL OF THE MONTEREY PENINSULA,0.0,0.488,0.781,0.098,0.0,0.098,0.098,0.0
7.84,3.28,34.03705,-118.26575,38094.92,12432.31,CALIFORNIA HOSPITAL MEDICAL CENTER LA,0.0,0.0,0.24,0.479,0.0,0.0,0.0,0.0
6.90,2.54,39.22809,-121.04721,32843.18,8254.80,SIERRA NEVADA MEMORIAL HOSPITAL,0.0,0.777,0.388,0.388,0.0,0.0,0.0,0.194
14.59,3.23,37.78963,-122.41700,76152.19,12149.69,SAINT FRANCIS MEMORIAL HOSPITAL,0.0,1.236,0.742,0.742,0.0,0.0,0.0,0.0
15.35,3.02,37.32710,-121.93863,80433.79,10982.74,O'CONNOR HOSPITAL,0.0,0.121,0.364,0.486,0.0,0.0,0.121,0.0
7.12,3.13,34.28029,-119.25410,34044.67,11588.40,VENTURA COUNTY MEDICAL CENTER,0.0,0.375,0.75,1.501,0.0,0.0,0.375,0.375
8.79,2.37,33.89465,-117.92716,43445.63,7301.33,ST JUDE MEDICAL CENTER,0.0,0.103,0.309,0.516,0.0,0.0,0.206,0.0
12.24,2.54,33.96860,-118.04831,62873.45,8291.78,PRESBYTERIAN INTERCOMMUNITY HOSPITAL,0.074,0.298,0.521,0.298,0.0,0.0,0.744,0.074
13.43,2.81,38.44369,-122.70138,69577.11,9797.71,SANTA ROSA MEMORIAL HOSPITAL,0.0,0.0,0.389,0.389,0.0,0.0,0.0,0.0
14.08,2.76,37.51164,-120.83800,73240.34,9519.24,EMANUEL MEDICAL CENTER INC,0.0,0.147,0.587,0.0,0.0,0.0,0.0,0.0
16.73,2.92,37.91341,-122.04163,88194.49,10427.50,JOHN MUIR MEDICAL CENTER - WALNUT CREEK CAMPUS,0.0,0.082,0.245,0.735,0.0,0.0,0.082,0.082
9.09,3.01,33.77991,-118.18602,45134.75,10935.21,ST MARY MEDICAL CENTER,0.0,0.0,0.523,0.0,0.0,0.174,0.0,0.0
17.70,3.34,36.92821,-121.79360,93651.94,12757.94,WATSONVILLE COMMUNITY HOSPITAL,0.0,0.317,0.0,0.0,0.0,0.0,0.0,0.0
16.29,3.05,37.55717,-121.98126,85715.26,11142.39,WASHINGTON HOSPITAL,0.0,0.196,0.785,0.589,0.0,0.098,0.0,0.098
15.80,2.71,37.48000,-122.25441,82961.41,9207.97,SEQUOIA HOSPITAL,0.0,0.0,0.74,0.74,0.0,0.0,0.0,0.0
8.28,2.57,34.58305,-118.14490,40570.40,8458.00,PALMDALE REGIONAL MEDICAL CENTER,0.0,0.0,0.231,0.0,0.0,0.0,0.0,0.231
7.23,2.86,37.76288,-122.25412,34666.91,10059.00,ALAMEDA HOSPITAL,0.0,0.0,0.39,0.0,0.0,0.0,0.0,0.0
12.29,2.72,32.61972,-117.02278,63167.89,9284.06,SHARP CHULA VISTA MEDICAL CENTER,0.0,0.355,1.421,0.355,0.0,0.0,0.0,0.0
5.52,2.32,33.62229,-117.92995,25032.98,7016.14,HOAG MEMORIAL HOSPITAL PRESBYTERIAN,0.0,0.544,0.302,0.363,0.0,0.0,0.06,0.0
13.91,2.48,39.75720,-121.57018,72312.40,7914.14,FEATHER RIVER HOSPITAL,0.0,0.199,0.596,0.794,0.0,0.0,0.0,0.397
10.16,2.53,33.84780,-117.93661,51183.17,8210.38,AHMC ANAHEIM REGIONAL MEDICAL CENTER,0.0,0.632,0.474,0.0,0.0,0.0,0.0,0.158
20.89,5.40,37.75676,-122.40461,111618.16,24352.05,SAN FRANCISCO GENERAL HOSPITAL,0.0,0.0,0.626,0.209,0.0,0.209,0.417,0.209
9.07,3.23,33.77483,-117.91329,45039.24,12146.35,GARDEN GROVE HOSPITAL & MEDICAL CENTER,0.0,0.892,0.297,0.0,0.0,0.0,0.0,0.0
14.26,3.06,34.07709,-117.75063,74295.55,11198.76,POMONA VALLEY HOSPITAL MEDICAL CENTER,0.0,0.211,0.211,0.106,0.0,0.106,0.0,0.0
9.44,2.37,35.27882,-120.65047,47142.61,7289.28,FRENCH HOSPITAL MEDICAL CENTER,0.0,0.0,0.467,0.467,0.0,0.0,0.0,0.0
16.06,2.65,34.15601,-118.32834,84423.49,8901.84,PROVIDENCE SAINT JOSEPH MEDICAL CTR,0.0,0.58,0.248,0.166,0.0,0.0,0.0,0.0
10.04,2.46,34.28920,-118.74484,50484.19,7830.92,SIMI VALLEY HOSPITAL & HEALTH CARE SERVICES,0.0,0.0,0.0,0.0,0.0,0.0,0.25,0.0
10.30,2.63,34.13973,-118.03534,51944.93,8788.08,METHODIST HOSPITAL OF SOUTHERN CA,0.0,0.262,1.397,0.175,0.0,0.087,0.087,0.087
15.24,3.06,34.14987,-118.23117,79808.87,11192.29,GLENDALE ADVENTIST MEDICAL CENTER,0.0,0.23,1.075,0.0,0.0,0.0,0.154,0.0
9.30,2.73,36.98999,-121.98357,46348.69,9344.10,DOMINICAN HOSPITAL,0.0,0.241,0.723,0.844,0.0,0.0,0.121,0.0
13.89,2.61,33.83862,-116.54557,72176.29,8643.39,DESERT REGIONAL MEDICAL CENTER,0.0,0.507,0.71,0.0,0.0,0.0,0.0,0.0
9.64,3.46,34.07389,-117.35111,48277.29,13432.64,ARROWHEAD REGIONAL MEDICAL CENTER,0.0,0.44,1.1,0.0,0.0,0.0,0.0,0.0
11.01,2.62,38.72562,-120.79096,55950.40,8718.67,MARSHALL MEDICAL CENTER (1-RH),0.0,0.0,0.57,2.281,0.0,0.0,0.0,0.0
5.95,2.75,36.06956,-119.02748,27478.23,9452.41,SIERRA VIEW DISTRICT HOSPITAL,0.0,1.188,0.396,0.396,0.0,0.0,0.198,0.0
12.19,3.83,34.06675,-118.44613,62601.40,15517.74,RONALD REAGAN UCLA MEDICAL CENTER,0.079,0.707,0.786,0.472,0.0,0.157,0.707,0.236
8.90,2.50,34.03721,-117.20474,44094.64,8051.64,REDLANDS COMMUNITY HOSPITAL,0.0,0.282,0.0,0.0,0.0,0.0,0.0,0.0
16.20,2.66,34.27915,-118.46006,85191.76,8924.87,PROVIDENCE HOLY CROSS MEDICAL CENTER,0.0,0.514,0.0,0.0,0.0,0.0,0.0,0.128
7.15,2.79,34.13075,-116.27502,34236.76,9683.00,HI-DESERT MEDICAL CENTER,0.0,1.576,0.525,0.0,0.0,0.0,0.0,0.0
8.58,2.72,40.58654,-122.39168,42281.40,9264.55,MERCY MEDICAL CENTER REDDING,0.0,0.238,0.713,0.079,0.0,0.0,0.079,0.0
9.71,3.00,34.09049,-118.14410,48666.36,10840.09,ALHAMBRA HOSPITAL MEDICAL CENTER,0.0,0.0,0.0,0.0,0.0,0.0,0.0,0.0
12.64,2.74,37.69502,-121.88095,65153.19,9410.74,VALLEYCARE MEDICAL CENTER,0.0,1.221,0.814,0.407,0.0,0.0,0.0,0.0
17.80,3.01,37.67947,-122.47447,94193.00,10935.45,SETON MEDICAL CENTER,0.0,0.253,0.38,0.127,0.0,0.0,0.127,0.127
7.85,2.32,34.03009,-118.47833,38198.07,7029.07,SAINT JOHN'S HEALTH CENTER,0.0,0.165,0.248,0.0,0.0,0.0,0.165,0.0
10.74,3.05,33.91173,-117.19590,54421.81,11163.62,RIVERSIDE COUNTY REGIONAL MEDICAL CENTER,0.0,0.463,0.463,0.231,0.0,0.0,0.0,0.0
8.17,2.48,35.37279,-119.02817,39945.71,7942.48,MERCY HOSPITAL,0.0,0.74,0.555,0.0,0.0,0.0,0.555,0.0
8.03,2.64,34.50107,-117.17285,39169.27,8806.00,ST MARY MEDICAL CENTER,0.0,0.245,0.368,0.0,0.0,0.0,0.0,0.0
5.07,2.60,39.15350,-123.20435,22534.43,8589.22,UKIAH VALLEY MEDICAL CENTER/HOSPITAL D,0.0,0.0,0.0,0.0,0.0,0.0,0.0,0.0
11.93,3.23,37.85593,-122.25730,61149.14,12126.26,ALTA BATES SUMMIT MEDICAL CENTER - ALTA BATES CAMP,0.0,0.134,0.937,0.669,0.0,0.0,0.134,0.134
11.81,2.75,37.36934,-122.08047,60476.97,9462.86,EL CAMINO HOSPITAL,0.0,0.83,0.554,1.015,0.0,0.277,0.185,0.0
7.98,2.57,38.76514,-121.24979,38909.82,8438.23,SUTTER ROSEVILLE MEDICAL CENTER,0.0,0.208,0.415,0.83,0.0,0.0,0.0,0.0
7.71,2.56,37.74409,-121.43469,37397.46,8357.15,SUTTER TRACY COMMUNITY HOSPITAL,0.0,0.0,0.347,0.0,0.0,0.0,0.0,0.0
12.93,2.72,32.88461,-117.22244,66787.62,9262.29,SCRIPPS MEMORIAL HOSPITAL LA JOLLA,0.0,0.344,0.458,1.146,0.0,0.0,0.229,0.0
7.76,3.30,34.05076,-117.26395,37681.67,12534.67,LOMA LINDA UNIVERSITY MEDICAL CENTER,0.0,1.539,0.513,0.366,0.0,0.0,0.147,0.147
6.75,2.71,33.87236,-117.56809,31965.67,9232.00,CORONA REGIONAL MEDICAL CENTER,0.0,0.496,0.248,0.248,0.0,0.0,0.0,0.0
9.38,3.04,36.65910,-121.64630,46812.68,11059.39,SALINAS VALLEY MEMORIAL HOSPITAL,0.0,0.227,0.453,0.113,0.0,0.113,0.0,0.0
8.27,2.84,37.97780,-120.37150,40531.93,9959.04,SONORA REGIONAL MEDICAL CENTER,0.0,0.0,0.645,0.215,0.0,0.0,0.645,0.0
14.83,2.65,38.12186,-121.28665,77457.52,8911.04,LODI MEMORIAL HOSPITAL,0.0,0.76,0.76,0.76,0.0,0.0,0.0,0.0
7.62,2.75,32.95813,-115.55388,36874.36,9440.41,PIONEERS MEMORIAL HEALTHCARE DISTRICT,0.0,0.0,0.793,0.0,0.0,0.0,0.0,0.0
20.54,4.74,33.78798,-117.89026,109656.56,20647.56,UNIVERSITY OF CALIFORNIA IRVINE MED CENTER,0.0,0.652,0.261,0.522,0.0,0.0,0.13,0.391
4.90,2.86,34.01501,-118.10064,21538.39,10052.39,BEVERLY HOSPITAL,0.0,0.203,0.407,0.0,0.0,0.0,0.0,0.0
11.64,2.48,33.81131,-118.34364,59495.20,7920.82,TORRANCE MEMORIAL MEDICAL CENTER,0.0,0.585,0.418,0.167,0.0,0.0,0.418,0.0
11.00,2.43,33.83891,-118.35677,55897.27,7663.69,PROVIDENCE LITTLE COMPANY OF MARY MED CTR TORRANCE,0.0,0.179,0.089,0.089,0.0,0.0,0.0,0.0
5.09,2.78,36.22008,-119.33764,22651.67,9639.00,TULARE REGIONAL MEDICAL CENTER,0.0,0.599,0.0,0.0,0.0,0.0,0.3,0.0
15.77,2.79,37.94748,-122.53677,82804.63,9693.97,MARIN GENERAL HOSPITAL,0.0,0.759,0.379,0.379,0.0,0.126,0.0,0.0
17.64,3.06,38.26174,-122.04662,93309.47,11220.50,NORTHBAY MEDICAL CENTER,0.0,0.52,0.26,0.26,0.0,0.0,0.26,0.0
15.56,4.82,34.06034,-118.21014,81605.08,21090.15,LAC+USC MEDICAL CENTER,0.0,1.243,0.621,0.0,0.0,0.311,0.0,0.0
7.37,3.82,33.83043,-118.29402,35467.55,15474.45,LAC/HARBOR-UCLA MED CENTER,0.0,1.155,0.385,0.385,0.0,0.0,0.0,0.0
16.55,2.84,37.25153,-121.94684,87154.05,9952.26,GOOD SAMARITAN HOSPITAL,0.0,0.222,0.998,1.996,0.0,0.0,0.111,0.0
6.14,2.94,34.08802,-117.89341,28529.19,10490.72,CITRUS VALLEY MEDICAL CENTER-IC CAMPUS,0.0,1.315,0.088,0.263,0.0,0.088,0.0,0.0
5.06,2.83,38.39711,-122.81924,22481.54,9910.00,PALM DRIVE HOSPITAL,0.0,0.0,0.724,0.0,0.0,0.0,0.0,0.0
5.11,2.53,33.75117,-116.96028,22765.17,8211.09,HEMET VALLEY MEDICAL CENTER,0.0,0.274,0.137,0.274,0.0,0.0,0.137,0.0
13.08,2.79,33.93530,-118.13030,67644.21,9692.92,DOWNEY REGIONAL MEDICAL CENTER,0.0,0.33,0.11,0.0,0.0,0.0,0.0,0.0
7.68,2.45,34.27459,-119.25812,37238.81,7733.74,COMMUNITY MEMORIAL HOSPITAL SAN BUENAVENTURA,0.0,0.114,0.114,0.114,0.0,0.114,0.341,0.114
10.69,2.85,34.42951,-119.72333,54166.87,10012.90,SANTA BARBARA COTTAGE HOSPITAL,0.0,0.0,0.239,0.159,0.0,0.0,0.08,0.08
7.68,2.35,38.67039,-121.14552,37205.46,7194.69,MERCY HOSPITAL OF FOLSOM,0.0,0.64,0.32,0.32,0.0,0.0,0.0,0.0
7.04,2.85,41.77451,-124.19400,33610.46,9997.62,SUTTER COAST HOSPITAL,0.0,0.496,0.496,0.991,0.0,0.0,0.0,0.0
8.44,3.44,32.89810,-117.24217,41501.48,13339.76,SCRIPPS GREEN HOSPITAL,0.0,0.528,0.352,0.616,0.0,0.0,0.0,0.0
6.10,2.50,38.60127,-121.39412,28326.48,8043.28,KAISER FOUNDATION HOSPITAL - SACRAMENTO,0.0,0.261,0.392,1.697,0.0,0.0,0.131,0.0
8.33,2.60,33.82557,-117.99493,40854.35,8627.00,WEST ANAHEIM MEDICAL CENTER,0.0,0.191,0.191,0.0,0.0,0.0,0.0,0.0
10.79,2.67,34.13364,-118.15275,54742.59,8977.28,HUNTINGTON MEMORIAL HOSPITAL,0.0,0.171,0.514,0.171,0.0,0.0,0.057,0.057
21.99,4.25,37.43436,-122.18013,117787.77,17870.53,STANFORD HOSPITAL,0.0,0.28,0.449,0.337,0.0,0.0,0.112,0.112
9.68,2.86,37.34027,-120.46817,48497.26,10079.19,MERCY MEDICAL CENTER,0.0,0.358,0.597,0.119,0.0,0.0,0.0,0.0
16.19,4.04,37.76421,-122.45716,85166.11,16702.67,UCSF MEDICAL CENTER,0.0,0.738,0.492,0.492,0.0,0.123,0.123,0.0
8.32,2.66,35.38338,-119.01969,40801.17,8935.62,SAN JOAQUIN COMMUNITY HOSPITAL,0.0,0.606,0.242,0.0,0.0,0.0,0.0,0.0
12.02,3.24,37.77449,-122.45429,61629.00,12201.64,ST MARY'S MEDICAL CENTER,0.0,0.171,0.513,0.0,0.0,0.0,0.0,0.0
23.43,2.87,37.66540,-120.99743,125909.74,10107.12,DOCTORS MEDICAL CENTER,0.0,0.232,0.928,0.464,0.0,0.0,0.116,0.0
10.10,3.01,34.05336,-118.26558,50857.36,10902.25,GOOD SAMARITAN HOSPITAL,0.0,0.096,0.861,0.096,0.0,0.0,0.191,0.0
12.30,2.43,34.20285,-118.62962,63254.03,7633.69,WEST HILLS HOSPITAL & MEDICAL CENTER,0.0,0.0,0.581,0.726,0.0,0.145,0.29,0.0
11.10,2.87,33.80861,-118.18661,56494.14,10097.74,LONG BEACH MEMORIAL MEDICAL CENTER,0.0,0.66,0.6,0.42,0.0,0.0,0.0,0.06
11.54,3.03,37.69824,-122.08730,58963.95,11011.21,EDEN MEDICAL CENTER,0.0,0.431,0.0,0.431,0.0,0.0,0.288,0.288
7.50,2.48,36.83863,-119.66183,36214.64,7923.71,CLOVIS COMMUNITY MEDICAL CENTER,0.0,0.892,0.297,0.0,0.0,0.0,0.0,0.0
13.93,2.74,37.98396,-122.03464,72412.17,9363.25,JOHN MUIR MEDICAL CENTER - CONCORD CAMPUS,0.0,0.512,0.256,0.64,0.0,0.0,0.0,0.0
6.16,2.46,38.94514,-121.10174,28671.77,7819.38,SUTTER AUBURN FAITH HOSPITAL,0.0,0.0,0.0,0.287,0.0,0.0,0.0,0.0
10.39,3.08,34.06389,-118.27347,52464.24,11320.68,SAINT VINCENT MEDICAL CENTER,0.0,0.863,0.0,0.0,0.0,0.0,0.108,0.0
7.33,2.43,33.03634,-117.28487,35218.15,7632.36,SCRIPPS MEMORIAL HOSPITAL - ENCINITAS,0.0,0.19,0.569,0.569,0.0,0.19,0.0,0.0
15.97,2.54,35.29188,-120.66635,83908.94,8243.14,SIERRA VISTA REGIONAL MEDICAL CENTER,0.0,0.62,0.31,0.0,0.0,0.0,0.0,0.0
6.42,2.67,37.63058,-122.09502,30092.58,9005.00,KAISER FOUNDATION HOSPITAL FREMONT/HAYWARD,0.0,0.0,0.296,0.739,0.0,0.0,0.0,0.148
9.53,2.92,38.66956,-121.31378,47639.91,10430.05,MERCY SAN JUAN MEDICAL CENTER,0.0,0.085,0.34,0.17,0.0,0.0,0.17,0.085
10.73,2.97,37.98224,-121.80362,54386.36,10695.96,SUTTER DELTA MEDICAL CENTER,0.0,1.247,1.069,0.356,0.0,0.178,0.0,0.0
11.73,2.99,33.68179,-116.23394,60044.64,10805.82,JOHN F KENNEDY MEMORIAL HOSPITAL, INC,0.0,0.576,0.864,0.0,0.0,0.0,0.288,0.0
6.60,2.57,38.56276,-121.77207,31155.00,8454.79,SUTTER DAVIS HOSPITAL,0.0,0.559,0.0,0.0,0.0,0.0,0.0,0.0
6.49,2.56,37.48897,-122.22322,30525.54,8391.85,KAISER FOUNDATION HOSPITAL - REDWOOD CITY,0.0,0.0,0.355,1.065,0.0,0.0,0.0,0.0
10.28,2.68,34.20777,-118.88305,51829.01,9076.96,LOS ROBLES HOSPITAL & MEDICAL CENTER,0.0,0.543,0.633,0.543,0.0,0.181,0.0,0.09
13.16,2.47,33.80441,-118.06665,68074.00,7847.84,LOS ALAMITOS MEDICAL CENTER,0.0,0.563,0.563,1.314,0.0,0.188,0.188,0.0
10.07,2.57,37.66867,-120.97339,50658.98,8438.77,MEMORIAL  MEDICAL CENTER,0.0,0.667,0.167,0.25,0.0,0.0,0.0,0.0
11.43,2.54,33.56100,-117.66530,58310.07,8241.44,MISSION HOSPITAL REGIONAL MED CENTER,0.0,0.311,0.466,0.233,0.0,0.078,0.233,0.0
11.35,3.02,33.71466,-117.93322,57908.57,10987.43,FOUNTAIN VALLEY REGIONAL HOSPITAL & MEDICAL CENTER,0.0,0.882,0.196,0.0,0.0,0.0,0.0,0.0
13.43,2.42,33.76335,-116.40628,69597.35,7610.20,EISENHOWER MEDICAL CENTER,0.0,0.344,0.589,0.393,0.0,0.049,0.0,0.049
6.27,2.84,33.84753,-118.03841,29263.00,9975.86,LA PALMA INTERCOMMUNITY HOSPITAL,0.0,0.318,0.0,0.0,0.0,0.0,0.0,0.0
10.54,2.54,33.84932,-118.15323,53316.00,8279.91,LAKEWOOD REGIONAL MEDICAL CENTER,0.0,0.143,0.57,0.143,0.0,0.0,0.0,0.0
10.26,2.91,38.46387,-121.41645,51722.33,10366.52,METHODIST HOSPITAL OF SACRAMENTO,0.0,0.565,0.0,0.377,0.0,0.0,0.188,0.188
18.17,3.56,38.55484,-121.45628,96271.54,14034.56,UNIVERSITY OF CALIFORNIA DAVIS MEDICAL CENTER,0.0,1.915,0.479,2.668,0.0,0.137,0.0,0.137
8.94,2.33,33.60883,-117.70881,44291.51,7071.58,SADDLEBACK MEMORIAL MEDICAL CENTER,0.0,0.0,0.267,0.534,0.0,0.0,0.067,0.067
8.73,3.06,35.76216,-119.23889,43118.09,11215.00,DELANO REGIONAL MEDICAL CENTER,0.0,0.0,0.525,0.0,0.0,0.0,0.0,0.525
9.57,2.38,34.24359,-119.01992,47832.89,7341.22,ST JOHNS PLEASANT VALLEY HOSPITAL,0.0,0.846,0.282,0.846,0.0,0.0,0.0,0.0
13.87,2.48,34.39755,-118.55330,72052.35,7951.31,HENRY MAYO NEWHALL MEMORIAL HOSPITAL,0.0,0.99,0.66,0.495,0.0,0.0,0.33,0.0
17.94,3.22,34.07664,-118.37955,94985.26,12095.23,CEDARS-SINAI MEDICAL CENTER,0.0,0.348,0.294,0.268,0.0,0.107,0.241,0.0
13.07,2.47,35.55536,-120.72067,67589.45,7868.24,TWIN CITIES COMMUNITY HOSPITAL,0.0,0.951,0.571,0.0,0.0,0.0,0.0,0.0
7.98,2.34,32.99711,-117.05783,38885.94,7121.28,POMERADO HOSPITAL,0.0,0.0,0.241,0.0,0.0,0.0,0.0,0.241
5.35,3.11,34.01936,-118.18661,24079.89,11451.06,LOS ANGELES COMMUNITY HOSPITAL,0.0,0.0,0.0,0.0,0.0,0.0,0.194,0.0
5.51,2.59,38.46958,-121.41947,24996.50,8536.81,KAISER FOUNDATION HOSP SO SACRAMENTO,0.0,0.0,0.363,3.088,0.0,0.0,0.545,0.363
8.64,2.47,33.70167,-117.95566,42640.61,7882.43,ORANGE COAST MEMORIAL MEDICAL CENTER,0.0,0.223,0.0,0.0,0.0,0.0,0.0,0.223
15.67,3.27,37.03560,-121.57109,82190.71,12352.83,SAINT LOUISE REGIONAL HOSPITAL,0.0,0.0,0.776,0.0,0.0,0.0,0.0,0.0
14.24,2.57,37.77577,-121.95824,74140.15,8431.31,SAN RAMON REGIONAL MEDICAL CTR,0.0,0.325,0.325,0.0,0.0,0.325,0.0,0.325
15.76,3.23,34.06193,-118.20157,82711.83,12139.83,KECK HOSPITAL OF USC,0.0,0.521,1.042,0.0,0.0,0.0,0.13,0.0
5.67,2.53,33.55876,-117.18329,25901.83,8197.17,SOUTHWEST HEALTHCARE SYSTEM,0.0,0.0,1.03,0.257,0.0,0.0,0.129,0.0
6.00,2.54,34.47174,-117.29791,27739.07,8239.00,DESERT VALLEY HOSPITAL,0.0,0.0,0.0,0.0,0.0,0.0,0.0,0.0
8.38,2.42,35.38506,-119.03992,41133.65,7586.00,BAKERSFIELD HEART HOSPITAL,0.0,0.0,0.213,0.0,0.0,0.0,0.0,0.0
15.08,2.59,33.78824,-118.14563,78897.58,8564.75,COMMUNITY HOSPITAL OF LONG BEACH,0.0,0.0,0.0,0.0,0.0,0.0,0.0,0.0
9.40,2.90,33.95038,-118.00463,46878.55,10273.18,WHITTIER HOSPITAL MEDICAL CENTER,0.0,0.0,0.33,0.0,0.0,0.0,0.0,0.0
14.35,3.28,34.06760,-118.12291,74761.21,12453.41,GARFIELD MEDICAL CENTER,0.0,0.0,0.0,0.154,0.0,0.0,0.0,0.0
9.60,2.79,33.95076,-118.34828,48018.60,9689.91,CENTINELA HOSPITAL MEDICAL CENTER,0.0,0.139,0.279,0.0,0.0,0.07,0.139,0.0
9.30,2.38,33.98219,-118.43930,46348.00,7381.57,MARINA DEL REY HOSPITAL,0.0,0.0,0.0,0.0,0.0,0.0,0.295,0.0
15.07,2.61,34.05723,-118.36025,78829.91,8642.72,OLYMPIA MEDICAL CENTER,0.0,1.391,0.506,0.379,0.0,0.0,0.253,0.0
10.82,3.06,33.75286,-117.83409,54895.42,11201.84,WESTERN MEDICAL CENTER SANTA ANA,0.0,0.597,0.895,0.298,0.0,0.0,0.895,0.0
11.02,2.66,34.02303,-118.39741,56010.89,8958.00,BROTMAN MEDICAL CENTER,0.0,0.494,0.0,0.0,0.0,0.0,0.0,0.0
6.72,2.65,32.77629,-117.05730,31792.00,8881.96,ALVARADO HOSPITAL MEDICAL CENTER,0.0,0.667,0.133,0.0,0.0,0.0,0.133,0.0
17.14,2.61,34.17067,-118.53200,90474.38,8637.70,PROVIDENCE TARZANA MEDICAL CENTER,0.0,1.031,0.344,0.258,0.0,0.0,0.172,0.086
8.17,2.63,40.58532,-122.38702,39984.96,8795.09,SHASTA REGIONAL MEDICAL CENTER,0.0,0.0,0.113,0.225,0.0,0.113,0.0,0.0
5.31,2.40,40.41481,-104.70890,23850.42,7453.18,NORTH COLORADO MEDICAL CENTER,0.0,0.0,0.603,0.345,0.0,0.0,0.172,0.0
7.01,2.57,40.18134,-105.12769,33460.23,8426.77,LONGMONT UNITED HOSPITAL,0.0,0.0,0.536,0.0,0.0,0.0,0.536,0.179
3.31,2.24,38.48040,-107.86857,12592.00,6565.33,MONTROSE MEMORIAL HOSPITAL,0.0,0.0,0.8,0.4,0.0,0.0,0.0,0.0
3.86,2.46,37.47150,-105.88350,15717.50,7817.86,SAN LUIS VALLEY REGIONAL MEDICAL CENTER,0.0,0.0,0.0,0.0,0.0,0.0,0.0,0.0
7.87,2.27,39.76893,-105.09006,38255.23,6735.48,EXEMPLA LUTHERAN MEDICAL CENTER,0.109,0.437,0.219,0.328,0.0,0.109,0.0,0.109
5.02,2.26,40.57315,-105.05741,22253.24,6704.85,POUDRE VALLEY HOSPITAL,0.0,0.181,0.543,0.362,0.0,0.0,0.0,0.091
7.14,2.35,38.23421,-104.62292,34156.82,7166.45,CENTURA HEALTH-ST MARY CORWIN MEDICAL CENTER,0.0,0.304,1.064,0.152,0.0,0.304,0.456,0.0
4.86,2.55,37.23629,-107.82578,21343.38,8303.00,MERCY REGIONAL MEDICAL CENTER,0.0,0.0,0.0,0.0,0.0,0.0,0.0,0.0
7.59,2.28,39.71712,-105.12874,36714.21,6811.38,CENTURA HEALTH-ST ANTHONY HOSPITAL,0.0,0.256,0.384,0.639,0.0,0.0,0.0,0.128
4.57,2.50,38.45565,-105.23021,19692.17,8022.44,CENTURA HEALTH-ST THOMAS MORE HOSPITAL,0.0,1.542,2.569,1.028,0.0,0.0,0.0,0.0
6.24,2.31,38.28184,-104.61256,29128.94,6955.04,PARKVIEW MEDICAL CENTER INC,0.0,0.206,0.619,0.206,0.0,0.0,0.31,0.0
5.76,2.26,38.83903,-104.80024,26379.05,6699.18,MEMORIAL HOSPITAL CENTRAL,0.0,0.363,0.544,0.06,0.0,0.0,0.0,0.181
5.34,2.47,39.09046,-108.56190,24025.42,7874.60,ST MARYS HOSPITAL AND MEDICAL CENTER,0.0,0.976,0.759,1.193,0.0,0.0,0.217,0.108
10.59,3.38,39.74234,-104.84156,53608.47,12988.89,UNIVERSITY OF COLORADO HOSPITAL ANSCHUTZ INPATIENT,0.0,0.843,0.169,1.096,0.0,0.0,0.084,0.0
6.88,2.14,40.02615,-105.28391,32703.30,5982.87,BOULDER COMMUNITY HOSPITAL,0.0,0.192,0.192,0.0,0.0,0.0,0.0,0.0
4.76,2.24,40.41320,-105.05139,20757.77,6562.63,MCKEE MEDICAL CENTER,0.0,0.0,0.0,0.252,0.0,0.0,0.0,0.0
6.06,2.20,38.86559,-104.82182,28115.69,6374.54,CENTURA HEALTH-PENROSE ST FRANCIS HEALTH SERVICES,0.0,0.655,0.298,0.119,0.0,0.0,0.238,0.0
9.39,2.40,39.73231,-104.93396,46845.83,7485.76,ROSE MEDICAL CENTER,0.0,2.064,0.551,1.789,0.0,0.0,0.275,0.138
10.08,2.35,39.65399,-104.98116,50717.84,7175.08,SWEDISH MEDICAL CENTER,0.0,1.376,0.994,0.688,0.0,0.076,0.0,0.306
4.61,2.18,39.08601,-108.55355,19931.47,6246.27,COMMUNITY HOSPITAL,0.0,0.513,1.026,0.513,0.0,0.0,0.0,0.0
7.63,2.35,39.67005,-104.97490,36926.33,7212.11,CENTURA HEALTH-PORTER ADVENTIST HOSPITAL,0.0,0.158,0.947,0.473,0.0,0.0,0.0,0.0
8.45,2.36,39.68859,-104.83205,41536.24,7252.59,MEDICAL CENTER OF AURORA, THE,0.0,0.92,1.022,0.409,0.0,0.0,0.102,0.0
7.47,2.41,39.84960,-105.01825,36017.08,7549.15,CENTURA HEALTH-ST ANTHONY NORTH HOSPITAL,0.0,0.581,0.968,0.387,0.0,0.0,0.194,0.0
8.67,2.30,39.52910,-104.87121,42788.76,6936.59,SKY RIDGE MEDICAL CENTER,0.0,0.298,0.745,0.298,0.0,0.0,0.0,0.0
8.91,2.22,39.57629,-104.98610,44117.59,6460.78,CENTURA HEALTH-LITTLETON ADVENTIST HOSPITAL,0.0,0.0,0.35,0.175,0.0,0.0,0.175,0.0
7.28,2.20,39.97043,-105.08661,34939.75,6374.25,EXEMPLA GOOD SAMARITAN MEDICAL CENTER LLC,0.0,0.567,0.567,0.0,0.0,0.0,0.0,0.567
5.14,2.14,40.45184,-105.19608,22905.35,6015.69,MEDICAL CENTER OF THE ROCKIES,0.0,0.342,0.342,0.513,0.0,0.0,0.0,0.0
6.24,2.68,41.30978,-72.93806,29115.64,9075.43,HOSPITAL OF ST RAPHAEL,0.0,0.344,0.516,0.602,0.0,0.0,0.086,0.043
6.51,2.76,41.77507,-72.69941,30623.78,9512.85,ST FRANCIS HOSPITAL & MEDICAL CENTER,0.0,0.714,0.672,0.462,0.0,0.0,0.126,0.084
8.46,2.68,41.55959,-73.05941,41615.87,9059.75,WATERBURY HOSPITAL,0.0,0.629,0.45,0.09,0.0,0.09,0.09,0.0
9.08,2.67,41.05562,-73.55390,45089.47,9015.73,STAMFORD HOSPITAL,0.0,1.067,0.534,0.32,0.0,0.0,0.854,0.107
4.77,2.54,41.33722,-72.10380,20810.11,8252.76,LAWRENCE & MEMORIAL HOSPITAL,0.0,0.401,0.321,0.08,0.0,0.08,0.0,0.0
5.31,2.58,41.97762,-72.39127,23850.50,8504.75,JOHNSON MEMORIAL HOSPITAL,0.0,0.0,0.0,0.0,0.0,0.0,0.0,0.0
6.11,3.01,41.18881,-73.16645,28394.03,10905.46,BRIDGEPORT HOSPITAL,0.0,0.711,0.622,0.622,0.0,0.0,0.622,0.089
2.98,2.39,41.79153,-73.13382,10745.04,7444.72,CHARLOTTE HUNGERFORD HOSPITAL,0.0,0.0,0.494,0.165,0.0,0.0,0.165,0.0
6.21,2.55,41.58181,-73.40955,28955.43,8315.50,NEW MILFORD HOSPITAL,0.0,0.0,0.449,0.0,0.0,0.0,0.0,0.0
4.48,2.76,41.55241,-73.03554,19213.08,9481.29,SAINT MARYS HOSPITAL,0.0,0.294,0.783,0.098,0.0,0.098,0.196,0.0
5.15,2.54,41.54874,-72.80148,22936.37,8244.24,MIDSTATE MEDICAL CENTER,0.0,1.042,0.781,0.391,0.0,0.13,0.0,0.0
6.77,2.51,41.03431,-73.63020,32067.50,8066.80,GREENWICH HOSPITAL ASSOCIATION,0.0,0.102,0.407,0.611,0.0,0.102,0.204,0.102
4.38,2.41,41.21646,-73.06525,18612.00,7504.00,MILFORD HOSPITAL, INC,0.0,1.751,1.459,2.334,0.0,0.0,0.0,0.0
7.99,2.51,41.55473,-72.64872,38985.36,8122.26,MIDDLESEX HOSPITAL,0.0,0.0,0.574,1.884,0.0,0.082,0.246,0.0
3.89,2.88,41.71622,-72.22399,15871.20,10191.10,WINDHAM COMM MEM HOSP & HATCH HOSP,0.0,0.0,0.458,0.0,0.0,0.0,0.687,0.0
9.99,3.46,41.30400,-72.93502,50201.03,13456.99,YALE-NEW HAVEN HOSPITAL,0.0,0.865,0.587,0.68,0.0,0.124,0.062,0.34
4.55,2.56,41.54301,-72.08799,19604.88,8358.48,WILLIAM W BACKUS HOSPITAL,0.0,0.555,0.333,0.111,0.0,0.0,0.0,0.111
6.17,2.93,41.75412,-72.67927,28717.43,10457.29,HARTFORD HOSPITAL,0.0,0.402,0.511,0.548,0.0,0.073,0.073,0.11
3.86,2.43,41.78185,-72.52591,15723.79,7648.00,MANCHESTER MEMORIAL HOSPITAL,0.0,0.0,0.863,0.0,0.0,0.0,0.173,0.173
5.40,2.74,41.20049,-73.20281,24399.94,9389.00,ST VINCENT'S MEDICAL CENTER,0.0,0.375,0.25,0.437,0.0,0.0,0.0,0.0
3.99,2.39,41.67540,-72.93617,16409.59,7436.56,BRISTOL HOSPITAL,0.0,0.0,0.591,0.197,0.0,0.0,0.394,0.0
5.64,2.69,41.33493,-73.08978,25735.74,9096.03,GRIFFIN HOSPITAL,0.0,0.0,0.163,0.327,0.0,0.163,0.0,0.0
4.48,2.63,41.40474,-73.44739,19191.12,8748.34,DANBURY HOSPITAL,0.0,0.0,0.517,0.46,0.0,0.0,0.057,0.23
6.95,2.68,41.11147,-73.42010,33124.54,9070.58,NORWALK HOSPITAL ASSOCIATION,0.0,0.195,0.39,0.098,0.0,0.0,0.293,0.0
5.52,2.69,41.66107,-72.78671,25041.27,9108.59,HOSPITAL OF CENTRAL CONNECTICUT, THE,0.0,0.249,0.187,0.435,0.0,0.062,0.124,0.124
4.68,3.42,41.73545,-72.79489,20320.81,13240.19,JOHN DEMPSEY HOSPITAL,0.0,1.01,0.866,0.722,0.0,0.0,0.144,0.0
4.64,2.63,39.69005,-75.68408,20078.66,8794.97,CHRISTIANA CARE HEALTH SERVICES, INC.,0.0,0.513,0.424,0.379,0.0,0.0,0.067,0.089
6.40,2.48,39.74954,-75.56662,30025.43,7927.83,ST FRANCIS HOSPITAL,0.0,0.364,0.91,0.0,0.0,0.0,0.0,0.0
4.66,2.38,39.15135,-75.52309,20227.03,7387.00,BAYHEALTH - KENT GENERAL HOSPITAL,0.0,0.258,0.773,0.193,0.0,0.0,0.064,0.129
4.22,2.62,38.64231,-75.60660,17750.60,8708.50,NANTICOKE MEMORIAL HOSPITAL,0.0,0.421,0.0,0.0,0.0,0.0,0.211,0.0
5.60,2.29,38.77159,-75.14210,25490.08,6849.48,BEEBE MEDICAL CENTER,0.0,0.0,0.098,0.195,0.0,0.0,0.0,0.0
11.13,2.92,38.90106,-77.05079,56647.28,10411.65,GEORGE WASHINGTON UNIV HOSPITAL,0.0,0.445,1.112,0.778,0.0,0.445,0.0,0.111
8.69,4.19,38.91770,-77.02193,42920.90,17571.85,HOWARD UNIVERSITY HOSPITAL,0.0,0.805,0.322,0.644,0.0,0.0,0.161,0.0
9.58,3.24,38.91221,-77.07588,47935.08,12231.63,GEORGETOWN UNIVERSITY HOSPITAL,0.0,0.876,0.548,0.438,0.0,0.0,0.11,0.0
5.46,2.28,38.93576,-77.10909,24711.59,6826.30,SIBLEY MEMORIAL HOSPITAL,0.0,0.0,0.649,0.26,0.0,0.0,0.13,0.0
5.10,2.79,38.94397,-76.99040,22669.97,9692.54,PROVIDENCE HOSPITAL,0.0,0.322,0.215,0.0,0.107,0.107,0.322,0.0
6.62,2.64,38.83504,-76.98388,31247.17,8850.25,UNITED MEDICAL CENTER,0.0,0.0,0.0,0.0,0.0,0.0,0.355,0.0
6.92,2.88,38.92944,-77.01473,32926.97,10152.42,WASHINGTON HOSPITAL CENTER,0.0,0.761,0.217,0.362,0.0,0.0,0.145,0.109
6.57,2.87,30.34913,-81.66391,30954.77,10144.44,SHANDS JACKSONVILLE MEDICAL CENTER,0.0,0.31,0.31,0.186,0.0,0.0,0.124,0.186
9.03,2.43,26.50479,-80.06979,44823.70,7634.57,BETHESDA MEMORIAL HOSPITAL,0.0,0.508,0.799,0.29,0.0,0.073,0.29,0.0
7.83,2.46,28.52517,-81.37729,38041.08,7801.04,ORLANDO HEALTH,0.0,0.826,0.486,0.219,0.0,0.049,0.097,0.024
8.22,2.43,28.57345,-81.36990,40242.50,7670.97,FLORIDA HOSPITAL,0.0,0.317,0.317,0.136,0.0,0.0,0.011,0.023
11.07,2.56,25.68309,-80.34038,56325.81,8371.49,BAPTIST HOSPITAL OF MIAMI INC,0.0,0.316,0.443,0.19,0.0,0.0,0.19,0.063
12.39,2.70,25.78846,-80.21644,63728.80,9163.14,UNIVERSITY OF MIAMI HOSPITAL,0.0,0.929,0.547,0.109,0.0,0.0,1.093,0.055
5.61,2.27,26.62849,-81.87423,25562.85,6762.32,LEE MEMORIAL HOSPITAL,0.0,0.511,0.746,1.021,0.0,0.0,0.157,0.039
4.36,2.14,29.01347,-80.94096,18516.92,5990.16,BERT FISH MEDICAL CENTER,0.0,1.16,0.87,0.58,0.0,0.0,0.0,0.0
5.83,2.41,29.20117,-81.05828,26777.00,7516.81,HALIFAX HEALTH MEDICAL CENTER,0.0,0.425,0.729,0.121,0.0,0.0,0.0,0.0
5.58,2.26,26.15053,-81.79919,25387.53,6674.38,NAPLES COMMUNITY HOSPITAL,0.0,0.303,0.539,0.101,0.0,0.0,0.135,0.034
6.57,2.16,28.08771,-80.61362,30963.90,6148.72,HOLMES REGIONAL MEDICAL CENTER,0.0,0.475,0.647,0.216,0.0,0.043,0.043,0.0
10.46,3.97,25.79143,-80.21250,52844.45,16304.65,JACKSON MEMORIAL HOSPITAL,0.047,0.837,0.186,0.186,0.0,0.047,0.326,0.0
4.57,2.14,28.83363,-82.33561,19669.18,6012.31,CITRUS MEMORIAL HOSPITAL,0.0,0.415,0.415,2.24,0.0,0.0,0.249,0.083
4.43,2.39,30.47650,-87.21219,18920.02,7445.02,SACRED HEART HOSPITAL,0.058,0.231,0.231,0.81,0.0,0.173,0.058,0.116
5.04,2.21,30.15963,-85.64818,22366.00,6429.01,BAY MEDICAL CENTER,0.0,0.3,0.72,0.0,0.0,0.06,0.0,0.0
5.44,2.19,28.63051,-80.82437,24605.69,6306.17,PARRISH MEDICAL CENTER,0.0,0.588,0.441,0.294,0.0,0.0,0.147,0.0
12.99,2.64,25.86166,-80.21398,67107.73,8854.81,NORTH SHORE MEDICAL CENTER,0.0,0.15,0.225,0.0,0.0,0.0,0.075,0.0
5.69,2.36,28.54917,-81.52746,26018.52,7262.04,HEALTH CENTRAL,0.0,0.307,0.461,0.154,0.0,0.0,0.0,0.154
8.40,2.53,27.76332,-82.64325,41279.02,8211.64,BAYFRONT MEDICAL CENTER INC,0.0,1.031,0.469,0.0,0.0,0.0,0.0,0.0
9.70,2.60,25.81317,-80.13996,48607.55,8589.12,MOUNT SINAI MEDICAL CENTER,0.0,0.313,0.813,0.313,0.0,0.063,0.125,0.063
7.52,2.34,27.49789,-82.56220,36337.34,7158.99,MANATEE MEMORIAL HOSPITAL,0.0,0.271,0.542,0.542,0.0,0.09,0.181,0.0
8.92,2.54,26.01867,-80.17981,44219.79,8259.54,MEMORIAL REGIONAL HOSPITAL,0.0,0.273,0.436,0.164,0.0,0.0,0.055,0.109
6.20,2.75,26.10282,-80.14245,28892.78,9444.44,BROWARD HEALTH BROWARD GENERAL MEDICAL CENTER,0.0,0.847,0.423,0.212,0.0,0.0,0.0,0.0
5.65,2.26,30.30835,-81.68919,25773.36,6671.71,ST VINCENT'S MEDICAL CENTER,0.0,0.139,0.173,0.104,0.0,0.0,0.069,0.035
6.69,2.18,28.01404,-82.78368,31662.76,6217.78,MEASE HOSPITAL DUNEDIN,0.0,0.199,0.596,2.783,0.0,0.0,0.0,0.0
7.78,2.28,27.19837,-80.24306,37761.27,6823.82,MARTIN MEMORIAL MEDICAL CENTER,0.0,0.448,0.384,0.128,0.0,0.064,0.0,0.0
5.35,2.25,29.04263,-81.31635,24067.68,6658.61,FLORIDA HOSPITAL DELAND,0.0,0.0,0.348,0.0,0.0,0.0,0.174,0.0
9.39,2.17,28.26092,-82.18802,46834.17,6202.78,FLORIDA HOSPITAL ZEPHYRHILLS,0.0,0.131,0.262,0.262,0.0,0.131,0.262,0.0
7.32,2.17,26.94042,-82.04094,35177.77,6172.41,CHARLOTTE REGIONAL MEDICAL CENTER,0.0,0.199,0.099,0.397,0.0,0.0,0.0,0.099
5.42,2.16,27.46707,-81.43358,24488.06,6117.35,HIGHLANDS REGIONAL MEDICAL CENTER,0.0,0.0,0.736,1.104,0.0,0.368,0.0,0.368
6.49,2.18,28.55140,-81.72120,30537.95,6247.11,SOUTH LAKE HOSPITAL,0.0,1.095,1.824,0.547,0.0,0.0,0.0,0.0
6.48,2.18,28.02768,-81.72466,30466.17,6241.82,WINTER HAVEN HOSPITAL,0.0,0.4,0.799,0.32,0.0,0.0,0.719,0.0
12.77,2.91,25.84597,-80.26872,65899.61,10335.03,HIALEAH HOSPITAL,0.0,0.0,0.468,0.0,0.0,0.0,0.468,0.0
5.88,2.16,28.13321,-82.75839,27094.96,6116.29,HELEN ELLIS MEMORIAL HOSPITAL,0.0,0.289,0.0,0.289,0.0,0.0,0.0,0.0
5.89,2.30,28.82358,-81.71133,27113.23,6931.98,FLORIDA HOSPITAL WATERMAN,0.0,0.137,0.825,0.069,0.0,0.0,0.069,0.0
8.94,2.59,25.74067,-80.21244,44283.00,8536.70,MERCY HOSPITAL INC,0,0,0,0,0,0,0,0
5.14,2.17,29.17594,-82.13898,22898.83,6193.69,MUNROE REGIONAL MEDICAL CENTER,0.0,0.135,0.628,0.359,0.0,0.0,0.09,0.135
5.36,2.14,28.25431,-82.71447,24168.59,6006.32,MORTON PLANT NORTH BAY HOSPITAL,0.0,0.0,0.245,0.0,0.0,0.0,0.0,0.0
6.10,2.21,27.78088,-82.65126,28290.97,6406.89,ST ANTHONY'S HOSPITAL,0.0,0.632,0.316,0.316,0.0,0.0,0.105,0.0
5.52,2.16,29.24333,-81.10760,25023.47,6133.13,FLORIDA HOSPITAL MEMORIAL MEDICAL CENTER,0.0,0.378,0.472,0.189,0.0,0.094,0.0,0.0
4.63,2.14,27.09043,-82.44499,20051.08,5990.04,VENICE REGIONAL MEDICAL CENTER,0.0,0.41,0.614,0.205,0.0,0.0,0.0,0.0
10.05,2.30,28.53906,-82.44193,50563.62,6938.88,BROOKSVILLE REGIONAL HOSPITAL,0.0,0.525,0.393,0.0,0.0,0.0,0.262,0.0
5.00,2.21,28.91403,-81.28480,22136.92,6421.21,FLORIDA HOSPITAL FISH MEMORIAL,0.0,0.142,0.285,0.142,0.0,0.0,0.142,0.0
7.50,2.25,26.18711,-80.11941,36209.67,6605.02,HOLY CROSS HOSPITAL INC,0.0,0.328,0.46,1.182,0.0,0.0,0.131,0.066
7.21,2.45,27.98242,-82.49025,34592.33,7774.04,ST JOSEPH'S HOSPITAL,0.0,0.48,0.384,0.144,0.0,0.0,0.096,0.192
7.22,2.24,26.98905,-82.09559,34608.37,6584.73,PEACE RIVER REGIONAL MEDICAL CENTER,0.0,0.13,0.391,0.782,0.0,0.13,0.0,0.0
9.26,2.36,26.59805,-80.09271,46114.64,7229.50,JFK MEDICAL CENTER,0.0,0.454,0.578,0.165,0.0,0.041,0.041,0.0
5.32,2.22,28.80659,-81.86906,23943.31,6445.44,LEESBURG REGIONAL MEDICAL CENTER,0.0,0.322,0.643,0.214,0.0,0.054,0.0,0.0
6.00,2.35,26.27623,-80.12220,27765.81,7200.31,BROWARD HEALTH NORTH BROWARD MEDICAL CENTER,0.0,0.318,0.318,0.159,0.0,0.0,0.318,0.0
4.76,2.16,27.31827,-82.53140,20768.72,6107.32,SARASOTA MEMORIAL HOSPITAL,0.045,0.27,0.36,1.622,0.0,0.045,0.045,0.09
9.97,2.33,30.31525,-81.66398,50098.28,7063.35,BAPTIST MEDICAL CENTER,0.0,0.377,0.519,1.131,0.0,0.047,0.047,0.047
7.31,2.41,29.86371,-81.31749,35141.74,7520.14,FLAGLER HOSPITAL,0.0,0.591,0.739,0.074,0.0,0.0,0.0,0.0
5.11,2.22,28.33522,-80.72319,22759.91,6458.89,WUESTHOFF MEDICAL CENTER  ROCKLEDGE,0.0,0.193,1.158,0.289,0.0,0.0,0.0,0.193
6.10,2.26,30.43066,-87.23191,28326.76,6704.29,BAPTIST HOSPITAL,0.0,0.201,0.502,0.1,0.0,0.0,0.1,0.0
8.68,2.20,27.89590,-81.56547,42850.29,6327.00,LAKE WALES MEDICAL CENTER,0.0,0.0,0.381,0.0,0.0,0.0,0.0,0.0
3.51,2.24,27.65832,-80.39307,13712.43,6570.77,INDIAN RIVER MEDICAL CENTER,0.0,0.068,0.204,0.136,0.0,0.068,0.0,0.0
6.77,2.21,26.61563,-81.65945,32100.31,6401.08,LEHIGH REGIONAL MEDICAL CENTER,0.0,0.0,1.162,0.0,0.0,0.0,0.291,0.0
6.43,2.23,27.50001,-81.43962,30198.80,6510.89,FLORIDA HOSPITAL HEARTLAND MEDICAL CENTER,0.0,0.568,0.812,0.487,0.0,0.081,0.0,0.0
11.06,2.34,28.29946,-81.41021,56231.90,7109.42,OSCEOLA REGIONAL MEDICAL CENTER,0.0,1.196,0.498,0.299,0.0,0.1,0.0,0.0
5.97,3.14,29.64155,-82.34844,27571.43,11654.43,SHANDS HOSPITAL AT THE UNIVERSITY OF FLORIDA,0.0,0.99,0.344,0.689,0.0,0.0,0.172,0.172
6.81,2.13,30.27449,-81.40071,32330.00,5929.82,BAPTIST MEDICAL CENTER  BEACHES,0.0,0.0,0.0,0.173,0.0,0.0,0.0,0.0
4.66,2.41,29.47897,-81.18915,20212.03,7558.84,FLORIDA HOSPITAL FLAGLER,0.0,0.778,1.089,0.156,0.0,0.156,0.0,0.156
4.97,2.19,27.91798,-81.84402,21942.65,6303.00,BARTOW REGIONAL MEDICAL CENTER,0.0,0.0,1.16,0.29,0.0,0.0,0.0,0.0
9.90,2.22,30.73540,-86.56171,49721.70,6461.80,NORTH OKALOOSA MEDICAL CENTER,0.0,0.163,0.325,0.0,0.0,0.0,0.0,0.0
8.37,2.58,25.47971,-80.43038,41120.81,8499.06,HOMESTEAD HOSPITAL,0.0,0.0,0.499,0.25,0.0,0.0,0.0,0.0
6.20,2.11,27.75214,-82.73951,28860.27,5846.04,PALMS OF PASADENA HOSPITAL,0.0,1.312,0.375,0.562,0.0,0.0,0.75,0.0
5.55,2.22,27.95192,-82.80379,25218.62,6445.77,MORTON PLANT HOSPITAL,0.052,0.209,0.731,0.992,0.0,0.0,0.0,0.0
13.90,2.90,27.93740,-82.45927,72220.64,10281.61,TAMPA GENERAL HOSPITAL,0.0,0.722,0.587,0.045,0.0,0.0,0.0,0.181
12.28,2.44,25.96994,-80.14533,63127.04,7687.43,AVENTURA HOSPITAL AND MEDICAL CENTER,0.0,0.351,0.984,0.141,0.0,0.0,0.351,0.0
6.23,2.39,28.01563,-82.13900,29031.36,7392.00,SOUTH FLORIDA BAPTIST HOSPITAL,0.0,0.274,0.0,0.0,0.0,0.0,0.0,0.0
5.74,2.32,30.45726,-84.26175,26304.40,7049.00,TALLAHASSEE MEMORIAL HEALTHCARE,0.0,0.228,0.609,1.37,0.0,0.0,0.076,0.076
8.45,2.24,28.18120,-81.64018,41536.71,6568.46,HEART OF FLORIDA REGIONAL MEDICAL CENTER,0.0,0.246,0.246,0.123,0.0,0.0,0.0,0.123
3.85,2.23,30.78675,-85.24189,15618.00,6499.85,JACKSON HOSPITAL,0.0,0.313,0.313,0.0,0.0,0.0,0.313,0.313
5.47,2.66,30.26389,-81.44283,24757.02,8959.62,MAYO CLINIC,0.0,0.504,0.144,0.216,0.0,0.0,0.072,0.144
9.29,2.40,25.70328,-80.29391,46273.61,7477.83,SOUTH MIAMI HOSPITAL, INC,0.0,0.124,0.745,0.0,0.0,0.124,0.248,0.0
6.59,2.57,30.18340,-82.68783,31066.32,8447.32,LAKE CITY MEDICAL CENTER,0.0,0.547,0.182,0.365,0.0,0.0,0.0,0.0
8.14,2.29,28.06172,-81.95304,39793.88,6858.21,LAKELAND REGIONAL MEDICAL CENTER,0.0,1.08,0.68,0.52,0.0,0.0,0.12,0.04
7.26,2.25,28.81611,-81.28351,34826.59,6636.35,CENTRAL FLORIDA REGIONAL HOSPITAL,0.141,1.129,0.282,0.423,0.0,0.0,0.141,0.0
7.17,2.08,27.30187,-82.45428,34331.63,5689.67,DOCTORS HOSPITAL OF SARASOTA,0.0,0.261,0.521,0.652,0.0,0.0,0.13,0.0
14.74,2.68,26.12647,-80.20519,76985.21,9079.41,PLANTATION GENERAL HOSPITAL,0.0,1.164,0.582,0.0,0.0,0.0,0.0,0.0
6.00,2.26,26.35875,-80.10203,27733.94,6687.20,BOCA RATON REGIONAL HOSPITAL,0.0,0.324,0.486,0.648,0.0,0.054,0.324,0.108
6.82,2.33,28.07111,-82.42342,32342.89,7075.93,FLORIDA HOSPITAL TAMPA,0.0,0.307,0.461,0.307,0.0,0.077,0.0,0.0
4.40,2.42,27.22739,-81.85108,18742.54,7610.62,DESOTO MEMORIAL HOSPITAL,0.0,0.0,2.49,0.0,0.0,0.0,0.0,0.0
7.25,2.27,26.83035,-80.08655,34781.48,6733.04,PALM BEACH GARDENS MEDICAL CENTER,0.0,0.494,0.494,0.593,0.0,0.0,0.099,0.099
6.03,2.20,28.36005,-80.62309,27892.68,6328.21,CAPE CANAVERAL HOSPITAL,0.0,0.62,0.207,0.0,0.0,0.0,0.0,0.0
11.90,2.44,30.28793,-81.60103,60961.89,7697.43,MEMORIAL HOSPITAL JACKSONVILLE,0.0,0.449,0.337,0.281,0.0,0.112,0.449,0.056
11.53,2.40,27.80541,-82.72694,58909.54,7469.46,ST PETERSBURG GENERAL HOSPITAL,0.0,0.804,1.447,0.321,0.0,0.161,0.161,0.0
16.47,2.88,25.74360,-80.25465,86706.64,10161.91,CORAL GABLES HOSPITAL,0.0,0.0,0.65,0.0,0.0,0.0,0.217,0.0
13.08,2.71,25.88563,-80.32635,67639.58,9230.92,PALMETTO GENERAL HOSPITAL,0.0,0.477,0.341,0.0,0.0,0.0,0.136,0.0
8.81,2.26,26.26259,-80.20292,43604.22,6702.56,NORTHWEST MEDICAL CENTER,0.0,0.203,0.507,0.101,0.0,0.101,0.101,0.101
11.31,2.17,28.19342,-82.46987,57664.12,6181.00,MEDICAL CENTER OF TRINITY,0.0,0.312,0.623,0.208,0.0,0.0,0.0,0.0
9.54,2.25,29.66085,-82.41172,47678.34,6638.20,NORTH FLORIDA REGIONAL MEDICAL CENTER,0.0,0.656,0.615,0.983,0.0,0.082,0.164,0.0
13.39,2.61,25.73195,-80.38580,69358.50,8650.47,KENDALL REGIONAL MEDICAL CENTER,0.0,0.247,0.412,0.082,0.0,0.082,0.494,0.165
6.35,2.17,28.34805,-82.19963,29701.21,6172.63,PASCO REGIONAL MEDICAL CENTER,0.0,0.0,0.683,0.0,0.0,0.0,0.0,0.0
8.38,2.15,29.17550,-82.13680,41139.26,6074.00,OCALA REGIONAL MEDICAL CENTER,0.0,0.338,0.745,0.474,0.0,0.0,0.203,0.135
7.44,2.13,27.48213,-82.62126,35877.76,5975.22,BLAKE MEDICAL CENTER,0.0,0.073,1.028,0.0,0.0,0.0,0.22,0.0
6.55,2.23,27.84359,-80.48849,30854.45,6517.55,SEBASTIAN RIVER MEDICAL CENTER,0.0,0.172,1.204,1.547,0.0,0.0,0.0,0.0
5.70,2.23,26.52735,-81.83337,26077.89,6519.29,GULF COAST MEDICAL CENTER LEE MEM HEALTH SYSTEM,0.0,0.418,0.731,0.209,0.0,0.0,0.052,0.052
12.45,2.24,30.45448,-86.63362,64067.38,6593.52,FORT WALTON BEACH MEDICAL CENTER,0.0,1.008,0.807,0.202,0.0,0.0,0.0,0.0
11.04,2.20,26.21219,-80.25478,56125.32,6375.96,UNIVERSITY HOSPITAL AND MEDICAL CENTER,0.0,0.513,0.684,0.0,0.0,0.0,0.0,0.171
11.74,2.46,30.16550,-81.73775,60073.33,7789.98,ORANGE PARK MEDICAL CENTER,0.0,0.578,0.413,0.165,0.0,0.0,0.0,0.165
9.71,2.28,26.12354,-80.25951,48662.25,6800.28,WESTSIDE REGIONAL MEDICAL CENTER,0.0,0.441,0.617,0.176,0.0,0.088,0.088,0.0
7.13,2.13,30.51624,-87.21856,34094.11,5959.24,WEST FLORIDA HOSPITAL,0.0,0.614,0.79,0.176,0.0,0.0,0.176,0.0
6.13,2.25,29.64481,-81.69431,28500.70,6632.55,PUTNAM COMMUNITY MEDICAL CENTER,0.0,0.0,0.326,0.163,0.0,0.163,0.0,0.0
10.49,2.44,26.76167,-80.08781,53058.80,7676.27,COLUMBIA HOSPITAL,0.0,0.565,0.283,0.0,0.0,0.0,0.0,0.0
10.28,2.15,26.98884,-82.09877,51881.49,6063.36,FAWCETT MEMORIAL HOSPITAL,0.0,0.333,0.333,0.416,0.0,0.0,0.0,0.0
12.39,2.26,27.82545,-82.70122,63754.48,6689.22,NORTHSIDE HOSPITAL,0.0,0.941,0.523,0.105,0.0,0.0,0.0,0.314
8.47,2.22,30.18657,-85.66513,41655.73,6454.46,GULF COAST MEDICAL CENTER,0.0,0.256,0.896,0.384,0.0,0.0,0.256,0.0
9.58,2.39,27.93259,-82.28759,47931.94,7428.77,BRANDON REGIONAL HOSPITAL,0.0,0.598,0.684,0.085,0.0,0.0,0.085,0.0
5.39,2.12,26.63958,-81.94164,24305.96,5881.74,CAPE CORAL HOSPITAL,0.0,0.526,1.278,0.301,0.0,0.075,0.15,0.0
11.53,2.47,27.43392,-80.34350,58899.16,7872.32,LAWNWOOD REGIONAL MEDICAL CENTER & HEART INSTITUTE,0.0,0.563,0.563,0.188,0.0,0.094,0.0,0.282
9.15,2.37,27.91458,-82.80382,45503.69,7282.40,LARGO MEDICAL CENTER,0.0,0.108,0.759,0.433,0.0,0.163,0.108,0.054
6.29,2.15,28.95195,-82.62421,29384.27,6094.78,SEVEN RIVERS REGIONAL MEDICAL CENTER,0.0,0.0,0.741,0.37,0.0,0.0,0.0,0.123
7.20,2.37,27.25983,-80.82855,34527.36,7291.68,RAULERSON HOSPITAL,0.0,0.0,1.138,0.0,0.0,0.0,0.228,0.0
7.76,2.50,26.92138,-80.09708,37684.32,8056.35,JUPITER MEDICAL CENTER,0.0,0.852,0.532,0.745,0.0,0.106,0.0,0.0
7.03,2.30,30.47616,-84.23140,33548.74,6887.54,CAPITAL REGIONAL MEDICAL CENTER,0.0,0.695,0.463,0.116,0.0,0.116,0.0,0.0
8.67,2.18,28.36128,-82.68883,42796.08,6211.38,REGIONAL MEDICAL CENTER BAYONET POINT,0.0,0.258,0.687,0.258,0.0,0.0,0.086,0.0
10.09,2.35,26.43709,-80.12728,50807.77,7199.92,DELRAY MEDICAL CENTER,0.0,0.373,0.479,0.053,0.0,0.0,0.053,0.0
9.79,2.16,27.71350,-82.36512,49072.93,6139.00,SOUTH BAY HOSPITAL,0.0,0.539,0.404,0.673,0.0,0.0,0.135,0.0
8.44,2.36,27.28861,-80.29431,41489.89,7258.46,ST LUCIE MEDICAL CENTER,0.0,0.407,0.652,0.244,0.0,0.0,0.0,0.244
10.55,2.14,28.53585,-82.53404,53403.44,6027.68,OAK HILL HOSPITAL,0.0,0.467,1.089,0.0,0.0,0.078,0.0,0.0
5.74,2.19,28.03957,-82.70875,26305.68,6299.04,MEASE COUNTRYSIDE HOSPITAL,0.0,0.083,0.667,0.833,0.0,0.0,0.083,0.0
5.45,2.12,30.35772,-87.16046,24631.67,5874.00,GULF BREEZE HOSPITAL,0.0,0.234,0.234,0.0,0.0,0.0,0.0,0.0
8.03,2.29,26.35614,-80.19956,39194.68,6839.03,WEST BOCA MEDICAL CENTER,0.0,0.0,0.205,0.205,0.0,0.0,0.205,0.0
11.24,2.49,26.68337,-80.25269,57236.78,8002.67,PALMS WEST HOSPITAL,0.0,0.0,1.097,0.914,0.0,0.0,0.548,0.0
6.78,2.42,26.65230,-80.20504,32137.61,7603.50,WELLINGTON REGIONAL MEDICAL CENTER,0.0,0.312,0.623,0.0,0.0,0.0,0.0,0.312
6.47,2.37,26.26841,-80.25571,30389.22,7314.44,CORAL SPRINGS MEDICAL CENTER,0.0,1.241,0.248,0.248,0.0,0.0,0.248,0.0
9.00,2.35,26.01394,-80.30980,44661.98,7210.83,MEMORIAL HOSPITAL WEST,0.0,0.341,0.114,0.454,0.0,0.0,0.0,0.114
8.17,2.40,25.99079,-80.37333,39955.79,7471.43,MEMORIAL HOSPITAL MIRAMAR,0.0,0.369,0.0,0.0,0.0,0.0,0.0,0.0
6.46,2.27,26.21388,-81.73257,30340.35,6769.65,PHYSICIANS REGIONAL MEDICAL CENTER - PINE RIDGE,0.0,0.122,0.733,0.122,0.0,0.0,0.0,0.0
6.45,2.31,26.70181,-80.05055,30273.20,6969.04,GOOD SAMARITAN MEDICAL CENTER,0.0,0.825,0.275,0.138,0.138,0.0,0.138,0.0
12.48,2.71,26.75635,-80.06322,64220.39,9217.46,ST MARY'S MEDICAL CENTER,0.0,0.325,0.65,0.0,0.0,0.0,0.0,0.0
5.61,2.21,26.08155,-80.36449,25572.61,6389.33,CLEVELAND CLINIC HOSPITAL,0.0,0.237,0.356,0.356,0.0,0.119,0.237,0.0
5.57,2.12,28.94952,-81.95843,25335.44,5920.05,VILLAGES REGIONAL HOSPITAL, THE,0.0,0.386,0.258,0.0,0.0,0.0,0.064,0.0
5.22,2.21,28.10969,-80.67280,23350.20,6424.00,WUESTHOFF MEDICAL CENTER - MELBOURNE,0.0,0.249,0.746,0.0,0.0,0.497,0.0,0.0
11.79,2.52,25.72132,-80.27116,60349.08,8135.33,DOCTORS HOSPITAL INC,0.0,0.395,0.395,0.0,0.0,0.0,0.0,0.198
7.18,2.06,27.38993,-82.43343,34420.28,5553.32,LAKEWOOD RANCH MEDICAL CENTER,0.0,0.0,0.623,0.0,0.0,0.0,0.0,0.0
6.11,2.09,30.25377,-81.58270,28351.71,5737.86,ST VINCENT'S MEDICAL CENTER SOUTHSIDE,0.0,0.499,0.333,0.333,0.0,0.0,0.0,0.0
4.67,2.27,34.78963,-84.98398,20242.86,6765.43,HAMILTON MEDICAL CENTER,0.0,0.162,0.809,0.324,0.0,0.0,0.0,0.0
4.15,2.38,32.88710,-84.33393,17344.14,7369.51,UPSON REGIONAL MEDICAL CENTER,0.0,0.329,0.329,0.0,0.0,0.0,0.0,0.0
4.49,2.23,31.22516,-82.34898,19223.40,6510.13,SATILLA REGIONAL MEDICAL CENTER,0.0,0.0,0.535,0.0,0.0,0.0,0.0,0.0
6.95,2.20,34.17863,-84.13992,33097.59,6326.14,NORTHSIDE HOSPITAL FORSYTH,0.0,0.696,0.974,0.139,0.0,0.0,0.0,0.139
5.05,2.30,33.94791,-83.40531,22425.93,6903.13,ST MARY'S HOSPITAL,0.0,0.179,0.358,0.0,0.0,0.0,0.179,0.0
4.65,2.43,31.59023,-84.15756,20167.04,7663.52,PHOEBE PUTNEY MEMORIAL HOSPITAL,0.177,0.177,0.795,0.0,0.0,0.177,0.088,0.0
6.63,2.27,34.24569,-84.49068,31320.87,6750.73,NORTHSIDE HOSPITAL CHEROKEE,0.0,0.622,0.933,0.311,0.0,0.0,0.0,0.0
6.67,2.66,33.79230,-84.32107,31545.23,8959.53,EMORY UNIVERSITY HOSPITAL,0.0,2.246,0.299,1.098,0.0,0.1,0.299,0.2
4.49,2.27,33.56970,-85.07276,19256.72,6741.58,TANNER MEDICAL CENTER - CARROLLTON,0.0,0.172,0.343,0.0,0.0,0.172,0.0,0.0
4.16,2.33,33.03204,-85.05781,17412.85,7059.46,WEST GEORGIA MEDICAL CENTER,0.0,0.151,0.303,0.0,0.0,0.151,0.0,0.0
3.68,2.31,33.60237,-83.84809,14707.03,6972.21,NEWTON MEDICAL CENTER,0.0,0.229,0.229,0.0,0.0,0.0,0.0,0.0
5.35,2.28,34.51192,-84.92579,24107.67,6798.50,GORDON HOSPITAL,0.0,0.0,0.273,0.273,0.0,0.0,0.0,0.0
5.44,2.29,32.02825,-81.09977,24591.33,6836.72,CANDLER HOSPITAL,0.0,0.559,0.0,0.0,0.0,0.0,0.14,0.0
4.62,2.59,31.17425,-81.48459,19994.00,8522.88,SOUTHEAST GEORGIA HEALTH SYSTEM- BRUNSWICK CAMPUS,0.0,0.576,0.346,0.115,0.0,0.0,0.115,0.115
2.76,2.27,34.28705,-83.11015,9511.58,6738.75,COBB MEMORIAL HOSPITAL,0.0,0.0,0.818,0.0,0.0,0.0,0.0,0.0
5.17,2.32,33.47096,-81.98176,23081.56,7028.55,UNIVERSITY HOSPITAL,0.0,0.792,0.396,5.205,0.0,0.0,0.339,0.113
5.25,2.31,34.30335,-83.81737,23541.35,6947.79,NORTHEAST GEORGIA MEDICAL CENTER, INC,0.0,0.15,0.4,0.65,0.0,0.05,0.0,0.1
8.38,2.50,34.19990,-84.79378,41178.00,8056.89,CARTERSVILLE MEDICAL CENTER,0.0,0.414,0.621,0.621,0.0,0.0,0.0,0.414
7.52,2.37,33.23886,-84.26706,36289.37,7318.61,SPALDING REGIONAL MEDICAL CENTER,0.0,0.721,0.432,0.144,0.0,0.0,0.0,0.0
3.93,2.30,34.59332,-83.34788,16113.54,6936.08,STEPHENS COUNTY HOSPITAL,0.0,0.339,1.017,0.0,0.0,0.0,0.0,0.0
5.05,3.02,33.47091,-81.98988,22379.16,10960.64,MEDICAL COLLEGE OF GA HOSPITALS AND CLINICS,0.0,0.631,0.36,0.18,0.0,0.09,0.45,0.27
6.73,2.30,33.96770,-84.55011,31866.39,6895.59,WELLSTAR KENNESTONE HOSPITAL,0.0,0.818,0.696,0.368,0.0,0.0,0.082,0.0
4.84,2.41,32.03185,-81.09158,21230.06,7529.37,MEMORIAL HEALTH UNIV MED CEN, INC,0.0,0.179,0.359,0.299,0.0,0.06,0.179,0.0
4.89,2.23,30.82614,-83.97393,21515.40,6545.45,JOHN D ARCHBOLD MEMORIAL HOSPITAL,0.0,0.134,0.403,0.134,0.0,0.0,0.134,0.0
4.28,2.27,33.46767,-82.01807,18087.00,6758.82,TRINITY HOSPITAL OF AUGUSTA,0.0,0.611,0.0,0.0,0.0,0.0,0.0,0.0
2.72,2.26,34.56510,-83.54517,9262.40,6681.33,HABERSHAM COUNTY MEDICAL CTR,0.0,0.0,0.515,0.0,0.0,0.0,0.0,0.0
5.53,2.14,31.98515,-81.15475,25104.16,6009.83,ST JOSEPH'S HOSPITAL - SAVANNAH,0.0,0.375,0.844,0.0,0.0,0.0,0.094,0.0
4.47,2.85,32.06513,-84.25260,19143.54,9990.92,PHOEBE SUMTER MEDICAL CENTER,0.0,0.0,1.514,0.0,0.0,0.0,0.0,0.0
5.67,2.28,33.78334,-83.71709,25915.23,6820.38,WALTON REGIONAL MEDICAL CENTER,0.0,0.0,2.203,0.0,0.0,0.0,0.0,0.0
3.05,2.28,34.88620,-83.96241,11148.55,6781.18,UNION GENERAL HOSPITAL,0.0,0.613,0.613,0.0,0.0,0.0,0.0,0.0
5.73,2.47,34.26000,-85.17000,26242.51,7896.59,FLOYD MEDICAL CENTER,0.0,0.109,1.091,0.218,0.0,0.0,0.0,0.109
5.36,2.59,32.46602,-84.98695,24134.71,8522.02,MEDICAL CENTER, THE,0.0,0.0,0.177,0.0,0.0,0.177,0.0,0.0
4.82,2.30,32.61642,-83.63065,21091.48,6923.28,HOUSTON MEDICAL CENTER,0.0,0.863,0.384,0.767,0.0,0.0,0.0,0.0
4.48,2.29,31.71491,-83.25265,19209.64,6845.73,DORMINY MEDICAL CENTER,0.0,0.613,0.613,0.613,0.0,0.0,0.0,0.0
5.12,2.34,33.96117,-83.39832,22785.34,7160.03,ATHENS REGIONAL MEDICAL CENTER,0.0,0.276,0.276,0.414,0.0,0.138,0.0,0.0
6.51,2.40,32.41483,-81.76990,30609.71,7448.25,EAST GEORGIA REGIONAL MEDICAL CENTER,0.0,0.0,0.656,0.0,0.0,0.0,0.0,0.164
4.28,2.46,33.78956,-84.28077,18045.64,7797.45,DEKALB MEDICAL CENTER,0.0,0.243,0.243,0.081,0.0,0.0,0.0,0.0
6.04,2.56,33.76810,-84.38616,27996.35,8381.27,EMORY UNIVERSITY HOSPITAL MIDTOWN,0.0,1.358,0.647,0.453,0.0,0.065,0.129,0.065
8.06,2.96,33.75205,-84.38272,39374.27,10631.38,GRADY MEMORIAL HOSPITAL,0.0,0.528,0.211,1.056,0.0,0.106,0.106,0.0
4.81,2.16,33.90877,-84.35180,21074.52,6151.15,SAINT JOSEPH'S HOSPITAL OF ATLANTA, INC,0.0,0.348,0.557,0.696,0.0,0.07,0.0,0.07
5.92,2.22,33.81003,-84.39568,27320.16,6477.68,PIEDMONT HOSPITAL,0.0,0.146,0.438,0.049,0.0,0.049,0.049,0.049
4.37,2.29,33.96351,-84.01769,18542.99,6858.92,GWINNETT MEDICAL CENTER,0.0,0.159,0.239,0.0,0.0,0.0,0.0,0.0
5.27,2.18,31.50971,-82.86341,23629.33,6217.00,COFFEE REGIONAL MEDICAL CENTER,0.0,0.208,0.208,0.0,0.0,0.0,0.416,0.0
5.08,2.37,33.68072,-84.00200,22593.12,7334.41,ROCKDALE MEDICAL CENTER,0.0,0.0,0.369,0.185,0.0,0.185,0.185,0.185
5.91,2.29,31.47069,-83.50473,27252.07,6844.96,TIFT REGIONAL MEDICAL CENTER,0.0,0.0,0.751,0.0,0.0,0.0,0.501,0.0
3.65,2.21,31.97683,-83.78280,14538.85,6404.00,CRISP REGIONAL HOSPITAL,0.0,0.432,0.432,0.0,0.0,0.0,0.0,0.0
3.63,2.26,31.17991,-83.78906,14397.29,6688.29,COLQUITT REGIONAL MEDICAL CENTER,0.0,0.0,0.986,0.329,0.0,0.0,0.0,0.986
6.11,2.55,32.83041,-83.63476,28388.23,8298.40,MEDICAL CENTER OF CENTRAL GEORGIA,0.0,0.371,0.619,0.165,0.0,0.041,0.165,0.082
3.57,2.18,32.59212,-82.34541,14040.64,6215.55,EMANUEL MEDICAL CENTER,0.0,0.0,0.0,0.0,0.0,0.0,0.698,0.0
10.44,2.70,33.76372,-84.37315,52736.77,9179.56,ATLANTA MEDICAL CENTER,0.0,1.769,0.531,0.0,0.0,0.0,0.354,0.0
4.92,2.33,30.86250,-83.28630,21645.72,7054.34,SOUTH GEORGIA MEDICAL CENTER,0.0,0.41,0.41,0.513,0.0,0.0,0.103,0.0
3.77,2.33,31.60200,-81.89172,15194.82,7098.94,WAYNE MEMORIAL HOSPITAL,0.0,0.0,1.018,0.0,0.0,0.0,0.0,0.0
6.36,2.48,32.54026,-82.95741,29805.67,7953.44,FAIRVIEW PARK HOSPITAL,0.0,0.463,0.463,0.0,0.0,0.0,0.232,0.0
4.88,2.16,32.20903,-82.37585,21470.70,6109.00,MEADOWS REGIONAL MEDICAL CENTER,0.0,0.0,0.691,0.0,0.0,0.0,0.0,0.0
4.17,2.18,32.50679,-84.95933,17418.40,6228.24,ST FRANCIS HOSPITAL, INC,0.0,0.229,0.915,0.153,0.0,0.0,0.0,0.153
3.73,2.25,30.90295,-84.55203,14983.73,6652.32,MEMORIAL HOSPITAL AND MANOR,0.0,0.0,0.0,0.0,0.0,0.0,0.0,0.0
6.94,2.41,33.85638,-84.60446,33041.68,7555.10,WELLSTAR COBB HOSPITAL,0.0,0.718,0.319,0.558,0.0,0.0,0.239,0.08
4.10,2.30,33.08014,-83.23210,17038.83,6897.83,OCONEE REGIONAL MEDICAL CENTER,0.0,0.343,0.343,0.0,0.0,0.0,0.0,0.0
6.21,2.18,33.90903,-84.35410,28934.26,6225.65,NORTHSIDE HOSPITAL,0.0,0.579,0.579,0.193,0.0,0.0,0.0,0.386
6.11,2.23,31.53017,-84.17516,28382.56,6530.62,PHOEBE NORTH,0.0,0.577,0.865,0.288,0.0,0.0,0.0,0.0
7.57,2.33,32.84705,-83.61823,36583.67,7074.46,COLISEUM MEDICAL CENTER,0.0,0.817,0.584,0.35,0.0,0.0,0.234,0.0
6.39,2.43,33.57843,-84.38897,29927.57,7659.81,SOUTHERN REGIONAL MEDICAL CENTER,0.0,0.51,0.255,0.255,0.0,0.0,0.0,0.0
6.72,2.20,34.25704,-85.16467,31787.17,6346.46,REDMOND REGIONAL MEDICAL CENTER,0.0,0.0,0.501,0.167,0.0,0.0,0.0,0.0
8.55,2.36,33.48259,-82.09038,42132.25,7270.81,DOCTORS HOSPITAL,0.0,1.353,1.353,0.301,0.0,0.0,0.451,0.0
7.23,2.39,33.73938,-84.73111,34675.92,7413.17,WELLSTAR DOUGLAS HOSPITAL,0.0,0.0,0.79,0.0,0.0,0.0,0.0,0.0
4.48,2.37,32.48040,-84.98468,19163.75,7286.50,DOCTORS HOSPITAL,0.0,1.426,0.713,1.783,0.0,0.0,0.357,0.0
5.26,2.30,34.91692,-84.37534,23579.27,6908.36,FANNIN REGIONAL HOSPITAL,0.0,0.0,0.448,0.0,0.0,0.0,0.0,0.448
5.54,2.32,33.51144,-84.22200,25151.47,7003.63,HENRY MEDICAL CENTER, INC,0.0,0.124,0.249,0.0,0.0,0.0,0.0,0.0
6.91,2.25,33.87683,-84.02136,32882.30,6615.74,EMORY EASTSIDE MEDICAL CENTER,0.0,0.0,0.297,0.446,0.0,0.0,0.297,0.0
11.38,2.34,34.06334,-84.31976,58077.37,7110.21,NORTH FULTON REGIONAL HOSPITAL,0.0,0.587,0.782,1.565,0.0,0.0,0.0,0.0
4.89,2.19,33.45252,-84.50697,21494.07,6314.56,PIEDMONT FAYETTE HOSPITAL,0.0,0.375,0.876,0.0,0.0,0.0,0.375,0.125
13.99,2.54,33.68000,-84.42685,72728.19,8262.19,SOUTH FULTON MEDICAL CENTER,0.0,1.406,0.234,0.0,0.0,0.0,0.0,0.0
4.35,2.27,33.70365,-84.14697,18443.69,6751.92,DEKALB MEDICAL CENTER AT HILLANDALE,0.0,1.109,0.37,0.0,0.0,0.0,0.0,0.0
5.70,2.29,33.39118,-84.81563,26078.45,6852.97,PIEDMONT NEWNAN HOSPITAL, INC,0.0,0.406,0.203,0.0,0.0,0.0,0.0,0.0
4.42,2.18,34.06670,-84.17643,18860.55,6257.27,EMORY JOHNS CREEK HOSPITAL,0.0,0.397,0.397,0.397,0.0,0.0,0.0,0.0
6.09,3.04,21.30780,-157.85505,28264.13,11062.65,THE QUEENS MEDICAL CENTER,0.0,0.369,0.442,0.811,0.0,0.0,0.074,0.0
8.90,4.07,20.88519,-156.48928,44085.60,16871.35,MAUI MEMORIAL MEDICAL CENTER,0.0,0.275,0.275,0.0,0.0,0.0,0.0,0.0
5.09,3.11,19.71761,-155.11327,22605.18,11464.71,HILO MEDICAL CENTER,0.0,0.0,0.583,0.583,0.0,0.0,0.0,0.0
6.04,2.74,21.38095,-157.75759,27963.43,9365.07,CASTLE MEDICAL CENTER,0.0,0.259,0.517,0.776,0.0,0.0,0.0,0.0
5.67,2.69,21.32239,-157.85662,25879.64,9085.68,KUAKINI MEDICAL CENTER,0.0,0.0,0.371,1.857,0.0,0.0,0.186,0.0
5.51,4.81,21.36339,-157.89951,25010.92,21032.08,KAISER FOUNDATION HOSPITAL,0.0,0.206,0.413,0.619,0.0,0.206,0.206,0.0
6.17,3.26,21.98514,-159.36388,28713.95,12295.89,WILCOX MEMORIAL HOSPITAL,0.0,0.562,1.124,2.809,0.0,0.0,0.0,0.562
6.92,2.71,21.30226,-157.85092,32917.88,9215.21,STRAUB CLINIC AND HOSPITAL,0.0,0.0,0.387,5.226,0.0,0.0,0.0,0.0
7.77,2.83,21.38328,-157.93828,37698.35,9922.77,PALI MOMI MEDICAL CENTER,0.0,0.0,0.442,3.981,0.0,0.0,0.0,0.0
5.43,2.78,21.37080,-158.02746,24524.29,9608.88,HAWAII MEDICAL CENTER WEST,0,0,0,0,0,0,0,0
3.88,3.17,20.02208,-155.66467,15814.00,11788.29,NORTH HAWAII COMMUNITY HOSPITAL,0.0,0.0,0.0,1.404,0.0,0.0,0.0,0.0
3.46,2.24,42.59072,-114.49627,13426.54,6573.64,ST LUKES MAGIC VALLEY RMC,0.0,0.491,0.818,0.327,0.0,0.0,0.0,0.164
3.93,2.50,46.41668,-117.02441,16093.86,8064.69,ST JOSEPH REGIONAL MEDICAL CENTER,0.0,0.846,1.128,0.282,0.0,0.0,0.0,0.0
5.02,2.31,43.61218,-116.19234,22213.25,6970.59,ST LUKES REGIONAL MEDICAL CENTER,0.068,0.342,0.342,0.342,0.0,0.0,0.068,0.0
4.23,2.43,43.61359,-116.25484,17782.14,7618.72,ST ALPHONSUS REGIONAL MEDICAL CENTER,0.0,0.085,0.683,0.256,0.0,0.0,0.0,0.0
4.00,2.25,43.55374,-116.57267,16505.42,6616.58,SAINT ALPHONSUS MEDICAL CENTER - NAMPA,0.0,0.393,0.393,0.393,0.0,0.0,0.0,0.0
4.23,2.29,43.65510,-116.69360,17772.38,6867.08,WEST VALLEY MEDICAL CENTER,0.0,0.0,0.0,0.0,0.0,0.0,0.0,0.0
4.84,2.34,43.46987,-111.99208,21204.53,7118.32,EASTERN IDAHO REGIONAL MEDICAL CENTER,0.0,0.338,0.676,0.169,0.0,0.0,0.0,0.169
3.60,2.63,42.87331,-112.42180,14250.00,8744.52,PORTNEUF MEDICAL CENTER,0.0,0.196,0.588,0.784,0.0,0.0,0.0,0.0
3.43,2.25,47.69645,-116.79476,13280.32,6636.65,KOOTENAI MEDICAL CENTER,0.0,0.246,1.229,0.738,0.0,0.0,0.0,0.0
4.83,2.16,38.90068,-90.16026,21170.09,6131.65,ALTON MEMORIAL HOSPITAL,0.0,0.178,0.534,0.178,0.0,0.0,0.0,0.0
9.00,2.39,41.52896,-88.13550,44637.27,7421.40,PROVENA ST JOSEPH MEDICAL CENTER,0.0,0.0,0.289,2.213,0.0,0.0,0.192,0.0
8.94,2.52,41.91082,-87.84451,44305.09,8135.43,LOYOLA GOTTLIEB MEMORIAL HOSPITAL,0.0,0.569,0.711,0.0,0.0,0.0,0.0,0.0
6.70,2.55,42.06550,-87.68428,31700.82,8344.55,EVANSTON HOSPITAL,0.0,0.131,0.557,0.164,0.0,0.033,0.066,0.033
4.28,2.22,37.80207,-89.02660,18052.22,6487.62,HERRIN HOSPITAL,0.0,0.168,0.503,0.168,0.0,0.0,0.0,0.0
4.54,2.16,40.75318,-89.59321,19508.93,6147.38,PROCTOR HOSPITAL,0.0,0.0,0.368,0.368,0.0,0.0,0.0,0.184
5.38,2.42,39.93563,-91.39833,24267.49,7595.17,BLESSING HOSPITAL,0.0,0.164,0.164,0.082,0.0,0.082,0.409,0.164
6.63,3.16,41.86011,-87.69571,31320.90,11764.62,MT SINAI HOSPITAL MEDICAL CENTER,0.0,0.0,0.179,0.359,0.0,0.179,0.718,0.0
8.11,2.42,41.72930,-88.26976,39631.85,7592.59,COPLEY MEMORIAL HOSPITAL,0.0,0.135,0.405,0.0,0.0,0.0,0.0,0.0
8.07,2.35,42.07012,-88.33180,39402.20,7212.15,SHERMAN HOSPITAL,0.0,0.0,0.996,0.299,0.0,0.0,0.0,0.0
3.66,2.16,39.12680,-88.55059,14558.09,6115.24,ST ANTHONYS MEMORIAL HOSPITAL,0.0,0.135,0.811,0.811,0.0,0.0,0.135,0.0
4.52,2.32,38.52908,-89.11604,19443.25,7035.17,ST MARYS HOSPITAL,0.0,0.537,0.269,0.0,0.0,0.0,0.0,0.0
9.21,2.28,40.95560,-90.36618,45809.08,6815.75,GALESBURG COTTAGE HOSPITAL,0.0,0.0,0.0,0.0,0.0,0.244,0.0,0.0
5.94,2.28,41.80160,-89.69714,27405.68,6797.29,CGH MEDICAL CENTER,0.0,0.0,0.0,0.474,0.0,0.0,0.158,0.0
4.10,2.20,38.32292,-88.91026,17063.69,6359.00,GOOD SAMARITAN REGIONAL HLTH CENTER,0.0,0.137,0.274,0.411,0.0,0.0,0.0,0.0
6.55,2.62,41.72636,-87.56727,30851.47,8742.39,ADVOCATE TRINITY HOSPITAL,0.0,0.832,0.238,0.595,0.0,0.0,0.0,0.119
6.23,2.84,41.89141,-87.77618,29052.42,9963.53,WEST SUBURBAN MEDICAL CENTER,0.0,0.164,0.492,0.164,0.0,0.0,0.164,0.0
6.35,2.60,42.05624,-87.74012,29738.69,8622.77,SKOKIE HOSPITAL,0.0,0.207,0.311,0.104,0.0,0.0,0.104,0.0
5.90,2.03,38.90787,-90.17207,27196.07,5368.73,SAINT ANTHONY'S HEALTH CENTER,0.0,0.292,0.292,1.168,0.0,0.0,0.0,0.0
5.78,2.43,39.80726,-89.64496,26487.10,7621.06,ST JOHNS HOSPITAL,0.0,0.318,0.572,0.254,0.0,0.0,0.127,0.127
6.51,2.69,41.83195,-87.79266,30604.48,9124.37,MACNEAL  HOSPITAL,0.0,0.181,0.272,0.0,0.0,0.091,0.0,0.0
4.49,2.39,39.74629,-90.25907,19236.43,7422.00,PASSAVANT AREA HOSPITAL,0.0,0.0,0.795,0.265,0.0,0.265,0.0,0.0
2.61,2.11,39.11040,-90.34312,8666.09,5865.55,JERSEY COMMUNITY HOSPITAL,0.0,0.62,1.241,0.62,0.0,0.0,0.0,0.0
6.31,2.29,41.66900,-87.81414,29502.16,6846.54,PALOS COMMUNITY HOSPITAL,0.0,0.0,0.181,0.136,0.0,0.045,0.091,0.0
6.22,2.31,41.87870,-87.80322,29002.42,6967.08,RUSH OAK PARK HOSPITAL,0.0,0.477,0.954,0.0,0.0,0.0,0.477,0.0
4.70,2.63,40.98818,-90.36374,20402.71,8752.53,ST MARY MEDICAL CENTER,0.0,0.0,0.247,0.0,0.0,0.0,0.0,0.0
6.99,2.33,41.79660,-87.88627,33311.82,7053.63,ADVENTIST LA GRANGE MEMORIAL HOSPITAL,0.0,0.092,0.832,0.554,0.092,0.0,0.0,0.0
7.25,2.55,40.70200,-89.59222,34763.40,8335.62,SAINT FRANCIS MEDICAL CENTER,0.0,0.311,0.489,0.533,0.0,0.0,0.133,0.089
8.34,2.88,42.02578,-87.68371,40905.93,10201.78,RHC ST FRANCIS HOSPITAL,0.0,0.378,0.378,0.0,0.0,0.126,0.0,0.0
6.34,2.76,41.96698,-87.64941,29653.85,9479.05,LOUIS A WEISS MEMORIAL HOSPITAL,0.0,0.387,1.161,0.0,0.0,0.0,0.258,0.0
8.66,2.47,42.37840,-87.83329,42713.83,7893.20,VISTA MEDICAL CENTER EAST,0.0,0.631,0.526,0.0,0.0,0.0,0.315,0.0
10.38,3.20,41.78829,-87.60485,52434.44,11992.12,THE UNIVERSITY OF CHICAGO MEDICAL CENTER,0.0,1.208,0.226,0.453,0.0,0.0,0.0,0.528
7.21,2.56,40.11696,-88.21506,34583.76,8370.00,CARLE FOUNDATION HOSPITAL,0.0,0.374,0.524,0.824,0.0,0.0,0.225,0.0
5.93,2.38,40.13811,-87.64569,27335.00,7380.10,PROVENA UNITED SAMARITANS MEDCTR-LOGAN,0.0,0.166,0.498,0.332,0.0,0.0,0.0,0.0
5.88,2.23,41.36897,-88.42537,27060.46,6493.46,MORRIS HOSPITAL & HEALTHCARE CENTERS,0.0,0.0,0.224,0.0,0.0,0.0,0.0,0.224
4.04,2.36,41.35763,-88.82439,16732.38,7250.46,OTTAWA REGIONAL HOSPITAL & HEALTHCARE CENTER,0.0,0.39,0.0,0.781,0.0,0.0,0.0,0.0
6.65,2.32,40.11739,-88.22714,31425.84,7044.22,PROVENA COVENANT MEDICAL CENTER- URBANA,0.0,0.0,0.877,0.146,0.0,0.0,0.438,0.146
8.81,2.67,41.97532,-87.69958,43568.26,8995.85,SWEDISH COVENANT HOSPITAL,0.0,0.276,0.0,0.276,0.0,0.0,0.0,0.0
6.15,2.36,42.31832,-88.27920,28607.69,7244.55,CENTEGRA HEALTH SYSTEM - MC HENRY HOSPITAL,0.0,0.205,0.307,0.102,0.0,0.0,0.0,0.0
7.83,2.47,41.98743,-87.81440,38065.72,7853.63,RESURRECTION MEDICAL CENTER,0.0,0.446,1.211,0.382,0.0,0.0,0.0,0.064
5.70,2.54,41.65880,-87.67729,26054.79,8284.15,METROSOUTH MEDICAL CENTER,0.0,0.11,0.44,0.11,0.0,0.0,0.11,0.11
8.54,3.23,41.87497,-87.66927,42058.37,12173.88,RUSH UNIVERSITY MEDICAL CENTER,0.0,0.884,0.416,0.988,0.0,0.156,0.104,0.156
7.15,2.40,41.80555,-87.92059,34204.65,7494.37,HINSDALE HOSPITAL,0.0,0.507,0.304,0.304,0.0,0.101,0.0,0.0
3.95,3.38,41.87381,-87.67421,16226.08,12970.33,JOHN H STROGER JR HOSPITAL,0.0,1.269,0.423,0.211,0.0,0.0,0.211,0.423
10.99,2.46,38.70148,-90.14382,55860.53,7812.35,GATEWAY REGIONAL MEDICAL CENTER,0.0,0.428,0.856,0.0,0.0,0.0,0.0,0.0
5.60,2.43,40.49639,-88.99106,25473.94,7672.09,BROMENN HEALTHCARE,0.0,0.13,0.521,0.0,0.0,0.0,0.0,0.13
7.88,2.38,42.25244,-87.86528,38317.68,7335.21,LAKE FOREST HOSPITAL,0.0,0.167,0.333,0.0,0.0,0.0,0.0,0.0
4.93,2.54,41.76946,-87.69239,21703.60,8244.93,HOLY CROSS HOSPITAL,0.0,0.253,0.126,0.253,0.0,0.0,0.0,0.0
5.67,2.24,39.86644,-88.96090,25874.57,6580.32,DECATUR MEMORIAL HOSPITAL,0.0,0.161,1.048,0.161,0.0,0.0,0.081,0.081
4.39,2.19,41.32884,-89.19262,18695.64,6289.50,ST MARGARETS HOSPITAL,0.0,0.0,0.986,0.0,0.0,0.0,0.0,0.0
3.45,2.28,38.62608,-89.52336,13366.31,6777.85,ST JOSEPHS HOSPITAL,0.0,0.0,0.0,1.253,0.0,0.0,0.0,0.0
5.30,2.37,39.80893,-89.65530,23828.22,7287.31,MEMORIAL MEDICAL CENTER,0.0,0.643,0.683,0.121,0.0,0.0,0.08,0.08
10.45,3.98,41.86927,-87.67052,52805.18,16378.08,UNIVERSITY OF ILLINOIS HOSPITAL,0.0,1.673,0.257,0.0,0.0,0.0,0.129,0.0
8.95,2.36,41.12049,-87.87187,44360.44,7261.41,PROVENA ST MARYS HOSPITAL,0.0,0.145,0.435,0.58,0.0,0.0,0.0,0.145
4.23,2.92,41.84639,-87.62345,17793.01,10406.86,MERCY HOSPITAL AND MEDICAL CENTER,0.0,0.442,0.442,0.53,0.0,0.088,0.088,0.088
4.44,2.30,42.29592,-89.63773,18946.25,6931.38,FHN MEMORIAL HOSPITAL,0.0,0.0,0.225,0.0,0.0,0.0,0.0,0.0
5.03,2.19,40.48254,-88.95519,22287.79,6266.59,ST JOSEPH MEDICAL CENTER,0.0,0.201,0.201,0.0,0.0,0.0,0.0,0.0
3.91,2.26,37.72790,-89.22058,15961.21,6694.98,MEMORIAL HOSPITAL OF CARBONDALE,0.0,0.504,0.504,0.0,0.0,0.126,0.126,0.0
5.89,2.34,39.82659,-88.93119,27153.81,7137.77,ST MARYS HOSPITAL,0.0,0.327,0.982,0.0,0.0,0.0,0.327,0.0
6.97,2.68,41.52283,-87.71111,33240.70,9050.93,FRANCISCAN ST JAMES HEALTH,0.0,0.0,0.196,0.147,0.0,0.0,0.049,0.049
6.83,2.38,41.78566,-88.32886,32417.95,7378.81,PROVENA MERCY MEDICAL CENTER,0.0,1.262,0.361,0.0,0.0,0.0,0.0,0.18
6.42,2.51,42.27597,-88.40019,30097.67,8094.48,CENTEGRA HEALTH SYSTEM - WOODSTOCK HOSPITAL,0.0,0.173,1.553,0.0,0.0,0.0,0.0,0.173
7.53,2.78,41.75746,-87.58559,36393.67,9622.75,JACKSON PARK HOSPITAL,0.0,0.0,0.0,0.0,0.0,0.0,0.0,0.0
6.59,2.43,41.72094,-87.69220,31046.85,7620.62,LITTLE COMPANY OF MARY HOSPITAL,0.0,0.218,0.436,0.291,0.0,0.0,0.073,0.145
8.36,2.93,41.90414,-87.68254,41040.23,10471.07,ST MARY & ELIZABETH MED CTR-DIVISION CAMPUS,0.0,0.285,0.57,0.071,0.0,0.071,0.428,0.071
6.66,2.67,41.74948,-87.56909,31464.36,8997.00,SOUTH SHORE HOSPITAL,0.0,0.466,0.233,0.0,0.0,0.0,0.0,0.0
6.31,3.05,41.93641,-87.65295,29482.12,11157.88,ADVOCATE ILLINOIS MASONIC MEDICAL CENTER,0.0,0.399,0.199,0.0,0.0,0.1,0.0,0.0
9.56,2.18,37.74480,-88.99329,47817.00,6238.15,HEARTLAND REGIONAL MEDICAL CENTER,0.0,0.573,0.955,0.191,0.0,0.0,0.0,0.191
5.68,2.19,38.55020,-90.02146,25920.75,6287.93,MEMORIAL HOSPITAL,0.0,0.611,0.229,0.153,0.0,0.0,0.0,0.0
5.40,2.49,41.12572,-87.88526,24347.07,7963.72,RIVERSIDE MEDICAL CENTER,0.0,0.186,0.931,1.117,0.0,0.0,0.0,0.0
4.42,2.20,38.51081,-89.99014,18835.24,6354.24,ST ELIZABETH HOSPITAL,0.0,0.211,0.949,0.527,0.0,0.0,0.105,0.0
3.36,2.21,39.48849,-88.27581,12862.67,6386.44,SARAH BUSH LINCOLN HEALTH CENTER,0.0,0.53,0.177,0.884,0.0,0.177,0.177,0.0
6.79,2.43,41.60726,-87.66060,32194.47,7656.35,INGALLS MEMORIAL HOSPITAL,0.0,0.279,0.21,0.279,0.0,0.07,0.07,0.0
7.21,2.50,41.86362,-87.93567,34592.91,8037.69,ELMHURST MEMORIAL HOSPITAL,0.0,0.449,0.299,0.973,0.0,0.0,0.0,0.0
7.58,2.36,42.27447,-87.95764,36656.86,7246.00,ADVOCATE CONDELL MEDICAL CENTER,0.0,0.279,0.488,0.209,0.0,0.0,0.0,0.07
6.05,2.82,41.72031,-87.73249,28035.15,9834.76,ADVOCATE CHRIST HOSPITAL & MEDICAL CENTER,0.0,0.172,0.138,0.034,0.0,0.069,0.241,0.034
6.00,2.39,40.70065,-89.59505,27734.53,7400.11,METHODIST MEDICAL CENTER OF ILLINOIS,0.0,0.178,0.446,0.0,0.0,0.0,0.0,0.089
7.62,2.25,41.88566,-88.34311,36851.07,6617.64,DELNOR COMMUNITY HOSPITAL,0.0,0.132,0.397,0.397,0.0,0.0,0.0,0.0
5.51,2.44,41.54446,-87.98379,25003.06,7705.45,SILVER CROSS HOSPITAL  AND MEDICAL CENTERS,0.0,0.513,0.22,0.439,0.0,0.0,0.0,0.073
8.11,2.42,42.03576,-88.32575,39634.87,7592.80,PROVENA - SAINT JOSEPH HOSPITAL,0.0,0.295,0.884,0.295,0.0,0.0,0.0,0.147
5.89,2.61,42.03837,-87.84820,27112.46,8633.38,ADVOCATE LUTHERAN GENERAL HOSPITAL,0.0,0.181,0.135,0.045,0.0,0.0,0.0,0.045
6.63,2.67,41.93418,-87.63579,31320.40,8988.60,SAINT JOSEPH HOSPITAL,0.0,0.24,0.24,0.12,0.12,0.0,0.0,0.12
7.22,2.52,42.26584,-89.07428,34595.29,8147.57,SWEDISH AMERICAN HOSPITAL,0.0,0.156,0.857,0.312,0.0,0.0,0.312,0.0
7.41,2.24,41.76076,-88.15016,35684.36,6552.77,EDWARD HOSPITAL,0.0,0.393,0.131,0.524,0.0,0.066,0.0,0.0
5.36,2.22,42.26634,-89.00900,24141.92,6464.25,SAINT ANTHONY MEDICAL CENTER,0.0,0.311,0.414,0.311,0.0,0.104,0.104,0.104
7.10,2.57,42.29844,-89.09897,33948.92,8445.83,ROCKFORD MEMORIAL HOSPITAL,0.0,0.197,0.492,0.0,0.0,0.0,0.0,0.0
5.75,2.74,41.89166,-87.84838,26365.29,9370.65,WESTLAKE COMMUNITY HOSPITAL,0.0,0.511,0.256,0.256,0.0,0.0,0.0,0.256
11.61,2.68,41.87269,-88.15684,59345.31,9043.91,CENTRAL DUPAGE HOSPITAL,0.0,0.067,0.599,0.399,0.0,0.0,0.067,0.067
6.17,2.39,41.56720,-87.69566,28711.65,7408.35,ADVOCATE SOUTH SUBURBAN HOSPITAL,0.0,0.588,0.098,0.196,0.0,0.0,0.0,0.0
8.07,2.76,41.94560,-87.76897,39400.69,9506.51,OUR LADY OF THE RESURRECTION MED CTR,0.0,0.801,0.572,0.114,0.0,0.0,0.0,0.0
7.05,2.25,42.06732,-87.99368,33648.85,6626.68,NORTHWEST COMMUNITY HOSPITAL,0.0,0.249,0.87,0.207,0.0,0.0,0.041,0.0
8.67,2.43,42.00413,-88.01745,42801.76,7667.67,ALEXIAN BROTHERS MEDICAL CENTER,0.0,0.056,0.726,0.223,0.0,0.0,0.0,0.0
4.27,2.16,41.49581,-90.41871,17981.67,6119.00,GENESIS MEDICAL CENTER ILLINI CAMPUS,0.0,0.0,0.475,0.0,0.0,0.0,0.0,0.0
6.31,3.18,41.86110,-87.83404,29524.18,11859.51,LOYOLA UNIVERSITY MEDICAL CENTER,0.0,0.47,0.352,0.587,0.0,0.117,0.235,0.059
3.50,2.20,41.48200,-90.57158,13660.96,6337.61,TRINITY ROCK ISLAND,0.0,0.145,0.867,0.145,0.0,0.072,0.145,0.0
10.27,3.10,41.89477,-87.62131,51784.04,11428.81,NORTHWESTERN MEMORIAL HOSPITAL,0.0,0.382,0.243,0.208,0.0,0.0,0.243,0.035
4.95,2.24,41.96185,-88.72130,21859.69,6592.25,KISHWAUKEE COMMUNITY HOSPITAL,0.0,0.181,0.542,0.181,0.0,0.0,0.0,0.0
6.45,2.47,41.81791,-88.00907,30287.30,7896.10,ADVOCATE GOOD SAMARITAN HOSPITAL,0.0,0.125,0.25,0.063,0.0,0.0,0.0,0.0
4.91,2.14,38.73818,-89.94728,21610.49,6025.76,ANDERSON HOSPITAL,0.0,0.0,0.187,0.561,0.0,0.0,0.0,0.0
7.84,2.33,42.05260,-88.14173,38115.92,7081.85,ST ALEXIUS MEDICAL CENTER,0.0,0.232,0.232,0.0,0.0,0.077,0.0,0.0
5.92,2.24,42.19586,-88.17286,27326.05,6592.76,ADVOCATE GOOD SHEPHERD HOSPITAL,0.0,0.501,0.201,0.301,0.0,0.0,0.0,0.0
6.37,2.56,41.68062,-88.08319,29844.91,8402.27,ADVENTIST BOLINGBROOK HOSPITAL,0.0,0.0,0.533,0.799,0.0,0.0,0.0,0.0
4.26,2.25,39.48010,-86.07773,17953.84,6614.16,JOHNSON MEMORIAL HOSPITAL,0.0,0.438,0.876,0.438,0.0,0.0,0.0,0.438
5.74,2.51,41.59920,-87.35764,26285.26,8117.92,METHODIST HOSPITALS INC,0.0,0.576,0.384,0.0,0.0,0.064,0.192,0.0
6.58,2.25,40.42687,-86.88197,31011.53,6636.44,FRANCISCAN ST ELIZABETH HEALTH - LAFAYETTE CENTRAL,0.0,0.456,0.684,0.228,0.0,0.0,0.228,0.0
5.49,2.46,41.61514,-87.52413,24868.16,7822.18,FRANCISCAN ST MARGARET HEALTH - HAMMOND,0.0,0.732,0.209,0.105,0.0,0.0,0.0,0.0
4.58,2.19,39.76255,-86.50165,19733.76,6318.24,HENDRICKS REGIONAL HEALTH,0.0,0.485,0.0,1.941,0.0,0.0,0.0,0.0
4.69,2.17,41.61055,-86.72511,20348.50,6151.95,INDIANA UNIVERSITY HEALTH LA PORTE HOSPITAL,0.0,0.0,0.777,0.0,0.0,0.0,0.0,0.0
4.92,2.13,40.44665,-86.12707,21678.86,5957.14,HOWARD REGIONAL HEALTH SYSTEM,0.0,0.0,0.223,0.223,0.0,0.0,0.223,0.0
5.48,2.45,41.63466,-87.44901,24846.84,7771.32,ST CATHERINE HOSPITAL INC,0.0,0.171,0.686,0.171,0.0,0.0,0.0,0.0
4.24,2.27,38.28244,-85.74923,17852.22,6747.56,CLARK MEMORIAL HOSPITAL,0.0,0.0,0.695,0.261,0.0,0.0,0.0,0.0
5.94,2.19,40.48720,-86.15548,27431.12,6303.85,ST JOSEPH HOSPITAL & HEALTH CENTER INC,0.0,0.229,0.0,0.229,0.0,0.0,0.458,0.0
3.62,2.19,40.56435,-85.66576,14366.81,6291.31,MARION GENERAL HOSPITAL,0.0,0.212,0.425,0.212,0.0,0.0,0.0,0.425
4.46,2.39,41.70877,-86.17026,19105.26,7444.97,SAINT JOSEPH REGIONAL MEDICAL CENTER,0.0,0.0,0.439,0.146,0.0,0.0,0.0,0.0
4.62,2.20,41.70639,-86.89936,19958.91,6370.80,FRANCISCAN ST ANTHONY HEALTH - MICHIGAN CITY,0.0,0.156,0.0,0.311,0.0,0.0,0.156,0.156
5.46,2.28,41.03874,-85.24876,24704.13,6803.34,LUTHERAN HOSPITAL OF INDIANA,0.0,0.481,0.962,0.361,0.0,0.0,0.12,0.0
4.15,2.22,41.70568,-85.93404,17354.91,6488.51,ELKHART GENERAL HOSPITAL,0.0,0.0,0.791,0.099,0.099,0.0,0.297,0.099
5.39,2.29,41.04659,-85.10906,24337.17,6855.90,PARKVIEW REGIONAL MEDICAL CENTER,0.0,0.131,0.524,1.114,0.0,0.0,0.131,0.066
5.22,2.28,39.48518,-87.40893,23357.14,6825.86,UNION HOSPITAL INC,0.0,0.182,0.728,0.182,0.0,0.0,0.061,0.061
5.63,3.10,39.78091,-86.17629,25655.50,11444.84,WILLIAM N WISHARD MEMORIAL HOSPITAL,0.0,0.291,0.145,0.436,0.0,0.145,0.0,0.0
5.21,2.37,41.56352,-85.83039,23304.05,7318.00,IU HEALTH GOSHEN HOSPITAL,0.0,0.21,0.0,0.0,0.0,0.21,0.0,0.0
4.86,2.41,39.94340,-85.36306,21346.69,7506.23,HENRY COUNTY MEMORIAL HOSPITAL,0.0,0.0,0.595,0.0,0.0,0.0,0.0,0.298
5.08,2.42,39.72432,-86.10055,22593.77,7581.94,FRANCISCAN ST FRANCIS HEALTH - BEECH GROVE,0,0,0,0,0,0,0,0
5.52,2.30,41.51266,-87.26125,25074.27,6924.59,ST MARY MEDICAL CENTER INC,0.0,0.19,0.476,0.381,0.0,0.0,0.0,0.0
6.73,2.29,41.46729,-87.05130,31882.76,6849.04,PORTER VALPARAISO HOSPITAL,0.0,0.342,0.684,0.342,0.0,0.0,0.0,0.0
4.02,2.06,39.79490,-85.76770,16603.42,5577.58,HANCOCK REGIONAL HOSPITAL,0.0,0.0,0.0,0.312,0.0,0.0,0.0,0.0
6.46,2.23,39.42628,-86.40515,30356.64,6505.09,INDIANA UNIVERSITY HEALTH MORGAN HOSPITAL INC,0.0,0.0,1.165,0.0,0.0,0.0,0.0,0.0
4.01,2.14,38.67313,-87.53370,16545.50,6026.45,GOOD SAMARITAN HOSPITAL,0.0,0.285,0.285,0.142,0.0,0.0,0.0,0.142
5.62,2.19,38.30195,-85.83409,25589.09,6270.23,FLOYD MEMORIAL HOSPITAL AND HEALTH SERVICES,0.0,0.077,0.154,0.309,0.0,0.0,0.0,0.0
5.53,2.20,39.41951,-87.40898,25086.44,6370.75,TERRE HAUTE REGIONAL HOSPITAL,0.0,0.0,0.563,0.0,0.0,0.0,0.0,0.0
3.30,2.39,39.86405,-84.88413,12561.60,7416.43,REID HOSPITAL & HEALTH CARE SERVICES,0.0,0.354,0.707,0.0,0.0,0.0,0.088,0.088
4.16,2.25,39.16006,-86.54038,17367.35,6650.15,INDIANA UNIVERSITY HEALTH BLOOMINGTON HOSPITAL,0.0,0.287,0.382,0.955,0.0,0.096,0.096,0.0
6.92,3.11,39.79009,-86.16260,32942.39,11487.40,INDIANA UNIVERSITY HEALTH,0.028,0.369,0.454,0.17,0.0,0.0,0.057,0.057
5.77,2.36,41.68479,-86.25217,26481.79,7277.96,MEMORIAL HOSPITAL OF SOUTH BEND,0.0,0.0,1.135,1.059,0.0,0.076,0.151,0.0
4.80,2.17,40.04526,-86.02297,21008.68,6175.47,RIVERVIEW HOSPITAL,0.0,0.0,1.487,0.0,0.0,0.0,0.0,0.0
4.21,2.28,39.65626,-85.13265,17691.57,6796.57,FAYETTE REGIONAL HEALTH SYSTEM,0.0,0.0,0.518,0.518,0.0,0.0,0.0,0.0
4.24,2.24,38.95542,-85.89223,17851.47,6595.37,SCHNECK MEDICAL CENTER,0.0,0.0,0.38,0.759,0.0,0.0,0.0,0.0
3.96,2.18,38.73589,-85.37996,16235.53,6217.53,KING'S DAUGHTERS' HOSPITAL AND HEALTH SERVICES,THE,0.0,0.0,0.265,0.796,0.0,0.0,0.0,0.0
4.30,2.59,40.76324,-86.36162,18162.69,8538.85,MEMORIAL HOSPITAL,0.0,0.0,0.567,0.567,0.0,0.0,0.0,0.0
5.40,2.53,39.78704,-86.07673,24368.31,8195.31,COMMUNITY HOSPITAL EAST,0.0,0.299,0.1,0.299,0.0,0.0,0.0,0.0
4.86,2.21,40.73751,-85.17118,21337.36,6385.09,BLUFFTON REGIONAL MEDICAL CENTER,0.0,0.0,0.427,0.0,0.0,0.0,0.0,0.0
5.01,2.30,41.33298,-86.33336,22157.00,6910.53,SAINT JOSEPH'S REGIONAL MEDICAL CENTER - PLYMOUTH,0.0,0.0,0.0,0.0,0.0,0.0,0.0,0.511
5.55,2.17,37.98293,-87.57072,25238.56,6168.25,DEACONESS HOSPITAL INC,0.0,0.472,0.515,0.215,0.0,0.086,0.0,0.0
6.32,2.50,39.91001,-86.19660,29558.42,8060.88,ST VINCENT HOSPITAL & HEALTH SERVICES,0.0,0.773,0.258,0.472,0.0,0.086,0.043,0.086
4.64,2.20,39.11138,-84.88343,20110.94,6323.00,DEARBORN COUNTY HOSPITAL,0.0,0.515,0.772,1.029,0.0,0.0,0.257,0.0
5.34,2.37,40.09594,-85.68152,24036.18,7331.45,SAINT JOHN'S HEALTH SYSTEM,0.0,0.15,0.15,0.451,0.0,0.0,0.0,0.15
5.16,2.42,40.19679,-85.41573,23041.16,7597.64,INDIANA UNIVERSITY HEALTH BALL MEMORIAL HOSPITAL,0.0,0.066,0.66,0.264,0.0,0.0,0.132,0.066
6.03,2.33,41.49222,-87.52429,27937.88,7067.94,FRANCISCAN ST MARGARET HEALTH - DYER,0.0,0.765,0.306,0.0,0.0,0.0,0.0,0.0
3.72,2.46,40.90491,-85.48821,14902.42,7822.83,PARKVIEW HUNTINGTON HOSPITAL,0.0,0.0,0.0,0.0,0.0,0.0,0.0,0.0
5.46,2.27,39.52494,-85.78113,24726.94,6761.71,MAJOR HOSPITAL,0.0,0.0,0.397,0.0,0.0,0.0,0.0,0.0
5.30,2.20,37.96320,-87.50292,23796.54,6352.11,ST MARY'S MEDICAL CENTER OF EVANSVILLE INC,0.0,0.262,0.589,0.327,0.0,0.0,0.131,0.0
3.98,2.37,40.07620,-86.47506,16372.23,7302.69,WITHAM HEALTH SERVICES,0.0,0.503,1.006,0.0,0.0,0.0,0.0,0.0
5.88,2.31,40.39424,-86.83516,27057.22,6955.68,FRANCISCAN ST ELIZABETH HEALTH - LAFAYETTE EAST,0.0,0.361,0.181,0.181,0.0,0.0,0.0,0.0
4.02,2.34,39.21585,-85.89683,16602.13,7139.92,COLUMBUS REGIONAL HOSPITAL,0.0,0.0,0.652,0.13,0.0,0.0,0.0,0.13
3.84,2.28,40.12998,-85.69436,15573.47,6811.89,COMMUNITY HOSPITAL OF ANDERSON AND MADISON COUNTY,0.0,0.159,0.637,0.0,0.0,0.0,0.0,0.0
2.92,2.05,38.39499,-86.94089,10418.05,5519.40,MEMORIAL HOSPITAL AND HEALTH CARE CENTER,0.0,0.0,0.692,0.519,0.0,0.0,0.0,0.0
5.50,2.28,41.55065,-87.50619,24950.66,6773.79,COMMUNITY HOSPITAL,0.0,0.554,0.604,0.252,0.0,0.0,0.0,0.0
5.73,2.28,41.39576,-87.36689,26238.26,6790.90,FRANCISCAN ST ANTHONY HEALTH - CROWN POINT,0.0,0.0,0.849,0.189,0.0,0.0,0.0,0.0
5.31,2.18,39.63776,-86.13260,23884.27,6230.18,COMMUNITY HOSPITAL SOUTH,0.0,0.0,0.922,0.0,0.0,0.154,0.0,0.154
5.54,2.20,39.78047,-86.34084,25180.21,6324.14,IU HEALTH WEST HOSPITAL,0.0,0.194,1.357,0.0,0.0,0.0,0.194,0.0
4.98,2.17,39.95930,-86.16016,22019.64,6180.27,INDIANA UNIVERSITY HEALTH NORTH HOSPITAL,0.0,0.804,0.536,0.268,0.0,0.0,0.0,0.0
5.82,2.35,39.64935,-86.07960,26723.93,7188.79,FRANCISCAN ST FRANCIS HEALTH - INDIANAPOLIS,0.0,0.0,0.13,0.261,0.0,0.0,0.0,0.13
5.05,2.22,39.90060,-86.04218,22406.16,6467.56,COMMUNITY HOSPITAL NORTH,0.0,0.335,0.781,0.112,0.0,0.0,0.0,0.0
6.92,2.32,40.40296,-86.80885,32927.11,7024.98,INDIANA UNIVERSITY HEALTH ARNETT HOSPITAL,0.0,0.14,0.279,0.14,0.0,0.0,0.0,0.0
3.02,2.12,41.69967,-86.17647,10956.07,5924.39,UNITY MEDICAL AND SURGICAL HOSPITAL,0.0,0.0,1.522,0.0,0.0,0.0,0.0,0.0
4.50,2.34,42.05601,-94.86762,19298.75,7153.58,ST ANTHONY REGIONAL HOSPITAL,0.0,0.0,1.724,0.0,0.0,0.0,0.0,0.0
3.33,2.36,40.40766,-91.38808,12706.54,7247.62,KEOKUK AREA HOSPITAL,0.0,0.0,0.0,0.0,0.0,0.0,0.0,0.0
5.26,2.23,42.49388,-94.18926,23598.96,6508.33,TRINITY REGIONAL MEDICAL CENTER,0.0,0.0,0.359,0.359,0.0,0.0,0.0,0.0
5.22,2.38,41.60051,-93.61086,23333.72,7372.20,IOWA LUTHERAN HOSPITAL,0.0,0.187,0.187,0.187,0.0,0.0,0.0,0.0
4.77,2.18,41.66411,-91.52841,20795.57,6251.78,MERCY HOSPITAL,0.0,0.133,0.665,0.798,0.0,0.133,0.0,0.0
4.04,2.22,42.03321,-93.61164,16719.58,6479.32,MARY GREELEY MEDICAL CENTER,0.0,0.0,0.135,0.541,0.0,0.0,0.0,0.0
4.46,2.22,41.54190,-90.55691,19093.45,6438.13,GENESIS MEDICAL CENTER-DAVENPORT,0.0,0.118,0.296,0.059,0.0,0.059,0.118,0.059
4.58,2.19,41.98570,-91.66093,19733.41,6283.73,ST LUKES HOSPITAL,0.0,0.0,0.589,0.098,0.0,0.098,0.0,0.0
4.43,2.21,41.26786,-95.83505,18914.47,6381.47,JENNIE EDMUNDSON HOSPITAL,0.0,0.0,0.193,0.0,0.0,0.0,0.193,0.0
5.06,2.22,40.81009,-91.17356,22469.62,6464.69,GREAT RIVER MEDICAL CENTER,0.0,0.798,1.117,0.0,0.0,0.16,0.0,0.0
6.39,2.97,41.66092,-91.54800,29925.81,10700.10,UNIVERSITY OF IOWA HOSPITAL & CLINICS,0.0,0.58,1.159,0.58,0.0,0.064,0.386,0.064
3.78,2.30,43.15063,-93.21718,15227.31,6912.24,MERCY MEDICAL CENTER-NORTH IOWA,0.0,0.076,0.076,0.534,0.0,0.0,0.0,0.0
3.60,2.20,42.46407,-92.34532,14234.47,6328.33,COVENANT MEDICAL CENTER,0.0,0.0,0.372,0.0,0.0,0.0,0.0,0.0
3.80,2.10,42.49227,-90.67404,15349.16,5791.71,MERCY MEDICAL CENTER-DUBUQUE,0.0,0.261,0.651,0.0,0.0,0.0,0.0,0.13
4.35,2.15,41.97864,-91.65507,18464.08,6076.50,MERCY MEDICAL CENTER - CEDAR RAPIDS,0.0,0.226,0.113,0.0,0.0,0.113,0.0,0.0
3.99,2.27,41.86141,-90.18921,16444.18,6734.00,MERCY MEDICAL CENTER-CLINTON,0.0,0.0,0.358,0.0,0.0,0.0,0.0,0.0
5.97,2.34,41.58955,-93.63248,27570.29,7149.19,IOWA METHODIST MEDICAL CENTER,0.0,0.502,0.669,1.339,0.0,0.112,0.223,0.335
5.17,2.37,41.59886,-93.62344,23060.37,7323.71,MERCY MEDICAL CENTER-DES MOINES,0.0,0.201,0.402,0.08,0.0,0.0,0.12,0.0
3.13,2.18,41.02751,-92.38994,11598.58,6217.45,OTTUMWA REGIONAL HEALTH CENTER,0.0,0.0,0.563,0.0,0.0,0.0,0.0,0.0
3.57,2.25,41.56571,-90.51968,14059.67,6632.67,TRINITY BETTENDORF,0.0,0.35,0.35,0.0,0.0,0.0,0.0,0.0
3.83,2.17,42.52665,-92.33957,15510.51,6186.54,ALLEN MEMORIAL HOSPITAL,0.0,0.165,0.165,0.0,0.0,0.082,0.0,0.0
3.47,2.19,43.14994,-95.14317,13528.20,6272.85,SPENCER MUNICIPAL HOSPITAL,0.0,0.0,0.364,1.092,0.0,0.0,0.0,0.0
3.34,2.06,42.49632,-90.68587,12750.28,5562.93,THE FINLEY HOSPITAL,0.0,0.0,1.134,0.0,0.0,0.0,0.454,0.0
3.98,2.38,42.51846,-96.40581,16360.27,7363.55,ST LUKES REGIONAL MEDICAL CENTER,0.0,0.187,1.494,0.0,0.187,0.0,0.374,0.0
2.79,2.36,41.74325,-92.73450,9647.33,7246.00,GRINNELL REGIONAL MEDICAL CENTER,0.0,0.0,1.43,0.0,0.0,0.0,0.0,0.0
4.89,2.20,42.49250,-96.39975,21523.07,6332.87,MERCY MEDICAL CENTER-SIOUX CITY,0.0,0.417,0.104,0.208,0.0,0.0,0.208,0.0
4.12,2.30,38.41149,-96.19524,17143.18,6923.94,NEWMAN REGIONAL HEALTH,0.0,0.0,2.17,1.085,0.0,0.0,1.447,0.0
4.35,2.17,37.37991,-94.68739,18444.00,6179.19,VIA CHRISTI HOSPITAL PITTSBURG INC,0.0,1.024,1.28,0.768,0.0,0.0,0.0,0.0
4.99,2.30,38.83324,-97.61028,22052.80,6917.75,SALINA REGIONAL HEALTH CENTER,0.0,0.155,0.774,0.0,0.0,0.0,0.0,0.0
6.27,2.46,38.87847,-99.29923,29250.50,7789.15,HAYS MEDICAL CENTER,0.0,0.0,0.712,0.712,0.0,0.178,0.534,0.0
4.47,2.19,39.05660,-95.69599,19109.10,6281.47,ST FRANCIS HEALTH CENTER INC,0.0,0.42,0.631,3.258,0.0,0.0,0.21,0.21
5.07,2.38,38.07731,-97.89183,22510.54,7336.62,HUTCHINSON REGIONAL MEDICAL CENTER INC,0.0,0.135,0.808,0.135,0.0,0.0,0.0,0.0
9.96,2.59,39.05583,-94.60912,50066.10,8548.72,UNIVERSITY OF KANSAS HOSPITAL,0.0,0.627,0.57,0.0,0.0,0.057,0.114,0.114
4.95,2.18,38.85279,-94.82413,21849.19,6217.47,OLATHE MEDICAL CENTER,0.0,0.942,0.824,0.353,0.0,0.0,0.353,0.0
5.82,2.39,39.05128,-95.69572,26764.92,7436.53,STORMONT-VAIL HEALTHCARE,0.0,0.061,0.427,0.549,0.0,0.0,0.122,0.0
4.18,2.07,38.02419,-97.33117,17501.13,5629.87,NEWTON MEDICAL CENTER,0.0,0.0,1.334,0.667,0.0,0.0,0.0,0.0
6.81,2.18,38.99549,-94.69061,32337.69,6236.50,SHAWNEE MISSION MEDICAL CENTER,0.0,0.563,0.844,0.141,0.0,0.07,0.141,0.07
6.03,2.43,37.70405,-97.31386,27893.29,7618.73,VIA CHRISTI HOSPITALS WICHITA INC,0.0,0.213,0.39,0.567,0.0,0.0,0.213,0.0
9.54,2.42,37.69556,-97.29785,47676.64,7576.56,WESLEY MEDICAL CENTER,0.0,0.076,0.841,1.605,0.0,0.076,0.382,0.0
4.19,2.33,38.97848,-95.24771,17562.96,7100.58,LAWRENCE MEMORIAL HOSPITAL,0.0,0.207,0.83,0.415,0.0,0.0,0.0,0.207
4.88,2.15,39.20164,-96.60003,21456.00,6072.08,MERCY REGIONAL HEALTH CENTER,0.0,0.224,1.121,0.224,0.0,0.0,0.0,0.0
3.24,2.13,37.04095,-95.63956,12182.10,5958.67,COFFEYVILLE REGIONAL MEDICAL CENTER,0.0,0.0,1.71,1.026,0.0,0.0,0.0,0.0
6.39,2.31,39.12677,-94.78643,29962.86,6977.52,PROVIDENCE MEDICAL CENTER,0.0,1.045,1.045,0.597,0.0,0.0,0.149,0.0
4.19,2.43,37.78537,-100.01492,17550.09,7646.00,WESTERN PLAINS MEDICAL COMPLEX,0.0,0.0,0.496,0.0,0.0,0.0,0.0,0.0
9.76,2.26,38.93763,-94.72630,48907.25,6699.81,OVERLAND PARK REG MED CTR,0.0,0.497,0.745,1.49,0.0,0.0,0.0,0.248
8.67,2.19,38.91047,-94.65205,42765.37,6309.23,MENORAH MEDICAL CENTER,0.0,0.201,0.803,0.402,0.0,0.0,0.201,0.0
6.36,2.13,38.90355,-94.66966,29756.36,5956.36,SAINT LUKE'S SOUTH HOSPITAL,0.0,0.0,0.471,0.0,0.0,0.0,0.0,0.0
3.43,2.14,37.73142,-97.26078,13265.53,6032.00,GALICHIA HEART HOSPITAL LLC,0,0,0,0,0,0,0,0
5.68,2.30,39.07816,-84.46695,25967.29,6938.67,ST ELIZABETH FT THOMAS,0.0,0.176,0.528,0.176,0.0,0.0,0.0,0.0
4.49,2.20,37.11520,-82.81022,19233.69,6338.31,WHITESBURG ARH HOSPITAL,0.0,0.295,0.589,0.295,0.0,0.0,0.0,0.0
3.49,2.17,37.19610,-87.18933,13641.45,6172.82,MUHLENBERG COMMUNITY HOSPITAL,0.0,0.0,0.978,0.0,0.0,0.0,0.0,0.0
3.43,2.35,37.72943,-82.76716,13273.64,7206.64,HIGHLANDS REGIONAL MEDICAL CENTER,0.0,0.409,0.613,0.204,0.0,0.0,0.0,0.0
4.40,2.27,38.47021,-82.63498,18721.36,6765.66,KING'S DAUGHTERS' MEDICAL CENTER,0.0,0.092,0.826,0.092,0.0,0.0,0.138,0.138
4.31,2.23,38.03140,-84.52194,18218.96,6543.22,SAINT JOSEPH HOSPITAL,0.0,0.051,0.66,0.61,0.0,0.0,0.254,0.0
5.82,2.34,37.11784,-84.10910,26749.47,7123.37,SAINT JOSEPH HOSPITAL LONDON,0.0,0.0,0.451,0.0,0.0,0.0,0.15,0.15
3.89,2.17,37.71183,-85.87623,15874.92,6200.92,HARDIN MEMORIAL HOSPITAL,0.0,0.09,0.538,0.627,0.0,0.0,0.0,0.0
6.17,2.47,36.99641,-86.43006,28692.91,7853.35,THE MEDICAL CENTER AT BOWLING GREEN,0.0,0.412,1.029,0.412,0.0,0.0,0.48,0.069
3.88,2.30,37.01079,-85.90342,15817.05,6908.84,T J SAMSON COMMUNITY HOSPITAL,0.0,0.0,0.356,0.0,0.0,0.0,0.0,0.178
4.09,2.23,36.60615,-83.74024,17004.09,6517.45,MIDDLESBORO APPALACHIAN REGIONAL HEALTHCARE HOSPIT,0.0,0.0,0.0,0.0,0.0,0.0,0.0,0.0
5.00,2.18,36.60798,-88.30957,22127.09,6249.79,MURRAY-CALLOWAY COUNTY HOSPITAL,0.0,0.0,0.91,0.682,0.0,0.0,0.0,0.0
5.19,2.30,37.27729,-83.22802,23194.72,6893.38,HAZARD ARH REGIONAL MEDICAL CENTER,0.0,0.198,0.495,0.0,0.0,0.0,0.0,0.0
4.91,2.33,39.06704,-84.49946,21607.84,7066.65,ST ELIZABETH MEDICAL CENTER NORTH,0.042,0.085,0.254,0.042,0.0,0.0,0.042,0.042
4.28,2.23,38.50697,-82.69222,18077.10,6530.75,OUR LADY OF BELLEFONTE HOSPITAL,0.0,0.426,1.137,0.0,0.0,0.0,0.0,0.0
3.90,2.49,37.76518,-87.10197,15922.18,7957.25,OWENSBORO MEDICAL HEALTH SYSTEM,0.0,0.121,0.908,0.0,0.0,0.061,0.0,0.061
5.46,2.42,38.24927,-85.75081,24716.86,7565.13,JEWISH HOSPITAL & ST MARY'S HEALTHCARE,0.0,0.506,0.476,0.149,0.0,0.06,0.06,0.03
7.25,2.51,37.47264,-82.52605,34790.65,8085.22,PIKEVILLE MEDICAL CENTER,0.0,0.71,0.304,0.0,0.0,0.0,0.0,0.0
5.67,2.30,39.01660,-84.63078,25902.15,6923.20,ST ELIZABETH FLORENCE,0.0,0.0,0.182,0.0,0.0,0.0,0.363,0.363
3.81,2.24,37.64378,-84.77272,15402.81,6571.50,EPHRAIM MCDOWELL REGIONAL MEDICAL CENTER,0.0,0.0,1.158,0.386,0.0,0.0,0.0,0.129
2.73,2.36,37.73107,-84.29238,9328.00,7266.91,PATTIE A CLAY REGIONAL MEDICAL CENTER,0.0,0.0,1.123,0.0,0.0,0.0,0.0,0.0
4.07,2.34,36.86034,-87.49528,16856.88,7143.48,JENNIE STUART MEDICAL CENTER,0.0,0.0,0.843,0.169,0.0,0.0,0.0,0.0
4.76,2.30,37.85504,-87.58345,20761.87,6901.07,METHODIST HOSPITAL,0.0,0.0,0.0,0.0,0.0,0.0,0.0,0.0
8.55,3.05,38.03282,-84.50674,42133.97,11109.71,UNIVERSITY OF KENTUCKY HOSPITAL,0.0,0.676,1.07,0.282,0.0,0.0,0.282,0.0
4.65,2.32,36.92128,-84.11838,20135.33,7050.95,BAPTIST REGIONAL MEDICAL CENTER,0.0,0.0,1.301,0.0,0.0,0.0,0.0,0.13
6.70,2.45,38.24806,-85.75125,31665.84,7734.45,NORTON HOSPITALS, INC,0.0,0.605,0.706,0.176,0.025,0.025,0.202,0.05
4.14,2.23,37.33959,-87.48988,17298.11,6529.29,REGIONAL MEDICAL CENTER OF HOPKINS COUNTY,0.0,0.0,0.271,0.0,0.0,0.0,0.0,0.136
4.22,2.12,37.06431,-88.67523,17751.51,5889.43,LOURDES HOSPITAL,0.0,0.466,1.025,0.373,0.0,0.093,0.093,0.093
5.49,2.29,38.01849,-84.51236,24852.19,6846.92,CENTRAL BAPTIST HOSPITAL,0.0,0.283,0.848,2.191,0.0,0.0,0.0,0.0
3.78,2.17,37.07404,-88.62685,15242.27,6159.90,WESTERN BAPTIST HOSPITAL,0.0,0.131,0.588,0.261,0.0,0.0,0.0,0.0
3.01,2.40,36.70006,-85.67862,10911.07,7447.20,MONROE COUNTY MEDICAL CENTER,0.0,0.0,1.223,0.0,0.0,0.0,0.0,0.0
4.35,2.27,36.75751,-88.65129,18481.70,6752.35,JACKSON PURCHASE MEDICAL CENTER,0.0,0.0,0.647,0.216,0.0,0.0,0.216,0.0
6.13,2.26,36.96603,-86.43639,28497.46,6709.92,GREENVIEW REGIONAL HOSPITAL,0.0,0.0,0.563,0.281,0.0,0.0,0.0,0.0
4.78,2.14,38.23898,-85.63941,20907.77,6004.82,BAPTIST HOSPITAL EAST,0.0,0.615,0.73,0.192,0.0,0.038,0.038,0.0
5.64,2.36,37.08724,-84.61828,25702.91,7250.32,LAKE CUMBERLAND REGIONAL HOSPITAL,0.0,0.191,1.147,0.0,0.0,0.0,0.86,0.573
5.68,2.10,37.56166,-83.37202,25952.08,5790.67,KENTUCKY RIVER MEDICAL CENTER,0.0,0.0,0.0,0.0,0.0,0.0,0.0,0.0
9.56,2.93,38.24802,-85.74464,47803.26,10477.74,UNIVERSITY OF LOUISVILLE HOSPITAL,0.0,0.122,0.122,1.347,0.0,0.0,0.0,0.0
5.75,2.59,30.20227,-92.01906,26331.56,8566.11,LAFAYETTE GENERAL MEDICAL CENTER,0.091,0.364,0.0,0.091,0.0,0.0,0.0,0.0
7.29,2.35,30.00890,-91.79475,35021.15,7188.92,DAUTERIVE HOSPITAL,0.0,0.0,0.487,0.975,0.0,0.0,0.487,0.487
4.60,2.09,29.77956,-90.80568,19855.46,5707.05,THIBODAUX REGIONAL MEDICAL CENTER,0.0,0.153,0.153,0.305,0.0,0.0,0.305,0.0
5.88,2.24,29.59851,-90.71397,27079.95,6589.21,TERREBONNE GENERAL MEDICAL CENTER,0.0,0.267,0.668,0.134,0.0,0.0,0.134,0.0
10.39,2.38,30.46813,-90.45814,52482.75,7344.55,NORTH OAKS MEDICAL CENTER, LLC,0.0,0.101,0.101,0.604,0.0,0.0,0.806,0.0
3.81,2.35,30.54354,-92.07608,15406.56,7208.53,OPELOUSAS GENERAL HEALTH SYSTEM,0.0,0.0,0.587,0.0,0.0,0.0,0.147,0.147
5.41,2.38,31.28258,-92.46060,24432.27,7359.37,CHRISTUS ST FRANCES CABRINI HOSPITAL,0.0,0.928,0.186,0.557,0.0,0.0,0.557,0.0
4.54,2.18,30.65001,-91.13821,19537.88,6230.53,LANE REGIONAL MEDICAL CENTER,0.0,0.0,1.784,0.0,0.0,0.0,0.0,0.0
8.33,2.39,31.31451,-92.44997,40887.32,7434.40,RAPIDES REGIONAL MEDICAL CENTER,0.08,0.879,0.479,0.399,0.0,0.0,0.479,0.24
6.18,2.15,30.21521,-93.22682,28769.48,6039.57,CHRISTUS ST PATRICK HOSPITAL,0.0,0.53,0.662,0.132,0.0,0.0,0.0,0.265
5.49,2.49,30.01875,-90.19452,24876.81,8006.87,OCHSNER FOUNDATION HOSPITAL,0.0,0.453,0.091,0.59,0.0,0.0,0.091,0.045
6.48,2.32,29.89089,-90.09395,30477.88,7026.45,WEST JEFFERSON MEDICAL CENTER,0.0,0.214,0.107,0.107,0.0,0.0,0.214,0.107
6.39,2.23,30.28456,-89.77038,29955.84,6513.37,SLIDELL MEMORIAL HOSPITAL AND MEDICAL CENTER,0.0,0.89,0.534,0.0,0.0,0.0,0.0,0.0
6.66,2.34,32.49443,-93.75011,31452.24,7110.38,CHRISTUS SCHUMPERT HEALTH SYSTEM,0.0,0.256,0.511,0.256,0.0,0.0,0.0,0.085
2.39,2.18,30.22762,-92.36253,7406.92,6227.92,AMERICAN LEGION HOSPITAL,0.0,0.0,0.0,0.0,0.0,0.0,0.0,0.0
7.11,2.27,30.46834,-90.11383,34011.92,6761.58,ST TAMMANY PARISH HOSPITAL,0.0,0.271,0.135,0.0,0.0,0.135,0.135,0.0
7.61,2.48,29.92596,-90.09191,36829.40,7910.77,TOURO INFIRMARY,0.0,0.523,0.523,0.131,0.0,0.0,0.262,0.0
3.41,2.11,30.23913,-92.66205,13187.18,5844.50,JENNINGS AMERICAN LEGION HOSPITAL,0.0,0.0,0.0,0.0,0.0,0.0,0.0,0.0
6.62,2.17,29.98815,-91.78471,31243.93,6177.64,IBERIA GENERAL HOSPITAL AND MEDICAL CENTER,0.0,0.0,0.75,0.0,0.0,0.0,0.25,0.0
5.84,2.34,30.20458,-93.19774,26845.35,7123.88,LAKE CHARLES MEMORIAL HOSPITAL,0.0,0.0,1.108,0.0,0.0,0.0,0.277,0.0
4.32,2.32,30.40118,-91.11160,18290.88,7009.31,OUR LADY OF THE LAKE REGIONAL MEDICAL CENTER,0.0,0.221,0.486,0.044,0.0,0.044,0.839,0.088
3.67,2.46,30.45015,-91.15273,14620.29,7804.49,BATON ROUGE GENERAL MEDICAL CENTER,0.0,0.556,0.626,0.139,0.0,0.0,0.0,0.0
6.02,2.30,32.51544,-92.63343,27848.17,6937.02,NORTHERN LOUISIANA MEDICAL CENTER,0.0,0.193,0.0,0.193,0.0,0.0,1.157,0.386
3.59,2.85,32.48177,-93.76264,14186.75,10019.21,LSU HEALTH SCIENCES CENTER - SHREVEPORT,0.0,3.903,0.163,0.163,0.0,0.0,0.0,0.0
4.97,2.28,30.15052,-92.03698,21978.07,6780.24,OUR LADY OF LOURDES REGIONAL MEDICAL CENTER, INC,0.0,0.328,0.328,0.109,0.0,0.109,0.0,0.0
5.77,2.30,32.48393,-93.77884,26446.13,6933.54,WILLIS KNIGHTON MEDICAL CENTER,0.0,0.155,0.466,0.155,0.0,0.039,0.039,0.0
2.71,2.36,32.77541,-91.91736,9233.47,7248.00,MOREHOUSE GENERAL HOSPITAL,0.0,0.0,0.0,0.0,0.0,0.0,0.0,0.0
5.69,2.35,32.49997,-92.11359,25985.96,7208.58,ST FRANCIS MEDICAL CENTER,0.0,1.122,0.321,1.763,0.0,0.0,0.561,0.0
5.04,2.35,32.61700,-93.28566,22336.75,7187.19,MINDEN MEDICAL CENTER,0.0,0.279,0.558,0.0,0.0,0.0,0.0,0.0
4.41,2.21,30.01438,-90.18155,18822.86,6415.23,EAST JEFFERSON GENERAL HOSPITAL,0.0,0.321,0.578,0.064,0.0,0.129,0.0,0.0
6.56,2.22,32.51315,-92.15713,30880.69,6454.25,GLENWOOD REGIONAL MEDICAL CENTER,0.0,0.108,0.108,0.0,0.0,0.0,0.0,0.0
4.05,2.29,30.68494,-92.26601,16772.31,6856.44,MERCY REGIONAL MEDICAL CENTER,0.0,0.263,1.313,0.0,0.0,0.0,0.0,0.0
14.51,3.03,29.95570,-90.07587,75697.07,11039.43,TULANE MEDICAL CENTER,0.0,2.571,0.454,0.756,0.0,0.151,0.151,0.454
9.21,2.32,30.47547,-90.10091,45832.79,7009.08,LAKEVIEW REGIONAL MEDICAL CENTER,0.0,0.245,0.245,0.0,0.0,0.0,0.245,0.245
4.26,2.20,30.43973,-91.00727,17961.54,6374.46,OCHSNER MEDICAL CENTER-BATON ROUGE,0.0,0.0,1.002,0.668,0.0,0.334,0.0,0.0
7.09,2.38,30.19775,-92.07724,33916.68,7388.95,THE REGIONAL MEDICAL CENTER OF ACADIANA,0.0,0.364,0.182,0.0,0.0,0.0,0.0,0.0
4.77,2.22,32.55761,-93.71874,20810.77,6464.57,WILLIS KNIGHTON BOSSIER HEALTH CENTER,0.0,0.0,0.0,0.0,0.0,0.149,0.0,0.0
3.99,2.24,44.81469,-68.77153,16421.07,6581.15,ST JOSEPH HOSPITAL,0.0,0.0,0.609,1.217,0.0,0.0,0.203,0.203
4.18,2.86,44.02611,-69.52811,17518.47,10076.40,MILES MEMORIAL HOSPITAL (LINCOLN COUNTY HEALTHCARE,0.0,0.567,1.133,0.567,0.0,0.0,0.0,0.0
3.55,2.24,43.65159,-70.26482,13962.46,6570.12,MERCY HOSPITAL,0.0,0.312,0.468,0.78,0.0,0.0,0.312,0.0
4.63,2.66,43.65325,-70.27533,20009.62,8935.72,MAINE MEDICAL CENTER,0.0,0.287,0.409,0.737,0.0,0.041,0.246,0.082
4.15,2.26,43.47840,-70.49221,17351.27,6682.78,SOUTHERN MAINE MEDICAL CENTER,0.0,0.194,0.0,0.581,0.0,0.194,0.0,0.194
5.58,2.38,53.96230,-1.08188,25405.47,7365.05,YORK HOSPITAL,0.0,0.0,0.493,0.0,0.0,0.247,0.0,0.0
4.08,2.29,43.90901,-69.89611,16913.93,6870.10,MID COAST HOSPITAL,0.0,0.249,0.997,0.748,0.0,0.0,0.0,0.0
3.85,2.35,44.10107,-70.21432,15627.87,7205.79,CENTRAL MAINE MEDICAL CENTER,0.0,0.242,0.121,0.485,0.0,0.0,0.242,0.0
3.22,2.26,35.79154,-78.78112,12065.79,6689.43,CARY MEDICAL CENTER,0.0,0.0,0.0,0.0,0.0,0.0,0.0,0.0
3.85,2.46,44.80988,-68.74929,15614.52,7809.76,EASTERN MAINE MEDICAL CENTER,0.0,0.343,0.286,0.514,0.0,0.0,0.286,0.114
4.13,2.42,44.10276,-70.20093,17199.56,7569.63,ST MARYS REGIONAL MEDICAL CENTER,0.0,0.795,0.265,0.0,0.0,0.0,0.0,0.53
4.34,2.60,44.62294,-70.16307,18406.00,8574.29,FRANKLIN MEMORIAL HOSPITAL,0.0,0.0,0.407,1.222,0.0,0.0,0.0,0.0
4.25,2.40,45.25378,-69.44547,17886.23,7499.68,MAINE GENERAL MEDICAL CENTER,0.0,0.895,0.597,0.895,0.0,0.0,0.298,0.199
3.54,2.24,43.44850,-70.76743,13905.55,6576.64,HENRIETTA D GOODALL HOSPITAL,0.0,0.0,0.816,0.0,0.0,0.0,0.0,0.0
4.08,2.35,44.54695,-68.41654,16932.53,7203.07,MAINE COAST MEMORIAL HOSPITAL,0.0,0.0,0.0,0.0,0.0,0.0,0.0,0.0
4.00,2.47,44.14436,-69.08577,16500.03,7885.00,PENOBSCOT BAY MEDICAL CENTER,0.0,0.243,0.487,0.243,0.0,0.0,0.0,0.0
2.70,2.61,39.62183,-77.68219,9165.48,8630.13,MERITUS MEDICAL CENTER,0.0,0.0,0.0,0.0,0.0,0.0,0.0,0.0
4.03,3.85,39.28817,-76.62438,16653.12,15664.00,UNIVERSITY OF MARYLAND MEDICAL CENTER,0.0,0.0,0.0,0.0,0.0,0.0,0.0,0.0
3.42,3.28,38.93090,-76.92161,13200.20,12408.05,PRINCE GEORGES HOSPITAL CENTER,0.0,0.0,0.0,0.0,0.0,0.0,0.0,0.0
3.04,2.93,39.01578,-77.03591,11064.34,10440.38,HOLY CROSS HOSPITAL,0.0,0.0,0.0,0.0,0.0,0.0,0.0,0.0
2.98,2.87,39.42366,-77.41386,10746.76,10123.63,FREDERICK MEMORIAL HOSPITAL,0.0,0.0,0.0,0.0,0.0,0.0,0.0,0.0
2.96,2.85,39.54345,-76.09153,10653.50,10014.19,HARFORD MEMORIAL HOSPITAL,0.0,0.0,0.0,0.0,0.0,0.0,0.0,0.0
2.82,2.72,39.38813,-76.61068,9866.95,9297.35,SAINT JOSEPH MEDICAL CENTER,0.0,0.0,0.0,0.0,0.0,0.0,0.0,0.0
4.21,4.03,39.29297,-76.61314,17689.75,16628.31,MERCY MEDICAL CENTER INC,0.0,0.0,0.0,0.0,0.0,0.0,0.0,0.0
5.19,4.96,39.29688,-76.59242,23181.71,21886.17,JOHNS HOPKINS HOSPITAL, THE,0.0,0.0,0.0,0.0,0.0,0.0,0.0,0.0
2.94,2.83,39.27352,-76.67219,10519.12,9891.75,SAINT AGNES HOSPITAL,0.0,0.0,0.0,0.0,0.0,0.0,0.0,0.0
3.11,2.99,39.35262,-76.66196,11464.31,10795.81,SINAI HOSPITAL OF BALTIMORE,0.0,0.0,0.0,0.0,0.0,0.0,0.0,0.0
3.47,3.32,39.28833,-76.64912,13475.57,12667.00,BON SECOURS HOSPITAL,0.0,0.0,0.0,0.0,0.0,0.0,0.0,0.0
2.92,2.81,39.35169,-76.47919,10378.49,9783.34,FRANKLIN SQUARE HOSPITAL CENTER,0.0,0.0,0.0,0.0,0.0,0.0,0.0,0.0
3.22,3.10,38.98482,-77.00139,12074.14,11401.08,WASHINGTON ADVENTIST HOSPITAL,0.0,0.0,0.0,0.0,0.0,0.0,0.0,0.0
2.46,2.39,39.41339,-79.40103,7835.82,7396.14,GARRETT COUNTY MEMORIAL HOSPITAL,0.0,0.0,0.0,0.0,0.0,0.0,0.0,0.0
3.11,2.99,39.15402,-77.05431,11483.37,10794.47,MONTGOMERY GENERAL HOSPITAL INC,0.0,0.0,0.0,0.0,0.0,0.0,0.0,0.0
2.71,2.62,38.36248,-75.59799,9229.31,8704.48,PENINSULA REGIONAL MEDICAL CENTER,0.0,0.0,0.0,0.0,0.0,0.0,0.0,0.0
2.76,2.67,38.99743,-77.11048,9509.47,8990.42,SUBURBAN HOSPITAL,0.0,0.0,0.0,0.0,0.0,0.0,0.0,0.0
2.79,2.70,38.99014,-76.53398,9688.79,9149.15,ANNE ARUNDEL MEDICAL CENTER,0.0,0.0,0.0,0.0,0.0,0.0,0.0,0.0
3.03,2.92,39.32930,-76.61432,11003.53,10424.37,UNION MEMORIAL HOSPITAL,0.0,0.0,0.0,0.0,0.0,0.0,0.0,0.0
3.41,3.27,39.64928,-78.73206,13136.46,12348.30,WESTERN MARYLAND REGIONAL MEDICAL CENTER,0.0,0.0,0.0,0.0,0.0,0.0,0.0,0.0
2.53,2.44,38.29124,-76.63579,8208.37,7715.83,SAINT MARY'S HOSPITAL,0.0,0.0,0.0,0.0,0.0,0.0,0.0,0.0
3.87,3.71,39.29100,-76.54623,15769.17,14840.19,JOHNS HOPKINS BAYVIEW MEDICAL CENTER,0.0,0.0,0.0,0.0,0.0,0.0,0.0,0.0
2.41,2.33,39.21770,-76.06494,7542.80,7090.33,CHESTER RIVER HOSPITAL CENTER,0.0,0.0,0.0,0.0,0.0,0.0,0.0,0.0
2.67,2.58,39.60859,-75.83201,9019.69,8478.51,UNION HOSPITAL OF CECIL COUNTY,0.0,0.0,0.0,0.0,0.0,0.0,0.0,0.0
2.74,2.64,39.55808,-76.99107,9387.27,8842.88,CARROLL HOSPITAL CENTER,0.0,0.0,0.0,0.0,0.0,0.0,0.0,0.0
3.12,3.00,39.25189,-76.61399,11540.89,10867.84,HARBOR HOSPITAL,0.0,0.0,0.0,0.0,0.0,0.0,0.0,0.0
2.70,2.60,38.52905,-76.97068,9180.34,8629.49,CIVISTA MEDICAL CENTER,0.0,0.0,0.0,0.0,0.0,0.0,0.0,0.0
2.88,2.77,38.76970,-76.07697,10172.64,9578.59,MEMORIAL HOSPITAL AT EASTON,0.0,0.0,0.0,0.0,0.0,0.0,0.0,0.0
3.66,3.50,39.29994,-76.62138,14572.12,13697.82,MARYLAND GENERAL  HOSPITAL,0.0,0.0,0.0,0.0,0.0,0.0,0.0,0.0
2.68,2.58,38.55963,-76.59455,9030.22,8488.40,CALVERT MEMORIAL HOSPITAL,0.0,0.0,0.0,0.0,0.0,0.0,0.0,0.0
2.81,2.71,39.35852,-76.78208,9792.20,9219.50,NORTHWEST HOSPITAL CENTER,0.0,0.0,0.0,0.0,0.0,0.0,0.0,0.0
2.73,2.63,39.13732,-76.62228,9305.91,8775.33,BALTIMORE WASHINGTON  MEDICAL CENTER,0.0,0.0,0.0,0.0,0.0,0.0,0.0,0.0
2.77,2.67,39.39017,-76.62216,9541.82,8991.35,GREATER BALTIMORE MEDICAL CENTER,0.0,0.0,0.0,0.0,0.0,0.0,0.0,0.0
2.87,2.77,39.21273,-76.88526,10149.81,9554.26,HOWARD COUNTY GENERAL HOSPITAL,0.0,0.0,0.0,0.0,0.0,0.0,0.0,0.0
2.36,2.29,39.51870,-76.34688,7226.74,6840.38,UPPER CHESAPEAKE MEDICAL CENTER,0.0,0.0,0.0,0.0,0.0,0.0,0.0,0.0
2.77,2.68,38.96851,-76.86203,9567.26,9041.78,DOCTORS'  COMMUNITY HOSPITAL,0.0,0.0,0.0,0.0,0.0,0.0,0.0,0.0
2.71,2.61,38.74827,-76.87590,9231.38,8677.52,SOUTHERN MARYLAND HOSPITAL CENTER,0.0,0.0,0.0,0.0,0.0,0.0,0.0,0.0
2.68,2.58,39.08690,-76.88163,9045.18,8502.35,LAUREL REGIONAL MEDICAL CENTER,0.0,0.0,0.0,0.0,0.0,0.0,0.0,0.0
2.60,2.51,39.35962,-76.58851,8609.21,8122.02,GOOD SAMARITAN HOSPITAL,0.0,0.0,0.0,0.0,0.0,0.0,0.0,0.0
2.70,2.61,39.09796,-77.19799,9158.39,8651.40,SHADY GROVE ADVENTIST HOSPITAL,0.0,0.0,0.0,0.0,0.0,0.0,0.0,0.0
2.25,2.19,38.33876,-75.21128,6631.11,6281.09,ATLANTIC GENERAL HOSPITAL,0.0,0.0,0.0,0.0,0.0,0.0,0.0,0.0
4.08,2.50,42.54113,-71.76120,16918.04,8010.46,HEALTHALLIANCE HOSPITALS, INC,0.0,0.192,0.575,0.766,0.0,0.0,0.0,0.192
3.95,2.60,42.37441,-71.13378,16225.45,8603.48,MOUNT AUBURN HOSPITAL,0.0,0.0,0.282,0.0,0.0,0.094,0.0,0.0
3.22,2.35,41.94236,-71.27364,12116.33,7215.37,STURDY MEMORIAL HOSPITAL,0.0,0.315,0.472,2.99,0.0,0.0,0.157,0.0
4.38,2.65,42.70912,-71.14877,18600.52,8858.02,LAWRENCE GENERAL HOSPITAL,0.0,0.0,1.138,0.114,0.0,0.114,0.0,0.0
4.48,2.98,42.37451,-71.10418,19213.88,10737.94,CAMBRIDGE HEALTH ALLIANCE,0.0,0.144,0.0,0.144,0.0,0.0,0.0,0.0
3.55,2.72,41.65298,-70.27484,13979.42,9271.11,CAPE COD HOSPITAL,0.0,0.159,0.318,0.106,0.0,0.106,0.053,0.053
3.99,2.30,42.33185,-72.65422,16430.10,6915.90,COOLEY DICKINSON HOSPITAL INC,THE,0.0,0.0,0.455,0.152,0.0,0.0,0.0,0.0
