size_charge,size_pay,lat,lon,charge,pay,AcquiredInfect,AcquiredConditions,PatientSafetySummary,name
6.59,2.25,36.18082,-94.13644,31084.60,6636.36,0.50,0.69,0.30,NW ARKANSAS HOSPITALS LLC
4.63,2.21,34.46784,-93.06667,20041.85,6409.23,0.67,0.66,0.86,ST JOSEPHS MERCY HEALTH CENTER INC
2.83,2.04,36.34295,-92.39442,9884.12,5439.79,0.50,0.65,0.58,BAXTER REGIONAL MEDICAL CENTER
4.03,2.17,35.08546,-92.45774,16627.68,6192.05,0.50,0.72,0.80,CONWAY REGIONAL MEDICAL CENTER
4.55,2.15,34.77770,-92.12539,19586.56,6089.11,0.50,0.60,0.14,BAPTIST HEALTH MEDICAL CENTER NORTH LITTLE ROCK
2.88,2.15,36.05214,-90.49908,10162.04,6068.48,0.00,0.00,0.00,ARKANSAS METHODIST MEDICAL CENTER
4.92,2.21,35.28275,-93.14901,21650.38,6415.71,0.00,0.00,0.00,ST MARYS REGIONAL MEDICAL CENTER
4.79,2.53,35.14320,-90.18837,20924.24,8208.76,0.00,0.00,0.00,CRITTENDEN MEMORIAL HOSPITAL
3.02,2.23,33.57575,-92.83683,10972.28,6530.44,0.00,0.00,0.00,OUACHITA COUNTY MEDICAL CENTER
3.50,2.21,35.37445,-94.41868,13672.44,6383.44,0.50,0.54,0.86,SPARKS REGIONAL MEDICAL CENTER
5.14,2.18,35.35395,-94.35262,22880.12,6216.36,0.50,0.66,0.11,ST EDWARD MERCY MEDICAL CENTER
2.79,2.28,33.27510,-93.24001,9673.91,6810.64,0.00,0.00,0.00,MAGNOLIA HOSPITAL
5.97,2.33,34.18894,-92.01886,27559.40,7078.09,0.50,0.75,0.05,JEFFERSON REGIONAL MEDICAL CENTER
3.36,2.34,34.51764,-91.55932,12887.75,7164.92,0.00,0.00,0.00,BAPTIST HEALTH MEDICAL CENTER-STUTTGART
3.07,2.26,34.35877,-92.78638,11265.18,6701.47,0.00,0.00,0.00,HOT SPRING COUNTY MEDICAL CENTER
6.98,2.29,34.48600,-93.03521,33287.86,6873.73,0.50,0.51,0.08,NATIONAL PARK MEDICAL CENTER
4.59,2.11,34.57290,-92.58508,19798.22,5846.81,0.50,0.89,0.72,SALINE MEMORIAL HOSPITAL
6.07,2.39,34.51022,-90.62718,28164.07,7393.00,0.00,0.00,0.00,HELENA REGIONAL MEDICAL CENTER
5.28,2.23,33.22053,-92.67102,23696.48,6530.35,0.50,0.70,0.14,MEDICAL CENTER SOUTH ARKANSAS
3.18,2.21,33.64905,-93.58704,11857.45,6427.65,0.00,0.00,0.00,MEDICAL PARK HOSPITAL
5.16,2.24,34.74866,-92.35422,23002.02,6575.56,0.50,0.44,0.21,BAPTIST HEALTH MEDICAL CENTER-LITTLE ROCK
4.22,2.27,35.80838,-90.66658,17745.13,6740.68,0.50,0.57,0.70,NEA BAPTIST MEMORIAL HOSPITAL
4.53,2.32,35.76927,-91.63408,19489.57,7047.64,0.33,0.64,0.38,WHITE RIVER MEDICAL CENTER
4.34,2.16,34.81290,-92.20814,18396.94,6146.35,0.00,0.00,0.00,ST VINCENT MEDICAL CENTER/NORTH
8.32,2.70,40.78366,-124.14246,40805.68,9160.14,0.50,0.64,0.64,ST JOSEPH HOSPITAL
8.82,2.60,37.59283,-122.38249,43636.98,8612.90,0.50,0.71,0.33,PENINSULA MEDICAL CENTER
14.68,2.77,37.76862,-122.43525,76641.72,9582.53,0.50,0.50,0.74,CALIFORNIA PACIFIC MEDICAL CTR-DAVIES CAMPUS HOSP
11.42,2.88,38.32472,-122.29671,58294.41,10189.12,0.50,0.72,0.83,QUEEN OF THE VALLEY MEDICAL CENTER
10.34,2.92,38.54384,-122.47401,52189.57,10432.10,0.50,0.75,0.33,ST HELENA HOSPITAL
7.12,2.58,38.35073,-120.76468,34064.12,8505.38,0.00,0.00,0.00,SUTTER AMADOR HOSPITAL
7.36,2.37,35.11346,-120.59054,35434.73,7330.27,0.00,0.00,0.00,ARROYO GRANDE COMMUNITY HOSPITAL
9.43,2.61,38.57053,-121.45216,47081.35,8650.98,0.83,0.54,0.28,MERCY GENERAL HOSPITAL
4.94,3.38,34.06505,-118.23913,21805.17,12989.00,0.00,0.00,0.00,PACIFIC ALLIANCE MEDICAL CENTER
11.11,2.84,33.97659,-117.38184,56524.11,9941.33,0.50,0.65,0.58,RIVERSIDE COMMUNITY HOSPITAL
6.25,2.85,32.68425,-117.08161,29165.10,10018.57,0.00,0.00,0.00,PARADISE VALLEY HOSPITAL
6.17,3.22,32.75426,-117.16592,28698.68,12103.29,0.50,0.72,0.70,UNIVERSITY OF CALIFORNIA SAN DIEGO MEDICAL CENTER
10.25,2.58,32.77495,-117.01467,51682.30,8478.70,0.83,0.71,0.33,GROSSMONT HOSPITAL
6.44,2.66,39.50528,-121.54100,30233.21,8911.71,0.50,0.74,0.64,OROVILLE HOSPITAL
10.98,2.63,35.38736,-119.01690,55820.20,8756.93,0.33,0.85,0.80,BAKERSFIELD MEMORIAL HOSPITAL
11.68,4.03,37.31288,-121.93329,59767.30,16656.75,0.67,0.65,0.02,SANTA CLARA VALLEY MEDICAL CENTER
8.65,2.39,39.74221,-121.85000,42688.41,7407.89,0.83,0.71,0.48,ENLOE MEDICAL CENTER
6.26,2.58,40.14813,-122.21934,29193.62,8487.69,0.00,0.00,0.00,ST ELIZABETH COMMUNITY HOSPITAL
12.21,3.16,37.82206,-122.26275,62737.60,11782.63,0.50,0.64,0.32,ALTA BATES SUMMIT MEDICAL CENTER
9.47,2.82,32.78037,-115.56848,47296.48,9863.07,0.50,0.97,0.70,EL CENTRO REGIONAL MEDICAL CENTER
12.69,3.31,37.79100,-122.43125,65422.02,12604.22,0.83,0.64,0.11,CALIFORNIA PACIFIC MEDICAL CTR-PACIFIC CAMPUS HOSP
6.01,2.56,33.93183,-116.94587,27787.62,8400.85,0.00,0.00,0.00,SAN GORGONIO MEMORIAL HOSPITAL
15.31,3.49,37.74717,-122.42088,80213.73,13587.82,0.50,0.59,0.30,CALIFORNIA PACIFIC MEDICAL CTR - ST. LUKE'S CAMPUS
5.55,2.83,34.67486,-118.15771,25237.02,9918.13,0.50,0.68,0.45,ANTELOPE VALLEY HOSPITAL MED CENTER
7.33,2.65,36.32737,-119.29548,35254.51,8889.27,0.50,0.56,0.12,KAWEAH DELTA MEDICAL CENTER
9.58,3.07,34.12834,-118.25777,47893.48,11232.36,0.50,0.72,0.45,GLENDALE MEM HOSPITAL & HLTH CENTER
8.49,3.06,36.73000,-119.78000,41769.11,11202.47,0.50,0.71,0.00,COMMUNITY REGIONAL MEDICAL CENTER
10.33,3.38,34.09643,-118.29103,52116.06,12969.88,0.75,0.76,0.74,HOLLYWOOD PRESBYTERIAN MEDICAL CENTER
8.96,2.48,33.78036,-117.86495,44436.71,7925.42,0.50,0.60,0.89,ST JOSEPH HOSPITAL
6.12,3.25,37.33569,-121.99595,28403.46,12280.77,0.67,0.57,0.86,KAISER FOUNDATION HOSPITAL-SANTA CLARA
6.28,2.74,37.89135,-122.05971,29304.91,9411.09,0.50,0.61,0.33,KAISER FOUNDATION HOSPITAL - WALNUT CREEK
5.23,2.58,38.12852,-122.24704,23432.85,8499.08,0.50,0.68,0.94,KAISER FOUNDATION HOSPITAL AND REHAB CENTER
5.81,2.86,37.82448,-122.25759,26691.03,10047.33,0.50,0.64,0.25,KAISER FOUNDATION HOSPITAL OAKLAND/RICHMOND
8.84,2.94,32.75143,-117.16083,43724.02,10522.62,0.33,0.62,0.70,SCRIPPS MERCY HOSPITAL
10.43,2.54,33.73798,-118.30525,52682.00,8288.82,0.50,0.81,0.82,PROVIDENCE LITTLE CO OF MARY MED CTR SAN PEDRO
11.87,3.02,37.95337,-122.33672,60816.34,10986.06,0.50,0.64,0.19,DOCTORS MEDICAL CENTER-SAN PABLO
10.85,2.66,34.21674,-119.15631,55078.79,8927.62,0.50,0.64,0.07,ST JOHNS REGIONAL MEDICAL CENTER
12.66,2.79,37.96987,-121.28873,65237.19,9663.54,0.83,0.69,0.97,ST JOSEPHS MED CENTER OF STOCKTON
7.03,3.02,34.13101,-117.32181,33549.39,10941.22,0.50,0.84,0.47,COMMUNITY HOSPITAL OF SAN BERNARDINO
5.60,2.73,38.28820,-122.46533,25514.15,9333.38,0.00,0.00,0.00,SONOMA VALLEY HOSPITAL
6.59,2.57,36.83532,-119.76562,31060.50,8413.84,0.50,0.66,0.58,SAINT AGNES MEDICAL CENTER
7.71,2.52,34.10130,-117.63651,37370.41,8161.37,0.50,0.66,0.86,SAN ANTONIO COMMUNITY HOSPITAL
10.35,2.68,32.79949,-117.15394,52263.22,9058.56,0.67,0.62,0.11,SHARP MEMORIAL HOSPITAL
11.93,3.10,38.13118,-122.23732,61136.80,11395.80,0.50,0.81,0.29,SUTTER SOLANO MEDICAL CENTER
8.39,2.81,33.92798,-117.43847,41239.09,9789.18,0.50,0.89,0.25,PARKVIEW COMMUNITY HOSPITAL MEDICAL CENTER
13.77,3.29,34.04932,-118.21746,71537.31,12468.38,0.25,0.74,0.99,WHITE MEMORIAL MEDICAL CENTER
10.33,3.48,33.92963,-118.20332,52111.67,13554.50,0.67,0.79,0.33,SAINT FRANCIS MEDICAL CENTER
9.52,2.67,34.95099,-120.41322,47604.21,9015.94,0.50,0.94,0.48,MARIAN MEDICAL CENTER
8.95,2.80,38.57155,-121.46874,44365.46,9755.72,0.83,0.78,0.80,SUTTER GENERAL HOSPITAL
2.91,2.46,34.64075,-120.43958,10353.73,7835.64,0.00,0.00,0.00,LOMPOC VALLEY MEDICAL CENTER
9.97,2.64,34.02685,-118.48651,50089.07,8850.17,0.50,0.76,0.21,SANTA MONICA - UCLA MED CTR & ORTHOPAEDIC HOSPITAL
8.48,2.44,33.12535,-117.07336,41742.15,7727.75,0.50,0.55,0.70,PALOMAR MEDICAL CENTER
15.12,2.77,34.22014,-118.53410,79128.95,9567.74,0.33,0.56,0.45,NORTHRIDGE HOSPITAL MEDICAL CENTER
16.60,2.46,37.80132,-121.19690,87431.32,7798.45,0.00,0.00,0.00,DOCTORS HOSPITAL OF MANTECA
6.35,2.65,36.32362,-119.66726,29735.00,8877.42,0.50,0.89,0.25,ADVENTIST MEDICAL CENTER
12.73,2.62,37.96125,-121.30103,65660.44,8741.19,0.50,0.49,0.10,DAMERON HOSPITAL
6.29,2.45,34.20495,-118.21589,29400.47,7765.33,0.00,0.00,0.00,VERDUGO HILLS HOSPITAL
21.75,3.53,37.36257,-121.84974,116470.57,13818.69,0.50,0.70,0.02,REGIONAL MEDICAL CENTER OF SAN JOSE
8.62,2.98,34.19494,-118.46319,42495.46,10757.29,0.50,0.78,0.76,VALLEY PRESBYTERIAN HOSPITAL
6.81,2.55,33.18402,-117.29661,32294.93,8313.52,0.50,0.57,0.21,TRI-CITY MEDICAL CENTER
7.31,2.72,34.13495,-117.27603,35125.48,9289.00,0.50,0.66,0.48,ST BERNARDINE MEDICAL CENTER
11.21,2.86,34.10081,-118.10588,57097.97,10073.40,0.00,0.00,0.00,SAN GABRIEL VALLEY MEDICAL CENTER
8.09,2.65,39.13822,-121.59436,39540.66,8908.74,0.50,0.51,0.21,RIDEOUT MEMORIAL HOSPITAL
14.33,2.75,38.25455,-122.63177,74652.94,9436.19,0.00,0.00,0.00,PETALUMA VALLEY HOSPITAL
7.25,2.99,34.09816,-118.29541,34796.38,10787.69,0.83,0.62,0.86,KAISER FOUNDATION HOSPITAL - LOS ANGELES
9.82,3.04,36.57886,-121.91316,49269.76,11094.25,0.67,0.56,0.58,COMMUNITY HOSPITAL OF THE MONTEREY PENINSULA
7.84,3.28,34.03705,-118.26575,38094.92,12432.31,0.33,0.88,0.89,CALIFORNIA HOSPITAL MEDICAL CENTER LA
6.90,2.54,39.22809,-121.04721,32843.18,8254.80,0.00,0.00,0.00,SIERRA NEVADA MEMORIAL HOSPITAL
14.59,3.23,37.78963,-122.41700,76152.19,12149.69,0.75,0.70,0.30,SAINT FRANCIS MEMORIAL HOSPITAL
15.35,3.02,37.32710,-121.93863,80433.79,10982.74,0.67,0.71,0.38,O'CONNOR HOSPITAL
7.12,3.13,34.28029,-119.25410,34044.67,11588.40,0.50,0.49,0.03,VENTURA COUNTY MEDICAL CENTER
8.79,2.37,33.89465,-117.92716,43445.63,7301.33,0.67,0.71,0.91,ST JUDE MEDICAL CENTER
12.24,2.54,33.96860,-118.04831,62873.45,8291.78,0.50,0.46,0.16,PRESBYTERIAN INTERCOMMUNITY HOSPITAL
13.43,2.81,38.44369,-122.70138,69577.11,9797.71,0.67,0.86,0.58,SANTA ROSA MEMORIAL HOSPITAL
14.08,2.76,37.51164,-120.83800,73240.34,9519.24,0.33,0.86,0.16,EMANUEL MEDICAL CENTER INC
16.73,2.92,37.91341,-122.04163,88194.49,10427.50,0.50,0.62,0.33,JOHN MUIR MEDICAL CENTER - WALNUT CREEK CAMPUS
9.09,3.01,33.77991,-118.18602,45134.75,10935.21,0.50,0.82,0.94,ST MARY MEDICAL CENTER
17.70,3.34,36.92821,-121.79360,93651.94,12757.94,0.00,0.00,0.00,WATSONVILLE COMMUNITY HOSPITAL
16.29,3.05,37.55717,-121.98126,85715.26,11142.39,0.50,0.54,0.89,WASHINGTON HOSPITAL
15.80,2.71,37.48000,-122.25441,82961.41,9207.97,0.00,0.00,0.00,SEQUOIA HOSPITAL
8.28,2.57,34.58305,-118.14490,40570.40,8458.00,0.50,0.86,0.54,PALMDALE REGIONAL MEDICAL CENTER
7.23,2.86,37.76288,-122.25412,34666.91,10059.00,0.00,0.00,0.00,ALAMEDA HOSPITAL
12.29,2.72,32.61972,-117.02278,63167.89,9284.06,0.50,0.71,0.58,SHARP CHULA VISTA MEDICAL CENTER
5.52,2.32,33.62229,-117.92995,25032.98,7016.14,0.50,0.70,0.51,HOAG MEMORIAL HOSPITAL PRESBYTERIAN
13.91,2.48,39.75720,-121.57018,72312.40,7914.14,0.50,0.65,0.58,FEATHER RIVER HOSPITAL
10.16,2.53,33.84780,-117.93661,51183.17,8210.38,0.50,0.74,0.58,AHMC ANAHEIM REGIONAL MEDICAL CENTER
20.89,5.40,37.75676,-122.40461,111618.16,24352.05,0.75,0.51,0.12,SAN FRANCISCO GENERAL HOSPITAL
9.07,3.23,33.77483,-117.91329,45039.24,12146.35,0.50,0.85,0.98,GARDEN GROVE HOSPITAL & MEDICAL CENTER
14.26,3.06,34.07709,-117.75063,74295.55,11198.76,0.33,0.74,0.98,POMONA VALLEY HOSPITAL MEDICAL CENTER
9.44,2.37,35.27882,-120.65047,47142.61,7289.28,0.00,0.00,0.00,FRENCH HOSPITAL MEDICAL CENTER
16.06,2.65,34.15601,-118.32834,84423.49,8901.84,0.50,0.80,0.97,PROVIDENCE SAINT JOSEPH MEDICAL CTR
10.04,2.46,34.28920,-118.74484,50484.19,7830.92,0.50,0.90,0.93,SIMI VALLEY HOSPITAL & HEALTH CARE SERVICES
10.30,2.63,34.13973,-118.03534,51944.93,8788.08,0.50,0.45,0.11,METHODIST HOSPITAL OF SOUTHERN CA
15.24,3.06,34.14987,-118.23117,79808.87,11192.29,0.67,0.75,0.89,GLENDALE ADVENTIST MEDICAL CENTER
9.30,2.73,36.98999,-121.98357,46348.69,9344.10,0.50,0.64,0.64,DOMINICAN HOSPITAL
13.89,2.61,33.83862,-116.54557,72176.29,8643.39,0.67,0.81,0.03,DESERT REGIONAL MEDICAL CENTER
9.64,3.46,34.07389,-117.35111,48277.29,13432.64,0.33,0.81,0.07,ARROWHEAD REGIONAL MEDICAL CENTER
11.01,2.62,38.72562,-120.79096,55950.40,8718.67,0.50,0.81,0.01,MARSHALL MEDICAL CENTER (1-RH)
5.95,2.75,36.06956,-119.02748,27478.23,9452.41,0.00,0.00,0.00,SIERRA VIEW DISTRICT HOSPITAL
12.19,3.83,34.06675,-118.44613,62601.40,15517.74,0.50,0.28,0.33,RONALD REAGAN UCLA MEDICAL CENTER
8.90,2.50,34.03721,-117.20474,44094.64,8051.64,0.50,0.93,0.70,REDLANDS COMMUNITY HOSPITAL
16.20,2.66,34.27915,-118.46006,85191.76,8924.87,0.50,0.80,0.25,PROVIDENCE HOLY CROSS MEDICAL CENTER
7.15,2.79,34.13075,-116.27502,34236.76,9683.00,0.00,0.00,0.00,HI-DESERT MEDICAL CENTER
8.58,2.72,40.58654,-122.39168,42281.40,9264.55,0.83,0.71,0.45,MERCY MEDICAL CENTER REDDING
9.71,3.00,34.09049,-118.14410,48666.36,10840.09,0.50,1.00,0.98,ALHAMBRA HOSPITAL MEDICAL CENTER
12.64,2.74,37.69502,-121.88095,65153.19,9410.74,0.50,0.71,0.83,VALLEYCARE MEDICAL CENTER
17.80,3.01,37.67947,-122.47447,94193.00,10935.45,0.50,0.62,0.25,SETON MEDICAL CENTER
7.85,2.32,34.03009,-118.47833,38198.07,7029.07,0.50,0.81,0.76,SAINT JOHN'S HEALTH CENTER
10.74,3.05,33.91173,-117.19590,54421.81,11163.62,0.50,0.78,0.52,RIVERSIDE COUNTY REGIONAL MEDICAL CENTER
8.17,2.48,35.37279,-119.02817,39945.71,7942.48,0.50,0.70,0.83,MERCY HOSPITAL
8.03,2.64,34.50107,-117.17285,39169.27,8806.00,0.50,0.88,0.20,ST MARY MEDICAL CENTER
5.07,2.60,39.15350,-123.20435,22534.43,8589.22,0.00,0.00,0.00,UKIAH VALLEY MEDICAL CENTER/HOSPITAL D
11.93,3.23,37.85593,-122.25730,61149.14,12126.26,0.50,0.56,0.08,ALTA BATES SUMMIT MEDICAL CENTER - ALTA BATES CAMP
11.81,2.75,37.36934,-122.08047,60476.97,9462.86,0.67,0.49,0.07,EL CAMINO HOSPITAL
7.98,2.57,38.76514,-121.24979,38909.82,8438.23,0.67,0.78,0.16,SUTTER ROSEVILLE MEDICAL CENTER
7.71,2.56,37.74409,-121.43469,37397.46,8357.15,0.00,0.00,0.00,SUTTER TRACY COMMUNITY HOSPITAL
12.93,2.72,32.88461,-117.22244,66787.62,9262.29,0.50,0.64,0.30,SCRIPPS MEMORIAL HOSPITAL LA JOLLA
7.76,3.30,34.05076,-117.26395,37681.67,12534.67,0.50,0.55,0.16,LOMA LINDA UNIVERSITY MEDICAL CENTER
6.75,2.71,33.87236,-117.56809,31965.67,9232.00,0.50,0.79,0.82,CORONA REGIONAL MEDICAL CENTER
9.38,3.04,36.65910,-121.64630,46812.68,11059.39,0.50,0.70,0.38,SALINAS VALLEY MEMORIAL HOSPITAL
8.27,2.84,37.97780,-120.37150,40531.93,9959.04,0.00,0.00,0.00,SONORA REGIONAL MEDICAL CENTER
14.83,2.65,38.12186,-121.28665,77457.52,8911.04,1.00,0.70,0.94,LODI MEMORIAL HOSPITAL
7.62,2.75,32.95813,-115.55388,36874.36,9440.41,0.50,0.91,0.93,PIONEERS MEMORIAL HEALTHCARE DISTRICT
20.54,4.74,33.78798,-117.89026,109656.56,20647.56,0.67,0.56,0.11,UNIVERSITY OF CALIFORNIA IRVINE MED CENTER
4.90,2.86,34.01501,-118.10064,21538.39,10052.39,0.50,0.89,0.74,BEVERLY HOSPITAL
11.64,2.48,33.81131,-118.34364,59495.20,7920.82,0.67,0.68,0.89,TORRANCE MEMORIAL MEDICAL CENTER
11.00,2.43,33.83891,-118.35677,55897.27,7663.69,0.50,0.86,0.94,PROVIDENCE LITTLE COMPANY OF MARY MED CTR TORRANCE
5.09,2.78,36.22008,-119.33764,22651.67,9639.00,0.00,0.00,0.00,TULARE REGIONAL MEDICAL CENTER
15.77,2.79,37.94748,-122.53677,82804.63,9693.97,0.50,0.64,0.16,MARIN GENERAL HOSPITAL
17.64,3.06,38.26174,-122.04662,93309.47,11220.50,0.50,0.69,0.30,NORTHBAY MEDICAL CENTER
15.56,4.82,34.06034,-118.21014,81605.08,21090.15,0.67,0.70,0.03,LAC+USC MEDICAL CENTER
7.37,3.82,33.83043,-118.29402,35467.55,15474.45,0.67,0.75,0.03,LAC/HARBOR-UCLA MED CENTER
16.55,2.84,37.25153,-121.94684,87154.05,9952.26,0.33,0.64,0.03,GOOD SAMARITAN HOSPITAL
6.14,2.94,34.08802,-117.89341,28529.19,10490.72,0.67,0.68,0.29,CITRUS VALLEY MEDICAL CENTER-IC CAMPUS
5.06,2.83,38.39711,-122.81924,22481.54,9910.00,0.00,0.00,0.00,PALM DRIVE HOSPITAL
5.11,2.53,33.75117,-116.96028,22765.17,8211.09,0.50,0.74,0.83,HEMET VALLEY MEDICAL CENTER
13.08,2.79,33.93530,-118.13030,67644.21,9692.92,0.50,0.90,0.83,DOWNEY REGIONAL MEDICAL CENTER
7.68,2.45,34.27459,-119.25812,37238.81,7733.74,0.50,0.54,0.08,COMMUNITY MEMORIAL HOSPITAL SAN BUENAVENTURA
10.69,2.85,34.42951,-119.72333,54166.87,10012.90,0.67,0.72,0.32,SANTA BARBARA COTTAGE HOSPITAL
7.68,2.35,38.67039,-121.14552,37205.46,7194.69,0.50,0.78,0.25,MERCY HOSPITAL OF FOLSOM
7.04,2.85,41.77451,-124.19400,33610.46,9997.62,0.00,0.00,0.00,SUTTER COAST HOSPITAL
8.44,3.44,32.89810,-117.24217,41501.48,13339.76,0.50,0.75,0.38,SCRIPPS GREEN HOSPITAL
6.10,2.50,38.60127,-121.39412,28326.48,8043.28,0.67,0.68,0.83,KAISER FOUNDATION HOSPITAL - SACRAMENTO
8.33,2.60,33.82557,-117.99493,40854.35,8627.00,0.50,0.91,0.98,WEST ANAHEIM MEDICAL CENTER
10.79,2.67,34.13364,-118.15275,54742.59,8977.28,0.67,0.65,0.58,HUNTINGTON MEMORIAL HOSPITAL
21.99,4.25,37.43436,-122.18013,117787.77,17870.53,0.50,0.59,0.28,STANFORD HOSPITAL
9.68,2.86,37.34027,-120.46817,48497.26,10079.19,0.50,0.78,0.38,MERCY MEDICAL CENTER
16.19,4.04,37.76421,-122.45716,85166.11,16702.67,0.67,0.53,0.91,UCSF MEDICAL CENTER
8.32,2.66,35.38338,-119.01969,40801.17,8935.62,0.33,0.86,0.07,SAN JOAQUIN COMMUNITY HOSPITAL
12.02,3.24,37.77449,-122.45429,61629.00,12201.64,0.50,0.88,0.03,ST MARY'S MEDICAL CENTER
23.43,2.87,37.66540,-120.99743,125909.74,10107.12,0.67,0.66,0.10,DOCTORS MEDICAL CENTER
10.10,3.01,34.05336,-118.26558,50857.36,10902.25,0.50,0.69,0.80,GOOD SAMARITAN HOSPITAL
12.30,2.43,34.20285,-118.62962,63254.03,7633.69,0.50,0.61,0.14,WEST HILLS HOSPITAL & MEDICAL CENTER
11.10,2.87,33.80861,-118.18661,56494.14,10097.74,0.67,0.65,0.28,LONG BEACH MEMORIAL MEDICAL CENTER
11.54,3.03,37.69824,-122.08730,58963.95,11011.21,0.67,0.61,0.54,EDEN MEDICAL CENTER
7.50,2.48,36.83863,-119.66183,36214.64,7923.71,0.50,0.85,0.48,CLOVIS COMMUNITY MEDICAL CENTER
13.93,2.74,37.98396,-122.03464,72412.17,9363.25,0.50,0.76,0.98,JOHN MUIR MEDICAL CENTER - CONCORD CAMPUS
6.16,2.46,38.94514,-121.10174,28671.77,7819.38,0.50,0.93,0.48,SUTTER AUBURN FAITH HOSPITAL
10.39,3.08,34.06389,-118.27347,52464.24,11320.68,0.50,0.80,0.99,SAINT VINCENT MEDICAL CENTER
7.33,2.43,33.03634,-117.28487,35218.15,7632.36,0.50,0.65,0.05,SCRIPPS MEMORIAL HOSPITAL - ENCINITAS
15.97,2.54,35.29188,-120.66635,83908.94,8243.14,0.50,0.86,0.82,SIERRA VISTA REGIONAL MEDICAL CENTER
6.42,2.67,37.63058,-122.09502,30092.58,9005.00,0.67,0.76,0.33,KAISER FOUNDATION HOSPITAL FREMONT/HAYWARD
9.53,2.92,38.66956,-121.31378,47639.91,10430.05,0.67,0.66,0.30,MERCY SAN JUAN MEDICAL CENTER
10.73,2.97,37.98224,-121.80362,54386.36,10695.96,0.50,0.59,0.25,SUTTER DELTA MEDICAL CENTER
11.73,2.99,33.68179,-116.23394,60044.64,10805.82,0.50,0.70,0.16,JOHN F KENNEDY MEMORIAL HOSPITAL INC
6.60,2.57,38.56276,-121.77207,31155.00,8454.79,0.00,0.00,0.00,SUTTER DAVIS HOSPITAL
6.49,2.56,37.48897,-122.22322,30525.54,8391.85,0.33,0.84,0.21,KAISER FOUNDATION HOSPITAL - REDWOOD CITY
10.28,2.68,34.20777,-118.88305,51829.01,9076.96,0.50,0.51,0.70,LOS ROBLES HOSPITAL & MEDICAL CENTER
13.16,2.47,33.80441,-118.06665,68074.00,7847.84,0.50,0.50,0.48,LOS ALAMITOS MEDICAL CENTER
10.07,2.57,37.66867,-120.97339,50658.98,8438.77,0.67,0.80,0.54,MEMORIAL  MEDICAL CENTER
11.43,2.54,33.56100,-117.66530,58310.07,8241.44,0.67,0.59,0.13,MISSION HOSPITAL REGIONAL MED CENTER
11.35,3.02,33.71466,-117.93322,57908.57,10987.43,0.50,0.86,0.33,FOUNTAIN VALLEY REGIONAL HOSPITAL & MEDICAL CENTER
13.43,2.42,33.76335,-116.40628,69597.35,7610.20,0.50,0.56,0.39,EISENHOWER MEDICAL CENTER
6.27,2.84,33.84753,-118.03841,29263.00,9975.86,0.00,0.00,0.00,LA PALMA INTERCOMMUNITY HOSPITAL
10.54,2.54,33.84932,-118.15323,53316.00,8279.91,0.83,0.80,0.13,LAKEWOOD REGIONAL MEDICAL CENTER
10.26,2.91,38.46387,-121.41645,51722.33,10366.52,0.50,0.60,0.58,METHODIST HOSPITAL OF SACRAMENTO
18.17,3.56,38.55484,-121.45628,96271.54,14034.56,0.50,0.50,0.03,UNIVERSITY OF CALIFORNIA DAVIS MEDICAL CENTER
8.94,2.33,33.60883,-117.70881,44291.51,7071.58,0.50,0.70,0.91,SADDLEBACK MEMORIAL MEDICAL CENTER
8.73,3.06,35.76216,-119.23889,43118.09,11215.00,0.00,0.00,0.00,DELANO REGIONAL MEDICAL CENTER
9.57,2.38,34.24359,-119.01992,47832.89,7341.22,0.50,0.74,0.70,ST JOHNS PLEASANT VALLEY HOSPITAL
13.87,2.48,34.39755,-118.55330,72052.35,7951.31,0.50,0.60,0.21,HENRY MAYO NEWHALL MEMORIAL HOSPITAL
17.94,3.22,34.07664,-118.37955,94985.26,12095.23,1.00,0.59,0.48,CEDARS-SINAI MEDICAL CENTER
13.07,2.47,35.55536,-120.72067,67589.45,7868.24,0.00,0.00,0.00,TWIN CITIES COMMUNITY HOSPITAL
7.98,2.34,32.99711,-117.05783,38885.94,7121.28,0.50,0.85,0.78,POMERADO HOSPITAL
5.35,3.11,34.01936,-118.18661,24079.89,11451.06,0.50,0.90,0.64,LOS ANGELES COMMUNITY HOSPITAL
5.51,2.59,38.46958,-121.41947,24996.50,8536.81,0.50,0.61,0.41,KAISER FOUNDATION HOSP SO SACRAMENTO
8.64,2.47,33.70167,-117.95566,42640.61,7882.43,0.50,0.82,0.89,ORANGE COAST MEMORIAL MEDICAL CENTER
15.67,3.27,37.03560,-121.57109,82190.71,12352.83,0.50,0.91,0.03,SAINT LOUISE REGIONAL HOSPITAL
14.24,2.57,37.77577,-121.95824,74140.15,8431.31,0.50,0.66,0.03,SAN RAMON REGIONAL MEDICAL CTR
15.76,3.23,34.06193,-118.20157,82711.83,12139.83,0.33,0.71,0.03,KECK HOSPITAL OF USC
5.67,2.53,33.55876,-117.18329,25901.83,8197.17,0.67,0.74,0.74,SOUTHWEST HEALTHCARE SYSTEM
6.00,2.54,34.47174,-117.29791,27739.07,8239.00,0.50,1.00,0.99,DESERT VALLEY HOSPITAL
8.38,2.42,35.38506,-119.03992,41133.65,7586.00,0.50,0.97,0.76,BAKERSFIELD HEART HOSPITAL
15.08,2.59,33.78824,-118.14563,78897.58,8564.75,0.50,1.00,0.54,COMMUNITY HOSPITAL OF LONG BEACH
9.40,2.90,33.95038,-118.00463,46878.55,10273.18,0.50,0.96,0.83,WHITTIER HOSPITAL MEDICAL CENTER
14.35,3.28,34.06760,-118.12291,74761.21,12453.41,0.50,0.94,0.86,GARFIELD MEDICAL CENTER
9.60,2.79,33.95076,-118.34828,48018.60,9689.91,0.50,0.71,1.00,CENTINELA HOSPITAL MEDICAL CENTER
9.30,2.38,33.98219,-118.43930,46348.00,7381.57,0.50,0.90,0.07,MARINA DEL REY HOSPITAL
15.07,2.61,34.05723,-118.36025,78829.91,8642.72,0.50,0.64,0.70,OLYMPIA MEDICAL CENTER
10.82,3.06,33.75286,-117.83409,54895.42,11201.84,0.50,0.61,0.16,WESTERN MEDICAL CENTER SANTA ANA
11.02,2.66,34.02303,-118.39741,56010.89,8958.00,0.00,0.00,0.00,BROTMAN MEDICAL CENTER
6.72,2.65,32.77629,-117.05730,31792.00,8881.96,0.75,0.79,0.64,ALVARADO HOSPITAL MEDICAL CENTER
17.14,2.61,34.17067,-118.53200,90474.38,8637.70,0.50,0.57,0.64,PROVIDENCE TARZANA MEDICAL CENTER
8.17,2.63,40.58532,-122.38702,39984.96,8795.09,0.50,0.79,0.98,SHASTA REGIONAL MEDICAL CENTER
5.31,2.40,40.41481,-104.70890,23850.42,7453.18,0.50,0.74,0.58,NORTH COLORADO MEDICAL CENTER
7.01,2.57,40.18134,-105.12769,33460.23,8426.77,0.50,0.71,0.76,LONGMONT UNITED HOSPITAL
3.31,2.24,38.48040,-107.86857,12592.00,6565.33,0.00,0.00,0.00,MONTROSE MEMORIAL HOSPITAL
3.86,2.46,37.47150,-105.88350,15717.50,7817.86,0.00,0.00,0.00,SAN LUIS VALLEY REGIONAL MEDICAL CENTER
7.87,2.27,39.76893,-105.09006,38255.23,6735.48,0.50,0.47,0.80,EXEMPLA LUTHERAN MEDICAL CENTER
5.02,2.26,40.57315,-105.05741,22253.24,6704.85,0.50,0.69,0.96,POUDRE VALLEY HOSPITAL
7.14,2.35,38.23421,-104.62292,34156.82,7166.45,0.50,0.54,0.30,CENTURA HEALTH-ST MARY CORWIN MEDICAL CENTER
4.86,2.55,37.23629,-107.82578,21343.38,8303.00,0.00,0.00,0.00,MERCY REGIONAL MEDICAL CENTER
7.59,2.28,39.71712,-105.12874,36714.21,6811.38,0.33,0.68,0.16,CENTURA HEALTH-ST ANTHONY HOSPITAL
4.57,2.50,38.45565,-105.23021,19692.17,8022.44,0.00,0.00,0.00,CENTURA HEALTH-ST THOMAS MORE HOSPITAL
6.24,2.31,38.28184,-104.61256,29128.94,6955.04,0.67,0.69,0.30,PARKVIEW MEDICAL CENTER INC
5.76,2.26,38.83903,-104.80024,26379.05,6699.18,0.67,0.69,0.33,MEMORIAL HOSPITAL CENTRAL
5.34,2.47,39.09046,-108.56190,24025.42,7874.60,0.50,0.49,0.58,ST MARYS HOSPITAL AND MEDICAL CENTER
10.59,3.38,39.74234,-104.84156,53608.47,12988.89,0.67,0.66,0.70,UNIVERSITY OF COLORADO HOSPITAL ANSCHUTZ INPATIENT
6.88,2.14,40.02615,-105.28391,32703.30,5982.87,0.50,0.91,0.83,BOULDER COMMUNITY HOSPITAL
4.76,2.24,40.41320,-105.05139,20757.77,6562.63,0.50,0.93,0.70,MCKEE MEDICAL CENTER
6.06,2.20,38.86559,-104.82182,28115.69,6374.54,0.50,0.70,0.38,CENTURA HEALTH-PENROSE ST FRANCIS HEALTH SERVICES
9.39,2.40,39.73231,-104.93396,46845.83,7485.76,0.75,0.50,0.32,ROSE MEDICAL CENTER
10.08,2.35,39.65399,-104.98116,50717.84,7175.08,0.33,0.47,0.17,SWEDISH MEDICAL CENTER
4.61,2.18,39.08601,-108.55355,19931.47,6246.27,0.00,0.00,0.00,COMMUNITY HOSPITAL
7.63,2.35,39.67005,-104.97490,36926.33,7212.11,0.50,0.75,0.80,CENTURA HEALTH-PORTER ADVENTIST HOSPITAL
8.45,2.36,39.68859,-104.83205,41536.24,7252.59,0.50,0.61,0.14,MEDICAL CENTER OF AURORA THE
7.47,2.41,39.84960,-105.01825,36017.08,7549.15,0.50,0.61,0.48,CENTURA HEALTH-ST ANTHONY NORTH HOSPITAL
8.67,2.30,39.52910,-104.87121,42788.76,6936.59,0.50,0.76,0.80,SKY RIDGE MEDICAL CENTER
8.91,2.22,39.57629,-104.98610,44117.59,6460.78,0.50,0.79,0.54,CENTURA HEALTH-LITTLETON ADVENTIST HOSPITAL
7.28,2.20,39.97043,-105.08661,34939.75,6374.25,0.50,0.71,0.47,EXEMPLA GOOD SAMARITAN MEDICAL CENTER LLC
5.14,2.14,40.45184,-105.19608,22905.35,6015.69,0.50,0.79,0.45,MEDICAL CENTER OF THE ROCKIES
6.24,2.68,41.30978,-72.93806,29115.64,9075.43,0.67,0.57,0.08,HOSPITAL OF ST RAPHAEL
6.51,2.76,41.77507,-72.69941,30623.78,9512.85,0.50,0.54,0.86,ST FRANCIS HOSPITAL & MEDICAL CENTER
8.46,2.68,41.55959,-73.05941,41615.87,9059.75,0.33,0.57,0.70,WATERBURY HOSPITAL
9.08,2.67,41.05562,-73.55390,45089.47,9015.73,0.50,0.53,0.11,STAMFORD HOSPITAL
4.77,2.54,41.33722,-72.10380,20810.11,8252.76,0.50,0.72,0.93,LAWRENCE & MEMORIAL HOSPITAL
5.31,2.58,41.97762,-72.39127,23850.50,8504.75,0.00,0.00,0.00,JOHNSON MEMORIAL HOSPITAL
6.11,3.01,41.18881,-73.16645,28394.03,10905.46,0.50,0.51,0.21,BRIDGEPORT HOSPITAL
2.98,2.39,41.79153,-73.13382,10745.04,7444.72,0.25,0.79,0.54,CHARLOTTE HUNGERFORD HOSPITAL
6.21,2.55,41.58181,-73.40955,28955.43,8315.50,0.00,0.00,0.00,NEW MILFORD HOSPITAL
4.48,2.76,41.55241,-73.03554,19213.08,9481.29,0.50,0.56,0.39,SAINT MARYS HOSPITAL
5.15,2.54,41.54874,-72.80148,22936.37,8244.24,0.50,0.60,0.80,MIDSTATE MEDICAL CENTER
6.77,2.51,41.03431,-73.63020,32067.50,8066.80,0.50,0.49,0.64,GREENWICH HOSPITAL ASSOCIATION
4.38,2.41,41.21646,-73.06525,18612.00,7504.00,0.50,0.66,0.25,MILFORD HOSPITAL INC
7.99,2.51,41.55473,-72.64872,38985.36,8122.26,0.33,0.61,0.93,MIDDLESEX HOSPITAL
3.89,2.88,41.71622,-72.22399,15871.20,10191.10,0.00,0.00,0.00,WINDHAM COMM MEM HOSP & HATCH HOSP
9.99,3.46,41.30400,-72.93502,50201.03,13456.99,0.67,0.41,0.03,YALE-NEW HAVEN HOSPITAL
4.55,2.56,41.54301,-72.08799,19604.88,8358.48,0.50,0.70,0.45,WILLIAM W BACKUS HOSPITAL
6.17,2.93,41.75412,-72.67927,28717.43,10457.29,0.50,0.47,0.10,HARTFORD HOSPITAL
3.86,2.43,41.78185,-72.52591,15723.79,7648.00,0.50,0.69,0.02,MANCHESTER MEMORIAL HOSPITAL
5.40,2.74,41.20049,-73.20281,24399.94,9389.00,0.67,0.79,0.64,ST VINCENT'S MEDICAL CENTER
3.99,2.39,41.67540,-72.93617,16409.59,7436.56,0.50,0.74,0.33,BRISTOL HOSPITAL
5.64,2.69,41.33493,-73.08978,25735.74,9096.03,0.50,0.78,0.93,GRIFFIN HOSPITAL
4.48,2.63,41.40474,-73.44739,19191.12,8748.34,0.50,0.66,0.58,DANBURY HOSPITAL
6.95,2.68,41.11147,-73.42010,33124.54,9070.58,0.50,0.72,0.93,NORWALK HOSPITAL ASSOCIATION
5.52,2.69,41.66107,-72.78671,25041.27,9108.59,0.50,0.53,0.08,HOSPITAL OF CENTRAL CONNECTICUT THE
4.68,3.42,41.73545,-72.79489,20320.81,13240.19,0.25,0.60,0.08,JOHN DEMPSEY HOSPITAL
4.64,2.63,39.69005,-75.68408,20078.66,8794.97,0.67,0.59,0.39,CHRISTIANA CARE HEALTH SERVICES INC.
6.40,2.48,39.74954,-75.56662,30025.43,7927.83,0.50,0.81,0.80,ST FRANCIS HOSPITAL
4.66,2.38,39.15135,-75.52309,20227.03,7387.00,0.50,0.59,0.91,BAYHEALTH - KENT GENERAL HOSPITAL
4.22,2.62,38.64231,-75.60660,17750.60,8708.50,0.00,0.00,0.00,NANTICOKE MEMORIAL HOSPITAL
5.60,2.29,38.77159,-75.14210,25490.08,6849.48,0.50,0.90,0.82,BEEBE MEDICAL CENTER
11.13,2.92,38.90106,-77.05079,56647.28,10411.65,0.50,0.50,0.14,GEORGE WASHINGTON UNIV HOSPITAL
8.69,4.19,38.91770,-77.02193,42920.90,17571.85,0.50,0.66,0.01,HOWARD UNIVERSITY HOSPITAL
9.58,3.24,38.91221,-77.07588,47935.08,12231.63,0.67,0.65,0.01,GEORGETOWN UNIVERSITY HOSPITAL
5.46,2.28,38.93576,-77.10909,24711.59,6826.30,0.50,0.76,0.97,SIBLEY MEMORIAL HOSPITAL
5.10,2.79,38.94397,-76.99040,22669.97,9692.54,0.50,0.57,0.25,PROVIDENCE HOSPITAL
6.62,2.64,38.83504,-76.98388,31247.17,8850.25,0.50,0.89,0.47,UNITED MEDICAL CENTER
6.92,2.88,38.92944,-77.01473,32926.97,10152.42,0.33,0.59,0.02,WASHINGTON HOSPITAL CENTER
6.57,2.87,30.34913,-81.66391,30954.77,10144.44,0.50,0.62,0.00,SHANDS JACKSONVILLE MEDICAL CENTER
9.03,2.43,26.50479,-80.06979,44823.70,7634.57,0.50,0.54,0.99,BETHESDA MEMORIAL HOSPITAL
7.83,2.46,28.52517,-81.37729,38041.08,7801.04,0.67,0.47,0.29,ORLANDO HEALTH
8.22,2.43,28.57345,-81.36990,40242.50,7670.97,0.83,0.66,0.25,FLORIDA HOSPITAL
11.07,2.56,25.68309,-80.34038,56325.81,8371.49,0.50,0.62,0.86,BAPTIST HOSPITAL OF MIAMI INC
12.39,2.70,25.78846,-80.21644,63728.80,9163.14,0.83,0.56,0.01,UNIVERSITY OF MIAMI HOSPITAL
5.61,2.27,26.62849,-81.87423,25562.85,6762.32,0.67,0.53,0.16,LEE MEMORIAL HOSPITAL
4.36,2.14,29.01347,-80.94096,18516.92,5990.16,0.50,0.69,0.10,BERT FISH MEDICAL CENTER
5.83,2.41,29.20117,-81.05828,26777.00,7516.81,0.67,0.76,0.80,HALIFAX HEALTH MEDICAL CENTER
5.58,2.26,26.15053,-81.79919,25387.53,6674.38,0.67,0.62,0.39,NAPLES COMMUNITY HOSPITAL
6.57,2.16,28.08771,-80.61362,30963.90,6148.72,0.67,0.59,0.17,HOLMES REGIONAL MEDICAL CENTER
10.46,3.97,25.79143,-80.21250,52844.45,16304.65,0.83,0.49,0.05,JACKSON MEMORIAL HOSPITAL
4.57,2.14,28.83363,-82.33561,19669.18,6012.31,0.50,0.55,0.45,CITRUS MEMORIAL HOSPITAL
4.43,2.39,30.47650,-87.21219,18920.02,7445.02,0.50,0.41,0.39,SACRED HEART HOSPITAL
5.04,2.21,30.15963,-85.64818,22366.00,6429.01,0.67,0.74,0.43,BAY MEDICAL CENTER
5.44,2.19,28.63051,-80.82437,24605.69,6306.17,0.50,0.69,0.98,PARRISH MEDICAL CENTER
12.99,2.64,25.86166,-80.21398,67107.73,8854.81,0.50,0.84,0.70,NORTH SHORE MEDICAL CENTER
5.69,2.36,28.54917,-81.52746,26018.52,7262.04,0.50,0.70,0.58,HEALTH CENTRAL
8.40,2.53,27.76332,-82.64325,41279.02,8211.64,0.50,0.82,0.20,BAYFRONT MEDICAL CENTER INC
9.70,2.60,25.81317,-80.13996,48607.55,8589.12,0.67,0.47,0.25,MOUNT SINAI MEDICAL CENTER
7.52,2.34,27.49789,-82.56220,36337.34,7158.99,0.50,0.55,0.30,MANATEE MEMORIAL HOSPITAL
8.92,2.54,26.01867,-80.17981,44219.79,8259.54,0.83,0.64,0.76,MEMORIAL REGIONAL HOSPITAL
6.20,2.75,26.10282,-80.14245,28892.78,9444.44,0.75,0.76,0.97,BROWARD HEALTH BROWARD GENERAL MEDICAL CENTER
5.65,2.26,30.30835,-81.68919,25773.36,6671.71,0.50,0.69,0.83,ST VINCENT'S MEDICAL CENTER
6.69,2.18,28.01404,-82.78368,31662.76,6217.78,0.50,0.75,0.54,MEASE HOSPITAL DUNEDIN
7.78,2.28,27.19837,-80.24306,37761.27,6823.82,0.67,0.70,0.58,MARTIN MEMORIAL MEDICAL CENTER
5.35,2.25,29.04263,-81.31635,24067.68,6658.61,0.50,0.86,0.99,FLORIDA HOSPITAL DELAND
9.39,2.17,28.26092,-82.18802,46834.17,6202.78,0.50,0.62,0.89,FLORIDA HOSPITAL ZEPHYRHILLS
7.32,2.17,26.94042,-82.04094,35177.77,6172.41,0.50,0.72,0.86,CHARLOTTE REGIONAL MEDICAL CENTER
5.42,2.16,27.46707,-81.43358,24488.06,6117.35,0.00,0.00,0.00,HIGHLANDS REGIONAL MEDICAL CENTER
6.49,2.18,28.55140,-81.72120,30537.95,6247.11,0.00,0.00,0.00,SOUTH LAKE HOSPITAL
6.48,2.18,28.02768,-81.72466,30466.17,6241.82,0.50,0.62,0.03,WINTER HAVEN HOSPITAL
12.77,2.91,25.84597,-80.26872,65899.61,10335.03,0.75,0.82,1.00,HIALEAH HOSPITAL
5.88,2.16,28.13321,-82.75839,27094.96,6116.29,0.00,0.00,0.00,HELEN ELLIS MEMORIAL HOSPITAL
5.89,2.30,28.82358,-81.71133,27113.23,6931.98,0.50,0.71,0.48,FLORIDA HOSPITAL WATERMAN
8.94,2.59,25.74067,-80.21244,44283.00,8536.70,0.00,0.00,0.00,MERCY HOSPITAL INC
5.14,2.17,29.17594,-82.13898,22898.83,6193.69,0.50,0.60,0.94,MUNROE REGIONAL MEDICAL CENTER
5.36,2.14,28.25431,-82.71447,24168.59,6006.32,0.50,0.96,0.39,MORTON PLANT NORTH BAY HOSPITAL
6.10,2.21,27.78088,-82.65126,28290.97,6406.89,0.50,0.69,0.58,ST ANTHONY'S HOSPITAL
5.52,2.16,29.24333,-81.10760,25023.47,6133.13,0.50,0.68,0.96,FLORIDA HOSPITAL MEMORIAL MEDICAL CENTER
4.63,2.14,27.09043,-82.44499,20051.08,5990.04,0.50,0.76,0.48,VENICE REGIONAL MEDICAL CENTER
10.05,2.30,28.53906,-82.44193,50563.62,6938.88,0.50,0.75,0.58,BROOKSVILLE REGIONAL HOSPITAL
5.00,2.21,28.91403,-81.28480,22136.92,6421.21,0.83,0.75,0.05,FLORIDA HOSPITAL FISH MEMORIAL
7.50,2.25,26.18711,-80.11941,36209.67,6605.02,0.83,0.57,0.38,HOLY CROSS HOSPITAL INC
7.21,2.45,27.98242,-82.49025,34592.33,7774.04,0.67,0.60,0.30,ST JOSEPH'S HOSPITAL
7.22,2.24,26.98905,-82.09559,34608.37,6584.73,0.50,0.69,0.43,PEACE RIVER REGIONAL MEDICAL CENTER
9.26,2.36,26.59805,-80.09271,46114.64,7229.50,1.00,0.60,0.28,JFK MEDICAL CENTER
5.32,2.22,28.80659,-81.86906,23943.31,6445.44,0.33,0.68,0.25,LEESBURG REGIONAL MEDICAL CENTER
6.00,2.35,26.27623,-80.12220,27765.81,7200.31,0.75,0.72,0.58,BROWARD HEALTH NORTH BROWARD MEDICAL CENTER
4.76,2.16,27.31827,-82.53140,20768.72,6107.32,0.33,0.38,0.70,SARASOTA MEMORIAL HOSPITAL
9.97,2.33,30.31525,-81.66398,50098.28,7063.35,0.67,0.47,0.13,BAPTIST MEDICAL CENTER
7.31,2.41,29.86371,-81.31749,35141.74,7520.14,0.67,0.76,0.30,FLAGLER HOSPITAL
5.11,2.22,28.33522,-80.72319,22759.91,6458.89,0.50,0.64,0.97,WUESTHOFF MEDICAL CENTER  ROCKLEDGE
6.10,2.26,30.43066,-87.23191,28326.76,6704.29,0.50,0.72,0.17,BAPTIST HOSPITAL
8.68,2.20,27.89590,-81.56547,42850.29,6327.00,0.00,0.00,0.00,LAKE WALES MEDICAL CENTER
3.51,2.24,27.65832,-80.39307,13712.43,6570.77,0.67,0.76,0.99,INDIAN RIVER MEDICAL CENTER
6.77,2.21,26.61563,-81.65945,32100.31,6401.08,0.50,0.79,0.33,LEHIGH REGIONAL MEDICAL CENTER
6.43,2.23,27.50001,-81.43962,30198.80,6510.89,0.50,0.61,0.86,FLORIDA HOSPITAL HEARTLAND MEDICAL CENTER
11.06,2.34,28.29946,-81.41021,56231.90,7109.42,0.50,0.64,0.51,OSCEOLA REGIONAL MEDICAL CENTER
5.97,3.14,29.64155,-82.34844,27571.43,11654.43,0.67,0.54,0.30,SHANDS HOSPITAL AT THE UNIVERSITY OF FLORIDA
6.81,2.13,30.27449,-81.40071,32330.00,5929.82,0.67,0.94,0.70,BAPTIST MEDICAL CENTER  BEACHES
4.66,2.41,29.47897,-81.18915,20212.03,7558.84,0.50,0.51,0.39,FLORIDA HOSPITAL FLAGLER
4.97,2.19,27.91798,-81.84402,21942.65,6303.00,0.00,0.00,0.00,BARTOW REGIONAL MEDICAL CENTER
9.90,2.22,30.73540,-86.56171,49721.70,6461.80,0.50,0.90,0.97,NORTH OKALOOSA MEDICAL CENTER
8.37,2.58,25.47971,-80.43038,41120.81,8499.06,0.50,0.86,0.69,HOMESTEAD HOSPITAL
6.20,2.11,27.75214,-82.73951,28860.27,5846.04,0.50,0.62,0.86,PALMS OF PASADENA HOSPITAL
5.55,2.22,27.95192,-82.80379,25218.62,6445.77,0.67,0.62,0.10,MORTON PLANT HOSPITAL
13.90,2.90,27.93740,-82.45927,72220.64,10281.61,0.67,0.66,0.00,TAMPA GENERAL HOSPITAL
12.28,2.44,25.96994,-80.14533,63127.04,7687.43,0.50,0.64,0.80,AVENTURA HOSPITAL AND MEDICAL CENTER
6.23,2.39,28.01563,-82.13900,29031.36,7392.00,0.50,0.93,0.58,SOUTH FLORIDA BAPTIST HOSPITAL
5.74,2.32,30.45726,-84.26175,26304.40,7049.00,0.67,0.57,0.64,TALLAHASSEE MEMORIAL HEALTHCARE
8.45,2.24,28.18120,-81.64018,41536.71,6568.46,0.50,0.72,0.58,HEART OF FLORIDA REGIONAL MEDICAL CENTER
3.85,2.23,30.78675,-85.24189,15618.00,6499.85,0.00,0.00,0.00,JACKSON HOSPITAL
5.47,2.66,30.26389,-81.44283,24757.02,8959.62,0.83,0.62,0.91,MAYO CLINIC
9.29,2.40,25.70328,-80.29391,46273.61,7477.83,0.50,0.65,0.69,SOUTH MIAMI HOSPITAL INC
6.59,2.57,30.18340,-82.68783,31066.32,8447.32,0.00,0.00,0.00,LAKE CITY MEDICAL CENTER
8.14,2.29,28.06172,-81.95304,39793.88,6858.21,0.50,0.53,0.03,LAKELAND REGIONAL MEDICAL CENTER
7.26,2.25,28.81611,-81.28351,34826.59,6636.35,0.50,0.56,0.98,CENTRAL FLORIDA REGIONAL HOSPITAL
7.17,2.08,27.30187,-82.45428,34331.63,5689.67,0.33,0.68,0.96,DOCTORS HOSPITAL OF SARASOTA
14.74,2.68,26.12647,-80.20519,76985.21,9079.41,0.50,0.81,0.06,PLANTATION GENERAL HOSPITAL
6.00,2.26,26.35875,-80.10203,27733.94,6687.20,0.67,0.46,0.43,BOCA RATON REGIONAL HOSPITAL
6.82,2.33,28.07111,-82.42342,32342.89,7075.93,0.50,0.69,0.38,FLORIDA HOSPITAL TAMPA
4.40,2.42,27.22739,-81.85108,18742.54,7610.62,0.00,0.00,0.00,DESOTO MEMORIAL HOSPITAL
7.25,2.27,26.83035,-80.08655,34781.48,6733.04,1.00,0.56,0.38,PALM BEACH GARDENS MEDICAL CENTER
6.03,2.20,28.36005,-80.62309,27892.68,6328.21,0.50,0.88,0.58,CAPE CANAVERAL HOSPITAL
11.90,2.44,30.28793,-81.60103,60961.89,7697.43,0.33,0.49,0.25,MEMORIAL HOSPITAL JACKSONVILLE
11.53,2.40,27.80541,-82.72694,58909.54,7469.46,0.33,0.49,0.08,ST PETERSBURG GENERAL HOSPITAL
16.47,2.88,25.74360,-80.25465,86706.64,10161.91,0.50,0.82,0.41,CORAL GABLES HOSPITAL
13.08,2.71,25.88563,-80.32635,67639.58,9230.92,0.67,0.79,0.91,PALMETTO GENERAL HOSPITAL
8.81,2.26,26.26259,-80.20292,43604.22,6702.56,0.50,0.51,0.98,NORTHWEST MEDICAL CENTER
11.31,2.17,28.19342,-82.46987,57664.12,6181.00,0.50,0.78,0.43,MEDICAL CENTER OF TRINITY
9.54,2.25,29.66085,-82.41172,47678.34,6638.20,0.33,0.53,0.17,NORTH FLORIDA REGIONAL MEDICAL CENTER
13.39,2.61,25.73195,-80.38580,69358.50,8650.47,0.33,0.51,0.80,KENDALL REGIONAL MEDICAL CENTER
6.35,2.17,28.34805,-82.19963,29701.21,6172.63,0.50,0.91,0.05,PASCO REGIONAL MEDICAL CENTER
8.38,2.15,29.17550,-82.13680,41139.26,6074.00,0.83,0.55,0.86,OCALA REGIONAL MEDICAL CENTER
7.44,2.13,27.48213,-82.62126,35877.76,5975.22,0.50,0.75,0.69,BLAKE MEDICAL CENTER
6.55,2.23,27.84359,-80.48849,30854.45,6517.55,0.00,0.00,0.00,SEBASTIAN RIVER MEDICAL CENTER
5.70,2.23,26.52735,-81.83337,26077.89,6519.29,0.50,0.59,0.64,GULF COAST MEDICAL CENTER LEE MEM HEALTH SYSTEM
12.45,2.24,30.45448,-86.63362,64067.38,6593.52,0.50,0.72,0.64,FORT WALTON BEACH MEDICAL CENTER
11.04,2.20,26.21219,-80.25478,56125.32,6375.96,0.00,0.00,0.00,UNIVERSITY HOSPITAL AND MEDICAL CENTER
11.74,2.46,30.16550,-81.73775,60073.33,7789.98,0.33,0.69,0.58,ORANGE PARK MEDICAL CENTER
9.71,2.28,26.12354,-80.25951,48662.25,6800.28,0.50,0.57,0.74,WESTSIDE REGIONAL MEDICAL CENTER
7.13,2.13,30.51624,-87.21856,34094.11,5959.24,0.50,0.65,0.05,WEST FLORIDA HOSPITAL
6.13,2.25,29.64481,-81.69431,28500.70,6632.55,0.50,0.79,0.48,PUTNAM COMMUNITY MEDICAL CENTER
10.49,2.44,26.76167,-80.08781,53058.80,7676.27,0.50,0.86,0.33,COLUMBIA HOSPITAL
10.28,2.15,26.98884,-82.09877,51881.49,6063.36,0.50,0.80,0.58,FAWCETT MEMORIAL HOSPITAL
12.39,2.26,27.82545,-82.70122,63754.48,6689.22,0.50,0.65,0.33,NORTHSIDE HOSPITAL
8.47,2.22,30.18657,-85.66513,41655.73,6454.46,0.50,0.64,0.99,GULF COAST MEDICAL CENTER
9.58,2.39,27.93259,-82.28759,47931.94,7428.77,0.67,0.68,0.21,BRANDON REGIONAL HOSPITAL
5.39,2.12,26.63958,-81.94164,24305.96,5881.74,0.50,0.53,0.21,CAPE CORAL HOSPITAL
11.53,2.47,27.43392,-80.34350,58899.16,7872.32,0.83,0.54,0.30,LAWNWOOD REGIONAL MEDICAL CENTER & HEART INSTITUTE
9.15,2.37,27.91458,-82.80382,45503.69,7282.40,0.50,0.49,0.25,LARGO MEDICAL CENTER
6.29,2.15,28.95195,-82.62421,29384.27,6094.78,0.50,0.72,0.21,SEVEN RIVERS REGIONAL MEDICAL CENTER
7.20,2.37,27.25983,-80.82855,34527.36,7291.68,0.50,0.79,0.74,RAULERSON HOSPITAL
7.76,2.50,26.92138,-80.09708,37684.32,8056.35,0.50,0.61,0.54,JUPITER MEDICAL CENTER
7.03,2.30,30.47616,-84.23140,33548.74,6887.54,0.50,0.66,0.58,CAPITAL REGIONAL MEDICAL CENTER
8.67,2.18,28.36128,-82.68883,42796.08,6211.38,0.67,0.68,0.91,REGIONAL MEDICAL CENTER BAYONET POINT
10.09,2.35,26.43709,-80.12728,50807.77,7199.92,0.83,0.72,0.93,DELRAY MEDICAL CENTER
9.79,2.16,27.71350,-82.36512,49072.93,6139.00,0.33,0.66,0.33,SOUTH BAY HOSPITAL
8.44,2.36,27.28861,-80.29431,41489.89,7258.46,0.50,0.65,0.54,ST LUCIE MEDICAL CENTER
10.55,2.14,28.53585,-82.53404,53403.44,6027.68,0.67,0.71,0.58,OAK HILL HOSPITAL
5.74,2.19,28.03957,-82.70875,26305.68,6299.04,0.67,0.66,0.54,MEASE COUNTRYSIDE HOSPITAL
5.45,2.12,30.35772,-87.16046,24631.67,5874.00,0.00,0.00,0.00,GULF BREEZE HOSPITAL
8.03,2.29,26.35614,-80.19956,39194.68,6839.03,0.50,0.80,0.83,WEST BOCA MEDICAL CENTER
11.24,2.49,26.68337,-80.25269,57236.78,8002.67,0.67,0.68,0.38,PALMS WEST HOSPITAL
6.78,2.42,26.65230,-80.20504,32137.61,7603.50,0.50,0.74,0.33,WELLINGTON REGIONAL MEDICAL CENTER
6.47,2.37,26.26841,-80.25571,30389.22,7314.44,0.50,0.68,0.90,CORAL SPRINGS MEDICAL CENTER
9.00,2.35,26.01394,-80.30980,44661.98,7210.83,0.67,0.71,0.64,MEMORIAL HOSPITAL WEST
8.17,2.40,25.99079,-80.37333,39955.79,7471.43,0.00,0.00,0.00,MEMORIAL HOSPITAL MIRAMAR
6.46,2.27,26.21388,-81.73257,30340.35,6769.65,0.33,0.80,0.33,PHYSICIANS REGIONAL MEDICAL CENTER - PINE RIDGE
6.45,2.31,26.70181,-80.05055,30273.20,6969.04,0.50,0.59,0.64,GOOD SAMARITAN MEDICAL CENTER
12.48,2.71,26.75635,-80.06322,64220.39,9217.46,1.00,0.85,0.74,ST MARY'S MEDICAL CENTER
5.61,2.21,26.08155,-80.36449,25572.61,6389.33,1.00,0.57,0.48,CLEVELAND CLINIC HOSPITAL
5.57,2.12,28.94952,-81.95843,25335.44,5920.05,0.33,0.80,0.94,VILLAGES REGIONAL HOSPITAL THE
5.22,2.21,28.10969,-80.67280,23350.20,6424.00,0.50,0.72,0.38,WUESTHOFF MEDICAL CENTER - MELBOURNE
11.79,2.52,25.72132,-80.27116,60349.08,8135.33,0.00,0.00,0.00,DOCTORS HOSPITAL INC
7.18,2.06,27.38993,-82.43343,34420.28,5553.32,0.00,0.00,0.00,LAKEWOOD RANCH MEDICAL CENTER
6.11,2.09,30.25377,-81.58270,28351.71,5737.86,0.50,0.78,0.30,ST VINCENT'S MEDICAL CENTER SOUTHSIDE
4.67,2.27,34.78963,-84.98398,20242.86,6765.43,0.50,0.76,0.11,HAMILTON MEDICAL CENTER
4.15,2.38,32.88710,-84.33393,17344.14,7369.51,0.00,0.00,0.00,UPSON REGIONAL MEDICAL CENTER
4.49,2.23,31.22516,-82.34898,19223.40,6510.13,0.50,0.94,0.33,SATILLA REGIONAL MEDICAL CENTER
6.95,2.20,34.17863,-84.13992,33097.59,6326.14,0.67,0.64,0.47,NORTHSIDE HOSPITAL FORSYTH
5.05,2.30,33.94791,-83.40531,22425.93,6903.13,0.50,0.79,0.96,ST MARY'S HOSPITAL
4.65,2.43,31.59023,-84.15756,20167.04,7663.52,0.50,0.54,0.11,PHOEBE PUTNEY MEMORIAL HOSPITAL
6.63,2.27,34.24569,-84.49068,31320.87,6750.73,0.50,0.72,0.10,NORTHSIDE HOSPITAL CHEROKEE
6.67,2.66,33.79230,-84.32107,31545.23,8959.53,0.50,0.41,0.08,EMORY UNIVERSITY HOSPITAL
4.49,2.27,33.56970,-85.07276,19256.72,6741.58,0.25,0.79,0.91,TANNER MEDICAL CENTER - CARROLLTON
4.16,2.33,33.03204,-85.05781,17412.85,7059.46,0.50,0.79,0.96,WEST GEORGIA MEDICAL CENTER
3.68,2.31,33.60237,-83.84809,14707.03,6972.21,0.00,0.00,0.00,NEWTON MEDICAL CENTER
5.35,2.28,34.51192,-84.92579,24107.67,6798.50,0.50,0.89,0.58,GORDON HOSPITAL
5.44,2.29,32.02825,-81.09977,24591.33,6836.72,0.83,0.81,0.02,CANDLER HOSPITAL
4.62,2.59,31.17425,-81.48459,19994.00,8522.88,0.50,0.61,0.17,SOUTHEAST GEORGIA HEALTH SYSTEM- BRUNSWICK CAMPUS
2.76,2.27,34.28705,-83.11015,9511.58,6738.75,0.00,0.00,0.00,COBB MEMORIAL HOSPITAL
5.17,2.32,33.47096,-81.98176,23081.56,7028.55,0.50,0.51,0.21,UNIVERSITY HOSPITAL
5.25,2.31,34.30335,-83.81737,23541.35,6947.79,0.67,0.59,0.45,NORTHEAST GEORGIA MEDICAL CENTER INC
8.38,2.50,34.19990,-84.79378,41178.00,8056.89,0.50,0.62,0.39,CARTERSVILLE MEDICAL CENTER
7.52,2.37,33.23886,-84.26706,36289.37,7318.61,0.33,0.79,0.70,SPALDING REGIONAL MEDICAL CENTER
3.93,2.30,34.59332,-83.34788,16113.54,6936.08,0.00,0.00,0.00,STEPHENS COUNTY HOSPITAL
5.05,3.02,33.47091,-81.98988,22379.16,10960.64,0.67,0.45,0.38,MEDICAL COLLEGE OF GA HOSPITALS AND CLINICS
6.73,2.30,33.96770,-84.55011,31866.39,6895.59,0.67,0.62,0.45,WELLSTAR KENNESTONE HOSPITAL
4.84,2.41,32.03185,-81.09158,21230.06,7529.37,0.67,0.61,0.25,MEMORIAL HEALTH UNIV MED CEN INC
4.89,2.23,30.82614,-83.97393,21515.40,6545.45,0.50,0.75,0.48,JOHN D ARCHBOLD MEMORIAL HOSPITAL
4.28,2.27,33.46767,-82.01807,18087.00,6758.82,0.00,0.00,0.00,TRINITY HOSPITAL OF AUGUSTA
2.72,2.26,34.56510,-83.54517,9262.40,6681.33,0.00,0.00,0.00,HABERSHAM COUNTY MEDICAL CTR
5.53,2.14,31.98515,-81.15475,25104.16,6009.83,0.67,0.72,0.33,ST JOSEPH'S HOSPITAL - SAVANNAH
4.47,2.85,32.06513,-84.25260,19143.54,9990.92,0.00,0.00,0.00,PHOEBE SUMTER MEDICAL CENTER
5.67,2.28,33.78334,-83.71709,25915.23,6820.38,0.50,0.89,0.02,WALTON REGIONAL MEDICAL CENTER
3.05,2.28,34.88620,-83.96241,11148.55,6781.18,0.00,0.00,0.00,UNION GENERAL HOSPITAL
5.73,2.47,34.26000,-85.17000,26242.51,7896.59,0.50,0.68,0.89,FLOYD MEDICAL CENTER
5.36,2.59,32.46602,-84.98695,24134.71,8522.02,0.33,0.86,0.64,MEDICAL CENTER THE
4.82,2.30,32.61642,-83.63065,21091.48,6923.28,0.50,0.74,0.74,HOUSTON MEDICAL CENTER
4.48,2.29,31.71491,-83.25265,19209.64,6845.73,0.00,0.00,0.00,DORMINY MEDICAL CENTER
5.12,2.34,33.96117,-83.39832,22785.34,7160.03,0.50,0.69,0.93,ATHENS REGIONAL MEDICAL CENTER
6.51,2.40,32.41483,-81.76990,30609.71,7448.25,0.50,0.82,0.39,EAST GEORGIA REGIONAL MEDICAL CENTER
4.28,2.46,33.78956,-84.28077,18045.64,7797.45,0.50,0.84,0.11,DEKALB MEDICAL CENTER
6.04,2.56,33.76810,-84.38616,27996.35,8381.27,0.33,0.45,0.10,EMORY UNIVERSITY HOSPITAL MIDTOWN
8.06,2.96,33.75205,-84.38272,39374.27,10631.38,0.33,0.56,0.00,GRADY MEMORIAL HOSPITAL
4.81,2.16,33.90877,-84.35180,21074.52,6151.15,0.50,0.55,0.03,SAINT JOSEPH'S HOSPITAL OF ATLANTA INC
5.92,2.22,33.81003,-84.39568,27320.16,6477.68,0.33,0.57,0.45,PIEDMONT HOSPITAL
4.37,2.29,33.96351,-84.01769,18542.99,6858.92,0.50,0.90,0.45,GWINNETT MEDICAL CENTER
5.27,2.18,31.50971,-82.86341,23629.33,6217.00,0.00,0.00,0.00,COFFEE REGIONAL MEDICAL CENTER
5.08,2.37,33.68072,-84.00200,22593.12,7334.41,0.50,0.56,0.33,ROCKDALE MEDICAL CENTER
5.91,2.29,31.47069,-83.50473,27252.07,6844.96,0.17,0.80,0.32,TIFT REGIONAL MEDICAL CENTER
3.65,2.21,31.97683,-83.78280,14538.85,6404.00,0.00,0.00,0.00,CRISP REGIONAL HOSPITAL
3.63,2.26,31.17991,-83.78906,14397.29,6688.29,0.00,0.00,0.00,COLQUITT REGIONAL MEDICAL CENTER
6.11,2.55,32.83041,-83.63476,28388.23,8298.40,0.67,0.49,0.45,MEDICAL CENTER OF CENTRAL GEORGIA
3.57,2.18,32.59212,-82.34541,14040.64,6215.55,0.00,0.00,0.00,EMANUEL MEDICAL CENTER
10.44,2.70,33.76372,-84.37315,52736.77,9179.56,0.50,0.71,0.11,ATLANTA MEDICAL CENTER
4.92,2.33,30.86250,-83.28630,21645.72,7054.34,0.67,0.68,0.74,SOUTH GEORGIA MEDICAL CENTER
3.77,2.33,31.60200,-81.89172,15194.82,7098.94,0.00,0.00,0.00,WAYNE MEMORIAL HOSPITAL
6.36,2.48,32.54026,-82.95741,29805.67,7953.44,0.00,0.00,0.00,FAIRVIEW PARK HOSPITAL
4.88,2.16,32.20903,-82.37585,21470.70,6109.00,0.00,0.00,0.00,MEADOWS REGIONAL MEDICAL CENTER
4.17,2.18,32.50679,-84.95933,17418.40,6228.24,0.83,0.68,0.70,ST FRANCIS HOSPITAL INC
3.73,2.25,30.90295,-84.55203,14983.73,6652.32,0.00,0.00,0.00,MEMORIAL HOSPITAL AND MANOR
6.94,2.41,33.85638,-84.60446,33041.68,7555.10,0.50,0.56,0.33,WELLSTAR COBB HOSPITAL
4.10,2.30,33.08014,-83.23210,17038.83,6897.83,0.50,0.89,0.05,OCONEE REGIONAL MEDICAL CENTER
6.21,2.18,33.90903,-84.35410,28934.26,6225.65,0.67,0.64,0.19,NORTHSIDE HOSPITAL
6.11,2.23,31.53017,-84.17516,28382.56,6530.62,0.00,0.00,0.00,PHOEBE NORTH
7.57,2.33,32.84705,-83.61823,36583.67,7074.46,0.67,0.62,0.10,COLISEUM MEDICAL CENTER
6.39,2.43,33.57843,-84.38897,29927.57,7659.81,0.50,0.79,0.25,SOUTHERN REGIONAL MEDICAL CENTER
6.72,2.20,34.25704,-85.16467,31787.17,6346.46,0.50,0.88,0.25,REDMOND REGIONAL MEDICAL CENTER
8.55,2.36,33.48259,-82.09038,42132.25,7270.81,0.50,0.59,0.08,DOCTORS HOSPITAL
7.23,2.39,33.73938,-84.73111,34675.92,7413.17,0.50,0.91,0.58,WELLSTAR DOUGLAS HOSPITAL
4.48,2.37,32.48040,-84.98468,19163.75,7286.50,0.00,0.00,0.00,DOCTORS HOSPITAL
5.26,2.30,34.91692,-84.37534,23579.27,6908.36,0.00,0.00,0.00,FANNIN REGIONAL HOSPITAL
5.54,2.32,33.51144,-84.22200,25151.47,7003.63,0.50,0.91,0.93,HENRY MEDICAL CENTER INC
6.91,2.25,33.87683,-84.02136,32882.30,6615.74,0.50,0.78,0.45,EMORY EASTSIDE MEDICAL CENTER
11.38,2.34,34.06334,-84.31976,58077.37,7110.21,0.75,0.70,0.74,NORTH FULTON REGIONAL HOSPITAL
4.89,2.19,33.45252,-84.50697,21494.07,6314.56,0.50,0.60,0.33,PIEDMONT FAYETTE HOSPITAL
13.99,2.54,33.68000,-84.42685,72728.19,8262.19,0.50,0.85,0.28,SOUTH FULTON MEDICAL CENTER
4.35,2.27,33.70365,-84.14697,18443.69,6751.92,0.50,0.84,0.78,DEKALB MEDICAL CENTER AT HILLANDALE
5.70,2.29,33.39118,-84.81563,26078.45,6852.97,0.50,0.89,0.05,PIEDMONT NEWNAN HOSPITAL INC
4.42,2.18,34.06670,-84.17643,18860.55,6257.27,0.50,0.78,0.89,EMORY JOHNS CREEK HOSPITAL
6.09,3.04,21.30780,-157.85505,28264.13,11062.65,0.67,0.69,0.45,THE QUEENS MEDICAL CENTER
8.90,4.07,20.88519,-156.48928,44085.60,16871.35,0.67,0.89,0.20,MAUI MEMORIAL MEDICAL CENTER
5.09,3.11,19.71761,-155.11327,22605.18,11464.71,0.50,0.82,0.67,HILO MEDICAL CENTER
6.04,2.74,21.38095,-157.75759,27963.43,9365.07,0.00,0.00,0.00,CASTLE MEDICAL CENTER
5.67,2.69,21.32239,-157.85662,25879.64,9085.68,0.50,0.74,0.05,KUAKINI MEDICAL CENTER
5.51,4.81,21.36339,-157.89951,25010.92,21032.08,0.67,0.57,0.58,KAISER FOUNDATION HOSPITAL
6.17,3.26,21.98514,-159.36388,28713.95,12295.89,0.00,0.00,0.00,WILCOX MEMORIAL HOSPITAL
6.92,2.71,21.30226,-157.85092,32917.88,9215.21,0.75,0.84,0.16,STRAUB CLINIC AND HOSPITAL
7.77,2.83,21.38328,-157.93828,37698.35,9922.77,0.00,0.00,0.00,PALI MOMI MEDICAL CENTER
5.43,2.78,21.37080,-158.02746,24524.29,9608.88,0.00,0.00,0.00,HAWAII MEDICAL CENTER WEST
3.88,3.17,20.02208,-155.66467,15814.00,11788.29,0.00,0.00,0.00,NORTH HAWAII COMMUNITY HOSPITAL
3.46,2.24,42.59072,-114.49627,13426.54,6573.64,0.50,0.64,0.30,ST LUKES MAGIC VALLEY RMC
3.93,2.50,46.41668,-117.02441,16093.86,8064.69,0.50,0.71,0.39,ST JOSEPH REGIONAL MEDICAL CENTER
5.02,2.31,43.61218,-116.19234,22213.25,6970.59,0.67,0.61,0.16,ST LUKES REGIONAL MEDICAL CENTER
4.23,2.43,43.61359,-116.25484,17782.14,7618.72,0.67,0.79,0.25,ST ALPHONSUS REGIONAL MEDICAL CENTER
4.00,2.25,43.55374,-116.57267,16505.42,6616.58,0.00,0.00,0.00,SAINT ALPHONSUS MEDICAL CENTER - NAMPA
4.23,2.29,43.65510,-116.69360,17772.38,6867.08,0.00,0.00,0.00,WEST VALLEY MEDICAL CENTER
4.84,2.34,43.46987,-111.99208,21204.53,7118.32,0.67,0.66,0.58,EASTERN IDAHO REGIONAL MEDICAL CENTER
3.60,2.63,42.87331,-112.42180,14250.00,8744.52,0.33,0.76,0.39,PORTNEUF MEDICAL CENTER
3.43,2.25,47.69645,-116.79476,13280.32,6636.65,0.50,0.71,0.48,KOOTENAI MEDICAL CENTER
4.83,2.16,38.90068,-90.16026,21170.09,6131.65,0.50,0.81,0.25,ALTON MEMORIAL HOSPITAL
9.00,2.39,41.52896,-88.13550,44637.27,7421.40,0.50,0.75,0.83,PROVENA ST JOSEPH MEDICAL CENTER
8.94,2.52,41.91082,-87.84451,44305.09,8135.43,0.33,0.81,0.58,LOYOLA GOTTLIEB MEMORIAL HOSPITAL
6.70,2.55,42.06550,-87.68428,31700.82,8344.55,0.33,0.55,0.58,EVANSTON HOSPITAL
4.28,2.22,37.80207,-89.02660,18052.22,6487.62,0.00,0.00,0.00,HERRIN HOSPITAL
4.54,2.16,40.75318,-89.59321,19508.93,6147.38,0.50,0.75,0.57,PROCTOR HOSPITAL
5.38,2.42,39.93563,-91.39833,24267.49,7595.17,0.50,0.55,0.93,BLESSING HOSPITAL
6.63,3.16,41.86011,-87.69571,31320.90,11764.62,0.33,0.66,0.01,MT SINAI HOSPITAL MEDICAL CENTER
8.11,2.42,41.72930,-88.26976,39631.85,7592.59,0.50,0.90,0.64,COPLEY MEMORIAL HOSPITAL
8.07,2.35,42.07012,-88.33180,39402.20,7212.15,0.50,0.82,0.25,SHERMAN HOSPITAL
3.66,2.16,39.12680,-88.55059,14558.09,6115.24,0.00,0.00,0.00,ST ANTHONYS MEMORIAL HOSPITAL
4.52,2.32,38.52908,-89.11604,19443.25,7035.17,0.50,0.86,0.17,ST MARYS HOSPITAL
9.21,2.28,40.95560,-90.36618,45809.08,6815.75,0.00,0.00,0.00,GALESBURG COTTAGE HOSPITAL
5.94,2.28,41.80160,-89.69714,27405.68,6797.29,0.00,0.00,0.00,CGH MEDICAL CENTER
4.10,2.20,38.32292,-88.91026,17063.69,6359.00,0.50,0.81,0.91,GOOD SAMARITAN REGIONAL HLTH CENTER
6.55,2.62,41.72636,-87.56727,30851.47,8742.39,0.50,0.65,0.74,ADVOCATE TRINITY HOSPITAL
6.23,2.84,41.89141,-87.77618,29052.42,9963.53,0.50,0.72,0.93,WEST SUBURBAN MEDICAL CENTER
6.35,2.60,42.05624,-87.74012,29738.69,8622.77,0.50,0.75,0.86,SKOKIE HOSPITAL
5.90,2.03,38.90787,-90.17207,27196.07,5368.73,0.00,0.00,0.00,SAINT ANTHONY'S HEALTH CENTER
5.78,2.43,39.80726,-89.64496,26487.10,7621.06,0.50,0.59,0.80,ST JOHNS HOSPITAL
6.51,2.69,41.83195,-87.79266,30604.48,9124.37,0.50,0.79,0.58,MACNEAL  HOSPITAL
4.49,2.39,39.74629,-90.25907,19236.43,7422.00,0.00,0.00,0.00,PASSAVANT AREA HOSPITAL
2.61,2.11,39.11040,-90.34312,8666.09,5865.55,0.00,0.00,0.00,JERSEY COMMUNITY HOSPITAL
6.31,2.29,41.66900,-87.81414,29502.16,6846.54,0.50,0.72,0.96,PALOS COMMUNITY HOSPITAL
6.22,2.31,41.87870,-87.80322,29002.42,6967.08,0.50,0.70,0.85,RUSH OAK PARK HOSPITAL
4.70,2.63,40.98818,-90.36374,20402.71,8752.53,0.00,0.00,0.00,ST MARY MEDICAL CENTER
6.99,2.33,41.79660,-87.88627,33311.82,7053.63,0.83,0.64,0.38,ADVENTIST LA GRANGE MEMORIAL HOSPITAL
7.25,2.55,40.70200,-89.59222,34763.40,8335.62,0.67,0.57,0.03,SAINT FRANCIS MEDICAL CENTER
8.34,2.88,42.02578,-87.68371,40905.93,10201.78,0.50,0.75,0.38,RHC ST FRANCIS HOSPITAL
6.34,2.76,41.96698,-87.64941,29653.85,9479.05,0.50,0.70,0.43,LOUIS A WEISS MEMORIAL HOSPITAL
8.66,2.47,42.37840,-87.83329,42713.83,7893.20,0.50,0.74,0.63,VISTA MEDICAL CENTER EAST
10.38,3.20,41.78829,-87.60485,52434.44,11992.12,0.67,0.66,0.11,THE UNIVERSITY OF CHICAGO MEDICAL CENTER
7.21,2.56,40.11696,-88.21506,34583.76,8370.00,0.33,0.64,0.14,CARLE FOUNDATION HOSPITAL
5.93,2.38,40.13811,-87.64569,27335.00,7380.10,0.00,0.00,0.00,PROVENA UNITED SAMARITANS MEDCTR-LOGAN
5.88,2.23,41.36897,-88.42537,27060.46,6493.46,0.00,0.00,0.00,MORRIS HOSPITAL & HEALTHCARE CENTERS
4.04,2.36,41.35763,-88.82439,16732.38,7250.46,0.00,0.00,0.00,OTTAWA REGIONAL HOSPITAL & HEALTHCARE CENTER
6.65,2.32,40.11739,-88.22714,31425.84,7044.22,0.50,0.62,0.21,PROVENA COVENANT MEDICAL CENTER- URBANA
8.81,2.67,41.97532,-87.69958,43568.26,8995.85,0.50,0.85,0.51,SWEDISH COVENANT HOSPITAL
6.15,2.36,42.31832,-88.27920,28607.69,7244.55,0.50,0.84,0.25,CENTEGRA HEALTH SYSTEM - MC HENRY HOSPITAL
7.83,2.47,41.98743,-87.81440,38065.72,7853.63,0.67,0.62,0.70,RESURRECTION MEDICAL CENTER
5.70,2.54,41.65880,-87.67729,26054.79,8284.15,0.50,0.65,0.94,METROSOUTH MEDICAL CENTER
8.54,3.23,41.87497,-87.66927,42058.37,12173.88,0.50,0.42,0.33,RUSH UNIVERSITY MEDICAL CENTER
7.15,2.40,41.80555,-87.92059,34204.65,7494.37,0.50,0.68,0.54,HINSDALE HOSPITAL
3.95,3.38,41.87381,-87.67421,16226.08,12970.33,0.83,0.55,0.16,JOHN H STROGER JR HOSPITAL
10.99,2.46,38.70148,-90.14382,55860.53,7812.35,0.00,0.00,0.00,GATEWAY REGIONAL MEDICAL CENTER
5.60,2.43,40.49639,-88.99106,25473.94,7672.09,0.00,0.00,0.00,BROMENN HEALTHCARE
7.88,2.38,42.25244,-87.86528,38317.68,7335.21,0.25,0.90,0.21,LAKE FOREST HOSPITAL
4.93,2.54,41.76946,-87.69239,21703.60,8244.93,0.50,0.82,0.94,HOLY CROSS HOSPITAL
5.67,2.24,39.86644,-88.96090,25874.57,6580.32,0.50,0.60,0.70,DECATUR MEMORIAL HOSPITAL
4.39,2.19,41.32884,-89.19262,18695.64,6289.50,0.00,0.00,0.00,ST MARGARETS HOSPITAL
3.45,2.28,38.62608,-89.52336,13366.31,6777.85,0.00,0.00,0.00,ST JOSEPHS HOSPITAL
5.30,2.37,39.80893,-89.65530,23828.22,7287.31,0.83,0.57,0.11,MEMORIAL MEDICAL CENTER
10.45,3.98,41.86927,-87.67052,52805.18,16378.08,0.50,0.76,0.30,UNIVERSITY OF ILLINOIS HOSPITAL
8.95,2.36,41.12049,-87.87187,44360.44,7261.41,0.50,0.69,0.97,PROVENA ST MARYS HOSPITAL
4.23,2.92,41.84639,-87.62345,17793.01,10406.86,0.25,0.46,0.39,MERCY HOSPITAL AND MEDICAL CENTER
4.44,2.30,42.29592,-89.63773,18946.25,6931.38,0.00,0.00,0.00,FHN MEMORIAL HOSPITAL
5.03,2.19,40.48254,-88.95519,22287.79,6266.59,0.50,0.91,0.30,ST JOSEPH MEDICAL CENTER
3.91,2.26,37.72790,-89.22058,15961.21,6694.98,0.50,0.64,0.91,MEMORIAL HOSPITAL OF CARBONDALE
5.89,2.34,39.82659,-88.93119,27153.81,7137.77,0.50,0.71,0.83,ST MARYS HOSPITAL
6.97,2.68,41.52283,-87.71111,33240.70,9050.93,0.50,0.75,0.33,FRANCISCAN ST JAMES HEALTH
6.83,2.38,41.78566,-88.32886,32417.95,7378.81,0.50,0.72,0.48,PROVENA MERCY MEDICAL CENTER
6.42,2.51,42.27597,-88.40019,30097.67,8094.48,0.50,0.71,0.57,CENTEGRA HEALTH SYSTEM - WOODSTOCK HOSPITAL
7.53,2.78,41.75746,-87.58559,36393.67,9622.75,0.00,0.00,0.00,JACKSON PARK HOSPITAL
6.59,2.43,41.72094,-87.69220,31046.85,7620.62,0.17,0.64,0.70,LITTLE COMPANY OF MARY HOSPITAL
8.36,2.93,41.90414,-87.68254,41040.23,10471.07,0.75,0.50,0.54,ST MARY & ELIZABETH MED CTR-DIVISION CAMPUS
6.66,2.67,41.74948,-87.56909,31464.36,8997.00,0.50,0.88,0.72,SOUTH SHORE HOSPITAL
6.31,3.05,41.93641,-87.65295,29482.12,11157.88,0.50,0.78,0.86,ADVOCATE ILLINOIS MASONIC MEDICAL CENTER
9.56,2.18,37.74480,-88.99329,47817.00,6238.15,0.50,0.62,0.93,HEARTLAND REGIONAL MEDICAL CENTER
5.68,2.19,38.55020,-90.02146,25920.75,6287.93,0.67,0.81,0.21,MEMORIAL HOSPITAL
5.40,2.49,41.12572,-87.88526,24347.07,7963.72,0.50,0.72,0.82,RIVERSIDE MEDICAL CENTER
4.42,2.20,38.51081,-89.99014,18835.24,6354.24,0.50,0.65,0.07,ST ELIZABETH HOSPITAL
3.36,2.21,39.48849,-88.27581,12862.67,6386.44,0.00,0.00,0.00,SARAH BUSH LINCOLN HEALTH CENTER
6.79,2.43,41.60726,-87.66060,32194.47,7656.35,0.50,0.65,0.76,INGALLS MEMORIAL HOSPITAL
7.21,2.50,41.86362,-87.93567,34592.91,8037.69,0.50,0.76,0.93,ELMHURST MEMORIAL HOSPITAL
7.58,2.36,42.27447,-87.95764,36656.86,7246.00,0.50,0.70,0.80,ADVOCATE CONDELL MEDICAL CENTER
6.05,2.82,41.72031,-87.73249,28035.15,9834.76,0.50,0.57,0.74,ADVOCATE CHRIST HOSPITAL & MEDICAL CENTER
6.00,2.39,40.70065,-89.59505,27734.53,7400.11,0.50,0.79,0.48,METHODIST MEDICAL CENTER OF ILLINOIS
7.62,2.25,41.88566,-88.34311,36851.07,6617.64,0.50,0.81,0.05,DELNOR COMMUNITY HOSPITAL
5.51,2.44,41.54446,-87.98379,25003.06,7705.45,0.50,0.69,0.89,SILVER CROSS HOSPITAL  AND MEDICAL CENTERS
8.11,2.42,42.03576,-88.32575,39634.87,7592.80,0.50,0.65,0.99,PROVENA - SAINT JOSEPH HOSPITAL
5.89,2.61,42.03837,-87.84820,27112.46,8633.38,0.83,0.78,0.70,ADVOCATE LUTHERAN GENERAL HOSPITAL
6.63,2.67,41.93418,-87.63579,31320.40,8988.60,0.50,0.61,0.29,SAINT JOSEPH HOSPITAL
7.22,2.52,42.26584,-89.07428,34595.29,8147.57,0.50,0.65,0.76,SWEDISH AMERICAN HOSPITAL
7.41,2.24,41.76076,-88.15016,35684.36,6552.77,0.50,0.69,0.30,EDWARD HOSPITAL
5.36,2.22,42.26634,-89.00900,24141.92,6464.25,0.50,0.50,0.30,SAINT ANTHONY MEDICAL CENTER
7.10,2.57,42.29844,-89.09897,33948.92,8445.83,0.50,0.88,0.57,ROCKFORD MEMORIAL HOSPITAL
5.75,2.74,41.89166,-87.84838,26365.29,9370.65,0.50,0.68,0.86,WESTLAKE COMMUNITY HOSPITAL
11.61,2.68,41.87269,-88.15684,59345.31,9043.91,0.67,0.62,0.89,CENTRAL DUPAGE HOSPITAL
6.17,2.39,41.56720,-87.69566,28711.65,7408.35,0.50,0.80,0.64,ADVOCATE SOUTH SUBURBAN HOSPITAL
8.07,2.76,41.94560,-87.76897,39400.69,9506.51,0.50,0.75,0.21,OUR LADY OF THE RESURRECTION MED CTR
7.05,2.25,42.06732,-87.99368,33648.85,6626.68,0.67,0.68,0.58,NORTHWEST COMMUNITY HOSPITAL
8.67,2.43,42.00413,-88.01745,42801.76,7667.67,0.67,0.79,0.89,ALEXIAN BROTHERS MEDICAL CENTER
4.27,2.16,41.49581,-90.41871,17981.67,6119.00,0.00,0.00,0.00,GENESIS MEDICAL CENTER ILLINI CAMPUS
6.31,3.18,41.86110,-87.83404,29524.18,11859.51,0.67,0.46,0.05,LOYOLA UNIVERSITY MEDICAL CENTER
3.50,2.20,41.48200,-90.57158,13660.96,6337.61,0.50,0.59,0.64,TRINITY ROCK ISLAND
10.27,3.10,41.89477,-87.62131,51784.04,11428.81,0.50,0.61,0.94,NORTHWESTERN MEMORIAL HOSPITAL
4.95,2.24,41.96185,-88.72130,21859.69,6592.25,0.50,0.81,0.03,KISHWAUKEE COMMUNITY HOSPITAL
6.45,2.47,41.81791,-88.00907,30287.30,7896.10,0.50,0.86,0.96,ADVOCATE GOOD SAMARITAN HOSPITAL
4.91,2.14,38.73818,-89.94728,21610.49,6025.76,0.50,0.88,0.30,ANDERSON HOSPITAL
7.84,2.33,42.05260,-88.14173,38115.92,7081.85,0.50,0.80,0.58,ST ALEXIUS MEDICAL CENTER
5.92,2.24,42.19586,-88.17286,27326.05,6592.76,0.50,0.80,0.96,ADVOCATE GOOD SHEPHERD HOSPITAL
6.37,2.56,41.68062,-88.08319,29844.91,8402.27,0.00,0.00,0.00,ADVENTIST BOLINGBROOK HOSPITAL
4.26,2.25,39.48010,-86.07773,17953.84,6614.16,0.00,0.00,0.00,JOHNSON MEMORIAL HOSPITAL
5.74,2.51,41.59920,-87.35764,26285.26,8117.92,0.50,0.65,0.94,METHODIST HOSPITALS INC
6.58,2.25,40.42687,-86.88197,31011.53,6636.44,0.00,0.00,0.00,FRANCISCAN ST ELIZABETH HEALTH - LAFAYETTE CENTRAL
5.49,2.46,41.61514,-87.52413,24868.16,7822.18,0.50,0.81,0.74,FRANCISCAN ST MARGARET HEALTH - HAMMOND
4.58,2.19,39.76255,-86.50165,19733.76,6318.24,0.00,0.00,0.00,HENDRICKS REGIONAL HEALTH
4.69,2.17,41.61055,-86.72511,20348.50,6151.95,0.00,0.00,0.00,INDIANA UNIVERSITY HEALTH LA PORTE HOSPITAL
4.92,2.13,40.44665,-86.12707,21678.86,5957.14,0.50,0.80,0.54,HOWARD REGIONAL HEALTH SYSTEM
5.48,2.45,41.63466,-87.44901,24846.84,7771.32,0.50,0.79,0.89,ST CATHERINE HOSPITAL INC
4.24,2.27,38.28244,-85.74923,17852.22,6747.56,0.50,0.84,0.48,CLARK MEMORIAL HOSPITAL
5.94,2.19,40.48720,-86.15548,27431.12,6303.85,0.50,0.75,0.82,ST JOSEPH HOSPITAL & HEALTH CENTER INC
3.62,2.19,40.56435,-85.66576,14366.81,6291.31,0.50,0.70,0.89,MARION GENERAL HOSPITAL
4.46,2.39,41.70877,-86.17026,19105.26,7444.97,0.50,0.89,0.58,SAINT JOSEPH REGIONAL MEDICAL CENTER
4.62,2.20,41.70639,-86.89936,19958.91,6370.80,0.00,0.00,0.00,FRANCISCAN ST ANTHONY HEALTH - MICHIGAN CITY
5.46,2.28,41.03874,-85.24876,24704.13,6803.34,0.67,0.64,0.32,LUTHERAN HOSPITAL OF INDIANA
4.15,2.22,41.70568,-85.93404,17354.91,6488.51,0.67,0.54,0.70,ELKHART GENERAL HOSPITAL
5.39,2.29,41.04659,-85.10906,24337.17,6855.90,0.83,0.60,0.45,PARKVIEW REGIONAL MEDICAL CENTER
5.22,2.28,39.48518,-87.40893,23357.14,6825.86,0.50,0.62,0.33,UNION HOSPITAL INC
5.63,3.10,39.78091,-86.17629,25655.50,11444.84,0.33,0.70,0.28,WILLIAM N WISHARD MEMORIAL HOSPITAL
5.21,2.37,41.56352,-85.83039,23304.05,7318.00,0.25,0.82,0.14,IU HEALTH GOSHEN HOSPITAL
4.86,2.41,39.94340,-85.36306,21346.69,7506.23,0.00,0.00,0.00,HENRY COUNTY MEMORIAL HOSPITAL
5.08,2.42,39.72432,-86.10055,22593.77,7581.94,0.00,0.00,0.00,FRANCISCAN ST FRANCIS HEALTH - BEECH GROVE
5.52,2.30,41.51266,-87.26125,25074.27,6924.59,0.50,0.79,0.86,ST MARY MEDICAL CENTER INC
6.73,2.29,41.46729,-87.05130,31882.76,6849.04,0.50,0.75,0.64,PORTER VALPARAISO HOSPITAL
4.02,2.06,39.79490,-85.76770,16603.42,5577.58,0.00,0.00,0.00,HANCOCK REGIONAL HOSPITAL
6.46,2.23,39.42628,-86.40515,30356.64,6505.09,0.00,0.00,0.00,INDIANA UNIVERSITY HEALTH MORGAN HOSPITAL INC
4.01,2.14,38.67313,-87.53370,16545.50,6026.45,0.50,0.72,0.82,GOOD SAMARITAN HOSPITAL
5.62,2.19,38.30195,-85.83409,25589.09,6270.23,0.67,0.85,0.86,FLOYD MEMORIAL HOSPITAL AND HEALTH SERVICES
5.53,2.20,39.41951,-87.40898,25086.44,6370.75,0.50,0.93,0.10,TERRE HAUTE REGIONAL HOSPITAL
3.30,2.39,39.86405,-84.88413,12561.60,7416.43,1.00,0.64,0.28,REID HOSPITAL & HEALTH CARE SERVICES
4.16,2.25,39.16006,-86.54038,17367.35,6650.15,0.50,0.56,0.25,INDIANA UNIVERSITY HEALTH BLOOMINGTON HOSPITAL
6.92,3.11,39.79009,-86.16260,32942.39,11487.40,0.50,0.51,0.80,INDIANA UNIVERSITY HEALTH
5.77,2.36,41.68479,-86.25217,26481.79,7277.96,0.67,0.60,0.08,MEMORIAL HOSPITAL OF SOUTH BEND
4.80,2.17,40.04526,-86.02297,21008.68,6175.47,0.50,0.89,0.83,RIVERVIEW HOSPITAL
4.21,2.28,39.65626,-85.13265,17691.57,6796.57,0.00,0.00,0.00,FAYETTE REGIONAL HEALTH SYSTEM
4.24,2.24,38.95542,-85.89223,17851.47,6595.37,0.00,0.00,0.00,SCHNECK MEDICAL CENTER
3.96,2.18,38.73589,-85.37996,16235.53,6217.53,0.00,0.00,0.00,KING'S DAUGHTERS' HOSPITAL AND HEALTH SERVICESTHE
4.30,2.59,40.76324,-86.36162,18162.69,8538.85,0.00,0.00,0.00,MEMORIAL HOSPITAL
5.40,2.53,39.78704,-86.07673,24368.31,8195.31,0.50,0.82,0.83,COMMUNITY HOSPITAL EAST
4.86,2.21,40.73751,-85.17118,21337.36,6385.09,0.00,0.00,0.00,BLUFFTON REGIONAL MEDICAL CENTER
5.01,2.30,41.33298,-86.33336,22157.00,6910.53,0.00,0.00,0.00,SAINT JOSEPH'S REGIONAL MEDICAL CENTER - PLYMOUTH
5.55,2.17,37.98293,-87.57072,25238.56,6168.25,0.83,0.66,0.14,DEACONESS HOSPITAL INC
6.32,2.50,39.91001,-86.19660,29558.42,8060.88,0.67,0.47,0.89,ST VINCENT HOSPITAL & HEALTH SERVICES
4.64,2.20,39.11138,-84.88343,20110.94,6323.00,0.50,0.60,0.76,DEARBORN COUNTY HOSPITAL
5.34,2.37,40.09594,-85.68152,24036.18,7331.45,0.00,0.00,0.00,SAINT JOHN'S HEALTH SYSTEM
5.16,2.42,40.19679,-85.41573,23041.16,7597.64,0.67,0.62,0.85,INDIANA UNIVERSITY HEALTH BALL MEMORIAL HOSPITAL
6.03,2.33,41.49222,-87.52429,27937.88,7067.94,0.50,0.85,0.54,FRANCISCAN ST MARGARET HEALTH - DYER
3.72,2.46,40.90491,-85.48821,14902.42,7822.83,0.00,0.00,0.00,PARKVIEW HUNTINGTON HOSPITAL
5.46,2.27,39.52494,-85.78113,24726.94,6761.71,0.00,0.00,0.00,MAJOR HOSPITAL
5.30,2.20,37.96320,-87.50292,23796.54,6352.11,0.67,0.68,0.32,ST MARY'S MEDICAL CENTER OF EVANSVILLE INC
3.98,2.37,40.07620,-86.47506,16372.23,7302.69,0.00,0.00,0.00,WITHAM HEALTH SERVICES
5.88,2.31,40.39424,-86.83516,27057.22,6955.68,0.67,0.82,0.17,FRANCISCAN ST ELIZABETH HEALTH - LAFAYETTE EAST
4.02,2.34,39.21585,-85.89683,16602.13,7139.92,0.50,0.76,0.96,COLUMBUS REGIONAL HOSPITAL
3.84,2.28,40.12998,-85.69436,15573.47,6811.89,0.50,0.86,0.38,COMMUNITY HOSPITAL OF ANDERSON AND MADISON COUNTY
2.92,2.05,38.39499,-86.94089,10418.05,5519.40,0.00,0.00,0.00,MEMORIAL HOSPITAL AND HEALTH CARE CENTER
5.50,2.28,41.55065,-87.50619,24950.66,6773.79,0.50,0.75,0.86,COMMUNITY HOSPITAL
5.73,2.28,41.39576,-87.36689,26238.26,6790.90,0.50,0.84,0.51,FRANCISCAN ST ANTHONY HEALTH - CROWN POINT
5.31,2.18,39.63776,-86.13260,23884.27,6230.18,0.50,0.69,0.76,COMMUNITY HOSPITAL SOUTH
5.54,2.20,39.78047,-86.34084,25180.21,6324.14,0.00,0.00,0.00,IU HEALTH WEST HOSPITAL
4.98,2.17,39.95930,-86.16016,22019.64,6180.27,0.50,0.75,0.93,INDIANA UNIVERSITY HEALTH NORTH HOSPITAL
5.82,2.35,39.64935,-86.07960,26723.93,7188.79,0.67,0.80,0.91,FRANCISCAN ST FRANCIS HEALTH - INDIANAPOLIS
5.05,2.22,39.90060,-86.04218,22406.16,6467.56,0.50,0.78,0.76,COMMUNITY HOSPITAL NORTH
6.92,2.32,40.40296,-86.80885,32927.11,7024.98,0.50,0.84,0.97,INDIANA UNIVERSITY HEALTH ARNETT HOSPITAL
3.02,2.12,41.69967,-86.17647,10956.07,5924.39,0.00,0.00,0.00,UNITY MEDICAL AND SURGICAL HOSPITAL
4.50,2.34,42.05601,-94.86762,19298.75,7153.58,0.00,0.00,0.00,ST ANTHONY REGIONAL HOSPITAL
3.33,2.36,40.40766,-91.38808,12706.54,7247.62,0.00,0.00,0.00,KEOKUK AREA HOSPITAL
5.26,2.23,42.49388,-94.18926,23598.96,6508.33,0.00,0.00,0.00,TRINITY REGIONAL MEDICAL CENTER
5.22,2.38,41.60051,-93.61086,23333.72,7372.20,0.00,0.00,0.00,IOWA LUTHERAN HOSPITAL
4.77,2.18,41.66411,-91.52841,20795.57,6251.78,0.50,0.65,0.48,MERCY HOSPITAL
4.04,2.22,42.03321,-93.61164,16719.58,6479.32,0.00,0.00,0.00,MARY GREELEY MEDICAL CENTER
4.46,2.22,41.54190,-90.55691,19093.45,6438.13,0.67,0.59,0.97,GENESIS MEDICAL CENTER-DAVENPORT
4.58,2.19,41.98570,-91.66093,19733.41,6283.73,0.67,0.75,0.91,ST LUKES HOSPITAL
4.43,2.21,41.26786,-95.83505,18914.47,6381.47,0.00,0.00,0.00,JENNIE EDMUNDSON HOSPITAL
5.06,2.22,40.81009,-91.17356,22469.62,6464.69,0.00,0.00,0.00,GREAT RIVER MEDICAL CENTER
6.39,2.97,41.66092,-91.54800,29925.81,10700.10,0.17,0.39,0.64,UNIVERSITY OF IOWA HOSPITAL & CLINICS
3.78,2.30,43.15063,-93.21718,15227.31,6912.24,0.50,0.82,0.64,MERCY MEDICAL CENTER-NORTH IOWA
3.60,2.20,42.46407,-92.34532,14234.47,6328.33,0.00,0.00,0.00,COVENANT MEDICAL CENTER
3.80,2.10,42.49227,-90.67404,15349.16,5791.71,0.50,0.75,0.96,MERCY MEDICAL CENTER-DUBUQUE
4.35,2.15,41.97864,-91.65507,18464.08,6076.50,0.50,0.80,1.00,MERCY MEDICAL CENTER - CEDAR RAPIDS
3.99,2.27,41.86141,-90.18921,16444.18,6734.00,0.00,0.00,0.00,MERCY MEDICAL CENTER-CLINTON
5.97,2.34,41.58955,-93.63248,27570.29,7149.19,0.67,0.38,0.83,IOWA METHODIST MEDICAL CENTER
5.17,2.37,41.59886,-93.62344,23060.37,7323.71,0.83,0.75,0.29,MERCY MEDICAL CENTER-DES MOINES
3.13,2.18,41.02751,-92.38994,11598.58,6217.45,0.00,0.00,0.00,OTTUMWA REGIONAL HEALTH CENTER
3.57,2.25,41.56571,-90.51968,14059.67,6632.67,0.00,0.00,0.00,TRINITY BETTENDORF
3.83,2.17,42.52665,-92.33957,15510.51,6186.54,0.50,0.81,0.07,ALLEN MEMORIAL HOSPITAL
3.47,2.19,43.14994,-95.14317,13528.20,6272.85,0.00,0.00,0.00,SPENCER MUNICIPAL HOSPITAL
3.34,2.06,42.49632,-90.68587,12750.28,5562.93,0.00,0.00,0.00,THE FINLEY HOSPITAL
3.98,2.38,42.51846,-96.40581,16360.27,7363.55,0.50,0.60,0.91,ST LUKES REGIONAL MEDICAL CENTER
2.79,2.36,41.74325,-92.73450,9647.33,7246.00,0.00,0.00,0.00,GRINNELL REGIONAL MEDICAL CENTER
4.89,2.20,42.49250,-96.39975,21523.07,6332.87,0.67,0.71,0.54,MERCY MEDICAL CENTER-SIOUX CITY
4.12,2.30,38.41149,-96.19524,17143.18,6923.94,0.00,0.00,0.00,NEWMAN REGIONAL HEALTH
4.35,2.17,37.37991,-94.68739,18444.00,6179.19,0.00,0.00,0.00,VIA CHRISTI HOSPITAL PITTSBURG INC
4.99,2.30,38.83324,-97.61028,22052.80,6917.75,0.50,0.85,0.28,SALINA REGIONAL HEALTH CENTER
6.27,2.46,38.87847,-99.29923,29250.50,7789.15,0.50,0.59,0.11,HAYS MEDICAL CENTER
4.47,2.19,39.05660,-95.69599,19109.10,6281.47,0.33,0.51,0.33,ST FRANCIS HEALTH CENTER INC
5.07,2.38,38.07731,-97.89183,22510.54,7336.62,0.50,0.80,0.91,HUTCHINSON REGIONAL MEDICAL CENTER INC
9.96,2.59,39.05583,-94.60912,50066.10,8548.72,0.67,0.54,0.64,UNIVERSITY OF KANSAS HOSPITAL
4.95,2.18,38.85279,-94.82413,21849.19,6217.47,0.50,0.59,0.63,OLATHE MEDICAL CENTER
5.82,2.39,39.05128,-95.69572,26764.92,7436.53,0.67,0.71,0.11,STORMONT-VAIL HEALTHCARE
4.18,2.07,38.02419,-97.33117,17501.13,5629.87,0.00,0.00,0.00,NEWTON MEDICAL CENTER
6.81,2.18,38.99549,-94.69061,32337.69,6236.50,0.67,0.46,0.21,SHAWNEE MISSION MEDICAL CENTER
6.03,2.43,37.70405,-97.31386,27893.29,7618.73,0.67,0.69,0.21,VIA CHRISTI HOSPITALS WICHITA INC
9.54,2.42,37.69556,-97.29785,47676.64,7576.56,0.67,0.53,0.05,WESLEY MEDICAL CENTER
4.19,2.33,38.97848,-95.24771,17562.96,7100.58,0.00,0.00,0.00,LAWRENCE MEMORIAL HOSPITAL
4.88,2.15,39.20164,-96.60003,21456.00,6072.08,0.00,0.00,0.00,MERCY REGIONAL HEALTH CENTER
3.24,2.13,37.04095,-95.63956,12182.10,5958.67,0.00,0.00,0.00,COFFEYVILLE REGIONAL MEDICAL CENTER
6.39,2.31,39.12677,-94.78643,29962.86,6977.52,0.50,0.60,0.83,PROVIDENCE MEDICAL CENTER
4.19,2.43,37.78537,-100.01492,17550.09,7646.00,0.00,0.00,0.00,WESTERN PLAINS MEDICAL COMPLEX
9.76,2.26,38.93763,-94.72630,48907.25,6699.81,0.50,0.59,0.10,OVERLAND PARK REG MED CTR
8.67,2.19,38.91047,-94.65205,42765.37,6309.23,0.50,0.66,0.11,MENORAH MEDICAL CENTER
6.36,2.13,38.90355,-94.66966,29756.36,5956.36,0.00,0.00,0.00,SAINT LUKE'S SOUTH HOSPITAL
3.43,2.14,37.73142,-97.26078,13265.53,6032.00,0.00,0.00,0.00,GALICHIA HEART HOSPITAL LLC
5.68,2.30,39.07816,-84.46695,25967.29,6938.67,0.50,0.81,0.51,ST ELIZABETH FT THOMAS
4.49,2.20,37.11520,-82.81022,19233.69,6338.31,0.00,0.00,0.00,WHITESBURG ARH HOSPITAL
3.49,2.17,37.19610,-87.18933,13641.45,6172.82,0.00,0.00,0.00,MUHLENBERG COMMUNITY HOSPITAL
3.43,2.35,37.72943,-82.76716,13273.64,7206.64,0.50,0.76,0.02,HIGHLANDS REGIONAL MEDICAL CENTER
4.40,2.27,38.47021,-82.63498,18721.36,6765.66,0.67,0.60,0.54,KING'S DAUGHTERS' MEDICAL CENTER
4.31,2.23,38.03140,-84.52194,18218.96,6543.22,0.83,0.68,0.80,SAINT JOSEPH HOSPITAL
5.82,2.34,37.11784,-84.10910,26749.47,7123.37,0.50,0.75,0.64,SAINT JOSEPH HOSPITAL LONDON
3.89,2.17,37.71183,-85.87623,15874.92,6200.92,0.83,0.79,0.39,HARDIN MEMORIAL HOSPITAL
6.17,2.47,36.99641,-86.43006,28692.91,7853.35,0.67,0.53,0.33,THE MEDICAL CENTER AT BOWLING GREEN
3.88,2.30,37.01079,-85.90342,15817.05,6908.84,0.00,0.00,0.00,T J SAMSON COMMUNITY HOSPITAL
4.09,2.23,36.60615,-83.74024,17004.09,6517.45,0.00,0.00,0.00,MIDDLESBORO APPALACHIAN REGIONAL HEALTHCARE HOSPIT
5.00,2.18,36.60798,-88.30957,22127.09,6249.79,0.00,0.00,0.00,MURRAY-CALLOWAY COUNTY HOSPITAL
5.19,2.30,37.27729,-83.22802,23194.72,6893.38,0.50,0.88,0.58,HAZARD ARH REGIONAL MEDICAL CENTER
4.91,2.33,39.06704,-84.49946,21607.84,7066.65,0.33,0.59,0.80,ST ELIZABETH MEDICAL CENTER NORTH
4.28,2.23,38.50697,-82.69222,18077.10,6530.75,0.50,0.80,0.91,OUR LADY OF BELLEFONTE HOSPITAL
3.90,2.49,37.76518,-87.10197,15922.18,7957.25,0.50,0.66,0.30,OWENSBORO MEDICAL HEALTH SYSTEM
5.46,2.42,38.24927,-85.75081,24716.86,7565.13,0.67,0.51,0.08,JEWISH HOSPITAL & ST MARY'S HEALTHCARE
7.25,2.51,37.47264,-82.52605,34790.65,8085.22,0.75,0.86,0.10,PIKEVILLE MEDICAL CENTER
5.67,2.30,39.01660,-84.63078,25902.15,6923.20,0.50,0.75,0.64,ST ELIZABETH FLORENCE
3.81,2.24,37.64378,-84.77272,15402.81,6571.50,0.00,0.00,0.00,EPHRAIM MCDOWELL REGIONAL MEDICAL CENTER
2.73,2.36,37.73107,-84.29238,9328.00,7266.91,0.00,0.00,0.00,PATTIE A CLAY REGIONAL MEDICAL CENTER
4.07,2.34,36.86034,-87.49528,16856.88,7143.48,0.50,0.84,0.05,JENNIE STUART MEDICAL CENTER
4.76,2.30,37.85504,-87.58345,20761.87,6901.07,0.50,1.00,0.30,METHODIST HOSPITAL
8.55,3.05,38.03282,-84.50674,42133.97,11109.71,0.33,0.62,0.33,UNIVERSITY OF KENTUCKY HOSPITAL
4.65,2.32,36.92128,-84.11838,20135.33,7050.95,0.25,0.79,0.83,BAPTIST REGIONAL MEDICAL CENTER
6.70,2.45,38.24806,-85.75125,31665.84,7734.45,0.50,0.35,0.39,NORTON HOSPITALS INC
4.14,2.23,37.33959,-87.48988,17298.11,6529.29,0.50,0.86,0.17,REGIONAL MEDICAL CENTER OF HOPKINS COUNTY
4.22,2.12,37.06431,-88.67523,17751.51,5889.43,0.50,0.42,0.20,LOURDES HOSPITAL
5.49,2.29,38.01849,-84.51236,24852.19,6846.92,0.50,0.71,0.58,CENTRAL BAPTIST HOSPITAL
3.78,2.17,37.07404,-88.62685,15242.27,6159.90,0.50,0.80,0.39,WESTERN BAPTIST HOSPITAL
3.01,2.40,36.70006,-85.67862,10911.07,7447.20,0.00,0.00,0.00,MONROE COUNTY MEDICAL CENTER
4.35,2.27,36.75751,-88.65129,18481.70,6752.35,0.00,0.00,0.00,JACKSON PURCHASE MEDICAL CENTER
6.13,2.26,36.96603,-86.43639,28497.46,6709.92,0.50,0.85,0.94,GREENVIEW REGIONAL HOSPITAL
4.78,2.14,38.23898,-85.63941,20907.77,6004.82,0.67,0.57,0.74,BAPTIST HOSPITAL EAST
5.64,2.36,37.08724,-84.61828,25702.91,7250.32,0.67,0.60,0.17,LAKE CUMBERLAND REGIONAL HOSPITAL
5.68,2.10,37.56166,-83.37202,25952.08,5790.67,0.00,0.00,0.00,KENTUCKY RIVER MEDICAL CENTER
9.56,2.93,38.24802,-85.74464,47803.26,10477.74,0.25,0.81,0.08,UNIVERSITY OF LOUISVILLE HOSPITAL
5.75,2.59,30.20227,-92.01906,26331.56,8566.11,0.50,0.74,0.30,LAFAYETTE GENERAL MEDICAL CENTER
7.29,2.35,30.00890,-91.79475,35021.15,7188.92,0.00,0.00,0.00,DAUTERIVE HOSPITAL
4.60,2.09,29.77956,-90.80568,19855.46,5707.05,0.50,0.74,0.93,THIBODAUX REGIONAL MEDICAL CENTER
5.88,2.24,29.59851,-90.71397,27079.95,6589.21,0.25,0.69,0.69,TERREBONNE GENERAL MEDICAL CENTER
10.39,2.38,30.46813,-90.45814,52482.75,7344.55,0.75,0.71,0.74,NORTH OAKS MEDICAL CENTER LLC
3.81,2.35,30.54354,-92.07608,15406.56,7208.53,0.33,0.74,0.03,OPELOUSAS GENERAL HEALTH SYSTEM
5.41,2.38,31.28258,-92.46060,24432.27,7359.37,0.50,0.65,0.80,CHRISTUS ST FRANCES CABRINI HOSPITAL
4.54,2.18,30.65001,-91.13821,19537.88,6230.53,0.00,0.00,0.00,LANE REGIONAL MEDICAL CENTER
8.33,2.39,31.31451,-92.44997,40887.32,7434.40,0.67,0.40,0.39,RAPIDES REGIONAL MEDICAL CENTER
6.18,2.15,30.21521,-93.22682,28769.48,6039.57,0.50,0.64,0.64,CHRISTUS ST PATRICK HOSPITAL
5.49,2.49,30.01875,-90.19452,24876.81,8006.87,0.67,0.61,0.63,OCHSNER FOUNDATION HOSPITAL
6.48,2.32,29.89089,-90.09395,30477.88,7026.45,0.50,0.65,0.86,WEST JEFFERSON MEDICAL CENTER
6.39,2.23,30.28456,-89.77038,29955.84,6513.37,0.50,0.82,0.38,SLIDELL MEMORIAL HOSPITAL AND MEDICAL CENTER
6.66,2.34,32.49443,-93.75011,31452.24,7110.38,0.50,0.69,0.14,CHRISTUS SCHUMPERT HEALTH SYSTEM
2.39,2.18,30.22762,-92.36253,7406.92,6227.92,0.00,0.00,0.00,AMERICAN LEGION HOSPITAL
7.11,2.27,30.46834,-90.11383,34011.92,6761.58,0.50,0.70,0.08,ST TAMMANY PARISH HOSPITAL
7.61,2.48,29.92596,-90.09191,36829.40,7910.77,0.67,0.68,0.64,TOURO INFIRMARY
3.41,2.11,30.23913,-92.66205,13187.18,5844.50,0.00,0.00,0.00,JENNINGS AMERICAN LEGION HOSPITAL
6.62,2.17,29.98815,-91.78471,31243.93,6177.64,0.00,0.00,0.00,IBERIA GENERAL HOSPITAL AND MEDICAL CENTER
5.84,2.34,30.20458,-93.19774,26845.35,7123.88,0.50,0.80,0.07,LAKE CHARLES MEMORIAL HOSPITAL
4.32,2.32,30.40118,-91.11160,18290.88,7009.31,0.83,0.51,0.33,OUR LADY OF THE LAKE REGIONAL MEDICAL CENTER
3.67,2.46,30.45015,-91.15273,14620.29,7804.49,0.33,0.76,0.38,BATON ROUGE GENERAL MEDICAL CENTER
6.02,2.30,32.51544,-92.63343,27848.17,6937.02,0.50,0.64,0.21,NORTHERN LOUISIANA MEDICAL CENTER
3.59,2.85,32.48177,-93.76264,14186.75,10019.21,1.00,0.80,0.00,LSU HEALTH SCIENCES CENTER - SHREVEPORT
4.97,2.28,30.15052,-92.03698,21978.07,6780.24,0.50,0.71,0.58,OUR LADY OF LOURDES REGIONAL MEDICAL CENTER INC
5.77,2.30,32.48393,-93.77884,26446.13,6933.54,0.50,0.64,0.63,WILLIS KNIGHTON MEDICAL CENTER
2.71,2.36,32.77541,-91.91736,9233.47,7248.00,0.00,0.00,0.00,MOREHOUSE GENERAL HOSPITAL
5.69,2.35,32.49997,-92.11359,25985.96,7208.58,0.67,0.62,0.99,ST FRANCIS MEDICAL CENTER
5.04,2.35,32.61700,-93.28566,22336.75,7187.19,0.50,0.85,0.86,MINDEN MEDICAL CENTER
4.41,2.21,30.01438,-90.18155,18822.86,6415.23,0.67,0.69,0.74,EAST JEFFERSON GENERAL HOSPITAL
6.56,2.22,32.51315,-92.15713,30880.69,6454.25,0.00,0.00,0.00,GLENWOOD REGIONAL MEDICAL CENTER
4.05,2.29,30.68494,-92.26601,16772.31,6856.44,0.00,0.00,0.00,MERCY REGIONAL MEDICAL CENTER
14.51,3.03,29.95570,-90.07587,75697.07,11039.43,0.33,0.41,0.00,TULANE MEDICAL CENTER
9.21,2.32,30.47547,-90.10091,45832.79,7009.08,0.50,0.68,0.38,LAKEVIEW REGIONAL MEDICAL CENTER
4.26,2.20,30.43973,-91.00727,17961.54,6374.46,0.50,0.69,0.33,OCHSNER MEDICAL CENTER-BATON ROUGE
7.09,2.38,30.19775,-92.07724,33916.68,7388.95,0.50,0.89,0.74,THE REGIONAL MEDICAL CENTER OF ACADIANA
4.77,2.22,32.55761,-93.71874,20810.77,6464.57,0.50,0.89,0.94,WILLIS KNIGHTON BOSSIER HEALTH CENTER
3.99,2.24,44.81469,-68.77153,16421.07,6581.15,0.00,0.00,0.00,ST JOSEPH HOSPITAL
4.18,2.86,44.02611,-69.52811,17518.47,10076.40,0.00,0.00,0.00,MILES MEMORIAL HOSPITAL (LINCOLN COUNTY HEALTHCARE
3.55,2.24,43.65159,-70.26482,13962.46,6570.12,0.00,0.00,0.00,MERCY HOSPITAL
4.63,2.66,43.65325,-70.27533,20009.62,8935.72,0.17,0.47,0.01,MAINE MEDICAL CENTER
4.15,2.26,43.47840,-70.49221,17351.27,6682.78,0.00,0.00,0.00,SOUTHERN MAINE MEDICAL CENTER
5.58,2.38,53.96230,-1.08188,25405.47,7365.05,0.00,0.00,0.00,YORK HOSPITAL
4.08,2.29,43.90901,-69.89611,16913.93,6870.10,0.00,0.00,0.00,MID COAST HOSPITAL
3.85,2.35,44.10107,-70.21432,15627.87,7205.79,0.67,0.70,0.58,CENTRAL MAINE MEDICAL CENTER
3.22,2.26,35.79154,-78.78112,12065.79,6689.43,0.00,0.00,0.00,CARY MEDICAL CENTER
3.85,2.46,44.80988,-68.74929,15614.52,7809.76,0.50,0.59,0.38,EASTERN MAINE MEDICAL CENTER
4.13,2.42,44.10276,-70.20093,17199.56,7569.63,0.00,0.00,0.00,ST MARYS REGIONAL MEDICAL CENTER
4.34,2.60,44.62294,-70.16307,18406.00,8574.29,0.00,0.00,0.00,FRANKLIN MEMORIAL HOSPITAL
4.25,2.40,45.25378,-69.44547,17886.23,7499.68,0.50,0.49,0.51,MAINE GENERAL MEDICAL CENTER
3.54,2.24,43.44850,-70.76743,13905.55,6576.64,0.00,0.00,0.00,HENRIETTA D GOODALL HOSPITAL
4.08,2.35,44.54695,-68.41654,16932.53,7203.07,0.00,0.00,0.00,MAINE COAST MEMORIAL HOSPITAL
4.00,2.47,44.14436,-69.08577,16500.03,7885.00,0.00,0.00,0.00,PENOBSCOT BAY MEDICAL CENTER
2.70,2.61,39.62183,-77.68219,9165.48,8630.13,0.00,0.00,0.00,MERITUS MEDICAL CENTER
4.03,3.85,39.28817,-76.62438,16653.12,15664.00,0.00,0.00,0.00,UNIVERSITY OF MARYLAND MEDICAL CENTER
3.42,3.28,38.93090,-76.92161,13200.20,12408.05,0.00,0.00,0.00,PRINCE GEORGES HOSPITAL CENTER
3.04,2.93,39.01578,-77.03591,11064.34,10440.38,0.00,0.00,0.00,HOLY CROSS HOSPITAL
2.98,2.87,39.42366,-77.41386,10746.76,10123.63,0.00,0.00,0.00,FREDERICK MEMORIAL HOSPITAL
2.96,2.85,39.54345,-76.09153,10653.50,10014.19,0.00,0.00,0.00,HARFORD MEMORIAL HOSPITAL
2.82,2.72,39.38813,-76.61068,9866.95,9297.35,0.00,0.00,0.00,SAINT JOSEPH MEDICAL CENTER
4.21,4.03,39.29297,-76.61314,17689.75,16628.31,0.00,0.00,0.00,MERCY MEDICAL CENTER INC
5.19,4.96,39.29688,-76.59242,23181.71,21886.17,0.00,0.00,0.00,JOHNS HOPKINS HOSPITAL THE
2.94,2.83,39.27352,-76.67219,10519.12,9891.75,0.00,0.00,0.00,SAINT AGNES HOSPITAL
3.11,2.99,39.35262,-76.66196,11464.31,10795.81,0.00,0.00,0.00,SINAI HOSPITAL OF BALTIMORE
3.47,3.32,39.28833,-76.64912,13475.57,12667.00,0.00,0.00,0.00,BON SECOURS HOSPITAL
2.92,2.81,39.35169,-76.47919,10378.49,9783.34,0.00,0.00,0.00,FRANKLIN SQUARE HOSPITAL CENTER
3.22,3.10,38.98482,-77.00139,12074.14,11401.08,0.00,0.00,0.00,WASHINGTON ADVENTIST HOSPITAL
2.46,2.39,39.41339,-79.40103,7835.82,7396.14,0.00,0.00,0.00,GARRETT COUNTY MEMORIAL HOSPITAL
3.11,2.99,39.15402,-77.05431,11483.37,10794.47,0.00,0.00,0.00,MONTGOMERY GENERAL HOSPITAL INC
2.71,2.62,38.36248,-75.59799,9229.31,8704.48,0.00,0.00,0.00,PENINSULA REGIONAL MEDICAL CENTER
2.76,2.67,38.99743,-77.11048,9509.47,8990.42,0.00,0.00,0.00,SUBURBAN HOSPITAL
2.79,2.70,38.99014,-76.53398,9688.79,9149.15,0.00,0.00,0.00,ANNE ARUNDEL MEDICAL CENTER
3.03,2.92,39.32930,-76.61432,11003.53,10424.37,0.00,0.00,0.00,UNION MEMORIAL HOSPITAL
3.41,3.27,39.64928,-78.73206,13136.46,12348.30,0.00,0.00,0.00,WESTERN MARYLAND REGIONAL MEDICAL CENTER
2.53,2.44,38.29124,-76.63579,8208.37,7715.83,0.00,0.00,0.00,SAINT MARY'S HOSPITAL
3.87,3.71,39.29100,-76.54623,15769.17,14840.19,0.00,0.00,0.00,JOHNS HOPKINS BAYVIEW MEDICAL CENTER
2.41,2.33,39.21770,-76.06494,7542.80,7090.33,0.00,0.00,0.00,CHESTER RIVER HOSPITAL CENTER
2.67,2.58,39.60859,-75.83201,9019.69,8478.51,0.00,0.00,0.00,UNION HOSPITAL OF CECIL COUNTY
2.74,2.64,39.55808,-76.99107,9387.27,8842.88,0.00,0.00,0.00,CARROLL HOSPITAL CENTER
3.12,3.00,39.25189,-76.61399,11540.89,10867.84,0.00,0.00,0.00,HARBOR HOSPITAL
2.70,2.60,38.52905,-76.97068,9180.34,8629.49,0.00,0.00,0.00,CIVISTA MEDICAL CENTER
2.88,2.77,38.76970,-76.07697,10172.64,9578.59,0.00,0.00,0.00,MEMORIAL HOSPITAL AT EASTON
3.66,3.50,39.29994,-76.62138,14572.12,13697.82,0.00,0.00,0.00,MARYLAND GENERAL  HOSPITAL
2.68,2.58,38.55963,-76.59455,9030.22,8488.40,0.00,0.00,0.00,CALVERT MEMORIAL HOSPITAL
2.81,2.71,39.35852,-76.78208,9792.20,9219.50,0.00,0.00,0.00,NORTHWEST HOSPITAL CENTER
2.73,2.63,39.13732,-76.62228,9305.91,8775.33,0.00,0.00,0.00,BALTIMORE WASHINGTON  MEDICAL CENTER
2.77,2.67,39.39017,-76.62216,9541.82,8991.35,0.00,0.00,0.00,GREATER BALTIMORE MEDICAL CENTER
2.87,2.77,39.21273,-76.88526,10149.81,9554.26,0.00,0.00,0.00,HOWARD COUNTY GENERAL HOSPITAL
2.36,2.29,39.51870,-76.34688,7226.74,6840.38,0.00,0.00,0.00,UPPER CHESAPEAKE MEDICAL CENTER
2.77,2.68,38.96851,-76.86203,9567.26,9041.78,0.00,0.00,0.00,DOCTORS'  COMMUNITY HOSPITAL
2.71,2.61,38.74827,-76.87590,9231.38,8677.52,0.00,0.00,0.00,SOUTHERN MARYLAND HOSPITAL CENTER
2.68,2.58,39.08690,-76.88163,9045.18,8502.35,0.00,0.00,0.00,LAUREL REGIONAL MEDICAL CENTER
2.60,2.51,39.35962,-76.58851,8609.21,8122.02,0.00,0.00,0.00,GOOD SAMARITAN HOSPITAL
2.70,2.61,39.09796,-77.19799,9158.39,8651.40,0.00,0.00,0.00,SHADY GROVE ADVENTIST HOSPITAL
2.25,2.19,38.33876,-75.21128,6631.11,6281.09,0.00,0.00,0.00,ATLANTIC GENERAL HOSPITAL
4.08,2.50,42.54113,-71.76120,16918.04,8010.46,0.50,0.65,0.64,HEALTHALLIANCE HOSPITALS INC
3.95,2.60,42.37441,-71.13378,16225.45,8603.48,0.67,0.85,0.17,MOUNT AUBURN HOSPITAL
3.22,2.35,41.94236,-71.27364,12116.33,7215.37,0.50,0.66,0.14,STURDY MEMORIAL HOSPITAL
4.38,2.65,42.70912,-71.14877,18600.52,8858.02,0.50,0.71,0.80,LAWRENCE GENERAL HOSPITAL
4.48,2.98,42.37451,-71.10418,19213.88,10737.94,0.50,0.88,0.94,CAMBRIDGE HEALTH ALLIANCE
3.55,2.72,41.65298,-70.27484,13979.42,9271.11,0.50,0.56,0.96,CAPE COD HOSPITAL
3.99,2.30,42.33185,-72.65422,16430.10,6915.90,0.50,0.88,0.89,COOLEY DICKINSON HOSPITAL INCTHE
4.17,2.32,42.59584,-72.59255,17465.29,7022.17,0.00,0.00,0.00,BAYSTATE FRANKLIN MEDICAL CENTER
3.67,3.06,42.27872,-71.06625,14650.20,11165.80,0.00,0.00,0.00,CARNEY HOSPITAL
3.62,2.59,42.07708,-72.04298,14344.53,8528.67,0.00,0.00,0.00,HARRINGTON MEMORIAL HOSPITAL
3.54,2.55,41.69217,-71.16474,13885.53,8302.67,0.50,1.00,0.86,SAINT ANNE'S HOSPITAL
3.18,2.42,42.20038,-72.62762,11846.50,7609.65,0.00,0.00,0.00,HOLYOKE MEDICAL CENTER
3.10,2.40,42.81476,-70.89068,11395.11,7470.37,0.00,0.00,0.00,ANNA JAQUES HOSPITAL
5.23,3.37,42.35843,-71.05977,23411.21,12955.34,0.67,0.51,0.00,BOSTON MEDICAL CENTER CORPORATION
3.41,2.47,42.56407,-70.87543,13171.46,7871.12,0.50,0.62,0.64,BEVERLY HOSPITAL CORPORATION
6.78,2.52,42.51078,-70.90712,32132.21,8161.48,0.33,0.47,0.70,NORTH SHORE MEDICAL CENTER
4.37,3.08,42.34896,-71.14768,18556.07,11324.02,0.50,0.69,0.58,ST ELIZABETH'S MEDICAL CENTER
3.59,2.62,51.46599,-1.28140,14192.37,8701.45,0.50,0.76,0.20,BERKSHIRE MEDICAL CENTER INC
4.40,2.51,42.35375,-71.55485,18730.27,8109.18,0.00,0.00,0.00,MARLBOROUGH HOSPITAL
3.78,2.35,42.70589,-73.10840,15247.20,7197.13,0.00,0.00,0.00,NORTH ADAMS REGIONAL HOSPITAL
3.65,2.72,42.03597,-71.09792,14543.09,9260.43,0.50,0.61,0.58,SIGNATURE HEALTHCARE BROCKTON HOSPITAL
3.57,2.41,41.94445,-70.64511,14076.30,7528.52,0.50,0.82,0.25,JORDAN HOSPITAL INC
4.33,2.56,42.64636,-71.34118,18319.53,8397.79,0.50,0.88,0.96,LOWELL GENERAL HOSPITAL
3.22,2.16,42.11807,-72.75921,12102.29,6118.14,0.00,0.00,0.00,NOBLE HOSPITAL
3.92,2.53,42.11449,-72.59502,16042.83,8228.11,0.50,0.78,0.76,MERCY MEDICAL CENTER
3.43,2.36,42.25105,-71.01411,13281.19,7267.69,0.00,0.00,0.00,QUINCY MEDICAL CENTER
4.00,2.53,42.46049,-71.06203,16491.23,8192.66,0.50,0.53,0.76,HALLMARK HEALTH SYSTEM
9.65,3.10,42.36227,-71.06941,48295.77,11394.35,0.50,0.44,0.16,MASSACHUSETTS GENERAL HOSPITAL
3.33,2.37,41.90456,-71.09562,12690.38,7328.46,0.50,0.85,0.25,MORTON HOSPITAL
4.12,2.57,41.70928,-71.14519,17141.87,8410.55,0.25,0.51,0.89,SOUTHCOAST HOSPITAL GROUP INC
4.45,2.83,42.12077,-72.60525,19043.96,9912.91,0.33,0.61,0.83,BAYSTATE MEDICAL CENTER
3.80,2.47,42.72846,-71.16830,15368.97,7886.93,0.50,0.74,0.33,HOLY FAMILY HOSPITAL
3.53,2.41,42.64529,-71.30052,13830.86,7532.83,0.00,0.00,0.00,SAINTS  MEDICAL CENTER INC
4.34,2.32,42.43082,-71.37554,18383.20,7052.92,0.50,0.44,0.58,EMERSON HOSPITAL
5.35,3.17,42.33719,-71.10939,24096.37,11787.61,0.33,0.71,0.33,BETH ISRAEL DEACONESS MEDICAL CENTER
4.19,2.41,42.13234,-71.52825,17552.36,7544.19,0.50,0.71,0.96,MILFORD REGIONAL MEDICAL CENTER
4.20,2.39,42.17644,-70.95398,17628.31,7421.55,0.67,0.70,0.48,SOUTH SHORE HOSPITAL
5.72,2.37,42.33149,-71.24568,26171.72,7293.16,0.67,0.70,0.99,NEWTON-WELLESLEY HOSPITAL
3.06,2.33,42.46581,-71.12210,11186.70,7091.24,0.50,0.59,0.25,WINCHESTER HOSPITAL
3.93,2.39,42.25232,-71.07515,16092.89,7422.44,0.00,0.00,0.00,MILTON HOSPITAL INC
8.64,2.96,42.33600,-71.10704,42633.83,10611.35,0.67,0.40,0.20,BRIGHAM AND WOMEN'S HOSPITAL
3.09,2.63,42.09864,-71.06607,11378.78,8759.62,0.50,0.59,0.93,GOOD SAMARITAN MEDICAL CENTER
5.59,3.24,42.34951,-71.06331,25461.52,12194.67,0.50,0.64,0.86,TUFTS MEDICAL CENTER
5.89,2.69,42.30049,-71.12771,27138.00,9132.23,0.50,0.96,0.03,FAULKNER HOSPITAL
3.49,2.35,42.18869,-71.20197,13594.67,7168.79,0.50,0.78,0.82,NORWOOD HOSPITAL
3.55,2.39,41.56412,-70.62200,13960.98,7417.27,0.50,0.69,0.94,FALMOUTH HOSPITAL
5.87,5.78,42.27720,-71.75922,27022.93,26510.16,0.50,0.36,0.30,UMASS MEMORIAL MEDICAL CENTER INC
3.82,2.53,42.48585,-71.20686,15498.10,8180.17,0.67,0.76,0.16,LAHEY CLINIC HOSPITAL
3.46,2.36,42.76256,-71.04507,13441.53,7275.12,0.00,0.00,0.00,MERRIMACK VALLEY HOSPITAL
4.07,2.52,42.28385,-71.41896,16872.60,8153.77,0.50,0.76,0.86,METROWEST MEDICAL CENTER
3.28,2.63,42.26633,-71.79760,12433.03,8784.03,0.33,0.75,0.58,ST VINCENT HOSPITAL
4.19,2.27,42.39466,-83.40537,17558.29,6746.75,0.50,0.60,0.64,ST MARY MERCY HOSPITAL
3.07,2.29,43.20588,-86.20839,11258.37,6843.08,0.50,0.76,0.58,MERCY HEALTH PARTNERS MERCY CAMPUS
4.91,2.24,41.91313,-84.04966,21629.84,6598.11,0.00,0.00,0.00,EMMA L BIXBY MEDICAL CENTER
3.32,2.24,41.93393,-85.64715,12678.38,6588.38,0.00,0.00,0.00,THREE RIVERS HEALTH
4.72,2.58,42.28551,-85.58042,20554.88,8470.77,0.67,0.82,0.14,BRONSON METHODIST HOSPITAL
5.50,2.60,42.45741,-83.20513,24956.64,8591.45,0.83,0.57,0.48,PROVIDENCE HOSPITAL AND MEDICAL CENTERS
5.15,2.54,42.29077,-83.21504,22958.29,8259.65,0.33,0.49,0.70,OAKWOOD HOSPITAL AND MEDICAL CENTER
3.77,2.34,42.08955,-86.47781,15165.30,7154.56,0.33,0.69,0.89,LAKELAND HOSPITAL ST JOSEPH
3.31,2.29,41.93815,-84.98935,12611.95,6854.52,0.00,0.00,0.00,COMMUNITY HEALTH CENTER OF BRANCH COUNTY
4.24,2.84,42.41911,-83.18228,17861.49,9933.16,0.83,0.46,0.21,SINAI-GRACE HOSPITAL
4.64,2.62,42.61425,-83.27602,20082.51,8686.91,0.67,0.53,0.80,ST JOSEPH MERCY OAKLAND
3.39,2.72,43.39166,-84.66140,13036.25,9285.38,0.00,0.00,0.00,MIDMICHIGAN MEDICAL CENTER-GRATIOT
3.31,2.25,42.95582,-82.43222,12606.44,6626.69,0.50,0.89,0.80,ST JOSEPH MERCY PORT HURON
3.19,2.26,43.17554,-85.26879,11913.00,6700.77,0.00,0.00,0.00,SPECTRUM HEALTH UNITED MEMORIAL - UNITED CAMPUS
5.03,2.44,45.07773,-83.45146,22266.06,7711.88,0.00,0.00,0.00,ALPENA REGIONAL MEDICAL CENTER
3.85,2.56,42.96881,-85.66649,15623.37,8403.65,0.33,0.66,0.83,SPECTRUM HEALTH - BUTTERWORTH CAMPUS
2.92,2.30,42.64303,-85.30706,10387.16,6928.26,0.00,0.00,0.00,PENNOCK HOSPITAL
5.09,2.25,43.58941,-83.86908,22627.34,6610.63,0.33,0.55,0.99,MCLAREN BAY REGION
7.95,3.28,42.28388,-83.72960,38730.44,12405.62,0.50,0.61,0.43,UNIVERSITY OF MICHIGAN HEALTH SYSTEM
3.90,2.39,42.61490,-82.96060,15929.23,7395.62,0.50,0.66,0.54,HENRY FORD MACOMB HOSPITAL
7.16,2.96,42.36762,-83.08461,34296.88,10654.53,0.67,0.47,0.08,HENRY FORD HOSPITAL
3.27,2.45,46.54758,-87.39560,12362.19,7750.70,0.83,0.68,0.48,MARQUETTE GENERAL HOSPITAL
4.36,2.29,45.80941,-88.04422,18536.75,6830.00,0.00,0.00,0.00,DICKINSON COUNTY MEMORIAL HOSPITAL
3.58,2.28,44.66805,-84.70733,14113.80,6796.87,0.00,0.00,0.00,MERCY HOSPITAL - GRAYLING
3.20,2.51,42.95817,-85.66253,11955.00,8113.78,0.50,0.54,0.91,SAINT MARY'S HEALTH CARE
3.11,2.35,43.22169,-86.24283,11460.68,7200.23,0.00,0.00,0.00,MERCY HEALTH PARTNERS HACKLEY CAMPUS
4.27,2.42,42.61504,-83.93929,18005.50,7569.12,0.00,0.00,0.00,SAINT JOSEPH MERCY LIVINGSTON HOSPITAL
4.33,2.38,43.42857,-83.95556,18345.76,7339.06,0.83,0.61,0.64,COVENANT MEDICAL CENTER INC
3.24,2.30,42.77487,-86.11378,12222.74,6909.11,0.00,0.00,0.00,HOLLAND COMMUNITY HOSPITAL
3.70,2.33,42.33111,-85.17817,14806.10,7107.62,0.50,0.84,0.64,BRONSON BATTLE CREEK HOSPITAL
6.36,2.47,43.42612,-83.94185,29772.36,7889.99,0.67,0.64,0.58,ST MARY'S OF MICHIGAN MEDICAL CENTER
3.81,2.13,43.59935,-84.76097,15415.44,5956.11,0.00,0.00,0.00,CENTRAL MICHIGAN COMMUNITY HOSPITAL
3.46,2.27,44.24532,-85.38950,13472.05,6720.89,0.00,0.00,0.00,MERCY HOSPITAL - CADILLAC
3.77,2.26,42.38392,-82.91480,15211.69,6663.69,0.50,0.62,0.51,BEAUMONT HOSPITAL GROSSE POINTE
4.90,2.34,42.25117,-84.39240,21578.06,7146.92,0.50,0.85,0.99,ALLEGIANCE HEALTH
2.32,2.29,43.69399,-85.47533,7024.08,6881.33,0.00,0.00,0.00,MECOSTA COUNTY MEDICAL CENTER
4.69,2.49,44.76156,-85.64143,20379.08,7962.86,0.50,0.41,0.58,MUNSON MEDICAL CENTER
4.27,2.31,41.91643,-83.39771,17985.54,6960.46,0.50,0.69,0.38,MERCY MEMORIAL HOSPITAL SYSTEM
5.01,3.24,42.35230,-83.05676,22160.22,12210.86,0.67,0.62,0.64,HARPER UNIVERSITY HOSPITAL
3.73,2.39,45.37209,-84.97065,14978.10,7412.24,0.50,0.78,0.25,NORTHERN MICHIGAN REGIONAL HOSPITAL
3.66,2.29,43.46517,-85.95072,14575.62,6874.23,0.00,0.00,0.00,SPECTRUM HEALTH GERBER MEMORIAL
3.44,2.45,43.95934,-86.42921,13313.79,7768.00,0.00,0.00,0.00,MEMORIAL MEDICAL CENTER OF WEST MICHIGAN
5.26,2.50,42.30489,-85.56152,23557.13,8066.70,0.67,0.47,0.76,BORGESS MEDICAL CENTER
4.81,2.35,43.00546,-84.18145,21047.14,7213.86,0.00,0.00,0.00,MEMORIAL HEALTHCARE
5.59,2.60,42.51418,-83.19259,25443.24,8597.48,0.67,0.60,0.16,WILLIAM BEAUMONT HOSPITAL
6.45,3.09,43.02135,-83.70308,30289.39,11386.24,0.67,0.69,0.07,HURLEY MEDICAL CENTER
2.61,2.35,45.03551,-84.67540,8669.80,7170.80,0.00,0.00,0.00,OTSEGO MEMORIAL HOSPITAL
4.65,2.56,43.01399,-83.73250,20126.49,8363.83,0.50,0.60,0.33,MCLAREN FLINT
4.76,2.39,42.27424,-83.36580,20754.90,7419.83,0.50,0.70,0.48,OAKWOOD ANNAPOLIS HOSPITAL
3.98,2.33,42.21065,-83.14861,16374.55,7066.38,0.50,0.70,0.96,HENRY FORD WYANDOTTE HOSPITAL
3.87,2.75,42.46176,-83.37629,15739.15,9426.40,0.50,0.79,0.25,BOTSFORD HOSPITAL
4.02,2.42,42.26181,-83.66003,16580.59,7587.99,0.67,0.62,0.33,ST JOSEPH MERCY HOSPITAL
5.10,2.67,42.41975,-82.91442,22660.32,8994.91,0.67,0.72,0.10,ST JOHN HOSPITAL AND MEDICAL CENTER
5.68,2.50,42.70417,-84.55488,25941.75,8014.82,0.33,0.76,0.21,MCLAREN - GREATER LANSING
5.24,2.45,42.11695,-83.21365,23469.19,7731.81,0.33,0.70,0.80,OAKWOOD SOUTHSHORE MEDICAL CENTER
3.27,2.23,43.82092,-84.76857,12364.21,6506.00,0.00,0.00,0.00,MIDMICHIGAN MEDICAL CENTER-CLARE
4.13,2.26,43.06290,-83.32082,17205.80,6671.07,0.50,0.64,0.91,LAPEER REGIONAL MEDICAL CENTER
4.87,2.42,42.50514,-83.00422,21366.44,7586.77,0.67,0.56,0.86,ST JOHN MACOMB-OAKLAND HOSPITAL-MACOMB CENTER
4.31,2.63,42.89254,-83.63621,18216.60,8751.01,0.67,0.70,0.14,GENESYS REGIONAL MEDICAL CENTER - HEALTH PARK
4.20,2.96,42.63849,-83.29062,17616.94,10633.65,0.75,0.76,0.51,MCLAREN OAKLAND
2.84,2.58,43.17597,-84.84268,9962.67,8468.83,0.00,0.00,0.00,CARSON CITY HOSPITAL
4.39,2.30,42.98625,-82.42802,18684.71,6917.91,0.50,0.62,0.30,PORT HURON HOSPITAL
3.61,2.40,43.63618,-84.26187,14295.89,7499.11,0.50,0.72,0.70,MIDMICHIGAN MEDICAL CENTER-MIDLAND
3.51,2.37,42.58900,-82.89799,13717.32,7280.05,0.67,0.61,0.64,MOUNT CLEMENS REGIONAL MEDICAL CENTER
7.18,2.60,42.73767,-84.51698,34388.29,8596.57,0.83,0.69,0.01,EDWARD W SPARROW HOSPITAL
3.83,2.53,42.85736,-85.71774,15544.45,8230.45,0.50,0.66,0.48,METRO HEALTH HOSPITAL
3.27,2.70,46.43131,-84.28107,12397.20,9161.00,0.00,0.00,0.00,CHIPPEWA COUNTY WAR MEMORIAL HOSPITAL
3.04,2.22,42.78564,-82.48337,11060.00,6445.67,0.00,0.00,0.00,ST JOHN RIVER DISTRICT HOSPITAL
3.58,2.55,42.33215,-83.31195,14096.82,8331.47,0.50,0.82,0.38,GARDEN CITY HOSPITAL
4.45,2.31,42.67850,-83.14771,19000.00,6954.42,0.50,0.65,0.80,CRITTENTON HOSPITAL MEDICAL CENTER
4.06,2.27,42.31028,-84.01594,16840.44,6762.06,0.00,0.00,0.00,CHELSEA COMMUNITY HOSPITAL
5.57,2.32,42.61826,-83.09239,25331.34,7038.74,0.83,0.60,0.63,WILLIAM BEAUMONT HOSPITAL-TROY
4.85,2.30,42.23506,-83.27602,21286.06,6887.35,0.50,0.60,0.93,OAKWOOD HERITAGE HOSPITAL
8.14,3.12,42.35295,-83.05447,39802.49,11539.65,0.67,0.65,0.05,DETROIT RECEIVING HOSPITAL & UNIV HEALTH CENTER
4.43,2.43,42.59290,-83.49920,18902.71,7618.23,0.67,0.49,0.54,HURON VALLEY-SINAI HOSPITAL
5.79,2.18,42.53914,-83.40777,26578.78,6248.68,0.50,0.54,0.39,HENRY FORD WEST BLOOMFIELD HOSPITAL
6.25,2.41,45.01403,-93.32177,29144.32,7531.05,0.67,0.69,0.83,NORTH MEMORIAL MEDICAL CENTER
4.71,2.46,46.79380,-92.09573,20460.73,7830.06,0.83,0.75,0.80,ESSENTIA HEALTH ST MARY'S MEDICAL CENTER
7.41,3.47,44.97210,-93.26240,35677.86,13494.11,0.33,0.38,0.30,HENNEPIN COUNTY MEDICAL CENTER
5.39,2.83,44.02052,-92.48292,24326.01,9899.98,0.83,0.42,0.32,MAYO CLINIC - SAINT MARYS HOSPITAL
3.65,2.27,45.87327,-95.37599,14496.08,6760.75,0.00,0.00,0.00,DOUGLAS COUNTY HOSPITAL
5.27,2.64,45.57390,-94.16942,23624.25,8840.10,0.50,0.61,0.38,ST CLOUD HOSPITAL
7.50,2.43,44.94214,-93.10858,36224.49,7647.42,0.50,0.86,0.33,UNITED HOSPITAL
3.37,2.45,47.41117,-92.93183,12936.58,7746.53,0.00,0.00,0.00,UNIVERSITY MEDICAL CENTER-MESABI/ MESABA CLINICS
3.56,2.29,43.65162,-93.37263,13981.13,6831.27,0.00,0.00,0.00,MAYO CLINIC HEALTH SYSTEM - ALBERT LEA
3.03,2.36,46.79634,-92.08793,11036.72,7244.00,0.50,0.71,0.30,ST LUKES HOSPITAL
4.60,2.34,45.33639,-92.99722,19853.80,7126.60,0.00,0.00,0.00,FAIRVIEW LAKES  HEALTH SERVICES
3.82,2.13,46.27712,-96.07244,15475.70,5950.90,0.00,0.00,0.00,LAKE REGION HEALTHCARE CORPORATION
3.14,2.34,44.93031,-93.36276,11633.15,7113.87,0.67,0.72,0.94,PARK NICOLLET METHODIST HOSPITAL
3.93,2.23,44.84294,-93.79336,16068.48,6536.84,0.00,0.00,0.00,RIDGEVIEW MEDICAL CENTER
6.97,2.56,44.95248,-93.26196,33238.41,8397.28,0.50,0.70,0.64,ABBOTT NORTHWESTERN HOSPITAL
6.37,2.56,44.94898,-93.10016,29853.41,8397.76,0.33,0.66,0.58,ST JOSEPH'S HOSPITAL
2.79,2.23,47.22110,-93.55229,9696.69,6531.12,0.00,0.00,0.00,GRAND ITASCA CLINIC AND HOSPITAL
4.00,2.32,46.36166,-94.20573,16487.81,7010.61,0.00,0.00,0.00,ESSENTIA HEALTH ST JOSEPH'S MEDICAL CENTER
5.11,2.25,44.88645,-93.32693,22720.79,6612.17,0.67,0.62,0.94,FAIRVIEW SOUTHDALE HOSPITAL
7.04,3.05,44.96766,-93.23640,33601.30,11138.61,0.67,0.56,0.58,UNIVERSITY OF MINNESOTA  MEDICAL CENTER FAIRVIEW
3.44,2.31,47.53102,-92.55580,13320.93,6983.14,0.00,0.00,0.00,VIRGINIA REGIONAL MEDICAL CENTER
3.90,2.58,45.11989,-95.04525,15910.58,8472.00,0.00,0.00,0.00,RICE MEMORIAL HOSPITAL
4.78,2.60,44.16396,-94.00412,20873.29,8585.85,0.50,0.57,0.76,MAYO CLINIC HEALTH SYSTEM - MANKATO
4.41,2.42,47.50390,-94.89776,18821.21,7615.53,0.00,0.00,0.00,SANFORD BEMIDJI MEDICAL CENTER
5.73,2.32,44.77252,-93.50323,26250.18,7047.71,0.00,0.00,0.00,ST FRANCIS REGIONAL MEDICAL CENTER
6.16,2.79,44.95570,-93.09429,28671.06,9688.90,0.50,0.79,0.17,REGIONS HOSPITAL
6.34,2.40,45.18355,-93.36789,29674.90,7465.45,0.50,0.74,0.96,MERCY HOSPITAL
3.74,2.30,43.67462,-92.97732,15012.91,6887.27,0.00,0.00,0.00,MAYO CLINIC HEALTH SYSTEM - AUSTIN
5.70,2.27,45.10789,-93.25685,26079.79,6732.00,0.33,0.85,0.86,UNITY HOSPITAL
3.87,2.70,43.63765,-94.44962,15741.75,9160.42,0.00,0.00,0.00,MAYO CLINIC HEALTH SYSTEM - FAIRMONT
6.09,2.85,44.74846,-93.27289,28264.63,9982.95,0.50,0.84,0.97,FAIRVIEW RIDGES HOSPITAL
5.34,2.41,45.02892,-93.03418,24038.02,7537.54,0.50,0.75,0.25,HEALTHEAST ST JOHN'S HOSPITAL
6.42,2.63,44.91542,-92.94757,30101.55,8766.36,0.00,0.00,0.00,HEALTHEAST WOODWINDS HOSPITAL
5.75,2.78,32.33069,-90.17030,26318.99,9643.06,0.67,0.51,0.07,UNIVERSITY OF MISSISSIPPI MED CENTER
3.75,2.12,34.80355,-88.20905,15081.00,5886.55,0.00,0.00,0.00,TISHOMINGO HEALTH SERVICES INC
4.55,2.30,34.24336,-88.71753,19595.95,6918.48,0.67,0.61,0.48,NORTH MISSISSIPPI MEDICAL CENTER
10.81,2.34,30.39599,-88.89061,54865.22,7160.00,0.50,0.80,0.48,BILOXI REGIONAL MEDICAL CENTER
8.81,2.25,34.93596,-88.55955,43586.17,6634.68,0.50,0.72,0.80,MAGNOLIA REGIONAL HEALTH CENTER
2.58,2.36,34.72982,-88.95062,8513.20,7243.87,0.00,0.00,0.00,TIPPAH COUNTY HOSPITAL
4.34,2.21,33.76246,-89.81743,18381.76,6412.55,0.00,0.00,0.00,GRENADA LAKE MEDICAL CENTER
8.24,2.29,30.36674,-89.11535,40381.99,6863.19,0.50,0.66,0.69,MEMORIAL HOSPITAL AT GULFPORT
5.14,2.15,33.97458,-88.47761,22925.74,6054.43,0.00,0.00,0.00,GILMORE MEMORIAL HOSPITAL
7.63,2.36,32.35265,-90.87788,36929.11,7270.61,0.50,0.80,0.38,RIVER REGION HEALTH SYSTEM
4.32,2.26,34.34899,-89.52062,18304.43,6704.39,0.50,0.69,0.25,BAPTIST MEMORIAL HOSPITAL NORTH MS
7.37,2.27,30.37516,-88.53226,35448.82,6726.06,0.50,0.70,0.03,SINGING RIVER HOSPITAL
6.77,2.60,34.19610,-90.55208,32086.90,8587.51,0.00,0.00,0.00,NORTHWEST MISSISSIPPI REGIONAL MEDICAL CENTER
5.60,2.22,32.33616,-90.15652,25472.96,6458.53,0.50,0.60,0.45,ST DOMINIC-JACKSON MEMORIAL HOSPITAL
2.44,2.13,31.14529,-90.45945,7689.15,5964.46,0.00,0.00,0.00,BEACHAM MEMORIAL HOSPITAL
3.75,2.28,33.47600,-88.82100,15054.17,6795.00,0.00,0.00,0.00,OCH REGIONAL MEDICAL CENTER
3.34,2.26,31.57544,-90.45670,12796.67,6679.00,0.00,0.00,0.00,KING'S DAUGHTERS MEDICAL CENTER-BROOKHAVEN
4.39,2.21,31.69405,-89.13061,18683.55,6418.79,0.50,0.72,0.16,SOUTH CENTRAL REG MED CTR
3.36,2.28,33.06583,-89.59815,12887.00,6788.40,0.00,0.00,0.00,MONTFORT JONES MEMORIAL HOSPITAL
5.16,2.33,32.36983,-88.69702,23041.12,7107.12,0.50,0.84,0.05,RUSH FOUNDATION HOSPITAL
8.34,2.33,32.28805,-90.25566,40945.74,7079.67,0.50,0.81,0.08,CENTRAL MISSISSIPPI MEDICAL CENTER
3.98,2.29,31.31872,-89.32955,16369.27,6873.54,0.50,0.57,0.54,FORREST GENERAL HOSPITAL
6.61,2.07,31.56671,-91.38800,31191.44,5608.62,0.00,0.00,0.00,NATCHEZ REGIONAL MEDICAL CENTER
5.69,2.17,33.74750,-90.71908,26025.67,6189.00,0.00,0.00,0.00,BOLIVAR MEDICAL CENTER
7.05,2.28,31.32573,-89.36670,33637.08,6781.73,0.50,0.56,0.20,WESLEY MEDICAL CENTER
9.38,2.18,32.28618,-90.03434,46776.25,6240.67,0.50,0.69,0.07,CROSSGATES RIVER OAKS HOSPITAL
3.43,2.30,31.24000,-90.45000,13249.33,6925.70,0.50,0.84,0.82,SOUTHWEST MS REGIONAL MEDICAL CENTER
4.89,2.35,33.51824,-90.19832,21515.98,7203.55,0.00,0.00,0.00,GREENWOOD LEFLORE HOSPITAL
5.31,2.29,33.52568,-88.42742,23871.19,6852.15,0.50,0.68,0.54,BAPTIST MEM HOSP/GOLDEN TRIANGLE INC
5.32,2.13,32.31643,-90.17922,23911.03,5963.42,0.67,0.44,0.86,MISSISSIPPI BAPTIST MEDICAL CENTER
4.26,2.20,32.37280,-88.69954,17952.00,6329.75,0.50,0.78,0.39,ANDERSON REGIONAL MEDICAL CENTER
7.31,2.21,31.56044,-91.40317,35132.67,6396.92,0.00,0.00,0.00,NATCHEZ COMMUNITY HOSPITAL/SWING BED
9.09,2.29,32.32541,-90.10520,45153.85,6843.31,0.00,0.00,0.00,RIVER OAKS HOSPITAL
5.17,2.28,34.96927,-89.99709,23096.45,6815.84,0.50,0.69,0.11,BAPTIST MEMORIAL HOSPITAL DESOTO
5.08,2.23,37.06032,-94.52747,22580.60,6505.90,0.00,0.00,0.00,ST JOHN'S REGIONAL MEDICAL CENTER
5.38,2.26,38.78060,-90.48379,24261.04,6689.51,0.50,0.76,0.38,SSM ST JOSEPH HEALTH CENTER
4.96,2.61,39.77393,-94.77089,21879.23,8641.56,0.50,0.59,0.51,HEARTLAND REGIONAL MEDICAL CENTER
3.93,2.21,38.69946,-93.22211,16100.06,6416.17,0.50,0.82,0.64,BOTHWELL REGIONAL HEALTH CENTER
4.82,2.13,38.57670,-92.17352,21079.93,5940.29,0.50,0.86,0.01,ST MARYS HEALTH CENTER
4.69,2.06,36.23658,-90.04315,20395.07,5559.80,0.00,0.00,0.00,TWIN RIVERS REGIONAL MEDICAL CENTER
5.07,2.54,37.95144,-91.75940,22494.54,8286.04,0.50,0.89,0.48,PHELPS COUNTY REGIONAL MEDICAL CENTER
5.51,2.22,38.64281,-90.44448,24998.04,6475.05,0.83,0.57,0.74,MERCY HOSPITAL ST LOUIS
6.54,2.62,40.19296,-92.59085,30806.58,8726.58,0.00,0.00,0.00,NORTHEAST REGIONAL MEDICAL CENTER
3.46,2.19,38.16498,-90.38082,13435.97,6311.17,0.50,0.84,0.83,JEFFERSON REGIONAL MEDICAL CENTER
3.73,2.38,37.31623,-91.96105,14979.93,7377.27,0.00,0.00,0.00,TEXAS COUNTY MEMORIAL HOSPITAL
3.59,2.41,39.71116,-91.45071,14202.22,7554.33,0.00,0.00,0.00,HANNIBAL REGIONAL HOSPITAL
11.82,2.40,39.00717,-94.55925,60523.55,7479.42,0.33,0.82,0.05,RESEARCH MEDICAL CENTER
5.15,2.59,38.63524,-90.26508,22953.77,8551.67,0.50,0.56,0.12,BARNES JEWISH HOSPITAL
4.05,2.27,37.14560,-93.28037,16744.05,6731.09,0.50,0.61,0.86,COX MEDICAL CENTER
3.94,2.29,38.56571,-92.18204,16151.10,6882.85,0.50,0.84,0.58,CAPITAL REGION MEDICAL CENTER
6.05,3.20,39.08401,-94.57591,28046.57,11976.57,0.33,0.59,0.02,TRUMAN MEDICAL CENTER HOSPITAL HILL
4.56,2.14,38.55199,-91.00029,19619.29,6013.42,0.50,0.90,0.58,MERCY HOSPITAL WASHINGTON
3.27,2.42,37.68142,-92.63587,12353.08,7577.00,0.00,0.00,0.00,ST JOHNS HOSPITAL-LEBANON
6.89,2.49,39.24809,-94.64928,32763.23,7971.23,0.00,0.00,0.00,ST LUKES NORTHLAND HOSPITAL
3.82,2.26,39.17288,-91.87692,15468.36,6690.71,0.00,0.00,0.00,AUDRAIN MEDICAL CENTER
4.92,2.24,37.17999,-93.27409,21664.15,6596.10,0.67,0.61,0.25,ST JOHN'S REGIONAL HEALTH CENTER
4.29,2.11,38.94903,-92.31563,18098.93,5837.63,0.67,0.74,0.43,BOONE HOSPITAL CENTER
4.19,2.08,38.50661,-90.38025,17578.43,5672.92,0.67,0.57,0.14,ST ANTHONY'S MEDICAL CENTER
3.98,2.29,36.73801,-91.87553,16394.00,6846.33,0.00,0.00,0.00,OZARKS MEDICAL CENTER
6.61,2.16,38.52738,-90.47501,31206.44,6133.76,0.50,0.65,0.45,SSM ST CLARE HEALTH CENTER
6.67,2.36,38.93592,-94.60376,31529.11,7223.09,0.50,0.75,0.89,ST JOSEPH MEDICAL CENTER
6.09,2.62,38.63268,-90.31089,28264.77,8695.92,0.83,0.78,0.58,SSM ST MARYS HEALTH CENTER
4.11,2.22,36.64970,-93.22138,17091.27,6435.66,0.50,0.71,0.80,SKAGGS REGIONAL MEDICAL CENTER
9.29,2.22,39.04749,-94.34105,46281.85,6437.04,0.50,0.72,0.39,CENTERPOINT MEDICAL CENTER OF INDEPENDENCE LLC
5.01,2.14,39.14957,-94.55148,22183.66,6022.38,0.50,0.59,0.64,NORTH KANSAS CITY HOSPITAL
7.23,2.34,38.75097,-90.43255,34689.64,7110.45,0.67,0.69,0.43,SSM DEPAUL HEALTH CENTER
7.85,2.98,38.62280,-90.24049,38156.68,10715.07,0.50,0.46,0.05,ST LOUIS UNIVERSITY HOSPITAL
3.69,2.09,38.63702,-90.44699,14761.10,5740.48,0.67,0.69,0.48,MISSOURI BAPTIST MEDICAL CENTER
5.42,2.18,37.31072,-89.53990,24472.70,6258.45,0.50,0.72,0.08,SOUTHEAST MISSOURI HOSPITAL
4.51,2.33,36.88988,-89.58365,19368.53,7079.59,0.00,0.00,0.00,MISSOURI DELTA MEDICAL CENTER
