size_charge,size_pay,lat,lon,state,charge,pay,AcquiredInfect,AcquiredConditions,PatientSafetySummary,name
6.54,2.42,32.32785,-86.27750,AL,15000,4000,50,67,54,Baptist Medical Center South
5.55,2.16,32.36656,-86.28572,AL,13000,4000,50,68,82,Jackson Hospital & Clinic Inc
8.27,2.05,33.66767,-85.83420,AL,20000,3000,0,0,0,Stringfellow Memorial Hospital
7.97,2.32,34.72007,-86.58108,AL,19000,4000,50,65,44,Huntsville Hospital
4.35,2.03,33.50734,-86.78958,AL,9000,3000,50,72,21,St Vincent'S Birmingham
4.63,2.12,33.65640,-85.82284,AL,10000,3000,50,60,5,Northeast Alabama Regional Med Center
6.41,2.27,33.20521,-87.52546,AL,15000,4000,66,66,21,D C H Regional Medical Center
5.49,2.11,30.69697,-88.08081,AL,12000,3000,66,55,24,Mobile Infirmary
8.86,2.47,32.43020,-87.05515,AL,21000,4000,50,91,32,Vaughan Reg Med Center Parkway Campus
15.36,2.03,33.46420,-86.77409,AL,39000,3000,50,65,29,Brookwood Medical Center
8.06,2.74,33.46514,-112.05797,AZ,19000,5000,50,48,69,Banner Good Samaritan Medical Center
6.91,2.48,32.25294,-110.88135,AZ,16000,4000,50,48,3,Tucson Medical Center
10.19,2.33,32.22734,-111.00065,AZ,25000,4000,33,75,63,Carondelet St  Marys Hospital
6.66,2.23,32.22685,-110.85520,AZ,16000,4000,66,55,21,Carondelet St Josephs Hospital
6.48,2.45,32.68274,-114.63506,AZ,15000,4000,50,63,69,Yuma Regional Medical Center
9.26,2.37,33.56894,-112.07108,AZ,22000,4000,50,80,16,John C Lincoln North Mountain Hospital
5.97,2.46,32.88123,-111.71067,AZ,14000,4000,50,81,11,Casa Grande Regional Medical Center
13.94,2.42,33.29750,-111.87461,AZ,35000,4000,50,78,54,Chandler Regional Medical Center
9.39,2.22,33.60432,-112.28378,AZ,23000,4000,83,75,95,Banner Boswell Medical Center
6.31,3.12,32.24152,-110.94631,AZ,15000,6000,50,37,39,University Of Arizona Medical Ctr-Universit The
8.45,2.42,33.39097,-111.87638,AZ,20000,4000,66,80,56,Banner Desert Medical Center
8.20,2.36,34.47988,-114.33938,AZ,20000,4000,50,70,56,Havasu Regional Medical Center
8.71,2.23,32.32103,-111.01102,AZ,21000,4000,50,71,20,Northwest Medical Center
9.52,2.27,33.41128,-111.68916,AZ,23000,4000,50,70,63,Banner Baywood Medical Center
9.29,2.49,33.60949,-112.18129,AZ,23000,4000,66,73,76,Banner Thunderbird Medical Center
10.07,2.23,33.65965,-112.37283,AZ,25000,4000,50,77,97,Banner Del E Webb Medical Center
8.70,2.52,33.46202,-112.35299,AZ,21000,5000,75,65,69,West Valley Hospital
12.39,2.57,33.47818,-112.25744,AZ,31000,5000,50,58,69,Banner Estrella Medical Center
9.44,2.42,33.39128,-111.61125,AZ,23000,4000,50,60,11,Mountain Vista Medical Center Lp
10.36,2.31,33.38269,-111.72100,AZ,25000,4000,50,70,57,Banner Gateway Medical Center
4.45,2.19,34.74866,-92.35422,AR,10000,4000,50,43,21,Baptist Health Medical Center-Little Rock
17.40,3.45,37.63362,-122.08802,CA,44000,7000,50,60,6,St Rose Hospital
17.46,2.84,33.97659,-117.38184,CA,44000,5000,50,65,57,Riverside Community Hospital
12.66,2.76,32.77495,-117.01467,CA,32000,5000,83,71,33,Grossmont Hospital
7.03,2.64,39.50528,-121.54100,CA,17000,5000,50,73,63,Oroville Hospital
11.31,2.45,39.74221,-121.85000,CA,28000,4000,83,71,48,Enloe Medical Center
15.24,3.31,37.82206,-122.26275,CA,38000,7000,50,63,32,Alta Bates Summit Medical Center
6.08,2.82,34.67486,-118.15771,CA,14000,5000,50,67,44,Antelope Valley Hospital Med Center
10.82,3.30,36.73000,-119.78000,CA,27000,7000,50,71,0,Community Regional Medical Center
11.15,2.96,32.75143,-117.16083,CA,28000,6000,33,62,69,Scripps Mercy Hospital
9.87,2.56,36.83532,-119.76562,CA,24000,5000,50,66,57,Saint Agnes Medical Center
13.09,2.76,32.79949,-117.15394,CA,33000,5000,66,62,11,Sharp Memorial Hospital
10.59,2.91,38.57155,-121.46874,CA,26000,6000,83,77,79,Sutter General Hospital
10.97,2.72,34.02685,-118.48651,CA,27000,5000,50,76,21,Santa Monica - Ucla Med Ctr & Orthopaedic Hospital
9.42,2.50,33.12535,-117.07336,CA,23000,5000,50,55,69,Palomar Medical Center
14.58,2.99,34.10081,-118.10588,CA,37000,6000,0,0,0,San Gabriel Valley Medical Center
11.52,2.66,39.13822,-121.59436,CA,29000,5000,50,51,21,Rideout Memorial Hospital
11.30,2.68,36.57886,-121.91316,CA,28000,5000,66,56,57,Community Hospital Of The Monterey Peninsula
13.92,2.39,33.89465,-117.92716,CA,35000,4000,66,71,90,St Jude Medical Center
16.43,2.68,37.91341,-122.04163,CA,42000,5000,50,62,33,John Muir Medical Center - Walnut Creek Campus
17.82,3.16,37.55717,-121.98126,CA,45000,6000,50,53,88,Washington Hospital
10.42,2.54,34.58305,-118.14490,CA,26000,5000,50,86,54,Palmdale Regional Medical Center
11.57,2.71,32.61972,-117.02278,CA,29000,5000,50,71,57,Sharp Chula Vista Medical Center
19.67,2.65,34.15601,-118.32834,CA,50000,5000,50,80,97,Providence Saint Joseph Medical Ctr
9.74,2.66,34.13973,-118.03534,CA,24000,5000,50,45,10,Methodist Hospital Of Southern Ca
19.84,3.13,34.14987,-118.23117,CA,51000,6000,66,75,88,Glendale Adventist Medical Center
14.35,2.98,36.98999,-121.98357,CA,36000,6000,50,63,63,Dominican Hospital
13.59,2.61,34.50107,-117.17285,CA,34000,5000,50,87,20,St Mary Medical Center
14.36,3.41,37.85593,-122.25730,CA,36000,7000,50,56,8,Alta Bates Summit Medical Center - Alta Bates Camp
11.14,2.45,33.81131,-118.34364,CA,28000,4000,66,67,88,Torrance Memorial Medical Center
17.19,2.54,33.83891,-118.35677,CA,44000,5000,50,86,94,Providence Little Company Of Mary Med Ctr Torrance
8.29,3.00,34.08802,-117.89341,CA,20000,6000,66,67,29,Citrus Valley Medical Center-Ic Campus
15.28,2.85,33.93530,-118.13030,CA,39000,5000,50,90,82,Downey Regional Medical Center
9.49,2.91,33.82557,-117.99493,CA,23000,6000,50,91,98,West Anaheim Medical Center
13.09,2.71,34.13364,-118.15275,CA,33000,5000,66,65,57,Huntington Memorial Hospital
11.79,3.07,34.05336,-118.26558,CA,29000,6000,50,68,79,Good Samaritan Hospital
11.06,2.80,33.80861,-118.18661,CA,27000,5000,66,65,27,Long Beach Memorial Medical Center
13.57,2.98,37.69824,-122.08730,CA,34000,6000,66,61,54,Eden Medical Center
19.53,2.80,37.98396,-122.03464,CA,50000,5000,50,76,97,John Muir Medical Center - Concord Campus
12.25,2.83,34.20777,-118.88305,CA,30000,5000,50,51,69,Los Robles Hospital & Medical Center
10.79,2.42,33.56100,-117.66530,CA,27000,4000,66,58,12,Mission Hospital Regional Med Center
16.99,3.03,33.71466,-117.93322,CA,43000,6000,50,86,33,Fountain Valley Regional Hospital & Medical Center
15.65,2.32,33.76335,-116.40628,CA,40000,4000,50,56,39,Eisenhower Medical Center
6.90,2.85,33.84753,-118.03841,CA,16000,5000,0,0,0,La Palma Intercommunity Hospital
14.35,2.58,33.84932,-118.15323,CA,36000,5000,83,80,12,Lakewood Regional Medical Center
6.73,2.72,34.02561,-117.68583,CA,16000,5000,0,0,0,Chino Valley Medical Center
10.01,2.33,33.60883,-117.70881,CA,25000,4000,50,70,90,Saddleback Memorial Medical Center
20.40,3.18,34.07664,-118.37955,CA,52000,6000,100,58,48,Cedars-Sinai Medical Center
13.96,2.47,35.55536,-120.72067,CA,35000,4000,0,0,0,Twin Cities Community Hospital
6.93,3.26,34.01936,-118.18661,CA,16000,7000,50,90,63,Los Angeles Community Hospital
9.19,2.46,33.70167,-117.95566,CA,22000,4000,50,82,88,Orange Coast Memorial Medical Center
6.76,2.51,33.55876,-117.18329,CA,16000,5000,66,73,74,Southwest Healthcare System
9.07,2.50,34.47174,-117.29791,CA,22000,5000,50,100,99,Desert Valley Hospital
11.68,2.87,33.95076,-118.34828,CA,29000,5000,50,71,99,Centinela Hospital Medical Center
16.16,2.58,34.05723,-118.36025,CA,41000,5000,50,63,69,Olympia Medical Center
5.12,2.62,34.16028,-118.44948,CA,12000,5000,0,0,0,Sherman Oaks Hospital
9.70,2.53,32.77629,-117.05730,CA,24000,5000,75,78,63,Alvarado Hospital Medical Center
20.40,2.64,34.17067,-118.53200,CA,52000,5000,50,57,63,Providence Tarzana Medical Center
11.53,2.65,40.58532,-122.38702,CA,29000,5000,50,78,98,Shasta Regional Medical Center
7.28,2.59,40.41481,-104.70890,CO,17000,5000,50,73,57,North Colorado Medical Center
8.35,2.26,39.76893,-105.09006,CO,20000,4000,50,47,79,Exempla Lutheran Medical Center
5.18,2.23,40.57315,-105.05741,CO,12000,4000,50,68,95,Poudre Valley Hospital
6.73,2.30,38.23421,-104.62292,CO,16000,4000,50,53,29,Centura Health-St Mary Corwin Medical Center
8.81,2.31,38.28184,-104.61256,CO,21000,4000,66,68,29,Parkview Medical Center Inc
7.41,2.36,38.83903,-104.80024,CO,18000,4000,66,68,33,Memorial Hospital Central
7.25,2.20,38.86559,-104.82182,CO,17000,4000,50,70,37,Centura Health-Penrose St Francis Health Services
13.99,3.02,39.65399,-104.98116,CO,35000,6000,33,47,17,Swedish Medical Center
13.59,2.20,39.57629,-104.98610,CO,34000,4000,50,78,54,Centura Health-Littleton Adventist Hospital
6.76,2.84,41.30978,-72.93806,CT,16000,5000,66,57,8,Hospital Of St Raphael
6.59,2.78,41.77507,-72.69941,CT,15000,5000,50,53,85,St Francis Hospital & Medical Center
9.05,2.70,41.55959,-73.05941,CT,22000,5000,33,57,69,Waterbury Hospital
5.97,2.77,41.33722,-72.10380,CT,14000,5000,50,72,92,Lawrence & Memorial Hospital
4.94,2.81,41.55241,-73.03554,CT,11000,5000,50,56,39,Saint Marys Hospital
6.60,2.53,41.03431,-73.63020,CT,15000,5000,50,48,63,Greenwich Hospital Association
4.57,2.88,41.71622,-72.22399,CT,10000,6000,0,0,0,Windham Comm Mem Hosp & Hatch Hosp
7.72,3.38,41.30400,-72.93502,CT,18000,7000,66,41,3,Yale-New Haven Hospital
8.23,3.07,41.75412,-72.67927,CT,20000,6000,50,47,9,Hartford Hospital
5.26,2.68,41.20049,-73.20281,CT,12000,5000,66,78,63,St Vincent'S Medical Center
6.30,2.38,41.67540,-72.93617,CT,15000,4000,50,73,33,Bristol Hospital
4.78,2.75,41.40474,-73.44739,CT,11000,5000,50,66,57,Danbury Hospital
6.27,2.77,41.11147,-73.42010,CT,15000,5000,50,72,92,Norwalk Hospital Association
5.25,2.66,41.66107,-72.78671,CT,12000,5000,50,52,8,Hospital Of Central Connecticut The
5.14,2.72,39.69005,-75.68408,DE,12000,5000,66,58,39,Christiana Care Health Services Inc.
6.77,2.50,39.74954,-75.56662,DE,16000,5000,50,81,79,St Francis Hospital
5.84,2.34,39.15135,-75.52309,DE,13000,4000,50,58,90,Bayhealth - Kent General Hospital
9.36,2.91,38.90106,-77.05079,DC,23000,6000,50,50,13,George Washington Univ Hospital
5.95,3.74,38.91770,-77.02193,DC,14000,8000,50,66,0,Howard University Hospital
5.67,2.81,38.94397,-76.99040,DC,13000,5000,50,57,24,Providence Hospital
8.66,2.89,38.92944,-77.01473,DC,21000,6000,33,58,1,Washington Hospital Center
8.19,2.92,30.34913,-81.66391,FL,20000,6000,50,62,0,Shands Jacksonville Medical Center
10.62,2.40,26.50479,-80.06979,FL,26000,4000,50,53,99,Bethesda Memorial Hospital
9.56,2.48,28.52517,-81.37729,FL,23000,4000,66,47,29,Orlando Health
9.18,2.39,28.57345,-81.36990,FL,22000,4000,83,66,24,Florida Hospital
12.75,3.43,25.68309,-80.34038,FL,32000,7000,50,62,85,Baptist Hospital Of Miami Inc
12.81,2.70,25.78846,-80.21644,FL,32000,5000,83,56,0,University Of Miami Hospital
6.52,2.24,26.62849,-81.87423,FL,15000,4000,66,52,16,Lee Memorial Hospital
6.52,2.29,29.20117,-81.05828,FL,15000,4000,66,76,79,Halifax Health Medical Center
6.92,2.22,26.15053,-81.79919,FL,16000,4000,66,62,39,Naples Community Hospital
9.18,2.09,28.08771,-80.61362,FL,22000,3000,66,58,17,Holmes Regional Medical Center
8.79,3.82,25.79143,-80.21250,FL,21000,8000,83,48,4,Jackson Memorial Hospital
5.51,2.32,30.47650,-87.21219,FL,13000,4000,50,41,39,Sacred Heart Hospital
5.64,2.15,30.15963,-85.64818,FL,13000,4000,66,73,43,Bay Medical Center
12.29,2.60,25.86166,-80.21398,FL,31000,5000,50,83,69,North Shore Medical Center
7.06,2.27,28.54917,-81.52746,FL,17000,4000,50,70,57,Health Central
8.34,2.48,27.76332,-82.64325,FL,20000,4000,50,82,20,Bayfront Medical Center Inc
11.94,2.68,25.81317,-80.13996,FL,30000,5000,66,47,24,Mount Sinai Medical Center
7.91,2.27,27.49789,-82.56220,FL,19000,4000,50,55,29,Manatee Memorial Hospital
8.96,2.49,26.01867,-80.17981,FL,22000,4000,83,63,76,Memorial Regional Hospital
6.64,2.19,30.30835,-81.68919,FL,16000,4000,50,68,82,St Vincent'S Medical Center
9.22,2.21,27.19837,-80.24306,FL,22000,4000,66,70,57,Martin Memorial Medical Center
8.95,2.30,28.26092,-82.18802,FL,22000,4000,50,62,88,Florida Hospital Zephyrhills
7.35,2.08,26.94042,-82.04094,FL,17000,3000,50,72,85,Charlotte Regional Medical Center
5.90,2.13,27.46707,-81.43358,FL,14000,4000,0,0,0,Highlands Regional Medical Center
14.34,2.92,25.84597,-80.26872,FL,36000,6000,75,82,99,Hialeah Hospital
6.94,2.13,28.82358,-81.71133,FL,16000,4000,50,71,48,Florida Hospital Waterman
8.61,2.55,25.74067,-80.21244,FL,21000,5000,0,0,0,Mercy Hospital Inc
5.67,2.09,29.17594,-82.13898,FL,13000,3000,50,60,94,Munroe Regional Medical Center
7.43,2.12,28.25431,-82.71447,FL,18000,4000,50,96,39,Morton Plant North Bay Hospital
7.28,2.12,29.24333,-81.10760,FL,17000,4000,50,67,95,Florida Hospital Memorial Medical Center
7.30,2.08,27.09043,-82.44499,FL,17000,3000,50,76,48,Venice Regional Medical Center
14.23,2.24,28.53906,-82.44193,FL,36000,4000,50,75,57,Brooksville Regional Hospital
8.85,2.27,26.18711,-80.11941,FL,21000,4000,83,57,37,Holy Cross Hospital Inc
6.96,2.49,27.98242,-82.49025,FL,16000,4000,66,60,29,St Joseph'S Hospital
8.80,2.34,26.59805,-80.09271,FL,21000,4000,100,60,27,Jfk Medical Center
6.88,2.13,28.80659,-81.86906,FL,16000,4000,33,67,24,Leesburg Regional Medical Center
4.86,2.15,27.31827,-82.53140,FL,11000,4000,33,37,69,Sarasota Memorial Hospital
10.62,2.48,30.31525,-81.66398,FL,26000,4000,66,47,12,Baptist Medical Center
6.07,2.15,28.33522,-80.72319,FL,14000,4000,50,63,97,Wuesthoff Medical Center  Rockledge
9.93,2.12,27.89590,-81.56547,FL,24000,4000,0,0,0,Lake Wales Medical Center
3.97,2.22,27.65832,-80.39307,FL,8000,4000,66,76,99,Indian River Medical Center
9.17,2.20,27.50001,-81.43962,FL,22000,4000,50,61,85,Florida Hospital Heartland Medical Center
17.32,2.32,28.29946,-81.41021,FL,44000,4000,50,63,51,Osceola Regional Medical Center
7.04,3.22,29.64155,-82.34844,FL,17000,6000,66,53,29,Shands Hospital At The University Of Florida
6.80,2.39,29.47897,-81.18915,FL,16000,4000,50,51,39,Florida Hospital Flagler
10.65,3.09,25.47971,-80.43038,FL,26000,6000,50,86,69,Homestead Hospital
10.46,2.30,25.96994,-80.14533,FL,26000,4000,50,63,79,Aventura Hospital And Medical Center
10.86,2.24,28.18120,-81.64018,FL,27000,4000,50,72,57,Heart Of Florida Regional Medical Center
10.66,2.44,30.18340,-82.68783,FL,26000,4000,0,0,0,Lake City Medical Center
9.93,2.18,28.06172,-81.95304,FL,24000,4000,50,52,3,Lakeland Regional Medical Center
11.17,2.25,28.81611,-81.28351,FL,28000,4000,50,56,97,Central Florida Regional Hospital
11.73,2.68,26.12647,-80.20519,FL,29000,5000,50,81,6,Plantation General Hospital
7.65,2.20,26.35875,-80.10203,FL,18000,4000,66,46,43,Boca Raton Regional Hospital
8.98,2.67,28.07111,-82.42342,FL,22000,5000,50,68,37,Florida Hospital Tampa
10.69,2.18,26.83035,-80.08655,FL,26000,4000,100,56,37,Palm Beach Gardens Medical Center
14.69,2.25,30.28793,-81.60103,FL,37000,4000,33,48,24,Memorial Hospital Jacksonville
11.26,2.77,25.88563,-80.32635,FL,28000,5000,66,78,90,Palmetto General Hospital
13.70,2.36,26.26259,-80.20292,FL,34000,4000,50,51,97,Northwest Medical Center
14.01,2.13,28.19342,-82.46987,FL,35000,4000,50,77,43,Medical Center Of Trinity
11.50,2.23,29.66085,-82.41172,FL,28000,4000,33,52,17,North Florida Regional Medical Center
10.33,2.07,27.93758,-82.48933,FL,25000,3000,50,77,41,Memorial Hospital Of Tampa
11.81,2.07,29.17550,-82.13680,FL,29000,3000,83,55,85,Ocala Regional Medical Center
9.65,2.08,27.48213,-82.62126,FL,24000,3000,50,75,69,Blake Medical Center
10.02,2.17,27.84359,-80.48849,FL,25000,4000,0,0,0,Sebastian River Medical Center
7.27,2.18,26.52735,-81.83337,FL,17000,4000,50,58,63,Gulf Coast Medical Center Lee Mem Health System
16.05,2.17,30.16550,-81.73775,FL,41000,4000,33,68,57,Orange Park Medical Center
12.58,2.20,26.12354,-80.25951,FL,31000,4000,50,57,74,Westside Regional Medical Center
10.28,2.06,30.51624,-87.21856,FL,25000,3000,50,65,4,West Florida Hospital
5.06,2.22,29.64481,-81.69431,FL,11000,4000,50,78,48,Putnam Community Medical Center
14.00,2.08,26.98884,-82.09877,FL,35000,3000,50,80,57,Fawcett Memorial Hospital
15.17,2.21,27.82545,-82.70122,FL,38000,4000,50,65,33,Northside Hospital
10.81,2.19,30.18657,-85.66513,FL,27000,4000,50,63,99,Gulf Coast Medical Center
13.01,2.32,27.93259,-82.28759,FL,32000,4000,66,67,21,Brandon Regional Hospital
6.99,2.08,26.63958,-81.94164,FL,16000,3000,50,52,21,Cape Coral Hospital
15.88,2.86,27.43392,-80.34350,FL,40000,5000,83,53,29,Lawnwood Regional Medical Center & Heart Institute
10.36,2.39,27.91458,-82.80382,FL,25000,4000,50,48,24,Largo Medical Center
7.59,2.12,28.95195,-82.62421,FL,18000,3000,50,72,21,Seven Rivers Regional Medical Center
9.20,2.46,30.47616,-84.23140,FL,22000,4000,50,66,57,Capital Regional Medical Center
10.05,2.07,28.36128,-82.68883,FL,25000,3000,66,67,90,Regional Medical Center Bayonet Point
16.28,2.18,26.43709,-80.12728,FL,41000,4000,83,72,92,Delray Medical Center
11.46,2.07,27.71350,-82.36512,FL,28000,3000,33,66,33,South Bay Hospital
13.00,2.07,28.53585,-82.53404,FL,32000,3000,66,71,57,Oak Hill Hospital
7.75,2.07,28.03957,-82.70875,FL,18000,3000,66,66,54,Mease Countryside Hospital
5.91,2.01,30.35772,-87.16046,FL,14000,3000,0,0,0,Gulf Breeze Hospital
8.64,2.26,26.35614,-80.19956,FL,21000,4000,50,80,82,West Boca Medical Center
16.39,2.52,26.68337,-80.25269,FL,41000,5000,66,67,37,Palms West Hospital
7.06,2.43,26.65230,-80.20504,FL,17000,4000,50,73,33,Wellington Regional Medical Center
6.45,2.35,26.26841,-80.25571,FL,15000,4000,50,67,90,Coral Springs Medical Center
10.16,2.35,26.01394,-80.30980,FL,25000,4000,66,71,63,Memorial Hospital West
11.91,2.52,25.99079,-80.37333,FL,30000,5000,0,0,0,Memorial Hospital Miramar
6.38,2.07,28.94952,-81.95843,FL,15000,3000,33,80,94,Villages Regional Hospital The
7.95,2.18,28.24311,-81.30279,FL,19000,4000,50,86,41,St Cloud Regional Medical Center
5.38,2.05,30.25377,-81.58270,FL,12000,3000,50,77,29,St Vincent'S Medical Center Southside
5.67,2.16,31.22516,-82.34898,GA,13000,4000,50,93,33,Satilla Regional Medical Center
5.42,2.33,33.47096,-81.98176,GA,12000,4000,50,51,21,University Hospital
8.90,2.28,34.30335,-83.81737,GA,22000,4000,66,58,44,Northeast Georgia Medical Center Inc
9.47,2.31,33.96770,-84.55011,GA,23000,4000,66,62,44,Wellstar Kennestone Hospital
6.86,2.51,32.03185,-81.09158,GA,16000,5000,66,61,24,Memorial Health Univ Med Cen Inc
6.66,2.09,31.98515,-81.15475,GA,16000,3000,66,72,33,St Joseph'S Hospital - Savannah
6.19,2.25,32.61642,-83.63065,GA,14000,4000,50,73,74,Houston Medical Center
6.90,2.64,33.96117,-83.39832,GA,16000,5000,50,68,92,Athens Regional Medical Center
8.25,2.35,32.41483,-81.76990,GA,20000,4000,50,82,39,East Georgia Regional Medical Center
5.54,2.41,33.78956,-84.28077,GA,13000,4000,50,83,11,Dekalb Medical Center
5.48,3.02,33.75205,-84.38272,GA,12000,6000,33,56,0,Grady Memorial Hospital
8.33,2.21,33.81003,-84.39568,GA,20000,4000,33,57,44,Piedmont Hospital
6.35,2.41,33.96351,-84.01769,GA,15000,4000,50,90,44,Gwinnett Medical Center
4.47,2.18,31.50971,-82.86341,GA,10000,4000,0,0,0,Coffee Regional Medical Center
4.91,2.26,32.50679,-84.95933,GA,11000,4000,83,67,69,St Francis Hospital Inc
9.14,2.40,33.85638,-84.60446,GA,22000,4000,50,56,33,Wellstar Cobb Hospital
9.30,2.25,33.73938,-84.73111,GA,23000,4000,50,91,57,Wellstar Douglas Hospital
10.98,2.51,41.52896,-88.13550,IL,27000,5000,50,75,82,Provena St Joseph Medical Center
6.58,2.45,42.06550,-87.68428,IL,15000,4000,33,55,57,Evanston Hospital
5.83,2.41,39.93563,-91.39833,IL,13000,4000,50,55,92,Blessing Hospital
7.09,3.25,41.86011,-87.69571,IL,17000,7000,33,66,0,Mt Sinai Hospital Medical Center
8.82,3.02,42.07012,-88.33180,IL,21000,6000,50,82,24,Sherman Hospital
5.21,2.23,38.52908,-89.11604,IL,12000,4000,50,86,17,St Marys Hospital
7.67,2.22,41.80160,-89.69714,IL,18000,4000,0,0,0,Cgh Medical Center
4.85,2.18,38.32292,-88.91026,IL,11000,4000,50,81,90,Good Samaritan Regional Hlth Center
7.42,2.58,41.72636,-87.56727,IL,18000,5000,50,65,74,Advocate Trinity Hospital
9.23,2.91,41.89141,-87.77618,IL,22000,6000,50,72,92,West Suburban Medical Center
7.29,2.47,42.05624,-87.74012,IL,17000,4000,50,75,85,Skokie Hospital
7.36,2.69,41.83195,-87.79266,IL,17000,5000,50,78,57,Macneal  Hospital
8.14,2.34,41.66900,-87.81414,IL,20000,4000,50,72,95,Palos Community Hospital
8.24,2.30,41.79660,-87.88627,IL,20000,4000,83,63,37,Adventist La Grange Memorial Hospital
8.35,2.46,40.70200,-89.59222,IL,20000,4000,66,57,3,Saint Francis Medical Center
9.64,3.56,42.02578,-87.68371,IL,24000,7000,50,75,37,Rhc St Francis Hospital
9.47,2.83,41.96698,-87.64941,IL,23000,5000,50,70,43,Louis A Weiss Memorial Hospital
8.44,2.64,42.37840,-87.83329,IL,20000,5000,50,73,62,Vista Medical Center East
8.25,2.38,40.11696,-88.21506,IL,20000,4000,33,63,13,Carle Foundation Hospital
9.75,2.33,40.11739,-88.22714,IL,24000,4000,50,62,21,Provena Covenant Medical Center- Urbana
10.78,2.65,41.97532,-87.69958,IL,27000,5000,50,85,51,Swedish Covenant Hospital
5.89,2.75,41.95453,-87.65225,IL,14000,5000,0,0,0,Thorek Memorial Hospital
7.73,2.19,42.31832,-88.27920,IL,18000,4000,50,83,24,Centegra Health System - Mc Henry Hospital
8.63,2.40,41.98743,-87.81440,IL,21000,4000,66,62,69,Resurrection Medical Center
6.77,2.42,41.65880,-87.67729,IL,16000,4000,50,65,94,Metrosouth Medical Center
8.52,3.43,41.87497,-87.66927,IL,21000,7000,50,42,33,Rush University Medical Center
9.19,2.33,41.80555,-87.92059,IL,22000,4000,50,67,54,Hinsdale Hospital
2.89,3.39,41.87381,-87.67421,IL,6000,7000,83,55,16,John H Stroger Jr Hospital
13.34,2.37,38.70148,-90.14382,IL,33000,4000,0,0,0,Gateway Regional Medical Center
6.35,2.26,40.49639,-88.99106,IL,15000,4000,0,0,0,Bromenn Healthcare
6.45,2.21,42.25244,-87.86528,IL,15000,4000,25,90,21,Lake Forest Hospital
7.05,2.51,41.76946,-87.69239,IL,17000,5000,50,82,94,Holy Cross Hospital
6.64,2.19,39.86644,-88.96090,IL,16000,4000,50,60,69,Decatur Memorial Hospital
6.25,2.31,39.80893,-89.65530,IL,14000,4000,83,57,11,Memorial Medical Center
6.31,2.96,41.89006,-87.70757,IL,15000,6000,0,0,0,Sacred Heart Hospital
7.29,2.33,41.12049,-87.87187,IL,17000,4000,50,68,97,Provena St Marys Hospital
4.18,2.95,41.84639,-87.62345,IL,9000,6000,25,46,39,Mercy Hospital And Medical Center
6.41,2.58,41.52283,-87.71111,IL,15000,5000,50,75,33,Franciscan St James Health
11.43,3.15,41.78566,-88.32886,IL,28000,6000,50,72,48,Provena Mercy Medical Center
6.84,2.26,42.27597,-88.40019,IL,16000,4000,50,71,56,Centegra Health System - Woodstock Hospital
8.99,2.51,41.72094,-87.69220,IL,22000,5000,16,63,69,Little Company Of Mary Hospital
8.41,2.93,41.90414,-87.68254,IL,20000,6000,75,50,54,St Mary & Elizabeth Med Ctr-Division Campus
7.48,3.08,41.93641,-87.65295,IL,18000,6000,50,77,85,Advocate Illinois Masonic Medical Center
6.51,2.16,37.74480,-88.99329,IL,15000,4000,50,62,92,Heartland Regional Medical Center
7.74,2.14,38.55020,-90.02146,IL,18000,4000,66,81,21,Memorial Hospital
6.17,2.41,41.12572,-87.88526,IL,14000,4000,50,72,81,Riverside Medical Center
6.53,2.17,38.51081,-89.99014,IL,15000,4000,50,65,6,St Elizabeth Hospital
5.25,2.20,39.48849,-88.27581,IL,12000,4000,0,0,0,Sarah Bush Lincoln Health Center
9.13,2.39,41.60726,-87.66060,IL,22000,4000,50,65,76,Ingalls Memorial Hospital
10.17,2.55,41.86362,-87.93567,IL,25000,5000,50,76,92,Elmhurst Memorial Hospital
8.51,2.76,42.27447,-87.95764,IL,21000,5000,50,70,79,Advocate Condell Medical Center
7.05,2.88,41.72031,-87.73249,IL,17000,6000,50,57,74,Advocate Christ Hospital & Medical Center
6.95,2.65,40.70065,-89.59505,IL,16000,5000,50,78,48,Methodist Medical Center Of Illinois
11.37,2.20,41.88566,-88.34311,IL,28000,4000,50,81,4,Delnor Community Hospital
5.98,2.27,41.54446,-87.98379,IL,14000,4000,50,68,88,Silver Cross Hospital  And Medical Centers
10.86,2.20,42.03576,-88.32575,IL,27000,4000,50,65,99,Provena - Saint Joseph Hospital
7.49,2.73,42.03837,-87.84820,IL,18000,5000,83,77,69,Advocate Lutheran General Hospital
9.02,2.86,41.93418,-87.63579,IL,22000,5000,50,61,29,Saint Joseph Hospital
8.67,2.74,42.26584,-89.07428,IL,21000,5000,50,65,76,Swedish American Hospital
9.31,2.19,41.76076,-88.15016,IL,23000,4000,50,68,29,Edward Hospital
6.99,2.91,42.29844,-89.09897,IL,16000,6000,50,87,56,Rockford Memorial Hospital
12.38,2.19,41.87269,-88.15684,IL,31000,4000,66,62,88,Central Dupage Hospital
6.87,2.30,41.56720,-87.69566,IL,16000,4000,50,80,63,Advocate South Suburban Hospital
10.17,2.36,41.94560,-87.76897,IL,25000,4000,50,75,21,Our Lady Of The Resurrection Med Ctr
8.24,2.24,42.06732,-87.99368,IL,20000,4000,66,67,57,Northwest Community Hospital
10.03,2.28,42.00413,-88.01745,IL,25000,4000,66,78,88,Alexian Brothers Medical Center
7.82,2.96,41.86110,-87.83404,IL,19000,6000,66,46,4,Loyola University Medical Center
4.28,2.15,41.48200,-90.57158,IL,9000,4000,50,58,63,Trinity Rock Island
8.11,2.77,41.89477,-87.62131,IL,19000,5000,50,61,94,Northwestern Memorial Hospital
6.10,2.23,41.96185,-88.72130,IL,14000,4000,50,81,3,Kishwaukee Community Hospital
7.62,2.19,41.81791,-88.00907,IL,18000,4000,50,86,95,Advocate Good Samaritan Hospital
9.61,2.30,42.05260,-88.14173,IL,23000,4000,50,80,57,St Alexius Medical Center
6.64,2.46,42.19586,-88.17286,IL,16000,4000,50,80,95,Advocate Good Shepherd Hospital
8.32,2.30,41.68062,-88.08319,IL,20000,4000,0,0,0,Adventist Bolingbrook Hospital
5.77,2.47,41.59920,-87.35764,IN,13000,4000,50,65,94,Methodist Hospitals Inc
8.43,2.23,40.42687,-86.88197,IN,20000,4000,0,0,0,Franciscan St Elizabeth Health - Lafayette Central
6.77,2.45,41.61514,-87.52413,IN,16000,4000,50,81,74,Franciscan St Margaret Health - Hammond
6.31,2.45,41.63466,-87.44901,IN,15000,4000,50,78,88,St Catherine Hospital Inc
4.33,2.22,38.28244,-85.74923,IN,9000,4000,50,83,48,Clark Memorial Hospital
4.87,2.72,41.70877,-86.17026,IN,11000,5000,50,88,57,Saint Joseph Regional Medical Center
5.54,2.22,41.70639,-86.89936,IN,13000,4000,0,0,0,Franciscan St Anthony Health - Michigan City
7.14,2.27,41.03874,-85.24876,IN,17000,4000,66,63,32,Lutheran Hospital Of Indiana
5.34,2.19,41.70568,-85.93404,IN,12000,4000,66,53,69,Elkhart General Hospital
5.99,2.63,41.04659,-85.10906,IN,14000,5000,83,60,44,Parkview Regional Medical Center
4.75,2.27,39.48518,-87.40893,IN,11000,4000,50,62,33,Union Hospital Inc
5.71,2.25,39.72432,-86.10055,IN,13000,4000,0,0,0,Franciscan St Francis Health - Beech Grove
5.69,2.24,41.51266,-87.26125,IN,13000,4000,50,78,85,St Mary Medical Center Inc
7.95,2.23,41.46729,-87.05130,IN,19000,4000,50,75,63,Porter Valparaiso Hospital
5.57,2.13,38.30195,-85.83409,IN,13000,4000,66,85,85,Floyd Memorial Hospital And Health Services
4.89,2.56,39.86405,-84.88413,IN,11000,5000,100,63,27,Reid Hospital & Health Care Services
9.33,3.17,39.79009,-86.16260,IN,23000,6000,50,51,79,Indiana University Health
4.43,2.38,41.68479,-86.25217,IN,10000,4000,66,60,8,Memorial Hospital Of South Bend
6.68,2.39,39.78704,-86.07673,IN,16000,4000,50,82,82,Community Hospital East
6.92,2.14,37.98293,-87.57072,IN,16000,4000,83,66,13,Deaconess Hospital Inc
7.92,2.41,39.91001,-86.19660,IN,19000,4000,66,47,88,St Vincent Hospital & Health Services
6.31,2.39,40.19679,-85.41573,IN,15000,4000,66,62,85,Indiana University Health Ball Memorial Hospital
6.63,2.35,41.49222,-87.52429,IN,15000,4000,50,85,54,Franciscan St Margaret Health - Dyer
6.82,2.14,37.96320,-87.50292,IN,16000,4000,66,67,32,St Mary'S Medical Center Of Evansville Inc
6.41,2.25,41.55065,-87.50619,IN,15000,4000,50,75,85,Community Hospital
6.30,2.31,41.39576,-87.36689,IN,15000,4000,50,83,51,Franciscan St Anthony Health - Crown Point
7.65,2.14,39.78047,-86.34084,IN,18000,4000,0,0,0,Iu Health West Hospital
5.99,2.28,39.64935,-86.07960,IN,14000,4000,66,80,90,Franciscan St Francis Health - Indianapolis
6.80,2.18,39.90060,-86.04218,IN,16000,4000,50,77,76,Community Hospital North
5.84,2.15,42.03321,-93.61164,IA,13000,4000,0,0,0,Mary Greeley Medical Center
5.69,2.18,41.54190,-90.55691,IA,13000,4000,66,58,97,Genesis Medical Center-Davenport
6.41,2.21,41.98570,-91.66093,IA,15000,4000,66,75,90,St Lukes Hospital
4.91,2.19,40.81009,-91.17356,IA,11000,4000,0,0,0,Great River Medical Center
3.92,2.26,43.15063,-93.21718,IA,8000,4000,50,82,63,Mercy Medical Center-North Iowa
5.99,2.35,41.58955,-93.63248,IA,14000,4000,66,37,82,Iowa Methodist Medical Center
7.41,2.33,41.59886,-93.62344,IA,18000,4000,83,75,29,Mercy Medical Center-Des Moines
3.82,2.06,42.49632,-90.68587,IA,8000,3000,0,0,0,The Finley Hospital
6.40,2.24,38.83324,-97.61028,KS,15000,4000,50,85,27,Salina Regional Health Center
5.68,2.11,38.85279,-94.82413,KS,13000,3000,50,58,62,Olathe Medical Center
7.09,2.24,39.05128,-95.69572,KS,17000,4000,66,71,10,Stormont-Vail Healthcare
6.66,2.13,38.99549,-94.69061,KS,16000,4000,66,46,21,Shawnee Mission Medical Center
6.04,2.27,37.70405,-97.31386,KS,14000,4000,66,68,21,Via Christi Hospitals Wichita Inc
8.01,2.09,38.90355,-94.66966,KS,19000,3000,0,0,0,Saint Luke'S South Hospital
7.05,2.26,38.47021,-82.63498,KY,17000,4000,66,60,54,King'S Daughters' Medical Center
5.00,2.10,38.03140,-84.52194,KY,11000,3000,83,67,79,Saint Joseph Hospital
4.32,2.11,37.71183,-85.87623,KY,9000,3000,83,78,39,Hardin Memorial Hospital
7.92,2.27,36.99641,-86.43006,KY,19000,4000,66,52,33,The Medical Center At Bowling Green
4.53,2.10,36.60798,-88.30957,KY,10000,3000,0,0,0,Murray-Calloway County Hospital
5.49,2.31,37.27729,-83.22802,KY,12000,4000,50,87,57,Hazard Arh Regional Medical Center
5.02,2.25,39.06704,-84.49946,KY,11000,4000,33,58,79,St Elizabeth Medical Center North
4.99,2.93,37.76518,-87.10197,KY,11000,6000,50,66,29,Owensboro Medical Health System
6.28,2.54,38.24927,-85.75081,KY,15000,5000,66,51,8,Jewish Hospital & St Mary'S Healthcare
9.56,2.82,38.03282,-84.50674,KY,23000,5000,33,62,33,University Of Kentucky Hospital
8.05,2.43,38.24806,-85.75125,KY,19000,4000,50,35,39,Norton Hospitals Inc
5.00,2.04,37.06431,-88.67523,KY,11000,3000,50,42,20,Lourdes Hospital
5.47,2.29,38.01849,-84.51236,KY,12000,4000,50,71,57,Central Baptist Hospital
5.48,2.07,37.07404,-88.62685,KY,12000,3000,50,80,39,Western Baptist Hospital
6.00,2.07,38.23898,-85.63941,KY,14000,3000,66,57,74,Baptist Hospital East
6.11,2.32,37.08724,-84.61828,KY,14000,4000,66,60,17,Lake Cumberland Regional Hospital
5.18,2.22,30.20227,-92.01906,LA,12000,4000,50,73,29,Lafayette General Medical Center
10.35,2.37,30.46813,-90.45814,LA,25000,4000,75,71,74,North Oaks Medical Center Llc
7.21,2.51,30.01875,-90.19452,LA,17000,5000,66,61,62,Ochsner Foundation Hospital
5.38,2.32,30.40118,-91.11160,LA,12000,4000,83,51,33,Our Lady Of The Lake Regional Medical Center
6.21,2.31,32.48393,-93.77884,LA,14000,4000,50,63,62,Willis Knighton Medical Center
8.65,2.18,32.51315,-92.15713,LA,21000,4000,0,0,0,Glenwood Regional Medical Center
5.65,2.55,43.65325,-70.27533,ME,13000,5000,16,47,0,Maine Medical Center
5.66,2.16,53.96230,-1.08188,ME,13000,4000,0,0,0,York Hospital
4.62,2.41,44.80988,-68.74929,ME,10000,4000,50,58,37,Eastern Maine Medical Center
4.32,2.37,45.25378,-69.44547,ME,9000,4000,50,48,51,Maine General Medical Center
2.71,2.60,39.62183,-77.68219,MD,5000,5000,0,0,0,Meritus Medical Center
3.28,3.13,39.28817,-76.62438,MD,7000,6000,0,0,0,University Of Maryland Medical Center
4.14,3.94,38.93090,-76.92161,MD,9000,8000,0,0,0,Prince Georges Hospital Center
2.66,2.54,39.01578,-77.03591,MD,5000,5000,0,0,0,Holy Cross Hospital
3.09,2.96,39.42366,-77.41386,MD,6000,6000,0,0,0,Frederick Memorial Hospital
3.38,3.24,39.38813,-76.61068,MD,7000,6000,0,0,0,Saint Joseph Medical Center
3.64,3.47,39.29297,-76.61314,MD,8000,7000,0,0,0,Mercy Medical Center Inc
4.27,4.08,39.29688,-76.59242,MD,9000,9000,0,0,0,Johns Hopkins Hospital The
3.14,3.00,39.27352,-76.67219,MD,6000,6000,0,0,0,Saint Agnes Hospital
3.05,2.92,39.35262,-76.66196,MD,6000,6000,0,0,0,Sinai Hospital Of Baltimore
2.95,2.83,39.35169,-76.47919,MD,6000,5000,0,0,0,Franklin Square Hospital Center
3.40,3.26,38.98482,-77.00139,MD,7000,7000,0,0,0,Washington Adventist Hospital
3.28,3.14,39.15402,-77.05431,MD,7000,6000,0,0,0,Montgomery General Hospital Inc
2.95,2.82,38.36248,-75.59799,MD,6000,5000,0,0,0,Peninsula Regional Medical Center
2.52,2.44,38.99743,-77.11048,MD,5000,4000,0,0,0,Suburban Hospital
2.57,2.47,38.99014,-76.53398,MD,5000,4000,0,0,0,Anne Arundel Medical Center
2.98,2.85,39.32930,-76.61432,MD,6000,5000,0,0,0,Union Memorial Hospital
3.55,3.38,39.64928,-78.73206,MD,7000,7000,0,0,0,Western Maryland Regional Medical Center
2.75,2.63,38.29124,-76.63579,MD,5000,5000,0,0,0,Saint Mary'S Hospital
3.57,3.43,39.29100,-76.54623,MD,7000,7000,0,0,0,Johns Hopkins Bayview Medical Center
2.64,2.53,39.60859,-75.83201,MD,5000,5000,0,0,0,Union Hospital Of Cecil County
3.15,3.04,39.55808,-76.99107,MD,6000,6000,0,0,0,Carroll Hospital Center
2.64,2.53,38.52905,-76.97068,MD,5000,5000,0,0,0,Civista Medical Center
2.74,2.62,38.76970,-76.07697,MD,5000,5000,0,0,0,Memorial Hospital At Easton
3.33,3.17,38.55963,-76.59455,MD,7000,6000,0,0,0,Calvert Memorial Hospital
2.96,2.83,39.35852,-76.78208,MD,6000,5000,0,0,0,Northwest Hospital Center
2.60,2.49,39.13732,-76.62228,MD,5000,4000,0,0,0,Baltimore Washington  Medical Center
3.23,3.10,39.39017,-76.62216,MD,6000,6000,0,0,0,Greater Baltimore Medical Center
3.50,3.34,39.21273,-76.88526,MD,7000,7000,0,0,0,Howard County General Hospital
2.82,2.73,39.51870,-76.34688,MD,5000,5000,0,0,0,Upper Chesapeake Medical Center
2.66,2.57,38.96851,-76.86203,MD,5000,5000,0,0,0,Doctors'  Community Hospital
3.09,2.96,38.74827,-76.87590,MD,6000,6000,0,0,0,Southern Maryland Hospital Center
2.88,2.76,39.35962,-76.58851,MD,6000,5000,0,0,0,Good Samaritan Hospital
2.71,2.62,39.09796,-77.19799,MD,5000,5000,0,0,0,Shady Grove Adventist Hospital
3.12,3.02,38.72818,-76.99214,MD,6000,6000,0,0,0,Fort Washington Hospital
4.75,2.65,42.37441,-71.13378,MA,11000,5000,66,85,17,Mount Auburn Hospital
4.67,2.71,42.70912,-71.14877,MA,10000,5000,50,71,79,Lawrence General Hospital
4.34,3.11,42.37451,-71.10418,MA,9000,6000,50,87,94,Cambridge Health Alliance
5.03,2.85,41.65298,-70.27484,MA,11000,5000,50,56,95,Cape Cod Hospital
4.99,2.26,42.33185,-72.65422,MA,11000,4000,50,87,88,Cooley Dickinson Hospital Incthe
4.01,2.51,41.69217,-71.16474,MA,9000,5000,50,100,85,Saint Anne'S Hospital
3.89,2.43,42.81476,-70.89068,MA,8000,4000,0,0,0,Anna Jaques Hospital
4.74,3.65,42.35843,-71.05977,MA,10000,8000,66,51,0,Boston Medical Center Corporation
3.99,2.49,42.56407,-70.87543,MA,8000,4000,50,62,63,Beverly Hospital Corporation
7.45,2.57,42.51078,-70.90712,MA,18000,5000,33,47,69,North Shore Medical Center
3.22,3.25,42.34896,-71.14768,MA,6000,7000,50,68,57,St Elizabeth'S Medical Center
4.56,2.71,51.46599,-1.28140,MA,10000,5000,50,76,20,Berkshire Medical Center Inc
3.38,2.68,42.03597,-71.09792,MA,7000,5000,50,61,57,Signature Healthcare Brockton Hospital
3.83,2.41,41.94445,-70.64511,MA,8000,4000,50,82,24,Jordan Hospital Inc
4.91,2.62,42.64636,-71.34118,MA,11000,5000,50,87,95,Lowell General Hospital
4.79,2.53,42.11449,-72.59502,MA,11000,5000,50,77,76,Mercy Medical Center
4.11,2.49,42.46049,-71.06203,MA,9000,4000,50,52,76,Hallmark Health System
11.88,3.11,42.36227,-71.06941,MA,29000,6000,50,43,16,Massachusetts General Hospital
4.16,2.45,41.90456,-71.09562,MA,9000,4000,50,85,24,Morton Hospital
5.63,2.61,41.70928,-71.14519,MA,13000,5000,25,51,88,Southcoast Hospital Group Inc
5.72,3.09,42.12077,-72.60525,MA,13000,6000,33,61,82,Baystate Medical Center
4.22,2.47,42.72846,-71.16830,MA,9000,4000,50,73,33,Holy Family Hospital
4.81,2.36,42.27743,-71.23690,MA,11000,4000,0,0,0,Beth Israel Deaconess Hospital - Needham
5.01,2.30,42.43082,-71.37554,MA,11000,4000,50,43,57,Emerson Hospital
6.06,3.33,42.33719,-71.10939,MA,14000,7000,33,71,33,Beth Israel Deaconess Medical Center
4.93,2.41,42.13234,-71.52825,MA,11000,4000,50,71,95,Milford Regional Medical Center
5.02,2.37,42.17644,-70.95398,MA,11000,4000,66,70,48,South Shore Hospital
8.94,2.44,42.33149,-71.24568,MA,22000,4000,66,70,99,Newton-Wellesley Hospital
2.98,2.31,42.46581,-71.12210,MA,6000,4000,50,58,24,Winchester Hospital
3.83,2.35,42.25232,-71.07515,MA,8000,4000,0,0,0,Milton Hospital Inc
10.06,3.07,42.33600,-71.10704,MA,25000,6000,66,40,20,Brigham And Women'S Hospital
3.52,2.62,42.09864,-71.06607,MA,7000,5000,50,58,92,Good Samaritan Medical Center
4.89,3.42,42.34951,-71.06331,MA,11000,7000,50,63,85,Tufts Medical Center
6.90,2.97,42.30049,-71.12771,MA,16000,6000,50,96,3,Faulkner Hospital
4.03,2.35,42.18869,-71.20197,MA,9000,4000,50,77,81,Norwood Hospital
4.32,2.45,41.56412,-70.62200,MA,9000,4000,50,68,94,Falmouth Hospital
6.18,3.16,42.27720,-71.75922,MA,14000,6000,50,36,29,Umass Memorial Medical Center Inc
5.05,2.71,42.48585,-71.20686,MA,11000,5000,66,76,16,Lahey Clinic Hospital
4.21,2.54,42.28385,-71.41896,MA,9000,5000,50,76,85,Metrowest Medical Center
3.83,2.72,42.26633,-71.79760,MA,8000,5000,33,75,57,St Vincent Hospital
4.80,2.20,42.39466,-83.40537,MI,11000,4000,50,60,63,St Mary Mercy Hospital
6.44,2.63,42.28551,-85.58042,MI,15000,5000,66,82,13,Bronson Methodist Hospital
5.87,2.58,42.45741,-83.20513,MI,13000,5000,83,57,48,Providence Hospital And Medical Centers
5.09,2.53,42.29077,-83.21504,MI,11000,5000,33,48,69,Oakwood Hospital And Medical Center
4.07,2.32,42.08955,-86.47781,MI,9000,4000,33,68,88,Lakeland Hospital St Joseph
5.53,2.96,42.41911,-83.18228,MI,13000,6000,83,46,21,Sinai-Grace Hospital
5.30,2.66,42.61425,-83.27602,MI,12000,5000,66,52,79,St Joseph Mercy Oakland
4.73,2.68,42.96881,-85.66649,MI,10000,5000,33,66,82,Spectrum Health - Butterworth Campus
5.55,2.18,43.58941,-83.86908,MI,13000,4000,33,55,98,Mclaren Bay Region
6.18,3.09,42.28388,-83.72960,MI,14000,6000,50,61,43,University Of Michigan Health System
4.39,2.39,42.61490,-82.96060,MI,10000,4000,50,66,54,Henry Ford Macomb Hospital
5.92,3.04,42.36762,-83.08461,MI,14000,6000,66,47,8,Henry Ford Hospital
3.89,2.62,42.95817,-85.66253,MI,8000,5000,50,53,90,Saint Mary'S Health Care
6.76,2.43,42.61504,-83.93929,MI,16000,4000,0,0,0,Saint Joseph Mercy Livingston Hospital
5.93,2.35,43.42857,-83.95556,MI,14000,4000,83,61,63,Covenant Medical Center Inc
4.97,2.42,42.33111,-85.17817,MI,11000,4000,50,83,63,Bronson Battle Creek Hospital
4.97,2.23,44.24532,-85.38950,MI,11000,4000,0,0,0,Mercy Hospital - Cadillac
5.63,2.33,42.38392,-82.91480,MI,13000,4000,50,62,51,Beaumont Hospital Grosse Pointe
6.12,2.24,42.25117,-84.39240,MI,14000,4000,50,85,98,Allegiance Health
5.08,2.47,44.76156,-85.64143,MI,11000,4000,50,41,57,Munson Medical Center
5.21,2.37,41.91643,-83.39771,MI,12000,4000,50,68,37,Mercy Memorial Hospital System
6.30,3.31,42.35230,-83.05676,MI,15000,7000,66,62,63,Harper University Hospital
5.35,2.47,42.30489,-85.56152,MI,12000,4000,66,47,76,Borgess Medical Center
6.29,2.60,42.51418,-83.19259,MI,15000,5000,66,60,16,William Beaumont Hospital
6.74,2.58,43.01399,-83.73250,MI,16000,5000,50,60,33,Mclaren Flint
5.57,2.34,42.27424,-83.36580,MI,13000,4000,50,70,48,Oakwood Annapolis Hospital
4.57,2.34,42.21065,-83.14861,MI,10000,4000,50,70,95,Henry Ford Wyandotte Hospital
4.70,2.81,42.46176,-83.37629,MI,10000,5000,50,78,24,Botsford Hospital
5.80,2.36,42.26181,-83.66003,MI,13000,4000,66,62,33,St Joseph Mercy Hospital
6.27,2.74,42.41975,-82.91442,MI,15000,5000,66,72,9,St John Hospital And Medical Center
6.42,2.48,42.70417,-84.55488,MI,15000,4000,33,76,21,Mclaren - Greater Lansing
5.82,2.41,42.50514,-83.00422,MI,13000,4000,66,56,85,St John Macomb-Oakland Hospital-Macomb Center
7.96,2.68,42.89254,-83.63621,MI,19000,5000,66,70,13,Genesys Regional Medical Center - Health Park
6.49,2.21,42.98625,-82.42802,MI,15000,4000,50,62,29,Port Huron Hospital
4.40,2.42,42.58900,-82.89799,MI,10000,4000,66,61,63,Mount Clemens Regional Medical Center
6.98,2.66,42.73767,-84.51698,MI,16000,5000,83,68,1,Edward W Sparrow Hospital
6.44,2.28,42.67850,-83.14771,MI,15000,4000,50,65,79,Crittenton Hospital Medical Center
6.50,2.31,42.61826,-83.09239,MI,15000,4000,83,60,62,William Beaumont Hospital-Troy
5.74,2.10,42.53914,-83.40777,MI,13000,3000,50,53,39,Henry Ford West Bloomfield Hospital
7.10,2.40,45.01403,-93.32177,MN,17000,4000,66,68,82,North Memorial Medical Center
4.74,2.41,46.79380,-92.09573,MN,10000,4000,83,75,79,Essentia Health St Mary'S Medical Center
6.66,2.73,44.02052,-92.48292,MN,16000,5000,83,42,32,Mayo Clinic - Saint Marys Hospital
5.65,2.65,45.57390,-94.16942,MN,13000,5000,50,61,37,St Cloud Hospital
8.35,2.38,44.94214,-93.10858,MN,20000,4000,50,86,33,United Hospital
3.63,2.32,44.93031,-93.36276,MN,8000,4000,66,72,94,Park Nicollet Methodist Hospital
7.60,2.64,44.95248,-93.26196,MN,18000,5000,50,70,63,Abbott Northwestern Hospital
6.46,2.84,44.95570,-93.09429,MN,15000,5000,50,78,17,Regions Hospital
7.62,2.46,45.18355,-93.36789,MN,18000,4000,50,73,95,Mercy Hospital
8.29,2.61,45.10789,-93.25685,MN,20000,5000,33,85,85,Unity Hospital
7.25,2.36,45.02892,-93.03418,MN,17000,4000,50,75,24,Healtheast St John'S Hospital
5.64,2.25,34.24336,-88.71753,MS,13000,4000,66,61,48,North Mississippi Medical Center
8.11,2.17,30.37516,-88.53226,MS,19000,4000,50,70,3,Singing River Hospital
8.15,2.59,34.19610,-90.55208,MS,20000,5000,0,0,0,Northwest Mississippi Regional Medical Center
5.72,2.16,32.33616,-90.15652,MS,13000,4000,50,60,44,St Dominic-Jackson Memorial Hospital
11.54,2.12,32.28618,-90.03434,MS,29000,4000,50,68,6,Crossgates River Oaks Hospital
5.01,2.06,32.31643,-90.17922,MS,11000,3000,66,43,85,Mississippi Baptist Medical Center
6.05,2.45,34.96927,-89.99709,MS,14000,4000,50,68,11,Baptist Memorial Hospital Desoto
7.54,2.17,37.06032,-94.52747,MO,18000,4000,0,0,0,St John'S Regional Medical Center
6.21,2.23,38.78060,-90.48379,MO,14000,4000,50,76,37,Ssm St Joseph Health Center
6.20,2.90,39.77393,-94.77089,MO,14000,6000,50,58,51,Heartland Regional Medical Center
6.69,2.74,37.95144,-91.75940,MO,16000,5000,50,88,48,Phelps County Regional Medical Center
6.56,2.22,38.64281,-90.44448,MO,15000,4000,83,57,74,Mercy Hospital St Louis
4.13,2.12,38.16498,-90.38082,MO,9000,4000,50,83,82,Jefferson Regional Medical Center
5.57,2.57,38.63524,-90.26508,MO,13000,5000,50,56,12,Barnes Jewish Hospital
5.53,2.24,37.14560,-93.28037,MO,13000,4000,50,61,85,Cox Medical Center
8.11,2.24,39.24809,-94.64928,MO,19000,4000,0,0,0,St Lukes Northland Hospital
4.84,2.07,38.94903,-92.31563,MO,11000,3000,66,73,43,Boone Hospital Center
5.28,2.07,38.50661,-90.38025,MO,12000,3000,66,57,13,St Anthony'S Medical Center
7.01,2.06,38.52738,-90.47501,MO,17000,3000,50,65,44,Ssm St Clare Health Center
6.39,2.06,38.93592,-94.60376,MO,15000,3000,50,75,88,St Joseph Medical Center
7.09,2.66,38.63268,-90.31089,MO,17000,5000,83,77,57,Ssm St Marys Health Center
11.82,2.32,39.04749,-94.34105,MO,29000,4000,50,72,39,Centerpoint Medical Center Of Independence Llc
6.18,2.10,39.14957,-94.55148,MO,14000,3000,50,58,63,North Kansas City Hospital
8.66,2.26,38.75097,-90.43255,MO,21000,4000,66,68,43,Ssm Depaul Health Center
6.26,2.99,38.62280,-90.24049,MO,15000,6000,50,46,5,St Louis University Hospital
4.72,2.07,38.63702,-90.44699,MO,10000,3000,66,68,48,Missouri Baptist Medical Center
7.66,2.21,37.31072,-89.53990,MO,18000,4000,50,72,8,Southeast Missouri Hospital
8.18,2.33,36.78510,-90.42779,MO,20000,4000,50,60,39,Poplar Bluff Regional Medical Center
7.44,2.26,37.05238,-94.52777,MO,18000,4000,83,67,85,Freeman Health System - Freeman West
10.17,2.45,39.04761,-94.59037,MO,25000,4000,66,50,17,St Lukes Hospital Of Kansas City
5.80,2.14,39.27591,-94.42572,MO,13000,4000,33,60,33,Liberty Hospital
5.44,2.16,38.65123,-90.50301,MO,12000,4000,66,67,12,St Lukes Hospital
7.51,2.28,38.77576,-90.23906,MO,18000,4000,66,75,4,Christian Hospital Northeast
9.51,2.21,37.30401,-89.57190,MO,23000,4000,50,65,11,St Francis Medical Center
7.06,2.13,38.80334,-90.77619,MO,17000,4000,50,65,82,Ssm St Joseph Hospital West
7.98,2.11,38.94062,-94.37842,MO,19000,3000,0,0,0,Saint Luke'S East Lee'S Summit Hospital
5.23,2.30,45.78958,-108.51283,MT,12000,4000,50,86,88,Billings Clinic Hospital
6.39,2.27,40.78318,-96.63709,NE,15000,4000,66,70,63,Bryanlgh Medical Center
7.08,2.72,41.25522,-95.97892,NE,17000,5000,50,52,51,The Nebraska Medical Center
5.74,2.30,40.80816,-96.62689,NE,13000,4000,50,66,20,Saint Elizabeth Regional Medical Center
8.44,2.23,41.23897,-96.03162,NE,20000,4000,50,46,82,Alegent Health Bergan Mercy Medical Center
6.81,2.33,41.23771,-96.18052,NE,16000,4000,0,0,0,Alegent Health Lakeside Hospital
8.39,2.40,39.52637,-119.79456,NV,20000,4000,50,66,17,Renown Regional Medical Center
16.82,3.21,36.13459,-115.13576,NV,43000,6000,66,68,9,Sunrise Hospital And Medical Center
6.77,2.61,39.20247,-119.78446,NV,16000,5000,50,56,69,Carson Tahoe Regional Medical Center
10.88,2.65,36.16380,-115.16574,NV,27000,5000,66,70,54,Valley Hospital Medical Center
10.32,2.37,36.11363,-115.12573,NV,25000,4000,83,70,63,Desert Springs Hospital
12.65,2.37,36.21599,-115.25095,NV,32000,4000,66,57,13,Mountainview Hospital
12.24,2.42,36.16586,-115.32436,NV,30000,4000,83,72,27,Summerlin Hospital Medical Center
10.16,2.47,36.00527,-115.11618,NV,25000,4000,50,50,33,Saint Rose Dominican Hospital - Siena Campus
11.84,2.48,36.09056,-115.24058,NV,29000,4000,66,78,12,Spring Valley Hospital Medical Center
12.31,2.38,36.28588,-115.28772,NV,31000,4000,75,66,39,Centennial Hills Hospital Medical Center
5.16,2.37,43.19846,-71.56230,NH,12000,4000,33,63,94,Concord Hospital
7.28,2.28,43.21231,-70.87499,NH,17000,4000,50,73,3,Wentworth-Douglass Hospital
16.19,2.74,40.88346,-74.05564,NJ,41000,5000,50,58,85,Hackensack University Medical Center
16.82,3.51,40.71011,-74.21368,NJ,43000,7000,66,56,11,Newark Beth Israel Medical Center
11.07,2.86,40.79576,-73.99575,NJ,27000,5000,25,62,32,Palisades Medical Ctr-Ny Presbyterian Healthcare S
7.27,2.46,40.53142,-74.86080,NJ,17000,4000,75,55,69,Hunterdon Medical Center
11.26,2.69,40.84945,-74.13768,NJ,28000,5000,50,56,85,St Mary'S Hospital Passaic
8.94,2.56,40.88275,-74.01021,NJ,22000,5000,66,67,57,Holy Name Medical Center
14.01,2.59,40.78556,-74.17598,NJ,35000,5000,66,83,95,Clara Maass Medical Center
11.19,2.47,40.35684,-74.66166,NJ,28000,4000,50,56,21,University Medical Center At Princeton
6.36,2.44,39.08752,-74.81657,NJ,15000,4000,50,73,48,Cape Regional Medical Center Inc
7.99,2.52,40.98359,-74.10047,NJ,19000,5000,50,78,21,Valley Hospital
12.38,3.12,39.94152,-75.11680,NJ,31000,6000,66,42,2,Cooper University Hospital
9.22,2.70,40.78883,-74.46620,NJ,22000,5000,66,43,39,Morristown Memorial Hospital
21.18,2.91,40.73417,-74.04977,NJ,54000,6000,0,0,0,Christ Hospital
14.91,2.39,40.95858,-74.31000,NJ,38000,4000,50,62,1,Chilton Hospital
11.75,2.99,40.90215,-74.16634,NJ,29000,6000,16,53,94,St Joseph'S Regional Medical Center
13.15,2.36,39.78261,-74.91670,NJ,33000,4000,50,52,74,Virtua West Jersey Hospitals Berlin
21.72,2.26,40.61288,-74.29092,NJ,56000,4000,50,80,44,Robert Wood Johnson University Hospital At Rahway
11.20,2.79,40.66005,-74.21417,NJ,28000,5000,50,75,39,Trinitas Regional Medical Center
16.37,2.61,41.05754,-74.76857,NJ,41000,5000,50,77,79,Newton Memorial Hospital
11.34,2.65,39.92695,-75.09537,NJ,28000,5000,50,70,10,Our Lady Of Lourdes Medical Center
14.50,2.49,39.44743,-75.05838,NJ,36000,4000,50,62,1,South Jersey Healthcare Regional Medical Center
13.62,2.26,40.35309,-74.06484,NJ,34000,4000,33,61,69,Riverview Medical Center
17.19,2.92,40.49581,-74.44980,NJ,44000,6000,66,51,1,Robert Wood Johnson University Hospital
13.22,3.06,40.74132,-74.03369,NJ,33000,6000,0,0,0,Hoboken University Medical Center
12.00,2.27,39.96484,-74.21708,NJ,30000,4000,50,47,88,Community Medical Center
17.38,2.70,40.29209,-74.80327,NJ,44000,5000,50,86,29,Capital Health Medical Center - Hopewell
9.19,2.66,40.90400,-73.96847,NJ,22000,5000,66,81,54,Englewood Hospital And Medical Center
13.73,2.31,39.31464,-74.59391,NJ,34000,4000,16,72,82,Shore Medical Center
22.83,2.42,40.56804,-74.59579,NJ,59000,4000,50,67,29,Somerset Medical Center
13.41,2.59,40.89538,-74.46479,NJ,34000,5000,50,63,69,Saint Clare'S Hospital
9.14,2.74,40.71264,-74.35460,NJ,22000,5000,50,52,57,Overlook Hospital
16.68,2.26,40.07832,-74.13009,NJ,42000,4000,50,57,48,Ocean Medical Center
13.55,2.35,39.98588,-74.79393,NJ,34000,4000,66,55,54,Virtua Memorial Hospital Of Burlington County
17.26,2.63,40.70180,-75.17825,NJ,44000,5000,0,0,0,St Luke'S Warren Hospital
19.45,2.78,39.35775,-74.43449,NJ,50000,5000,66,65,88,Atlanticare Regional Medical Center - City Div
18.64,2.86,40.50214,-74.46015,NJ,47000,5000,50,53,29,Saint Peter'S University Hospital
16.13,2.56,40.21065,-74.03566,NJ,41000,5000,50,58,6,Jersey Shore University Medical Center
14.41,2.80,40.29563,-73.98518,NJ,36000,5000,50,50,85,Monmouth Medical Center
15.32,2.95,40.76190,-74.30335,NJ,39000,6000,83,53,2,Saint Barnabas Medical Center
14.30,2.35,39.84392,-75.14985,NJ,36000,4000,50,70,33,Underwood - Memorial Hospital
13.17,2.40,40.07503,-74.21832,NJ,33000,4000,50,71,76,Kimball Medical Center
11.59,2.81,39.82811,-75.00895,NJ,29000,5000,66,60,69,Kennedy University Hospital - Stratford Div
10.01,2.38,39.59285,-75.44416,NJ,25000,4000,0,0,0,Memorial Hospital Of Salem County
20.91,2.62,40.23629,-74.75256,NJ,53000,5000,50,77,57,Capital Health System-Fuld Campus
6.94,2.95,40.74323,-74.17431,NJ,16000,6000,50,68,51,Saint Michael'S Medical Center Inc
12.14,2.57,40.55784,-74.34970,NJ,30000,5000,50,71,57,Jfk Medical Ctr - Anthony M. Yelencsics Community
14.81,2.28,40.21575,-74.67273,NJ,37000,4000,50,67,79,Robert Wood Johnson University Hospital Hamilton
14.40,2.26,40.40516,-74.19203,NJ,36000,4000,50,81,98,Bayshore Community Hospital
14.21,2.41,40.85399,-74.82906,NJ,36000,4000,0,0,0,Hackettstown Regional Medical Center
21.73,2.61,40.78621,-74.07568,NJ,56000,5000,50,83,73,Meadowlands Hospital Medical Center
7.54,2.42,35.08102,-106.63392,NM,18000,4000,33,51,3,Presbyterian Hospital
7.94,2.57,41.92720,-73.99535,NY,19000,5000,50,83,39,Kingston Hospital
4.69,2.66,42.87482,-78.84942,NY,10000,5000,33,45,8,Kaleida Health
4.18,3.06,40.92963,-73.89840,NY,9000,6000,50,61,90,St Joseph'S Medical Center
4.23,4.29,40.83139,-73.90306,NY,9000,9000,50,60,54,Bronx-Lebanon Hospital Center
4.24,2.17,42.09299,-75.93704,NY,9000,4000,50,73,99,Our Lady Of Lourdes Memorial Hospital Inc
9.35,2.68,42.65345,-73.77543,NY,23000,5000,66,60,63,Albany Medical Center Hospital
3.61,3.65,40.70141,-73.81630,NY,7000,8000,0,78,39,Jamaica Hospital Medical Center
4.28,3.09,40.61384,-73.94851,NY,9000,6000,0,0,0,New York Community Hospital Of Brooklyn Inc.
10.20,2.48,41.69441,-73.93432,NY,25000,4000,83,82,54,Vassar Brothers Medical Center
7.13,3.70,40.79041,-73.95386,NY,17000,8000,83,38,5,Mount Sinai Hospital
5.63,3.70,40.72548,-73.55287,NY,13000,8000,50,88,4,Nassau University Medical Center
8.17,3.25,40.63588,-74.10556,NY,20000,7000,66,52,20,Richmond University Medical Center
8.97,2.80,40.72567,-73.24189,NY,22000,5000,50,58,37,Southside Hospital
5.17,2.15,43.09840,-75.27819,NY,12000,4000,50,60,17,Faxton-St Luke'S Healthcare
8.45,2.42,40.87946,-73.41621,NY,20000,4000,50,66,39,Huntington Hospital
9.07,3.60,40.80556,-73.96131,NY,22000,7000,33,56,5,St Luke'S Roosevelt Hospital
7.58,3.19,40.74722,-73.82521,NY,18000,6000,66,63,79,New York Hospital Medical Center Of Queens
6.33,3.86,40.68983,-73.97794,NY,15000,8000,83,71,13,Brooklyn Hospital Center At Downtown Campus
6.59,2.12,42.65583,-73.80372,NY,15000,3000,33,47,54,St Peter'S Hospital
10.36,3.77,40.87987,-73.87996,NY,25000,8000,50,38,44,Montefiore Medical Center
4.85,2.43,40.94161,-73.83650,NY,11000,4000,33,63,12,Lawrence Hospital Center
4.13,3.70,40.71016,-74.00464,NY,9000,8000,50,72,33,New York Downtown Hospital
10.86,2.78,41.71846,-73.92710,NY,27000,5000,50,80,79,St Francis Hospital
4.07,2.33,42.92866,-78.84819,NY,9000,4000,50,55,29,Sisters Of Charity Hospital
3.20,4.30,40.81770,-73.92401,NY,6000,9000,75,83,39,Lincoln Medical & Mental Health Center
3.48,2.19,42.45748,-75.05244,NY,7000,4000,0,0,0,Aurelia Osborn Fox Memorial Hospital
4.93,3.14,40.91304,-73.84024,NY,11000,6000,0,0,0,Mount Vernon Hospital
3.64,2.27,42.24595,-73.77855,NY,8000,4000,0,0,0,Columbia Memorial Hospital
8.51,3.60,40.76487,-73.95398,NY,21000,7000,33,32,74,New York-Presbyterian Hospital
9.54,2.67,41.09642,-73.92501,NY,23000,5000,66,77,76,Nyack Hospital
10.70,3.23,40.77686,-73.70212,NY,26000,6000,33,61,69,North Shore University Hospital
7.62,2.59,40.93376,-72.67383,NY,18000,5000,0,0,0,Peconic Bay Medical Center
5.67,2.33,42.09221,-76.79733,NY,13000,4000,0,0,0,St Joseph'S Hospital Inc
10.66,3.05,40.77362,-73.96093,NY,26000,6000,33,46,11,Lenox Hill Hospital
5.45,2.32,43.19244,-77.58590,NY,12000,4000,66,46,17,Rochester General Hospital
8.77,2.52,41.44138,-74.36821,NY,21000,5000,50,62,69,Orange Regional Medical Center
4.97,4.21,40.85407,-73.84688,NY,11000,9000,50,70,74,Jacobi Medical Center
4.56,3.91,40.74465,-73.88620,NY,10000,8000,25,83,32,Elmhurst Hospital Center
8.58,2.69,41.36763,-74.68150,NY,21000,5000,0,0,0,Bon Secours Community Hospital
3.83,2.41,43.05571,-76.14981,NY,8000,4000,83,37,20,St Joseph'S Hospital Health Center
13.93,2.52,40.78000,-72.97763,NY,35000,5000,33,60,32,Brookhaven Memorial Hospital Medical Center
5.62,2.24,42.81963,-73.91653,NY,13000,4000,50,68,21,Ellis Hospital
11.82,2.70,41.11299,-74.13732,NY,29000,5000,66,82,82,Good Samaritan Hospital Of Suffern
7.34,3.07,40.58440,-74.08507,NY,17000,6000,66,71,37,Staten Island University Hospital
4.94,2.43,41.19677,-73.72572,NY,11000,4000,50,68,69,Northern Westchester Hospital
2.72,2.33,43.17738,-78.67123,NY,5000,4000,0,0,0,Eastern Niagara Hospital
11.57,2.94,40.74083,-73.64306,NY,29000,6000,66,50,74,Winthrop-University Hospital
10.14,3.55,40.73265,-73.98162,NY,25000,7000,50,60,39,Beth Israel Medical Center
3.66,2.30,42.60884,-76.18764,NY,8000,4000,50,60,67,Cortland Regional Medical Center Inc
4.83,2.55,40.87062,-73.62249,NY,11000,5000,50,82,85,Glen Cove Hospital
8.49,2.47,40.80462,-73.67023,NY,20000,4000,83,72,94,St Francis Hospital Roslyn
4.94,3.19,40.91276,-73.78720,NY,11000,6000,50,83,6,Sound Shore Medical Center Of Westschester
7.75,2.38,40.94000,-73.05510,NY,18000,4000,50,63,63,John T Mather Memorial Hospital  Of Port Jefferson
3.86,2.11,43.30652,-73.64663,NY,8000,3000,50,63,90,Glens Falls Hospital
5.29,3.41,40.75543,-73.81532,NY,12000,7000,25,72,63,Flushing Hospital Medical Center
7.36,3.69,40.63937,-73.99851,NY,17000,8000,50,45,54,Maimonides Medical Center
10.26,3.53,40.75332,-73.70899,NY,25000,7000,50,45,90,Long Island Jewish Medical Center
4.58,3.72,40.58549,-73.96558,NY,10000,8000,25,72,29,Coney Island Hospital
6.16,2.52,40.65189,-73.63096,NY,14000,5000,50,52,43,South Nassau Communities Hospital
3.53,4.28,40.78443,-73.94474,NY,7000,9000,25,70,46,Metropolitan Hospital Center
5.35,2.56,43.04139,-76.13803,NY,12000,5000,50,41,1,Crouse Hospital
4.50,4.11,40.74178,-73.98236,NY,10000,9000,50,63,24,Bellevue Hospital Center
6.91,3.01,40.96967,-73.88447,NY,16000,6000,50,75,85,St John'S Riverside Hospital
10.07,3.26,40.74335,-73.97408,NY,25000,7000,33,63,21,Nyu Hospitals Center
5.60,3.66,40.70419,-73.91754,NY,13000,8000,50,81,16,Wyckoff Heights Medical Center
5.76,2.11,43.08561,-73.79712,NY,13000,3000,50,58,29,Saratoga Hospital
3.85,3.81,40.71730,-73.80353,NY,8000,8000,25,83,28,Queens Hospital Center
5.24,3.73,40.65533,-73.91221,NY,12000,8000,50,62,54,Brookdale Hospital Medical Center
12.51,3.56,41.08773,-73.80395,NY,31000,7000,50,42,63,Westchester Medical Center
4.49,2.30,42.94136,-76.56474,NY,10000,4000,0,0,0,Auburn Community Hospital
6.60,3.40,40.66762,-73.97850,NY,15000,7000,33,55,29,New York Methodist Hospital
3.89,2.13,42.08997,-79.23058,NY,8000,4000,0,0,0,Woman'S Christian Association
7.42,3.01,43.04269,-76.14043,NY,18000,6000,66,41,3,University Hospital S U N Y Health Science Center
4.46,2.31,43.08176,-75.26587,NY,10000,4000,66,62,24,St Elizabeth Medical Center
9.63,2.62,40.94779,-73.06033,NY,23000,5000,50,58,29,St Charles Hospital
5.32,2.79,44.70022,-73.47100,NY,12000,5000,50,55,0,Champlain Valley Physicians Hospital Medical Ctr
7.38,2.55,40.68896,-73.63259,NY,17000,5000,50,62,37,Mercy Medical Center
7.09,2.83,41.10880,-73.86355,NY,17000,5000,0,0,0,Phelps Memorial Hospital Assn
8.25,2.53,41.50307,-74.01517,NY,20000,5000,33,81,95,St Luke'S Cornwall Hospital
8.10,2.48,41.29201,-73.89529,NY,19000,4000,50,82,76,Hudson Valley Hospital Center
5.51,2.88,43.12266,-77.62360,NY,13000,6000,50,55,21,Strong Memorial Hospital
8.96,2.65,40.69327,-73.29412,NY,22000,5000,50,70,74,Good Samaritan Hospital Medical Center
6.25,2.44,41.02614,-73.76978,NY,15000,4000,50,62,44,White Plains Hospital Center
5.45,3.76,40.64666,-74.02049,NY,12000,8000,50,67,5,Lutheran Medical Center
5.47,2.70,40.83778,-73.85417,NY,12000,5000,50,66,16,New York Westchester Square Medical Center
6.56,2.56,40.77481,-73.47968,NY,15000,5000,50,56,20,Plainview Hospital
7.46,2.40,40.72593,-73.47844,NY,18000,4000,50,62,56,St Joseph Hospital
6.44,2.68,40.88512,-72.38030,NY,15000,5000,50,88,73,Southampton Hospital
4.97,3.94,40.65508,-73.94521,NY,11000,8000,50,66,8,University Hospital Of Brooklyn ( Downstate )
6.26,2.90,40.72931,-73.85219,NY,15000,6000,50,55,13,Forest Hills Hospital
9.67,2.51,40.68104,-73.68633,NY,24000,5000,50,66,69,Franklin Hospital
4.10,3.89,40.87986,-73.88041,NY,9000,8000,0,0,0,North Central Bronx Hospital
7.67,3.28,40.90922,-73.11520,NY,18000,7000,50,60,44,University Hospital ( Stony Brook )
4.56,2.37,42.11422,-75.95851,NY,10000,4000,66,48,92,United Health Services Hospitals Inc
9.13,4.20,40.59803,-73.75296,NY,22000,9000,50,63,7,St John'S Episcopal Hospital At South Shore
6.92,4.31,40.85263,-73.89184,NY,16000,9000,50,62,44,St Barnabas Hospital
11.70,2.44,40.85738,-73.18681,NY,29000,4000,50,76,88,St Catherine Of Siena Hospital
6.17,2.40,35.43754,-80.60147,NC,14000,4000,66,65,16,Carolinas Medical Center-Northeast
5.29,2.36,35.57658,-82.54922,NC,12000,4000,66,40,81,Memorial Mission Hospital And Asheville Surgery Ce
5.97,2.23,35.95000,-80.00000,NC,14000,4000,50,66,39,High Point Regional Hospital
4.39,2.54,36.07581,-80.29779,NC,10000,5000,50,52,39,Forsyth Memorial Hospital
7.59,2.16,35.46894,-79.18668,NC,18000,4000,50,77,21,Central Carolina Hospital
8.32,2.53,35.03156,-78.93205,NC,20000,5000,50,50,18,Cape Fear Valley Medical Center
7.15,2.95,36.00850,-78.94006,NC,17000,6000,66,43,76,Duke University Hospital
5.51,2.32,35.27341,-81.13688,NC,13000,4000,50,70,69,Gaston Memorial Hospital
7.46,2.16,35.79986,-80.87863,NC,18000,4000,50,62,95,Iredell Memorial Hospital Inc
6.91,2.82,35.60726,-77.40477,NC,16000,5000,50,46,1,Pitt County Memorial Hospital
4.62,3.02,36.09062,-80.27161,NC,10000,6000,83,55,57,North Carolina Baptist Hospital
7.83,2.60,34.63723,-79.01213,NC,19000,5000,50,71,63,Southeastern Regional Medical Center
5.59,2.32,35.22196,-80.83287,NC,13000,4000,50,63,13,Presbyterian Hospital
8.01,2.52,35.78523,-78.58836,NC,19000,5000,33,50,79,Wakemed Raleigh Campus
6.00,2.54,35.30715,-78.63474,NC,14000,5000,0,0,0,Betsy Johnson Regional  Hospital
7.30,2.42,35.50624,-78.32511,NC,17000,4000,50,55,24,Johnston Memorial Hospital
5.37,2.45,36.09251,-79.78855,NC,12000,4000,66,66,51,Moses H Cone Memorial Hospital The
5.45,2.22,36.26164,-80.83882,NC,12000,4000,0,0,0,Hugh Chatham Memorial Hospital
7.45,2.88,35.20397,-80.83908,NC,18000,6000,66,63,24,Carolinas Medical Center/Behav Health
6.24,2.13,35.81801,-78.70283,NC,14000,4000,50,65,54,Rex Hospital
5.89,2.41,35.20554,-79.45645,NC,14000,4000,66,60,44,Firsthealth Moore Regional Hospital
7.24,2.14,35.54775,-80.85563,NC,17000,4000,50,82,4,Lake Norman Regional Medical Center
4.00,2.52,35.11420,-77.06568,NC,9000,5000,33,73,90,Carolina East Medical Center
5.53,2.48,34.23786,-77.94764,NC,13000,4000,83,70,57,New Hanover Regional Medical Center
4.56,2.46,34.72615,-76.75452,NC,10000,4000,0,0,0,Carteret General Hospital
4.59,2.31,36.43295,-77.64729,NC,10000,4000,0,0,0,Halifax Regional Medical Center Inc
6.19,2.16,35.11432,-80.71971,NC,14000,4000,0,0,0,Presbyterian Hospital Matthews
8.84,2.18,35.74046,-78.78127,NC,21000,4000,50,72,13,Wakemed Cary Hospital
3.69,2.19,35.52586,-82.94351,NC,8000,4000,0,0,0,Medwest Haywood
5.10,2.17,39.08582,-84.34886,OH,11000,4000,50,72,85,Mercy Hospital Anderson
6.52,3.40,39.13707,-84.50392,OH,15000,7000,66,45,21,University Hospital Inc
6.76,2.38,40.03064,-83.03440,OH,16000,4000,83,71,21,Riverside Methodist Hospital
5.21,2.41,38.75320,-82.97800,OH,12000,4000,50,61,69,Southern Ohio Medical Center
5.44,2.13,40.73578,-84.08630,OH,12000,4000,75,61,13,Lima Memorial Health System
4.72,2.27,40.57098,-83.12972,OH,10000,4000,50,91,48,Marion General Hospital
4.38,2.31,40.11479,-82.94677,OH,10000,4000,50,66,12,Mount Carmel St Ann'S Hospital
7.35,3.14,39.20680,-84.38093,OH,17000,6000,50,76,94,Jewish Hospital Llc
5.40,2.70,39.96098,-82.99077,OH,12000,5000,66,78,21,Grant Medical Center
10.34,2.31,41.01476,-81.58913,OH,25000,4000,50,77,43,Summa Health System Barberton Hospital
9.20,2.45,41.08161,-81.50007,OH,22000,4000,66,63,33,Summa Health Systems Hospitals
9.84,2.37,41.07747,-81.53042,OH,24000,4000,66,70,63,Akron General Medical Center
4.70,2.34,39.95805,-83.02191,OH,10000,4000,66,42,1,Mount Carmel Health
5.03,2.32,39.97510,-82.01812,OH,11000,4000,50,78,92,Genesis Healthcare System
5.12,2.08,41.38265,-81.73127,OH,11000,3000,50,75,94,Parma Community General Hospital
12.17,2.43,39.74547,-84.18523,OH,30000,4000,66,45,1,Miami Valley Hospital
11.93,2.36,39.78778,-84.23493,OH,30000,4000,66,56,16,Good Samaritan Hospital
7.35,2.12,41.23549,-80.79865,OH,17000,4000,66,56,0,Trumbull Memorial Hospital
5.85,2.15,39.31257,-84.51774,OH,13000,4000,50,90,69,Mercy Hospital Fairfield
4.51,3.14,41.46088,-81.69763,OH,10000,6000,50,60,24,Metro Health Medical Center
4.22,2.17,41.22570,-82.60491,OH,9000,4000,0,0,0,Fisher-Titus Hospital
5.19,2.19,40.74115,-84.11804,OH,12000,4000,66,73,6,St Rita'S Medical Center
10.07,2.37,41.67775,-83.59589,OH,25000,4000,33,70,57,Toledo Hospital The
3.48,2.40,40.81219,-81.39625,OH,7000,4000,50,62,43,Mercy Medical Center
7.81,2.30,41.45013,-81.82397,OH,19000,4000,66,60,18,Fairview Hospital
6.59,2.19,41.17554,-81.24915,OH,15000,4000,50,76,37,Robinson Memorial Hospital
7.73,2.35,39.69724,-84.19232,OH,18000,4000,66,80,57,Kettering Medical Center
6.18,2.15,41.59825,-81.54884,OH,14000,4000,50,70,57,Euclid Hospital
5.23,2.24,40.79609,-81.40360,OH,12000,4000,50,63,17,Aultman Hospital
5.93,2.26,39.92755,-83.81573,OH,14000,4000,50,67,48,Springfield Regional Medical Center
5.28,2.12,41.55725,-83.68141,OH,12000,4000,50,65,85,St Luke'S Hospital
3.22,2.19,40.62149,-80.58651,OH,6000,4000,0,0,0,East Liverpool City Hospital
7.48,2.07,41.66317,-81.24696,OH,18000,3000,50,73,39,Lake Health
7.28,2.84,41.66810,-83.54275,OH,17000,5000,50,70,5,Mercy St Vincent Medical Center
5.19,2.11,39.13628,-84.60485,OH,12000,3000,50,77,95,Mercy Franciscan Hospital Western Hills
4.73,2.12,40.75264,-82.52803,OH,10000,4000,83,81,92,Medcentral Health System
6.23,2.26,41.43653,-81.94451,OH,14000,4000,50,72,76,St John Medical Center
7.90,2.23,39.41551,-84.57263,OH,19000,4000,50,80,29,Fort Hamilton Hughes Memorial Hospital
7.87,2.81,39.13975,-84.52173,OH,19000,5000,66,83,69,Good Samaritan Hospital
4.94,2.89,41.50772,-81.60592,OH,11000,6000,83,46,44,University Hospitals Of Cleveland
7.40,2.10,41.42112,-81.59808,OH,18000,3000,50,82,21,Marymount Hospital
7.07,2.32,41.44829,-81.53736,OH,17000,4000,50,81,21,South Pointe Hospital
4.87,2.22,41.36649,-82.09708,OH,11000,4000,66,75,98,Emh Regional Medical Center
5.44,2.35,39.43061,-81.46454,OH,12000,4000,50,71,99,Marietta Memorial Hospital
7.82,2.97,39.95311,-83.13803,OH,19000,6000,50,48,48,Doctors Hospital
6.39,2.10,41.37028,-81.83189,OH,15000,3000,50,71,74,Southwest General Health Center
4.75,2.41,39.39463,-82.96979,OH,10000,4000,50,50,24,Adena Regional Medical Center
5.52,2.43,39.12105,-84.51059,OH,13000,4000,83,46,88,Christ Hospital
6.95,2.19,41.43688,-82.23761,OH,16000,4000,50,82,69,Mercy Regional Medical Center
6.53,2.26,39.25076,-84.34341,OH,15000,4000,50,62,99,Bethesda North Hospital
9.87,2.78,41.50248,-81.62110,OH,24000,5000,33,32,24,Cleveland Clinic
3.54,2.44,40.04115,-81.57789,OH,7000,4000,0,0,0,Southeastern Ohio Regional Medical Center
8.98,2.16,41.48479,-81.79649,OH,22000,4000,50,67,69,Lakewood Hospital
6.69,2.09,41.52013,-81.43291,OH,16000,3000,66,45,37,Hillcrest Hospital
5.13,2.03,40.99498,-80.66192,OH,12000,3000,50,70,29,St Elizabeth Boardman Health Center
7.43,2.02,39.35830,-84.36785,OH,18000,3000,50,93,57,West Chester Medical Center
5.44,2.97,36.14687,-95.96841,OK,12000,6000,83,76,32,Hillcrest Medical Center
7.76,2.14,35.22999,-97.44074,OK,19000,4000,50,73,21,Norman Regional Health System
5.25,2.23,35.60735,-97.59693,OK,12000,4000,66,51,6,Mercy Health Center Inc
6.60,2.05,36.39385,-97.87094,OK,15000,3000,50,77,63,St Mary'S Regional Medical Center
5.16,2.32,36.06135,-95.95154,OK,12000,4000,83,61,44,Saint Francis Hospital Inc
9.08,2.13,35.46721,-97.39370,OK,22000,4000,50,76,92,Midwest Regional Medical Center
10.08,2.35,35.42168,-97.53306,OK,25000,4000,66,70,24,Integris Southwest Medical Center
5.00,2.24,36.13393,-95.96718,OK,11000,4000,50,51,11,St John Medical Center Inc
2.30,2.25,35.80907,-94.64301,OK,4000,4000,0,0,0,Memorial Hospital Of Stilwell
3.77,2.11,35.38969,-97.42688,OK,8000,3000,50,100,90,Oklahoma Heart Hospital South
4.05,2.41,45.52677,-122.61469,OR,9000,4000,66,75,0,Providence Portland Medical Center
6.95,2.24,41.40075,-75.64594,PA,16000,4000,50,77,94,Community Medical Center
4.98,2.74,40.35127,-79.84949,PA,11000,5000,50,55,57,Upmc Mckeesport
7.76,2.09,40.25296,-76.92151,PA,19000,3000,83,85,95,Holy Spirit Hospital
7.12,2.84,40.96789,-76.60506,PA,17000,5000,33,56,13,Geisinger Medical Center
10.28,2.38,42.11102,-80.07912,PA,25000,4000,50,72,57,Saint Vincent Health Center
11.12,2.21,40.25092,-75.27204,PA,27000,4000,50,81,76,Lansdale Hospital
3.46,2.29,41.01409,-80.35398,PA,7000,4000,50,75,87,Jameson Memorial Hospital
12.58,2.41,40.07880,-75.21107,PA,31000,4000,50,70,37,Chestnut Hill Hospital
3.72,2.26,40.68423,-76.18761,PA,8000,4000,0,0,0,Schuylkill Medical Center - South Jackson Street
3.27,2.19,40.71251,-80.32136,PA,7000,4000,33,66,48,Heritage Valley Beaver
4.92,2.35,40.18302,-80.24767,PA,11000,4000,50,76,94,Washington Hospital The
6.94,2.50,40.33271,-75.95020,PA,16000,5000,50,67,21,Reading Hospital Medical Center
3.80,2.25,41.24548,-77.01438,PA,8000,4000,50,57,37,Williamsport Regional Medical Center
6.39,2.64,39.94604,-76.71884,PA,15000,5000,66,45,8,York Hospital
9.76,2.49,40.60811,-75.39260,PA,24000,4000,66,53,57,St Luke'S Hospital Bethlehem
9.02,2.72,40.45705,-80.00363,PA,22000,5000,83,70,44,Allegheny General Hospital
7.18,2.07,40.18359,-77.22459,PA,17000,3000,0,0,0,Carlisle Regional Medical Center
5.53,2.18,40.32799,-76.44588,PA,13000,4000,50,58,69,Good Samaritan Hospital
4.79,2.65,40.25661,-76.87572,PA,11000,5000,83,47,0,Pinnacle Health Hospitals
17.78,2.29,40.10226,-74.86338,PA,45000,4000,50,72,12,Lower Bucks Hospital
5.97,2.50,41.98012,-76.52072,PA,14000,5000,50,65,48,Robert Packer Hospital
4.61,2.07,41.36116,-79.70065,PA,10000,3000,0,0,0,Upmc Northwest
12.94,2.32,40.11139,-75.09250,PA,32000,4000,50,72,69,Holy Redeemer Hospital And Medical Center
5.96,2.24,40.04740,-76.30540,PA,14000,4000,66,60,82,Lancaster General Hospital
7.05,2.54,40.48928,-79.89596,PA,17000,5000,50,72,63,Upmc St Margaret
6.13,2.02,40.57319,-80.01455,PA,14000,3000,50,57,48,Upmc Passavant
4.60,2.38,40.32674,-78.92197,PA,10000,4000,50,61,3,Conemaugh Valley Memorial Hospital
12.07,3.15,39.95045,-75.19259,PA,30000,6000,50,33,39,Hospital Of Univ Of Pennsylvania
9.13,2.58,40.07160,-74.98341,PA,22000,5000,33,67,5,Aria Health
9.99,2.22,40.24397,-75.61364,PA,24000,4000,50,83,48,Pottstown Memorial Medical Center
9.03,2.52,40.60000,-75.47000,PA,22000,5000,66,58,54,Lehigh Valley Hospital
7.17,2.20,41.25860,-75.86729,PA,17000,4000,50,60,79,Wilkes-Barre General Hospital
12.47,2.63,40.01883,-75.32115,PA,31000,5000,50,71,85,Main Line Hospital Bryn Mawr Campus
10.21,3.84,40.03678,-75.14351,PA,25000,8000,66,62,4,Albert Einstein Medical Center
5.00,2.11,40.30103,-79.55505,PA,11000,3000,66,80,17,Excela Health Westmoreland Regional Hospital
5.90,2.02,40.20313,-79.92616,PA,14000,3000,50,80,74,Monongahela Valley Hospital
6.50,2.23,39.93492,-77.64744,PA,15000,4000,50,58,48,Chambersburg Hospital
12.06,2.31,40.04475,-75.50425,PA,30000,4000,50,71,20,Main Line Hospital Paoli
13.60,2.93,39.92871,-75.26873,PA,34000,6000,66,65,17,Mercy Fitzgerald Hospital
11.41,2.39,40.68708,-75.24272,PA,28000,4000,66,68,3,Easton Hospital
12.03,2.87,40.44190,-79.96044,PA,30000,5000,83,55,11,Upmc Presbyterian Shadyside
7.46,2.08,40.86656,-79.88351,PA,18000,3000,33,86,69,Butler Memorial Hospital
4.11,2.14,40.60755,-79.15657,PA,9000,4000,0,0,0,Indiana Regional Medical Center
9.33,3.24,39.94969,-75.15712,PA,23000,6000,66,41,57,Thomas Jefferson University Hospital
23.90,2.68,39.85598,-75.36791,PA,61000,5000,66,56,13,Crozer Chester Medical Center
10.43,2.49,39.98905,-75.27707,PA,26000,4000,50,53,24,Main Line Hospital Lankenau
8.48,2.54,40.99225,-75.17466,PA,20000,5000,50,90,63,Pocono Medical Center
8.13,2.20,40.30531,-75.14763,PA,20000,4000,33,83,92,Doylestown Hospital
13.09,2.28,40.05931,-75.04140,PA,33000,4000,50,50,29,Nazareth Hospital
4.24,2.28,41.23235,-80.49626,PA,9000,4000,50,80,76,Sharon Regional Health System
13.56,2.21,39.91254,-75.43047,PA,34000,4000,50,90,79,Riddle Memorial Hospital
10.63,2.78,39.95825,-75.19909,PA,26000,5000,66,53,54,Penn Presbyterian Medical Center
11.96,2.44,40.12077,-75.11818,PA,30000,4000,83,51,43,Abington Memorial Hospital
8.92,2.22,40.20064,-74.92952,PA,22000,4000,33,71,44,St Mary Medical Center
9.51,2.35,40.64463,-75.40842,PA,23000,4000,66,66,8,Lehigh Valley Hospital - Muhlenberg
3.88,2.02,40.31802,-79.93494,PA,8000,3000,50,83,88,Jefferson Regional Medical Center
5.93,2.21,40.42897,-79.74808,PA,14000,4000,50,57,57,Western Pennsylvania Hosp Forbes Regional Campus
5.60,2.32,40.81936,-77.84273,PA,13000,4000,50,91,57,Mount Nittany Medical Center
30.00,3.23,39.95658,-75.16249,PA,78000,6000,83,71,6,Hahnemann University Hospital
7.22,3.07,41.86943,-71.37561,RI,17000,6000,50,66,6,Memorial Hospital Of Rhode Island
5.79,2.37,41.85574,-71.45945,RI,13000,4000,50,67,76,St Joseph Health Services Of Ri
7.65,3.07,41.81254,-71.40760,RI,18000,6000,33,48,6,Rhode Island Hospital
9.16,2.44,41.70541,-71.47790,RI,22000,4000,50,50,39,Kent County Memorial Hospital
7.33,2.47,34.95535,-81.05137,SC,17000,4000,50,75,33,Piedmont Medical Center
8.67,2.68,34.02839,-81.03539,SC,21000,5000,33,43,21,Palmetto Health Richland
5.62,2.65,33.37683,-79.29450,SC,13000,5000,0,0,0,Georgetown Memorial Hospital
6.94,2.38,34.19543,-79.76256,SC,16000,4000,50,50,79,Mcleod Regional Medical Center-Pee Dee
6.32,2.77,34.17571,-82.15791,SC,15000,5000,66,65,20,Self Regional Healthcare
9.75,2.26,32.97605,-80.07302,SC,24000,4000,50,56,48,Trident Medical Center
6.06,2.16,33.70704,-78.89487,SC,14000,4000,66,50,57,Grand Strand Reg Med Center
9.91,2.22,34.19543,-79.76256,SC,24000,4000,33,66,13,Carolinas Hospital System
5.90,2.02,33.59553,-79.02412,SC,14000,3000,50,76,39,Waccamaw Community Hospital
7.01,2.45,43.53460,-96.71136,SD,17000,4000,66,60,81,Avera Mckennan Hospital & University Health Center
6.32,2.36,43.53562,-96.74305,SD,15000,4000,66,82,57,Sanford Usd Medical Center
6.01,2.96,44.05563,-103.22633,SD,14000,6000,66,42,82,Rapid City Regional Hospital
10.76,2.27,36.24440,-86.75204,TN,26000,4000,50,71,85,Skyline Medical Center
4.90,2.18,35.93917,-85.01865,TN,11000,4000,50,65,44,Cumberland Medical Center
4.96,2.12,36.58587,-82.25703,TN,11000,3000,50,62,48,Wellmont Bristol Regional Medical Center
6.56,2.32,35.12837,-89.86202,TN,15000,4000,50,43,39,Baptist Memorial Hospital
9.24,2.96,35.13640,-90.01928,TN,22000,6000,66,51,37,Methodist Healthcare Memphis Hospitals
5.55,2.21,35.86074,-86.42434,TN,13000,4000,33,87,16,Middle Tennessee Medical Center Inc
4.17,2.22,36.17121,-85.50938,TN,9000,4000,50,73,98,Cookeville Regional Medical Center
6.03,2.28,36.30767,-82.38497,TN,14000,4000,83,50,21,Johnson City Medical Center
5.06,2.10,36.12859,-86.84559,TN,11000,3000,16,75,98,St Thomas Hospital
7.82,2.05,35.04157,-85.26037,TN,19000,3000,33,72,99,Memorial Healthcare System Inc
6.28,2.46,35.05068,-85.28823,TN,15000,4000,50,52,0,Erlanger Medical Center
6.65,2.04,35.99233,-83.92697,TN,16000,3000,50,56,85,Tennova Healthcare
6.14,4.22,29.31233,-94.77317,TX,14000,9000,66,55,21,University Of Texas Medical Branch Gal
7.64,2.58,32.78994,-96.78044,TX,18000,5000,83,58,33,Baylor University Medical Center
7.48,2.05,28.81269,-96.97780,TX,18000,3000,50,71,54,Citizens Medical Center
14.14,2.56,27.53249,-99.47808,TX,36000,5000,50,83,94,Laredo Medical Center
9.62,2.55,26.17446,-97.67014,TX,23000,5000,50,67,57,Vhs Harlingen Hospital Company Llc
7.04,2.13,30.08729,-94.13292,TX,17000,4000,66,86,79,Christus Hospital
16.73,2.37,33.57524,-101.89272,TX,42000,4000,50,41,48,Covenant Medical Center
5.34,2.12,31.51444,-97.19927,TX,12000,4000,50,50,33,Providence Health Center
7.60,2.55,32.81224,-96.83795,TX,18000,5000,33,63,29,Ut Southwestern University Hospital
6.93,2.52,31.07837,-97.36403,TX,16000,5000,50,56,85,Scott & White Memorial Hospital
11.95,2.91,30.30491,-97.74540,TX,30000,6000,16,56,63,Seton Medical Center Austin
9.98,2.32,29.43360,-98.49265,TX,24000,4000,66,61,24,Baptist Medical Center
6.78,2.39,32.74944,-97.11630,TX,16000,4000,66,55,63,Texas Health Arlington Memorial Hospital
10.10,2.15,32.34280,-95.29201,TX,25000,4000,50,60,98,Mother Frances Hospital
14.55,2.45,31.76998,-106.49897,TX,37000,4000,66,58,8,Las Palmas Medical Center
14.40,2.72,26.26353,-98.18455,TX,36000,5000,66,91,74,South Texas Health System
7.20,2.45,31.84507,-102.37373,TX,17000,4000,33,82,29,Medical Center Hospital
7.73,2.39,32.73780,-97.33899,TX,18000,4000,66,55,57,Texas Health Harris Methodist Fort Worth
5.93,2.47,32.73070,-97.34379,TX,14000,4000,66,57,74,Baylor All Saints Medical Center At Fw
10.50,2.30,28.80765,-96.99896,TX,26000,4000,50,76,6,Detar Hospital Navarro
8.11,2.22,31.11326,-97.80076,TX,19000,4000,0,0,0,Metroplex Hospital
9.25,2.53,29.81230,-95.43010,TX,22000,5000,66,62,69,Memorial Hermann Hospital System
15.01,3.28,29.70719,-95.40048,TX,38000,7000,66,43,1,St Lukes Episcopal Hospital
6.88,2.15,32.74765,-97.78477,TX,16000,4000,0,0,0,Weatherford Regional Medical Center
15.73,2.43,30.28473,-95.46714,TX,40000,4000,33,52,48,Conroe Regional Medical Center
6.23,2.10,35.19533,-101.91907,TX,14000,3000,66,60,21,Baptist St Anthonys Health System-Baptist Campus
8.15,2.24,30.07104,-94.11927,TX,20000,4000,83,63,85,Memorial Hermann Baptist Beaumont Hospital
14.92,2.66,29.71020,-95.39956,TX,38000,5000,100,60,13,Methodist Hospitalthe
9.79,2.40,29.50795,-98.57224,TX,24000,4000,66,62,57,Methodist Hospital
9.66,2.54,30.28957,-97.72584,TX,24000,5000,66,81,63,St Davids Medical Center
9.12,2.35,32.88076,-96.76226,TX,22000,4000,66,66,3,Texas Health Presbyterian Hospital  Dallas
6.68,2.16,31.46574,-100.43466,TX,16000,4000,50,72,79,Shannon Medical Center
7.85,2.63,29.78143,-95.54541,TX,19000,5000,83,77,92,Memorial Hermann Memorial City Medical Center
11.63,2.25,29.54043,-95.12730,TX,29000,4000,66,51,21,Clear Lake Regional Medical Center
10.28,2.23,33.17345,-97.11382,TX,25000,4000,83,72,54,Denton Regional Medical Center
14.37,2.36,30.01994,-95.44379,TX,36000,4000,50,65,69,Houston Northwest Medical Center
14.97,3.64,32.91132,-96.77424,TX,38000,8000,83,51,6,Medical City Dallas Hospital
12.86,2.22,33.02168,-96.76621,TX,32000,4000,50,67,11,Medical Center Of Plano
12.31,2.41,31.77757,-106.48060,TX,31000,4000,75,62,48,Sierra Medical Center
10.92,2.23,33.04634,-97.00473,TX,27000,4000,0,0,0,Medical Center Of Lewisville
11.67,2.32,32.73563,-97.34483,TX,29000,4000,83,41,74,Plaza Medical Center Of Fort Worth
13.22,2.51,32.69299,-97.11219,TX,33000,5000,50,60,32,Medical Center Of Arlington
4.90,2.69,33.58838,-101.89214,TX,11000,5000,50,50,24,University Medical Center
10.55,2.24,32.77904,-96.60113,TX,26000,4000,100,73,74,Dallas Regional Medical Center
11.42,2.72,26.18586,-98.22085,TX,28000,5000,50,66,48,Rio Grande Regional Hospital
10.84,2.21,30.22723,-97.77447,TX,27000,4000,50,43,69,St David'S South Austin Medical Center
14.02,2.41,29.92772,-95.59016,TX,35000,4000,50,76,12,Cypress Fairbanks Medical Center
8.33,2.27,33.21746,-97.16488,TX,20000,4000,75,77,74,Texas Health Presbyterian Hospital Denton
12.54,2.25,29.96603,-95.55127,TX,31000,4000,50,77,94,Methodist Willowbrook Hospital
10.72,2.15,30.40505,-97.74357,TX,26000,4000,0,0,0,Seton  Northwest Hospital
4.09,2.26,41.22300,-111.97383,UT,9000,4000,33,70,33,Mckay Dee Hospital Center
4.65,2.30,38.40552,-78.85730,VA,10000,4000,50,70,92,Rockingham Memorial Hospital
3.78,2.28,39.19345,-78.19599,VA,8000,4000,66,60,74,Winchester Medical Center Inc
6.97,2.92,36.86268,-76.30355,VA,16000,6000,83,58,4,Sentara Norfolk General Hospital
6.67,3.26,38.02573,-78.51526,VA,16000,7000,33,35,24,University Of Virginia Medical Center
3.88,2.27,38.09436,-78.98659,VA,8000,4000,50,82,99,Augusta Health
4.00,2.24,37.41368,-79.16870,VA,9000,4000,50,70,57,Centra  Health Inc
8.75,2.37,38.31158,-77.48061,VA,21000,4000,66,73,17,Mary Washington Hospital Inc
4.97,2.42,37.25129,-79.94125,VA,11000,4000,50,61,1,Carilion Roanoke Memorial Center
6.32,2.34,38.82218,-77.10533,VA,15000,4000,66,68,57,Inova Alexandria Hospital
5.87,2.27,39.07405,-77.47754,VA,13000,4000,50,83,79,Inova Loudoun Hospital
5.25,2.25,36.85098,-76.18989,VA,12000,4000,50,65,76,Sentara Leigh Hospital
10.18,2.06,37.26336,-80.03166,VA,25000,3000,50,48,8,Lewisgale Medical Center
3.95,2.36,38.88916,-77.12796,VA,8000,4000,100,57,57,Virginia Hospital Center - Arlington
5.06,2.86,37.06523,-76.48417,VA,11000,5000,50,68,44,Riverside Regional Medical Center
7.66,2.07,36.86449,-76.02844,VA,18000,3000,66,62,39,Sentara Virginia Beach General Hospital
5.43,2.24,37.58440,-77.51252,VA,12000,4000,50,66,69,Bon Secours - St Marys Hospital Of Richmond
6.38,2.52,37.09990,-81.79024,VA,15000,5000,0,0,0,Clinch Valley Medical Center
6.98,3.00,38.85764,-77.22772,VA,16000,6000,83,53,1,Inova Fairfax Hospital
7.40,2.31,37.33700,-76.74046,VA,18000,4000,50,67,88,Sentara Williamsburg Regional Medical Center
15.36,2.34,37.18253,-77.35957,VA,39000,4000,50,76,85,Southside Regional Medical Center
7.77,2.25,37.62931,-77.38804,VA,19000,4000,50,67,69,Bon Secours - Memorial Regional Medical
3.98,2.08,38.02176,-78.44530,VA,8000,3000,50,75,88,Martha Jefferson Hospital
5.17,2.14,36.69555,-79.86374,VA,12000,4000,50,57,16,Memorial Hospital Of Martinsville & Henry County
6.37,2.10,36.73424,-78.13321,VA,15000,3000,0,0,0,Community Memorial Healthcenter Inc
9.41,2.20,37.51021,-77.59525,VA,23000,4000,83,52,32,Cjw Medical Center
9.90,2.23,37.60459,-77.53929,VA,24000,4000,66,63,29,Henrico Doctors' Hospital
5.76,2.12,36.74610,-76.24609,VA,13000,4000,50,62,85,Chesapeake Regional Medical Center
8.65,2.44,47.15452,-122.50105,WA,21000,4000,0,0,0,Saint Clare Hospital
8.83,2.45,47.60648,-122.31106,WA,21000,4000,25,53,10,Swedish Medical Center/Cherry Hill
6.89,2.52,45.62460,-122.58145,WA,16000,5000,66,53,81,Peacehealth Southwest Medical Center
5.55,2.70,47.44243,-122.21392,WA,13000,5000,50,55,48,Valley Medical Center
11.94,2.49,47.24670,-122.44841,WA,30000,4000,66,66,21,St Joseph Medical Center
7.19,2.36,47.71603,-122.17867,WA,17000,4000,50,65,95,Evergreen Hospital Medical Center
9.03,2.48,47.29252,-122.32729,WA,22000,4000,50,71,1,St Francis Community Hospital
4.71,2.75,39.65498,-79.95814,WV,10000,5000,83,31,5,West Virginia University Hospitals
3.88,2.25,38.43236,-82.40067,WV,8000,4000,66,60,17,St Mary'S Medical Center
6.05,2.32,38.34739,-81.62600,WV,14000,4000,66,58,10,Charleston Area Medical Center
4.67,2.00,39.66383,-79.94681,WV,10000,3000,50,77,98,Monongalia County General Hospital
4.38,2.09,38.35553,-81.72560,WV,10000,3000,50,70,43,Thomas Memorial Hospital
4.96,2.15,37.78754,-81.20183,WV,11000,4000,66,73,82,Raleigh General Hospital
5.87,2.40,43.01152,-88.24308,WI,13000,4000,50,55,24,Waukesha Memorial Hospital
5.42,2.36,44.79461,-91.51111,WI,12000,4000,66,63,13,Sacred Heart Hsptl
4.96,2.24,42.57776,-87.81939,WI,11000,4000,66,65,20,United Hsptl Sys
3.97,2.54,44.67759,-90.17818,WI,8000,5000,50,57,13,Ministry Saint Joseph'S Hospital
6.20,2.41,43.05867,-89.40269,WI,14000,4000,66,77,69,St Mary'S Hospital
6.34,2.25,43.77733,-88.42866,WI,15000,4000,50,63,37,St Agnes Hsptl
7.08,2.53,43.06432,-89.40100,WI,17000,5000,66,43,56,Meriter Hsptl
8.06,2.23,42.54868,-89.00822,WI,19000,4000,0,0,0,Beloit Mem Hsptl
7.26,2.74,43.07393,-87.97612,WI,17000,5000,66,37,48,Wheaton Franciscan Inc- St Joseph
7.92,2.56,42.98958,-87.95079,WI,19000,5000,50,65,37,Aurora St Lukes Medical Center
6.49,2.24,43.00120,-88.02675,WI,15000,4000,50,71,63,Aurora West Allis Medical Center
6.04,2.16,43.05929,-88.15434,WI,14000,4000,0,0,0,Wheaton Franciscan Inc - Elmbrook Memorial
4.67,2.92,43.04008,-88.02523,WI,10000,6000,66,36,11,Froedtert Mem Lutheran Hsptl
10.48,2.27,30.56899,-97.65104,TX,26000,4000,75,91,29,Seton Medical Center Williamson
11.09,2.36,30.00719,-97.85383,TX,27000,4000,75,88,43,Seton Medical Center Hays
