size,lat,lon,price,name
2.55,36.34295,-92.39442,6587.13,BAXTER REGIONAL MEDICAL CENTER
2.98,35.37445,-94.41868,9439.45,SPARKS REGIONAL MEDICAL CENTER
3.23,34.74866,-92.35422,11044.35,BAPTIST HEALTH MEDICAL CENTER-LITTLE ROCK
2.93,34.73868,-92.39307,9066.86,ARKANSAS HEART HOSPITAL
4.71,39.50528,-121.54100,20867.38,OROVILLE HOSPITAL
3.24,34.67486,-118.15771,11148.76,ANTELOPE VALLEY HOSPITAL MED CENTER
5.84,34.12834,-118.25777,28289.15,GLENDALE MEM HOSPITAL & HLTH CENTER
4.89,36.83532,-119.76562,21999.39,SAINT AGNES MEDICAL CENTER
5.16,34.07558,-118.28424,23787.85,TEMPLE COMMUNITY HOSPITAL
7.65,34.02685,-118.48651,40230.62,SANTA MONICA - UCLA MED CTR & ORTHOPAEDIC HOSPITAL
3.44,36.32362,-119.66726,12455.35,ADVENTIST MEDICAL CENTER
12.00,37.36257,-121.84974,68961.18,REGIONAL MEDICAL CENTER OF SAN JOSE
8.77,37.55717,-121.98126,47622.38,WASHINGTON HOSPITAL
7.53,32.61972,-117.02278,39481.64,SHARP CHULA VISTA MEDICAL CENTER
6.15,33.84780,-117.93661,30330.05,AHMC ANAHEIM REGIONAL MEDICAL CENTER
7.59,34.15601,-118.32834,39871.87,PROVIDENCE SAINT JOSEPH MEDICAL CTR
8.58,33.83862,-116.54557,46370.92,DESERT REGIONAL MEDICAL CENTER
6.82,34.06675,-118.44613,34764.77,RONALD REAGAN UCLA MEDICAL CENTER
5.35,32.95813,-115.55388,25050.83,PIONEERS MEMORIAL HEALTHCARE DISTRICT
7.33,33.93530,-118.13030,38118.27,DOWNEY REGIONAL MEDICAL CENTER
6.35,34.13364,-118.15275,31679.22,HUNTINGTON MEMORIAL HOSPITAL
5.41,35.38338,-119.01969,25458.70,SAN JOAQUIN COMMUNITY HOSPITAL
7.51,34.05336,-118.26558,39357.29,GOOD SAMARITAN HOSPITAL
4.42,33.60883,-117.70881,18904.08,SADDLEBACK MEMORIAL MEDICAL CENTER
9.32,34.07664,-118.37955,51240.62,CEDARS-SINAI MEDICAL CENTER
4.22,34.47174,-117.29791,17629.91,DESERT VALLEY HOSPITAL
6.09,35.38506,-119.03992,29933.27,BAKERSFIELD HEART HOSPITAL
6.11,33.95076,-118.34828,30106.30,CENTINELA HOSPITAL MEDICAL CENTER
8.82,34.05723,-118.36025,47962.45,OLYMPIA MEDICAL CENTER
4.67,32.77629,-117.05730,20551.55,ALVARADO HOSPITAL MEDICAL CENTER
3.57,40.57315,-105.05741,13346.82,POUDRE VALLEY HOSPITAL
4.36,38.86559,-104.82182,18521.29,CENTURA HEALTH-PENROSE ST FRANCIS HEALTH SERVICES
4.35,41.55959,-73.05941,18453.23,WATERBURY HOSPITAL
3.76,41.33722,-72.10380,14591.64,LAWRENCE & MEMORIAL HOSPITAL
4.67,41.18881,-73.16645,20557.62,BRIDGEPORT HOSPITAL
4.15,41.03431,-73.63020,17162.55,GREENWICH HOSPITAL ASSOCIATION
3.70,41.75412,-72.67927,14153.00,HARTFORD HOSPITAL
3.80,41.20049,-73.20281,14867.08,ST VINCENT'S MEDICAL CENTER
3.01,41.40474,-73.44739,9636.73,DANBURY HOSPITAL
3.49,41.66107,-72.78671,12759.60,HOSPITAL OF CENTRAL CONNECTICUT, THE
3.77,39.74954,-75.56662,14644.23,ST FRANCIS HOSPITAL
3.23,39.15135,-75.52309,11105.70,BAYHEALTH - KENT GENERAL HOSPITAL
3.93,38.90106,-77.05079,15690.78,GEORGE WASHINGTON UNIV HOSPITAL
3.74,38.91770,-77.02193,14470.02,HOWARD UNIVERSITY HOSPITAL
3.52,38.94397,-76.99040,13000.71,PROVIDENCE HOSPITAL
4.49,38.92944,-77.01473,19404.97,WASHINGTON HOSPITAL CENTER
4.33,30.34913,-81.66391,18318.33,SHANDS JACKSONVILLE MEDICAL CENTER
5.21,26.50479,-80.06979,24168.20,BETHESDA MEMORIAL HOSPITAL
4.81,28.52517,-81.37729,21507.68,ORLANDO HEALTH
6.66,25.78846,-80.21644,33739.74,UNIVERSITY OF MIAMI HOSPITAL
3.55,29.20117,-81.05828,13188.79,HALIFAX HEALTH MEDICAL CENTER
3.94,26.15053,-81.79919,15769.48,NAPLES COMMUNITY HOSPITAL
4.10,25.79143,-80.21250,16849.70,JACKSON MEMORIAL HOSPITAL
3.86,30.47650,-87.21219,15248.54,SACRED HEART HOSPITAL
3.41,30.15963,-85.64818,12264.33,BAY MEDICAL CENTER
6.33,25.86166,-80.21398,31536.72,NORTH SHORE MEDICAL CENTER
5.58,25.81317,-80.13996,26615.91,MOUNT SINAI MEDICAL CENTER
5.14,26.01867,-80.17981,23704.37,MEMORIAL REGIONAL HOSPITAL
3.69,30.30835,-81.68919,14139.59,ST VINCENT'S MEDICAL CENTER
4.58,27.19837,-80.24306,19968.74,MARTIN MEMORIAL MEDICAL CENTER
4.66,28.26092,-82.18802,20519.26,FLORIDA HOSPITAL ZEPHYRHILLS
3.63,26.94042,-82.04094,13720.19,CHARLOTTE REGIONAL MEDICAL CENTER
3.91,28.25431,-82.71447,15563.23,MORTON PLANT NORTH BAY HOSPITAL
3.68,27.78088,-82.65126,14034.47,ST ANTHONY'S HOSPITAL
4.37,27.09043,-82.44499,18581.27,VENICE REGIONAL MEDICAL CENTER
6.76,28.53906,-82.44193,34344.28,BROOKSVILLE REGIONAL HOSPITAL
5.06,26.18711,-80.11941,23166.69,HOLY CROSS HOSPITAL INC
4.71,26.98905,-82.09559,20865.20,PEACE RIVER REGIONAL MEDICAL CENTER
5.29,26.59805,-80.09271,24704.30,JFK MEDICAL CENTER
3.84,28.80659,-81.86906,15129.50,LEESBURG REGIONAL MEDICAL CENTER
4.99,30.31525,-81.66398,22712.32,BAPTIST MEDICAL CENTER
3.78,28.33522,-80.72319,14674.26,WUESTHOFF MEDICAL CENTER  ROCKLEDGE
2.83,27.65832,-80.39307,8424.47,INDIAN RIVER MEDICAL CENTER
3.55,29.64155,-82.34844,13184.86,SHANDS HOSPITAL AT THE UNIVERSITY OF FLORIDA
4.01,27.91798,-81.84402,16252.53,BARTOW REGIONAL MEDICAL CENTER
4.44,28.01563,-82.13900,19089.67,SOUTH FLORIDA BAPTIST HOSPITAL
3.17,30.26389,-81.44283,10690.13,MAYO CLINIC
4.39,28.06172,-81.95304,18754.75,LAKELAND REGIONAL MEDICAL CENTER
5.06,28.81611,-81.28351,23153.71,CENTRAL FLORIDA REGIONAL HOSPITAL
3.37,27.22739,-81.85108,11973.88,DESOTO MEMORIAL HOSPITAL
5.51,26.26259,-80.20292,26093.28,NORTHWEST MEDICAL CENTER
6.25,25.73195,-80.38580,31024.45,KENDALL REGIONAL MEDICAL CENTER
4.62,27.48213,-82.62126,20238.54,BLAKE MEDICAL CENTER
5.44,26.12354,-80.25951,25675.41,WESTSIDE REGIONAL MEDICAL CENTER
3.47,29.64481,-81.69431,12655.37,PUTNAM COMMUNITY MEDICAL CENTER
5.96,27.93259,-82.28759,29097.41,BRANDON REGIONAL HOSPITAL
6.31,27.43392,-80.34350,31394.94,LAWNWOOD REGIONAL MEDICAL CENTER & HEART INSTITUTE
4.41,26.92138,-80.09708,18887.22,JUPITER MEDICAL CENTER
4.89,28.36128,-82.68883,22008.77,REGIONAL MEDICAL CENTER BAYONET POINT
5.72,26.43709,-80.12728,27479.73,DELRAY MEDICAL CENTER
4.95,27.28861,-80.29431,22433.60,ST LUCIE MEDICAL CENTER
6.72,28.53585,-82.53404,34132.89,OAK HILL HOSPITAL
3.65,28.03957,-82.70875,13857.61,MEASE COUNTRYSIDE HOSPITAL
4.95,26.01394,-80.30980,22432.70,MEMORIAL HOSPITAL WEST
5.37,26.21388,-81.73257,25194.17,PHYSICIANS REGIONAL MEDICAL CENTER - PINE RIDGE
3.73,26.08155,-80.36449,14376.50,CLEVELAND CLINIC HOSPITAL
3.92,31.22516,-82.34898,15660.27,SATILLA REGIONAL MEDICAL CENTER
3.70,33.79230,-84.32107,14150.00,EMORY UNIVERSITY HOSPITAL
3.62,32.02825,-81.09977,13621.55,CANDLER HOSPITAL
3.36,33.47096,-81.98176,11933.79,UNIVERSITY HOSPITAL
3.67,34.30335,-83.81737,13970.45,NORTHEAST GEORGIA MEDICAL CENTER, INC
4.99,34.19990,-84.79378,22670.73,CARTERSVILLE MEDICAL CENTER
4.23,33.96770,-84.55011,17677.37,WELLSTAR KENNESTONE HOSPITAL
4.96,31.98515,-81.15475,22470.18,ST JOSEPH'S HOSPITAL - SAVANNAH
3.93,34.26000,-85.17000,15673.67,FLOYD MEDICAL CENTER
3.14,32.61642,-83.63065,10470.92,HOUSTON MEDICAL CENTER
3.43,33.96117,-83.39832,12378.58,ATHENS REGIONAL MEDICAL CENTER
3.68,33.78956,-84.28077,14063.72,DEKALB MEDICAL CENTER
3.65,33.76810,-84.38616,13857.71,EMORY UNIVERSITY HOSPITAL MIDTOWN
3.40,33.75205,-84.38272,12168.42,GRADY MEMORIAL HOSPITAL
3.55,33.68072,-84.00200,13214.36,ROCKDALE MEDICAL CENTER
4.55,31.47069,-83.50473,19801.06,TIFT REGIONAL MEDICAL CENTER
3.41,32.83041,-83.63476,12261.12,MEDICAL CENTER OF CENTRAL GEORGIA
3.81,32.20903,-82.37585,14875.75,MEADOWS REGIONAL MEDICAL CENTER
4.05,33.85638,-84.60446,16511.82,WELLSTAR COBB HOSPITAL
4.19,32.84705,-83.61823,17427.00,COLISEUM MEDICAL CENTER
3.43,33.51144,-84.22200,12394.13,HENRY MEDICAL CENTER, INC
6.61,34.06334,-84.31976,33413.54,NORTH FULTON REGIONAL HOSPITAL
3.30,33.70365,-84.14697,11508.53,DEKALB MEDICAL CENTER AT HILLANDALE
3.19,21.30780,-157.85505,10817.36,THE QUEENS MEDICAL CENTER
3.66,43.61218,-116.19234,13900.73,ST LUKES REGIONAL MEDICAL CENTER
3.84,42.06550,-87.68428,15094.51,EVANSTON HOSPITAL
3.89,39.93563,-91.39833,15422.12,BLESSING HOSPITAL
3.37,41.86011,-87.69571,12000.92,MT SINAI HOSPITAL MEDICAL CENTER
2.73,39.12680,-88.55059,7752.63,ST ANTHONYS MEMORIAL HOSPITAL
2.82,38.52908,-89.11604,8349.87,ST MARYS HOSPITAL
3.52,41.72636,-87.56727,12961.29,ADVOCATE TRINITY HOSPITAL
4.45,41.80160,-89.69714,19144.00,CGH MEDICAL CENTER
2.72,38.32292,-88.91026,7730.38,GOOD SAMARITAN REGIONAL HLTH CENTER
4.05,41.89141,-87.77618,16495.54,WEST SUBURBAN MEDICAL CENTER
3.61,42.05624,-87.74012,13598.18,SKOKIE HOSPITAL
3.89,41.83195,-87.79266,15433.55,MACNEAL  HOSPITAL
4.07,41.66900,-87.81414,16621.00,PALOS COMMUNITY HOSPITAL
3.93,40.70200,-89.59222,15683.97,SAINT FRANCIS MEDICAL CENTER
4.43,41.69322,-87.62436,18973.15,ROSELAND COMMUNITY HOSPITAL
2.68,41.87259,-87.76181,7418.89,LORETTO HOSPITAL
4.22,42.37840,-87.83329,17636.22,VISTA MEDICAL CENTER EAST
2.97,41.77813,-87.63330,9343.25,ST BERNARD HOSPITAL
6.47,41.97532,-87.69958,32491.70,SWEDISH COVENANT HOSPITAL
3.89,42.31832,-88.27920,15402.09,CENTEGRA HEALTH SYSTEM - MC HENRY HOSPITAL
2.70,41.87381,-87.67421,7602.88,JOHN H STROGER JR HOSPITAL
3.86,41.76946,-87.69239,15258.20,HOLY CROSS HOSPITAL
3.64,41.89006,-87.70757,13754.77,SACRED HEART HOSPITAL
4.49,41.12049,-87.87187,19412.82,PROVENA ST MARYS HOSPITAL
3.20,41.84639,-87.62345,10889.41,MERCY HOSPITAL AND MEDICAL CENTER
3.81,42.27597,-88.40019,14929.38,CENTEGRA HEALTH SYSTEM - WOODSTOCK HOSPITAL
4.81,41.72094,-87.69220,21514.90,LITTLE COMPANY OF MARY HOSPITAL
4.95,41.90414,-87.68254,22400.32,ST MARY & ELIZABETH MED CTR-DIVISION CAMPUS
4.11,41.86362,-87.93567,16854.33,ELMHURST MEMORIAL HOSPITAL
4.41,42.27447,-87.95764,18847.45,ADVOCATE CONDELL MEDICAL CENTER
4.28,41.72031,-87.73249,18003.00,ADVOCATE CHRIST HOSPITAL & MEDICAL CENTER
5.01,41.88566,-88.34311,22806.69,DELNOR COMMUNITY HOSPITAL
3.75,42.03837,-87.84820,14510.45,ADVOCATE LUTHERAN GENERAL HOSPITAL
4.27,41.93418,-87.63579,17910.29,SAINT JOSEPH HOSPITAL
3.91,42.26584,-89.07428,15565.45,SWEDISH AMERICAN HOSPITAL
3.67,42.29844,-89.09897,13997.62,ROCKFORD MEMORIAL HOSPITAL
4.24,41.89166,-87.84838,17751.82,WESTLAKE COMMUNITY HOSPITAL
3.41,41.56720,-87.69566,12265.83,ADVOCATE SOUTH SUBURBAN HOSPITAL
2.74,41.48200,-90.57158,7859.42,TRINITY ROCK ISLAND
3.67,41.96185,-88.72130,13966.42,KISHWAUKEE COMMUNITY HOSPITAL
4.20,41.81791,-88.00907,17460.94,ADVOCATE GOOD SAMARITAN HOSPITAL
3.15,41.63466,-87.44901,10573.04,ST CATHERINE HOSPITAL INC
3.25,41.70568,-85.93404,11210.06,ELKHART GENERAL HOSPITAL
3.03,41.51266,-87.26125,9759.54,ST MARY MEDICAL CENTER INC
4.23,39.79009,-86.16260,17643.43,INDIANA UNIVERSITY HEALTH
3.91,39.78704,-86.07673,15583.08,COMMUNITY HOSPITAL EAST
3.95,37.98293,-87.57072,15850.44,DEACONESS HOSPITAL INC
4.14,39.91001,-86.19660,17050.53,ST VINCENT HOSPITAL & HEALTH SERVICES
3.92,40.19679,-85.41573,15612.36,INDIANA UNIVERSITY HEALTH BALL MEMORIAL HOSPITAL
3.46,37.96320,-87.50292,12614.30,ST MARY'S MEDICAL CENTER OF EVANSVILLE INC
3.12,41.15823,-85.46490,10318.33,PARKVIEW WHITLEY HOSPITAL
3.80,39.64935,-86.07960,14840.00,FRANCISCAN ST FRANCIS HEALTH - INDIANAPOLIS
3.58,39.90060,-86.04218,13417.09,COMMUNITY HOSPITAL NORTH
4.41,40.40296,-86.80885,18880.92,INDIANA UNIVERSITY HEALTH ARNETT HOSPITAL
3.00,42.49388,-94.18926,9558.09,TRINITY REGIONAL MEDICAL CENTER
3.14,41.54190,-90.55691,10448.17,GENESIS MEDICAL CENTER-DAVENPORT
4.05,41.66092,-91.54800,16474.18,UNIVERSITY OF IOWA HOSPITAL & CLINICS
3.36,43.15063,-93.21718,11906.80,MERCY MEDICAL CENTER-NORTH IOWA
3.36,41.86141,-90.18921,11922.67,MERCY MEDICAL CENTER-CLINTON
4.51,41.59886,-93.62344,19542.20,MERCY MEDICAL CENTER-DES MOINES
5.50,37.69556,-97.29785,26049.45,WESLEY MEDICAL CENTER
3.19,38.47021,-82.63498,10803.30,KING'S DAUGHTERS' MEDICAL CENTER
3.76,37.11784,-84.10910,14574.33,SAINT JOSEPH HOSPITAL LONDON
3.31,36.60798,-88.30957,11626.75,MURRAY-CALLOWAY COUNTY HOSPITAL
2.95,37.27729,-83.22802,9232.67,HAZARD ARH REGIONAL MEDICAL CENTER
3.38,39.06704,-84.49946,12046.75,ST ELIZABETH MEDICAL CENTER NORTH
2.68,37.76518,-87.10197,7471.75,OWENSBORO MEDICAL HEALTH SYSTEM
4.54,37.16218,-83.76137,19698.71,MEMORIAL HOSPITAL
4.86,37.47264,-82.52605,21857.91,PIKEVILLE MEDICAL CENTER
3.06,38.00003,-84.19667,9962.50,CLARK REGIONAL MEDICAL CENTER
3.28,38.01849,-84.51236,11411.78,CENTRAL BAPTIST HOSPITAL
2.45,36.69659,-85.13726,5956.38,CLINTON COUNTY HOSPITAL, INC
3.75,37.08724,-84.61828,14537.78,LAKE CUMBERLAND REGIONAL HOSPITAL
3.92,37.56166,-83.37202,15629.69,KENTUCKY RIVER MEDICAL CENTER
3.11,30.20227,-92.01906,10311.42,LAFAYETTE GENERAL MEDICAL CENTER
3.70,30.22981,-93.36867,14183.45,WEST CALCASIEU CAMERON HOSPITAL
4.96,31.31451,-92.44997,22475.00,RAPIDES REGIONAL MEDICAL CENTER
4.79,30.28456,-89.77038,21391.18,SLIDELL MEMORIAL HOSPITAL AND MEDICAL CENTER
2.92,30.40118,-91.11160,9023.21,OUR LADY OF THE LAKE REGIONAL MEDICAL CENTER
2.75,30.45015,-91.15273,7930.71,BATON ROUGE GENERAL MEDICAL CENTER
2.10,32.86785,-91.38322,3609.27,WEST CARROLL MEMORIAL HOSPITAL
3.80,32.51544,-92.63343,14842.78,NORTHERN LOUISIANA MEDICAL CENTER
3.27,32.48177,-93.76264,11330.82,LSU HEALTH SCIENCES CENTER - SHREVEPORT
3.80,32.48393,-93.77884,14827.29,WILLIS KNIGHTON MEDICAL CENTER
3.89,31.13861,-93.26892,15455.92,BYRD REGIONAL HOSPITAL
2.80,30.68494,-92.26601,8262.73,MERCY REGIONAL MEDICAL CENTER
4.57,29.95570,-90.07587,19933.59,TULANE MEDICAL CENTER
2.43,39.62183,-77.68219,5787.80,MERITUS MEDICAL CENTER
2.74,39.28817,-76.62438,7842.38,UNIVERSITY OF MARYLAND MEDICAL CENTER
2.41,38.93090,-76.92161,5630.06,PRINCE GEORGES HOSPITAL CENTER
2.51,39.01578,-77.03591,6316.56,HOLY CROSS HOSPITAL
2.31,39.42366,-77.41386,5012.25,FREDERICK MEMORIAL HOSPITAL
2.38,39.54345,-76.09153,5476.55,HARFORD MEMORIAL HOSPITAL
2.39,39.38813,-76.61068,5537.29,SAINT JOSEPH MEDICAL CENTER
2.77,39.29688,-76.59242,8066.88,JOHNS HOPKINS HOSPITAL, THE
2.45,39.27352,-76.67219,5900.28,SAINT AGNES HOSPITAL
2.60,39.35262,-76.66196,6912.00,SINAI HOSPITAL OF BALTIMORE
2.36,39.35169,-76.47919,5333.35,FRANKLIN SQUARE HOSPITAL CENTER
2.50,39.15402,-77.05431,6237.09,MONTGOMERY GENERAL HOSPITAL INC
2.46,38.36248,-75.59799,5976.20,PENINSULA REGIONAL MEDICAL CENTER
2.28,38.99014,-76.53398,4822.27,ANNE ARUNDEL MEDICAL CENTER
2.45,39.32930,-76.61432,5922.10,UNION MEMORIAL HOSPITAL
2.37,38.29124,-76.63579,5416.29,SAINT MARY'S HOSPITAL
2.19,39.60859,-75.83201,4227.95,UNION HOSPITAL OF CECIL COUNTY
2.50,39.55808,-76.99107,6266.84,CARROLL HOSPITAL CENTER
2.29,38.52905,-76.97068,4894.12,CIVISTA MEDICAL CENTER
2.25,38.76970,-76.07697,4596.81,MEMORIAL HOSPITAL AT EASTON
2.59,39.29994,-76.62138,6822.57,MARYLAND GENERAL  HOSPITAL
2.22,38.55963,-76.59455,4380.42,CALVERT MEMORIAL HOSPITAL
2.54,39.35852,-76.78208,6491.83,NORTHWEST HOSPITAL CENTER
2.36,39.13732,-76.62228,5307.92,BALTIMORE WASHINGTON  MEDICAL CENTER
2.35,39.21273,-76.88526,5277.08,HOWARD COUNTY GENERAL HOSPITAL
2.40,38.74827,-76.87590,5600.98,SOUTHERN MARYLAND HOSPITAL CENTER
2.53,39.35962,-76.58851,6453.25,GOOD SAMARITAN HOSPITAL
2.44,39.09796,-77.19799,5887.27,SHADY GROVE ADVENTIST HOSPITAL
2.92,42.70912,-71.14877,9006.69,LAWRENCE GENERAL HOSPITAL
2.80,41.69217,-71.16474,8228.57,SAINT ANNE'S HOSPITAL
2.68,42.81476,-70.89068,7424.58,ANNA JAQUES HOSPITAL
2.73,42.56407,-70.87543,7753.29,BEVERLY HOSPITAL CORPORATION
4.51,42.51078,-70.90712,19541.38,NORTH SHORE MEDICAL CENTER
2.36,42.34896,-71.14768,5331.54,ST ELIZABETH'S MEDICAL CENTER
2.87,42.03597,-71.09792,8725.21,SIGNATURE HEALTHCARE BROCKTON HOSPITAL
2.69,41.94445,-70.64511,7534.85,JORDAN HOSPITAL INC
3.15,42.64636,-71.34118,10552.10,LOWELL GENERAL HOSPITAL
2.62,42.46049,-71.06203,7081.22,HALLMARK HEALTH SYSTEM
5.35,42.36227,-71.06941,25057.22,MASSACHUSETTS GENERAL HOSPITAL
2.65,41.90456,-71.09562,7230.77,MORTON HOSPITAL
2.98,41.70928,-71.14519,9444.54,SOUTHCOAST HOSPITAL GROUP, INC
3.42,42.12077,-72.60525,12316.93,BAYSTATE MEDICAL CENTER
3.00,42.17644,-70.95398,9533.05,SOUTH SHORE HOSPITAL
4.34,42.33600,-71.10704,18392.56,BRIGHAM AND WOMEN'S HOSPITAL
2.47,42.09864,-71.06607,6070.16,GOOD SAMARITAN MEDICAL CENTER
3.08,42.34951,-71.06331,10061.69,TUFTS MEDICAL CENTER
2.61,42.18869,-71.20197,6980.18,NORWOOD HOSPITAL
2.83,42.28385,-71.41896,8437.63,METROWEST MEDICAL CENTER
3.32,42.45741,-83.20513,11669.46,PROVIDENCE HOSPITAL AND MEDICAL CENTERS
3.46,42.29077,-83.21504,12589.63,OAKWOOD HOSPITAL AND MEDICAL CENTER
3.27,42.61425,-83.27602,11328.38,ST JOSEPH MERCY OAKLAND
3.14,42.96881,-85.66649,10452.46,SPECTRUM HEALTH - BUTTERWORTH CAMPUS
3.19,43.58941,-83.86908,10792.64,MCLAREN BAY REGION
2.94,42.61490,-82.96060,9147.67,HENRY FORD MACOMB HOSPITAL
3.63,42.36762,-83.08461,13726.02,HENRY FORD HOSPITAL
3.12,43.42857,-83.95556,10364.58,COVENANT MEDICAL CENTER, INC
2.65,42.33111,-85.17817,7216.18,BRONSON BATTLE CREEK HOSPITAL
4.23,43.42612,-83.94185,17653.82,ST MARY'S OF MICHIGAN MEDICAL CENTER
3.60,42.25117,-84.39240,13485.35,ALLEGIANCE HEALTH
3.03,42.21065,-83.14861,9766.77,HENRY FORD WYANDOTTE HOSPITAL
3.65,42.70417,-84.55488,13876.00,MCLAREN - GREATER LANSING
3.24,42.11695,-83.21365,11113.09,OAKWOOD SOUTHSHORE MEDICAL CENTER
3.55,42.89254,-83.63621,13197.31,GENESYS REGIONAL MEDICAL CENTER - HEALTH PARK
3.62,42.98625,-82.42802,13630.38,PORT HURON HOSPITAL
2.65,42.33215,-83.31195,7256.43,GARDEN CITY HOSPITAL
3.80,42.67850,-83.14771,14841.74,CRITTENTON HOSPITAL MEDICAL CENTER
4.12,42.61826,-83.09239,16971.89,WILLIAM BEAUMONT HOSPITAL-TROY
3.85,42.35295,-83.05447,15172.65,DETROIT RECEIVING HOSPITAL & UNIV HEALTH CENTER
3.91,42.53914,-83.40777,15566.20,HENRY FORD WEST BLOOMFIELD HOSPITAL
2.97,46.79380,-92.09573,9366.00,ESSENTIA HEALTH ST MARY'S MEDICAL CENTER
6.03,44.97210,-93.26240,29553.00,HENNEPIN COUNTY MEDICAL CENTER
3.64,45.57390,-94.16942,13794.88,ST CLOUD HOSPITAL
3.66,44.95570,-93.09429,13912.73,REGIONS HOSPITAL
4.19,45.18355,-93.36789,17424.00,MERCY HOSPITAL
4.55,45.10789,-93.25685,19761.26,UNITY HOSPITAL
3.01,34.24336,-88.71753,9626.50,NORTH MISSISSIPPI MEDICAL CENTER
2.94,31.24000,-90.45000,9153.67,SOUTHWEST MS REGIONAL MEDICAL CENTER
3.39,32.37280,-88.69954,12114.55,ANDERSON REGIONAL MEDICAL CENTER
4.81,37.06032,-94.52747,21521.33,ST JOHN'S REGIONAL MEDICAL CENTER
4.78,40.19296,-92.59085,21324.91,NORTHEAST REGIONAL MEDICAL CENTER
2.72,38.16498,-90.38082,7731.92,JEFFERSON REGIONAL MEDICAL CENTER
3.39,38.63524,-90.26508,12163.51,BARNES JEWISH HOSPITAL
2.89,39.08401,-94.57591,8842.20,TRUMAN MEDICAL CENTER HOSPITAL HILL
4.87,37.17999,-93.27409,21931.47,ST JOHN'S REGIONAL HEALTH CENTER
3.10,38.94903,-92.31563,10217.80,BOONE HOSPITAL CENTER
3.63,38.63268,-90.31089,13712.40,SSM ST MARYS HEALTH CENTER
3.61,36.64970,-93.22138,13609.69,SKAGGS REGIONAL MEDICAL CENTER
6.43,39.04749,-94.34105,32184.37,CENTERPOINT MEDICAL CENTER OF INDEPENDENCE, LLC
4.35,38.75097,-90.43255,18437.40,SSM DEPAUL HEALTH CENTER
3.80,38.62280,-90.24049,14867.20,ST LOUIS UNIVERSITY HOSPITAL
4.92,36.78510,-90.42779,22235.16,POPLAR BLUFF REGIONAL MEDICAL CENTER
4.48,37.05238,-94.52777,19349.04,FREEMAN HEALTH SYSTEM - FREEMAN WEST
4.38,39.04761,-94.59037,18679.47,ST LUKES HOSPITAL OF KANSAS CITY
3.14,39.27591,-94.42572,10509.86,LIBERTY HOSPITAL
3.68,38.77576,-90.23906,14028.71,CHRISTIAN HOSPITAL NORTHEAST
4.36,38.94062,-94.37842,18527.00,SAINT LUKE'S EAST LEE'S SUMMIT HOSPITAL
2.91,40.70646,-99.08136,8944.45,GOOD SAMARITAN HOSPITAL
3.62,41.25522,-95.97892,13634.80,THE NEBRASKA MEDICAL CENTER
6.85,36.13459,-115.13576,34981.22,SUNRISE HOSPITAL AND MEDICAL CENTER
7.53,36.19568,-115.12284,39452.50,NORTH VISTA HOSPITAL
6.31,36.03931,-114.98259,31422.92,SAINT ROSE DOMINICAN HOSPITAL - DE LIMA
6.67,36.16380,-115.16574,33790.19,VALLEY HOSPITAL MEDICAL CENTER
6.74,36.21599,-115.25095,34259.93,MOUNTAINVIEW HOSPITAL
7.10,36.16586,-115.32436,36601.75,SUMMERLIN HOSPITAL MEDICAL CENTER
7.70,36.00527,-115.11618,40611.07,SAINT ROSE DOMINICAN HOSPITAL - SIENA CAMPUS
6.98,36.28588,-115.28772,35811.50,CENTENNIAL HILLS HOSPITAL MEDICAL CENTER
3.38,43.19846,-71.56230,12034.83,CONCORD HOSPITAL
3.47,43.67286,-72.27232,12688.69,MARY HITCHCOCK MEMORIAL HOSPITAL
3.54,43.00792,-71.46807,13097.06,ELLIOT HOSPITAL
4.19,43.21231,-70.87499,17383.21,WENTWORTH-DOUGLASS HOSPITAL
6.52,40.88346,-74.05564,32815.86,HACKENSACK UNIVERSITY MEDICAL CENTER
8.16,40.71011,-74.21368,43628.33,NEWARK BETH ISRAEL MEDICAL CENTER
4.90,40.79576,-73.99575,22081.03,PALISADES MEDICAL CTR-NY PRESBYTERIAN HEALTHCARE S
4.57,40.88275,-74.01021,19918.83,HOLY NAME MEDICAL CENTER
5.58,40.35684,-74.66166,26592.17,UNIVERSITY MEDICAL CENTER AT PRINCETON
3.72,39.08752,-74.81657,14305.44,CAPE REGIONAL MEDICAL CENTER INC
4.75,40.98359,-74.10047,21112.61,VALLEY HOSPITAL
7.18,39.94152,-75.11680,37168.32,COOPER UNIVERSITY HOSPITAL
5.46,40.78883,-74.46620,25764.81,MORRISTOWN MEMORIAL HOSPITAL
6.75,39.78261,-74.91670,34305.63,VIRTUA WEST JERSEY HOSPITALS BERLIN
7.42,39.44743,-75.05838,38726.94,SOUTH JERSEY HEALTHCARE REGIONAL MEDICAL CENTER
6.42,40.35309,-74.06484,32136.72,RIVERVIEW MEDICAL CENTER
8.30,40.51891,-74.28183,44535.33,RARITAN BAY MEDICAL CENTER
5.96,40.90400,-73.96847,29069.27,ENGLEWOOD HOSPITAL AND MEDICAL CENTER
5.86,40.89538,-74.46479,28429.15,SAINT CLARE'S HOSPITAL
4.51,40.71264,-74.35460,19552.87,OVERLOOK HOSPITAL
6.78,40.07832,-74.13009,34480.41,OCEAN MEDICAL CENTER
6.03,40.81058,-74.20459,29562.36,MOUNTAINSIDE HOSPITAL
7.85,40.04632,-74.88059,41556.76,LOURDES MEDICAL CENTER OF BURLINGTON COUNTY
8.20,39.35775,-74.43449,43868.45,ATLANTICARE REGIONAL MEDICAL CENTER - CITY DIV
7.02,40.76190,-74.30335,36066.56,SAINT BARNABAS MEDICAL CENTER
5.79,40.75402,-74.21335,27951.55,EAST ORANGE GENERAL HOSPITAL
7.09,40.07503,-74.21832,36552.08,KIMBALL MEDICAL CENTER
8.14,40.23629,-74.75256,43509.27,CAPITAL HEALTH SYSTEM-FULD CAMPUS
6.80,40.55784,-74.34970,34622.08,JFK MEDICAL CTR - ANTHONY M. YELENCSICS COMMUNITY
8.17,40.21575,-74.67273,43675.12,ROBERT WOOD JOHNSON UNIVERSITY HOSPITAL HAMILTON
6.54,40.78621,-74.07568,32954.36,MEADOWLANDS HOSPITAL MEDICAL CENTER
3.20,36.72387,-108.21749,10899.27,SAN JUAN REGIONAL MEDICAL CENTER
4.13,41.92720,-73.99535,17014.00,KINGSTON HOSPITAL
2.91,42.87482,-78.84942,8980.50,KALEIDA HEALTH
2.67,42.09299,-75.93704,7386.79,OUR LADY OF LOURDES MEMORIAL HOSPITAL, INC
4.61,42.65345,-73.77543,20188.57,ALBANY MEDICAL CENTER HOSPITAL
2.65,40.70141,-73.81630,7275.47,JAMAICA HOSPITAL MEDICAL CENTER
4.74,41.69441,-73.93432,21022.16,VASSAR BROTHERS MEDICAL CENTER
3.92,40.79041,-73.95386,15612.76,MOUNT SINAI HOSPITAL
3.31,40.72548,-73.55287,11621.03,NASSAU UNIVERSITY MEDICAL CENTER
4.46,40.63588,-74.10556,19164.61,RICHMOND UNIVERSITY MEDICAL CENTER
4.89,40.80556,-73.96131,22037.67,ST LUKE'S ROOSEVELT HOSPITAL
4.15,40.74722,-73.82521,17165.19,NEW YORK HOSPITAL MEDICAL CENTER OF QUEENS
3.07,40.68983,-73.97794,10013.64,BROOKLYN HOSPITAL CENTER AT DOWNTOWN CAMPUS
3.75,42.65583,-73.80372,14540.00,ST PETER'S HOSPITAL
2.55,40.81770,-73.92401,6616.50,LINCOLN MEDICAL & MENTAL HEALTH CENTER
2.68,44.85685,-74.29199,7474.55,ALICE HYDE MEDICAL CENTER
3.61,40.91304,-73.84024,13587.00,MOUNT VERNON HOSPITAL
3.00,42.10076,-76.82800,9537.69,ARNOT OGDEN MEDICAL CENTER
2.97,42.24595,-73.77855,9364.31,COLUMBIA MEMORIAL HOSPITAL
5.56,41.09642,-73.92501,26485.45,NYACK HOSPITAL
4.88,40.77686,-73.70212,21950.13,NORTH SHORE UNIVERSITY HOSPITAL
3.04,43.19244,-77.58590,9824.07,ROCHESTER GENERAL HOSPITAL
5.15,41.44138,-74.36821,23723.15,ORANGE REGIONAL MEDICAL CENTER
2.76,43.05571,-76.14981,7983.68,ST JOSEPH'S HOSPITAL HEALTH CENTER
4.84,40.78000,-72.97763,21724.40,BROOKHAVEN MEMORIAL HOSPITAL MEDICAL CENTER
2.31,43.17738,-78.67123,5010.77,EASTERN NIAGARA HOSPITAL
4.46,40.73265,-73.98162,19186.30,BETH ISRAEL MEDICAL CENTER
4.59,40.80462,-73.67023,20072.48,ST FRANCIS HOSPITAL, ROSLYN
3.17,40.91276,-73.78720,10696.38,SOUND SHORE MEDICAL CENTER OF WESTSCHESTER
3.19,40.75543,-73.81532,10826.14,FLUSHING HOSPITAL MEDICAL CENTER
5.17,40.75332,-73.70899,23887.65,LONG ISLAND JEWISH MEDICAL CENTER
3.54,40.65189,-73.63096,13122.69,SOUTH NASSAU COMMUNITIES HOSPITAL
4.87,40.65957,-73.93378,21868.29,KINGSBROOK JEWISH MEDICAL CENTER
3.79,40.96967,-73.88447,14785.05,ST JOHN'S RIVERSIDE HOSPITAL
4.93,40.74335,-73.97408,22276.93,NYU HOSPITALS CENTER
3.08,43.45491,-76.51645,10109.93,OSWEGO HOSPITAL
3.24,40.70419,-73.91754,11143.38,WYCKOFF HEIGHTS MEDICAL CENTER
3.60,40.71730,-73.80353,13509.74,QUEENS HOSPITAL CENTER
2.83,40.65533,-73.91221,8433.36,BROOKDALE HOSPITAL MEDICAL CENTER
3.52,40.66762,-73.97850,13007.74,NEW YORK METHODIST HOSPITAL
2.90,40.81477,-73.94027,8890.44,HARLEM HOSPITAL CENTER
3.38,43.04269,-76.14043,12053.93,UNIVERSITY HOSPITAL S U N Y HEALTH SCIENCE CENTER
6.14,40.94779,-73.06033,30257.07,ST CHARLES HOSPITAL
4.19,41.10880,-73.86355,17425.91,PHELPS MEMORIAL HOSPITAL ASSN
4.47,41.50307,-74.01517,19256.52,ST LUKE'S CORNWALL HOSPITAL
4.87,40.69327,-73.29412,21885.22,GOOD SAMARITAN HOSPITAL MEDICAL CENTER
2.91,40.64666,-74.02049,8940.72,LUTHERAN MEDICAL CENTER
3.81,40.83778,-73.85417,14934.90,NEW YORK WESTCHESTER SQUARE MEDICAL CENTER
3.73,40.88512,-72.38030,14399.43,SOUTHAMPTON HOSPITAL
2.93,40.65508,-73.94521,9067.21,UNIVERSITY HOSPITAL OF BROOKLYN ( DOWNSTATE )
3.15,42.11422,-75.95851,10516.08,UNITED HEALTH SERVICES HOSPITALS, INC
4.15,40.59803,-73.75296,17161.74,ST JOHN'S EPISCOPAL HOSPITAL AT SOUTH SHORE
6.64,40.85738,-73.18681,33550.37,ST CATHERINE OF SIENA HOSPITAL
3.15,35.57658,-82.54922,10577.16,MEMORIAL MISSION HOSPITAL AND ASHEVILLE SURGERY CE
3.29,34.75124,-79.46789,11450.58,SCOTLAND MEMORIAL HOSPITAL
3.04,36.07581,-80.29779,9822.69,FORSYTH MEMORIAL HOSPITAL
3.01,35.32080,-82.46812,9612.33,MARGARET R PARDEE MEMORIAL HOSPITAL
4.22,35.30288,-81.53571,17577.46,CLEVELAND REGIONAL MEDICAL CENTER
4.47,36.00850,-78.94006,19278.22,DUKE UNIVERSITY HOSPITAL
2.34,35.54918,-77.03985,5196.92,BEAUFORT COUNTY MEDICAL CENTER
3.63,35.79986,-80.87863,13695.47,IREDELL MEMORIAL HOSPITAL INC
3.90,35.60726,-77.40477,15495.89,PITT COUNTY MEMORIAL HOSPITAL
3.70,34.76273,-77.38582,14207.88,ONSLOW MEMORIAL HOSPITAL
3.08,36.09062,-80.27161,10088.04,NORTH CAROLINA BAPTIST HOSPITAL
3.38,35.22196,-80.83287,12042.71,PRESBYTERIAN HOSPITAL
2.90,35.90529,-79.04963,8903.45,UNIVERSITY OF NORTH CAROLINA HOSPITAL
2.93,34.33747,-78.69425,9113.79,COLUMBUS REGIONAL HEALTHCARE SYSTEM
4.03,35.78523,-78.58836,16335.80,WAKEMED, RALEIGH CAMPUS
3.13,36.06347,-79.50208,10400.06,ALAMANCE REGIONAL MEDICAL CENTER
3.07,36.09251,-79.78855,9991.68,MOSES H CONE MEMORIAL HOSPITAL, THE
3.47,35.21029,-80.82084,12634.17,CAROLINAS MED CENTER-MERCY
3.67,34.90228,-79.71125,14011.80,SANDHILLS REGIONAL MEDICAL CENTER
3.56,35.71177,-79.81489,13227.40,RANDOLPH HOSPITAL
3.83,35.71850,-77.94518,15064.69,WILSON MEDICAL CENTER
2.91,34.97382,-80.52250,8978.25,CAROLINAS MEDICAL CENTER-UNION
3.00,36.43295,-77.64729,9529.00,HALIFAX REGIONAL MEDICAL CENTER INC
3.55,36.04960,-78.90617,13218.57,DURHAM REGIONAL HOSPITAL
2.98,35.52586,-82.94351,9457.60,MEDWEST HAYWOOD
2.94,46.88496,-96.78609,9131.31,SANFORD MEDICAL CENTER FARGO
3.43,39.13707,-84.50392,12408.36,UNIVERSITY HOSPITAL, INC
4.06,40.03064,-83.03440,16541.76,RIVERSIDE METHODIST HOSPITAL
3.02,38.75320,-82.97800,9673.33,SOUTHERN OHIO MEDICAL CENTER
3.42,40.73578,-84.08630,12309.58,LIMA MEMORIAL HEALTH SYSTEM
3.72,39.20680,-84.38093,14339.95,JEWISH HOSPITAL, LLC
3.63,39.96098,-82.99077,13719.50,GRANT MEDICAL CENTER
4.23,41.07747,-81.53042,17695.54,AKRON GENERAL MEDICAL CENTER
2.93,41.38265,-81.73127,9072.84,PARMA COMMUNITY GENERAL HOSPITAL
4.10,41.61788,-83.61632,16830.00,UNIVERSITY OF TOLEDO MEDICAL CENTER
4.89,39.74547,-84.18523,22037.13,MIAMI VALLEY HOSPITAL
5.35,39.78778,-84.23493,25088.35,GOOD SAMARITAN HOSPITAL
2.37,38.84439,-82.23902,5395.45,HOLZER MEDICAL CENTER
3.16,39.31257,-84.51774,10611.58,MERCY HOSPITAL FAIRFIELD
2.74,40.81219,-81.39625,7839.23,MERCY MEDICAL CENTER
2.67,39.71750,-82.57772,7402.07,FAIRFIELD MEDICAL CENTER
4.59,41.58130,-81.48979,20067.00,UHHS RICHMOND HEIGHTS HOSPITAL
3.33,41.17554,-81.24915,11716.59,ROBINSON MEMORIAL HOSPITAL
3.88,41.59825,-81.54884,15369.31,EUCLID HOSPITAL
4.66,39.99445,-83.01872,20488.64,OHIO STATE UNIVERSITY HOSPITALS
3.22,41.55725,-83.68141,10989.20,ST LUKE'S HOSPITAL
3.68,41.66317,-81.24696,14035.39,LAKE HEALTH
4.05,41.66810,-83.54275,16457.21,MERCY ST VINCENT MEDICAL CENTER
3.22,41.43653,-81.94451,11033.55,ST JOHN MEDICAL CENTER
2.85,41.36649,-82.09708,8589.09,EMH REGIONAL MEDICAL CENTER
3.21,39.43061,-81.46454,10944.18,MARIETTA MEMORIAL HOSPITAL
4.26,41.37028,-81.83189,17897.29,SOUTHWEST GENERAL HEALTH CENTER
3.37,41.43688,-82.23761,11981.27,MERCY REGIONAL MEDICAL CENTER
4.45,41.50248,-81.62110,19112.26,CLEVELAND CLINIC
4.57,41.48479,-81.79649,19926.14,LAKEWOOD HOSPITAL
3.13,41.52013,-81.43291,10424.86,HILLCREST HOSPITAL
3.25,40.99498,-80.66192,11212.21,ST ELIZABETH BOARDMAN HEALTH CENTER
5.11,34.00655,-96.39398,23487.17,MEDICAL CENTER OF SOUTHEASTERN OKLAHOMA
3.37,35.75351,-95.40612,11980.92,MUSKOGEE REGIONAL MEDICAL CENTER
3.41,35.47800,-97.52352,12245.86,ST ANTHONY HOSPITAL
4.17,35.46721,-97.39370,17281.60,MIDWEST REGIONAL MEDICAL CENTER
3.11,36.13393,-95.96718,10275.97,ST JOHN MEDICAL CENTER, INC
3.87,36.03590,-95.86511,15305.50,SOUTHCREST HOSPITAL
2.74,35.60901,-97.59429,7820.07,OKLAHOMA HEART HOSPITAL
4.10,41.40075,-75.64594,16787.00,COMMUNITY MEDICAL CENTER
4.70,42.11102,-80.07912,20805.44,SAINT VINCENT HEALTH CENTER
3.25,40.18302,-80.24767,11207.00,WASHINGTON HOSPITAL, THE
6.01,40.10226,-74.86338,29425.21,LOWER BUCKS HOSPITAL
3.21,40.52204,-78.39824,10928.93,ALTOONA REGIONAL HEALTH SYSTEM
3.66,40.04740,-76.30540,13889.76,LANCASTER GENERAL HOSPITAL
4.14,40.48928,-79.89596,17070.40,UPMC ST MARGARET
7.15,40.12453,-75.33533,36920.36,MONTGOMERY HOSPITAL
6.96,39.95045,-75.19259,35669.75,HOSPITAL OF UNIV OF PENNSYLVANIA
4.71,40.07160,-74.98341,20867.48,ARIA HEALTH
5.21,40.24397,-75.61364,24111.59,POTTSTOWN MEMORIAL MEDICAL CENTER
4.90,40.60000,-75.47000,22114.68,LEHIGH VALLEY HOSPITAL
3.90,39.93492,-77.64744,15468.93,CHAMBERSBURG HOSPITAL
6.68,40.04475,-75.50425,33862.56,MAIN LINE HOSPITAL PAOLI
5.38,39.92871,-75.26873,25263.13,MERCY FITZGERALD HOSPITAL
6.70,40.68708,-75.24272,33963.76,EASTON HOSPITAL
5.69,39.94969,-75.15712,27281.88,THOMAS JEFFERSON UNIVERSITY HOSPITAL
3.83,39.97024,-75.60259,15008.50,CHESTER COUNTY HOSPITAL
11.75,39.85598,-75.36791,67333.42,CROZER CHESTER MEDICAL CENTER
3.84,40.99225,-75.17466,15101.00,POCONO MEDICAL CENTER
5.40,40.12077,-75.11818,25371.98,ABINGTON MEMORIAL HOSPITAL
5.00,40.20064,-74.92952,22728.05,ST MARY MEDICAL CENTER
3.11,40.42897,-79.74808,10295.29,WESTERN PENNSYLVANIA HOSP FORBES REGIONAL CAMPUS
4.24,40.81936,-77.84273,17729.38,MOUNT NITTANY MEDICAL CENTER
9.97,39.95658,-75.16249,55541.96,HAHNEMANN UNIVERSITY HOSPITAL
4.45,41.81254,-71.40760,19141.59,RHODE ISLAND HOSPITAL
3.94,34.96733,-81.94021,15757.50,SPARTANBURG REGIONAL MEDICAL CENTER
4.73,34.02839,-81.03539,20972.88,PALMETTO HEALTH RICHLAND
5.60,34.71787,-80.78844,26737.39,SPRINGS MEMORIAL HOSPITAL
4.10,35.08901,-81.63335,16842.50,UPSTATE CAROLINA MEDICAL CENTER
3.22,34.24654,-80.60702,10989.36,KERSHAW HEALTH
4.16,33.78555,-79.00178,17200.47,CONWAY MEDICAL CENTER
3.85,34.19543,-79.76256,15179.62,MCLEOD REGIONAL MEDICAL CENTER-PEE DEE
3.91,34.05671,-78.89903,15548.92,LORIS COMMUNITY HOSPITAL
4.13,33.62185,-80.74922,17014.43,TRMC OF ORANGEBURG & CALHOUN
3.69,34.17571,-82.15791,14135.62,SELF REGIONAL HEALTHCARE
4.08,34.81904,-82.41308,16677.25,GREENVILLE MEMORIAL HOSPITAL
4.99,32.97605,-80.07302,22690.76,TRIDENT MEDICAL CENTER
4.14,33.70704,-78.89487,17107.31,GRAND STRAND REG MED CENTER
3.76,33.59553,-79.02412,14570.86,WACCAMAW COMMUNITY HOSPITAL
2.95,45.46141,-98.47929,9245.00,AVERA ST LUKES
3.22,43.53460,-96.71136,11038.53,AVERA MCKENNAN HOSPITAL & UNIVERSITY HEALTH CENTER
2.91,35.63906,-88.83207,8972.83,JACKSON-MADISON COUNTY GENERAL HOSPITAL
3.36,35.93917,-85.01865,11912.88,CUMBERLAND MEDICAL CENTER
3.27,36.55401,-82.55483,11344.93,WELLMONT HOLSTON VALLEY MEDICAL CENTER
3.13,35.98589,-84.28055,10400.75,METHODIST MEDICAL CENTER OF OAK RIDGE
3.99,36.58199,-87.27050,16092.58,GATEWAY MEDICAL CENTER
3.82,35.12837,-89.86202,14984.26,BAPTIST MEMORIAL HOSPITAL
3.37,35.86074,-86.42434,12000.59,MIDDLE TENNESSEE MEDICAL CENTER INC
3.36,35.17733,-86.09081,11902.41,SOUTHERN TENNESSEE MEDICAL CENTER
3.06,36.17121,-85.50938,9922.90,COOKEVILLE REGIONAL MEDICAL CENTER
3.85,36.30767,-82.38497,15135.80,JOHNSON CITY MEDICAL CENTER
3.10,36.12859,-86.84559,10206.53,ST THOMAS HOSPITAL
3.45,36.43222,-84.94250,12524.57,JAMESTOWN REGIONAL MEDICAL CENTER
3.49,35.05068,-85.28823,12802.09,ERLANGER MEDICAL CENTER
3.12,35.99233,-83.92697,10378.08,TENNOVA HEALTHCARE
3.22,35.95747,-83.93660,10991.73,FORT SANDERS REGIONAL MEDICAL CENTER
2.99,35.91765,-84.10080,9500.45,PARKWEST MEDICAL CENTER
2.65,35.61042,-89.24323,7246.00,HAYWOOD PARK COMMUNITY HOSPITAL
6.75,35.09925,-89.86301,34334.44,ST FRANCIS HOSPITAL
4.36,35.17731,-84.86873,18504.86,SKYRIDGE MEDICAL CENTER
4.04,33.90296,-98.50035,16423.24,UNITED REGIONAL HEALTH CARE SYSTEM
4.21,30.65598,-96.34672,17546.71,ST JOSEPH REGIONAL HEALTH CENTER
4.03,32.78994,-96.78044,16351.43,BAYLOR UNIVERSITY MEDICAL CENTER
4.83,27.53249,-99.47808,21630.13,LAREDO MEDICAL CENTER
4.13,26.17446,-97.67014,17006.69,VHS HARLINGEN HOSPITAL COMPANY LLC
6.23,29.74802,-95.36609,30849.08,ST JOSEPH MEDICAL CENTER
4.35,32.50219,-94.73025,18472.53,GOOD SHEPHERD MEDICAL CENTER
4.76,32.72621,-97.32659,21191.45,JPS HEALTH NETWORK
8.09,33.57524,-101.89272,43121.42,COVENANT MEDICAL CENTER
3.54,31.51444,-97.19927,13091.82,PROVIDENCE HEALTH CENTER
3.69,32.81224,-96.83795,14120.94,UT SOUTHWESTERN UNIVERSITY HOSPITAL
3.94,31.07837,-97.36403,15778.59,SCOTT & WHITE MEMORIAL HOSPITAL
3.39,33.17573,-94.97180,12139.08,TITUS REGIONAL MEDICAL CENTER
4.47,29.43360,-98.49265,19257.01,BAPTIST MEDICAL CENTER
3.87,32.74944,-97.11630,15306.20,TEXAS HEALTH ARLINGTON MEMORIAL HOSPITAL
5.01,29.71431,-95.39680,22797.41,MEMORIAL HERMANN TEXAS MEDICAL CENTER
3.99,32.83520,-96.96101,16100.54,BAYLOR MEDICAL CENTER AT IRVING
7.14,32.82932,-97.21399,36872.42,NORTH HILLS HOSPITAL
6.18,29.66575,-95.18131,30524.50,BAYSHORE MEDICAL CENTER
7.00,31.76998,-106.49897,35974.11,LAS PALMAS MEDICAL CENTER
5.80,26.26353,-98.18455,28036.41,SOUTH TEXAS HEALTH SYSTEM
4.53,30.27438,-97.73395,19685.07,UNIVERSITY MEDICAL CENTER AT BRACKENRIDGE
4.51,29.42561,-98.48946,19543.27,NIX HEALTH CARE SYSTEM
3.74,31.99616,-102.09950,14441.45,MIDLAND MEMORIAL HOSPITAL
4.61,32.73780,-97.33899,20208.60,TEXAS HEALTH HARRIS METHODIST FORT WORTH
4.05,31.11326,-97.80076,16489.63,METROPLEX HOSPITAL
5.20,27.49018,-97.85078,24061.62,CHRISTUS SPOHN HOSPITAL KLEBERG
3.65,26.19665,-98.31409,13822.00,MISSION REGIONAL MEDICAL CENTER
4.09,29.81230,-95.43010,16782.79,MEMORIAL HERMANN HOSPITAL SYSTEM
5.29,29.70719,-95.40048,24681.00,ST LUKES EPISCOPAL HOSPITAL
3.65,35.19934,-101.92186,13857.42,NORTHWEST TEXAS HOSPITAL
6.29,30.28473,-95.46714,31245.96,CONROE REGIONAL MEDICAL CENTER
3.81,35.19533,-101.91907,14888.96,BAPTIST ST ANTHONYS HEALTH SYSTEM-BAPTIST CAMPUS
4.19,29.57653,-95.77057,17398.36,OAKBEND MEDICAL CENTER
4.78,30.69934,-95.55927,21326.45,HUNTSVILLE MEMORIAL HOSPITAL
5.46,29.50795,-98.57224,25762.62,METHODIST HOSPITAL
5.21,32.17167,-95.84417,24127.33,EAST TEXAS MEDICAL CENTER ATHENS
3.51,32.08509,-96.50376,12890.33,NAVARRO REGIONAL HOSPITAL
3.91,31.32794,-94.75614,15562.85,WOODLAND HEIGHTS MEDICAL CENTER
3.82,32.93228,-97.09436,14973.75,BAYLOR REGIONAL MEDICAL CENTER AT GRAPEVINE
3.56,31.46574,-100.43466,13244.07,SHANNON MEDICAL CENTER
4.08,29.78143,-95.54541,16694.00,MEMORIAL HERMANN MEMORIAL CITY MEDICAL CENTER
5.53,33.17345,-97.11382,26257.47,DENTON REGIONAL MEDICAL CENTER
6.18,30.01994,-95.44379,30541.95,HOUSTON NORTHWEST MEDICAL CENTER
5.34,33.02168,-96.76621,25025.86,MEDICAL CENTER OF PLANO
4.37,31.65212,-94.65488,18610.25,NACOGDOCHES MEDICAL CENTER
6.02,25.97780,-97.51442,29499.89,VALLEY REGIONAL MEDICAL CENTER
4.31,33.04634,-97.00473,18171.69,MEDICAL CENTER OF LEWISVILLE
5.23,30.08682,-95.62403,24290.42,TOMBALL REGIONAL MEDICAL CENTER
5.35,32.73563,-97.34483,25095.70,PLAZA MEDICAL CENTER OF FORT WORTH
4.71,32.67614,-97.32079,20865.71,HUGULEY HEALTH SYSTEM
2.85,32.70698,-96.27851,8545.14,RENAISSANCE HOSPITAL TERRELL
4.05,29.99677,-95.27641,16494.21,MEMORIAL HERMANN NORTHEAST
3.85,33.58838,-101.89214,15168.58,UNIVERSITY MEDICAL CENTER
4.53,29.35295,-98.54601,19681.83,SOUTHWEST GENERAL HOSPITAL
4.67,30.22723,-97.77447,20608.26,ST DAVID'S SOUTH AUSTIN MEDICAL CENTER
4.62,32.64448,-96.87635,20267.19,METHODIST CHARLTON MEDICAL CENTER
4.20,32.65818,-97.42078,17510.29,TEXAS HEALTH HARRIS METHODIST HOSPITAL SOUTHWEST F
5.29,27.69288,-97.34476,24688.89,CORPUS CHRISTI MEDICAL CENTER,THE
5.82,29.96603,-95.55127,28193.05,METHODIST WILLOWBROOK HOSPITAL
4.78,30.40505,-97.74357,21300.75,SETON  NORTHWEST HOSPITAL
2.76,38.40552,-78.85730,7971.39,ROCKINGHAM MEMORIAL HOSPITAL
2.63,39.19345,-78.19599,7140.74,WINCHESTER MEDICAL CENTER INC
3.39,36.86268,-76.30355,12133.27,SENTARA NORFOLK GENERAL HOSPITAL
4.62,38.02573,-78.51526,20258.53,UNIVERSITY OF VIRGINIA MEDICAL CENTER
2.72,38.09436,-78.98659,7738.95,AUGUSTA HEALTH
2.69,37.41368,-79.16870,7492.87,CENTRA  HEALTH, INC
3.36,38.71322,-77.80895,11953.73,THE FAUQUIER HOSPITAL, INC
3.22,37.25129,-79.94125,11033.74,CARILION ROANOKE MEMORIAL CENTER
3.42,38.82218,-77.10533,12344.67,INOVA ALEXANDRIA HOSPITAL
3.16,39.07405,-77.47754,10636.36,INOVA LOUDOUN HOSPITAL
3.16,36.85098,-76.18989,10617.45,SENTARA LEIGH HOSPITAL
3.08,37.09990,-81.79024,10091.24,CLINCH VALLEY MEDICAL CENTER
3.51,38.85764,-77.22772,12954.87,INOVA FAIRFAX HOSPITAL
5.53,37.18253,-77.35957,26238.73,SOUTHSIDE REGIONAL MEDICAL CENTER
2.64,38.02176,-78.44530,7195.93,MARTHA JEFFERSON HOSPITAL
3.84,36.69555,-79.86374,15124.79,MEMORIAL HOSPITAL OF MARTINSVILLE & HENRY COUNTY
2.74,37.30288,-78.40196,7830.71,SOUTHSIDE COMMUNITY HOSPITAL, INC
3.31,37.05580,-76.39048,11625.40,SENTARA CAREPLEX HOSPITAL
3.44,38.88483,-77.37995,12465.75,INOVA FAIR OAKS HOSPITAL
4.32,47.58295,-122.62506,18296.44,HARRISON MEDICAL CENTER
3.68,45.62460,-122.58145,14054.00,PEACEHEALTH SOUTHWEST MEDICAL CENTER
3.36,46.28132,-119.28218,11953.06,KADLEC REGIONAL MEDICAL CENTER
3.79,47.60351,-122.32305,14746.92,HARBORVIEW MEDICAL CENTER
5.32,47.17742,-122.28943,24860.26,MULTICARE GOOD SAMARITAN HOSPITAL
3.31,47.44243,-122.21392,11578.29,VALLEY MEDICAL CENTER
4.83,47.25980,-122.45243,21650.81,TACOMA GENERAL ALLENMORE HOSPITAL
4.22,47.29252,-122.32729,17605.36,ST FRANCIS COMMUNITY HOSPITAL
4.65,47.36373,-122.61353,20471.44,ST ANTHONY HOSPITAL
3.09,39.65498,-79.95814,10141.32,WEST VIRGINIA UNIVERSITY HOSPITALS
2.63,38.43236,-82.40067,7139.29,ST MARY'S MEDICAL CENTER
3.84,38.34739,-81.62600,15122.19,CHARLESTON AREA MEDICAL CENTER
2.87,39.66383,-79.94681,8705.86,MONONGALIA COUNTY GENERAL HOSPITAL
2.64,38.92594,-79.84673,7178.47,DAVIS MEMORIAL HOSPITAL
2.37,39.04775,-80.49240,5416.18,STONEWALL JACKSON MEM HOSP
3.37,39.27035,-81.56026,12013.82,CAMDEN CLARK MEDICAL CENTER
2.65,37.78754,-81.20183,7225.78,RALEIGH GENERAL HOSPITAL
3.49,44.81192,-91.51352,12795.82,MAYO CLINIC HEALTH SYSTEM EAU CLAIRE HOSPITAL
3.51,42.73444,-87.82788,12927.13,WHEATON FRANCISCAN HEALTHCARE- ALL SAINTS
4.80,42.98958,-87.95079,21469.25,AURORA ST LUKES MEDICAL CENTER
3.75,43.04008,-88.02523,14480.21,FROEDTERT MEM LUTHERAN HSPTL
3.69,41.14037,-104.81660,14144.06,CHEYENNE REGIONAL MEDICAL CENTER
4.32,30.56899,-97.65104,18241.32,SETON MEDICAL CENTER WILLIAMSON
4.89,29.61578,-98.47479,22014.24,METHODIST STONE OAK HOSPITAL
4.63,32.77776,-96.56763,20294.45,TEXAS REGIONAL MEDICAL CENTER AT SUNNYVALE
4.73,33.25607,-86.81035,20969.69,SHELBY BAPTIST MEDICAL CENTER
2.47,32.82377,-85.17019,6086.45,GEORGE H. LANIER MEMORIAL HOSPITAL
2.85,32.63806,-85.40413,8562.69,EAST ALABAMA MEDICAL CENTER AND SNF
3.58,33.50619,-86.80210,13379.87,UNIVERSITY OF ALABAMA HOSPITAL
4.26,33.66767,-85.83420,17871.73,STRINGFELLOW MEMORIAL HOSPITAL
6.25,34.00941,-85.97078,31010.93,GADSDEN REGIONAL MEDICAL CENTER
4.47,34.00426,-86.00339,19256.71,RIVERVIEW REGIONAL MEDICAL CENTER
3.33,33.65640,-85.82284,11717.04,NORTHEAST ALABAMA REGIONAL MED CENTER
3.67,33.20521,-87.52546,13998.42,D C H REGIONAL MEDICAL CENTER
4.20,33.49854,-86.84633,17492.38,BAPTIST MEDICAL CENTER-PRINCETON
2.16,32.43516,-88.32614,3984.35,BRYAN W WHITFIELD MEM HOSP INC
3.90,32.43020,-87.05515,15471.58,VAUGHAN REG MED CENTER PARKWAY CAMPUS
7.50,33.46420,-86.77409,39286.27,BROOKWOOD MEDICAL CENTER
3.21,32.38797,-86.17576,10959.60,BAPTIST MEDICAL CENTER EAST
4.21,33.46514,-112.05797,17533.44,BANNER GOOD SAMARITAN MEDICAL CENTER
3.79,32.25294,-110.88135,14756.83,TUCSON MEDICAL CENTER
4.59,34.56017,-112.48217,20046.07,YAVAPAI REGIONAL MEDICAL CENTER
6.66,35.20923,-111.64486,33700.73,FLAGSTAFF MEDICAL CENTER
5.10,33.29750,-111.87461,23405.36,CHANDLER REGIONAL MEDICAL CENTER
6.37,33.45154,-112.04313,31786.36,ST LUKES MEDICAL CENTER
4.36,35.22024,-114.03585,18511.73,KINGMAN REGIONAL MEDICAL CENTER
4.65,33.60432,-112.28378,20474.71,BANNER BOSWELL MEDICAL CENTER
4.25,33.39097,-111.87638,17823.37,BANNER DESERT MEDICAL CENTER
4.40,33.41128,-111.68916,18801.14,BANNER BAYWOOD MEDICAL CENTER
4.66,33.60949,-112.18129,20517.92,BANNER THUNDERBIRD MEDICAL CENTER
5.00,33.66596,-112.11618,22729.94,JOHN C LINCOLN DEER VALLEY HOSPITAL
4.52,33.65965,-112.37283,19610.18,BANNER DEL E WEBB MEDICAL CENTER
6.55,35.11068,-114.55505,33000.54,WESTERN ARIZONA REGIONAL MEDICAL CTR
5.36,33.28686,-111.75246,25166.45,MERCY GILBERT MEDICAL CENTER
3.59,34.75031,-92.33897,13443.63,ST VINCENT INFIRMARY MEDICAL CENTER
2.00,35.05399,-93.38856,2956.50,JOHN ED CHAMBERS MEM HOSP, INC
3.06,35.25046,-91.70056,9962.28,WHITE COUNTY MEDICAL CENTER
2.70,35.83746,-90.70386,7558.54,ST BERNARDS MEDICAL CTR
