size_charge,size_pay,lat,lon,charge,pay,AcquiredInfect,AcquiredConditions,PatientSafetySummary,name
9.37,2.35,36.18082,-94.13644,20334.90,3779.57,0.50,0.69,0.30,NW ARKANSAS HOSPITALS LLC
3.54,2.13,36.34295,-92.39442,6587.13,3269.54,0.50,0.65,0.58,BAXTER REGIONAL MEDICAL CENTER
4.99,2.21,34.77770,-92.12539,10006.75,3457.00,0.50,0.60,0.14,BAPTIST HEALTH MEDICAL CENTER NORTH LITTLE ROCK
5.57,2.63,35.14320,-90.18837,11367.17,4430.00,0.00,0.00,0.00,CRITTENDEN MEMORIAL HOSPITAL
4.75,2.28,35.37445,-94.41868,9439.45,3612.11,0.50,0.54,0.86,SPARKS REGIONAL MEDICAL CENTER
7.67,2.22,35.35395,-94.35262,16317.38,3476.92,0.50,0.66,0.11,ST EDWARD MERCY MEDICAL CENTER
7.68,2.16,34.57290,-92.58508,16344.79,3344.79,0.50,0.89,0.72,SALINE MEMORIAL HOSPITAL
5.43,2.24,34.74866,-92.35422,11044.35,3511.61,0.50,0.44,0.21,BAPTIST HEALTH MEDICAL CENTER-LITTLE ROCK
4.59,2.11,34.73868,-92.39307,9066.86,3227.07,0.75,0.86,0.80,ARKANSAS HEART HOSPITAL
11.55,2.82,32.77495,-117.01467,25459.47,4893.77,0.83,0.71,0.33,GROSSMONT HOSPITAL
9.60,2.74,39.50528,-121.54100,20867.38,4694.00,0.50,0.74,0.64,OROVILLE HOSPITAL
5.48,2.93,34.67486,-118.15771,11148.76,5155.53,0.50,0.68,0.45,ANTELOPE VALLEY HOSPITAL MED CENTER
12.75,3.28,34.12834,-118.25777,28289.15,5969.26,0.50,0.72,0.45,GLENDALE MEM HOSPITAL & HLTH CENTER
11.53,3.66,34.09643,-118.29103,25431.48,6877.00,0.75,0.76,0.74,HOLLYWOOD PRESBYTERIAN MEDICAL CENTER
11.37,3.07,32.75143,-117.16083,25037.88,5477.58,0.33,0.62,0.70,SCRIPPS MERCY HOSPITAL
10.08,2.66,36.83532,-119.76562,21999.39,4503.89,0.50,0.66,0.58,SAINT AGNES MEDICAL CENTER
13.61,3.61,33.92963,-118.20332,30320.79,6745.74,0.67,0.79,0.33,SAINT FRANCIS MEDICAL CENTER
10.84,3.14,34.07558,-118.28424,23787.85,5635.83,0.00,0.00,0.00,TEMPLE COMMUNITY HOSPITAL
17.81,2.86,34.02685,-118.48651,40230.62,4994.62,0.50,0.76,0.21,SANTA MONICA - UCLA MED CTR & ORTHOPAEDIC HOSPITAL
17.59,3.57,34.22014,-118.53410,39695.91,6649.64,0.33,0.56,0.45,NORTHRIDGE HOSPITAL MEDICAL CENTER
6.03,2.76,36.32362,-119.66726,12455.35,4753.00,0.50,0.89,0.25,ADVENTIST MEDICAL CENTER
30.00,4.31,37.36257,-121.84974,68961.18,8405.73,0.50,0.70,0.02,REGIONAL MEDICAL CENTER OF SAN JOSE
6.50,3.39,34.09638,-118.32518,13553.45,6229.18,0.00,0.00,0.00,HOLLYWOOD COMMUNITY HOSPITAL OF HOLLYWOOD
14.28,3.98,36.57886,-121.91316,31910.25,7612.33,0.67,0.56,0.58,COMMUNITY HOSPITAL OF THE MONTEREY PENINSULA
14.73,2.72,37.51164,-120.83800,32973.25,4648.33,0.33,0.86,0.16,EMANUEL MEDICAL CENTER INC
20.95,3.30,37.55717,-121.98126,47622.38,6028.08,0.50,0.54,0.89,WASHINGTON HOSPITAL
17.49,2.82,32.61972,-117.02278,39481.64,4883.71,0.50,0.71,0.58,SHARP CHULA VISTA MEDICAL CENTER
13.61,2.64,33.84780,-117.93661,30330.05,4459.55,0.50,0.74,0.58,AHMC ANAHEIM REGIONAL MEDICAL CENTER
14.39,4.45,37.75676,-122.40461,32171.73,8728.73,0.75,0.51,0.12,SAN FRANCISCO GENERAL HOSPITAL
17.66,2.67,34.15601,-118.32834,39871.87,4546.00,0.50,0.80,0.97,PROVIDENCE SAINT JOSEPH MEDICAL CTR
9.37,2.72,34.13973,-118.03534,20333.09,4657.45,0.50,0.45,0.11,METHODIST HOSPITAL OF SOUTHERN CA
13.37,3.28,34.14987,-118.23117,29762.58,5969.95,0.67,0.75,0.89,GLENDALE ADVENTIST MEDICAL CENTER
20.42,2.76,33.83862,-116.54557,46370.92,4749.33,0.67,0.81,0.03,DESERT REGIONAL MEDICAL CENTER
6.47,3.68,34.07389,-117.35111,13492.08,6909.17,0.33,0.81,0.07,ARROWHEAD REGIONAL MEDICAL CENTER
4.88,3.19,35.41172,-119.03972,9750.64,5760.55,0.00,0.00,0.00,GOOD SAMARITAN HOSPITAL
15.49,4.32,34.06675,-118.44613,34764.77,8417.00,0.50,0.28,0.33,RONALD REAGAN UCLA MEDICAL CENTER
11.37,2.91,32.95813,-115.55388,25050.83,5104.50,0.50,0.91,0.93,PIONEERS MEMORIAL HEALTHCARE DISTRICT
25.05,4.00,33.78798,-117.89026,57293.08,7663.08,0.67,0.56,0.11,UNIVERSITY OF CALIFORNIA IRVINE MED CENTER
13.98,2.63,33.83891,-118.35677,31197.56,4449.50,0.50,0.86,0.94,PROVIDENCE LITTLE COMPANY OF MARY MED CTR TORRANCE
16.92,2.89,33.93530,-118.13030,38118.27,5065.87,0.50,0.90,0.83,DOWNEY REGIONAL MEDICAL CENTER
14.18,2.77,34.13364,-118.15275,31679.22,4774.94,0.67,0.65,0.58,HUNTINGTON MEMORIAL HOSPITAL
11.55,2.74,35.38338,-119.01969,25458.70,4700.85,0.33,0.86,0.07,SAN JOAQUIN COMMUNITY HOSPITAL
17.44,3.21,34.05336,-118.26558,39357.29,5799.57,0.50,0.69,0.80,GOOD SAMARITAN HOSPITAL
9.91,2.89,33.80861,-118.18661,21606.85,5042.90,0.67,0.65,0.28,LONG BEACH MEMORIAL MEDICAL CENTER
14.30,2.65,37.66867,-120.97339,31960.37,4496.63,0.67,0.80,0.54,MEMORIAL  MEDICAL CENTER
14.40,2.48,33.56100,-117.66530,32198.07,4086.50,0.67,0.59,0.13,MISSION HOSPITAL REGIONAL MED CENTER
17.58,2.39,33.76335,-116.40628,39675.53,3870.00,0.50,0.56,0.39,EISENHOWER MEDICAL CENTER
9.12,2.86,33.83340,-118.08118,19733.00,4991.00,0.50,0.90,0.99,TRI-CITY REGIONAL MEDICAL CENTER
13.64,2.52,34.09764,-117.83444,30403.17,4183.17,0.00,0.00,0.00,SAN DIMAS COMMUNITY HOSPITAL
8.77,2.41,33.60883,-117.70881,18904.08,3915.92,0.50,0.70,0.91,SADDLEBACK MEMORIAL MEDICAL CENTER
22.48,3.22,34.07664,-118.37955,51240.62,5836.24,1.00,0.59,0.48,CEDARS-SINAI MEDICAL CENTER
7.19,3.41,34.01936,-118.18661,15184.06,6276.56,0.50,0.90,0.64,LOS ANGELES COMMUNITY HOSPITAL
8.22,2.58,34.47174,-117.29791,17629.91,4334.00,0.50,1.00,0.99,DESERT VALLEY HOSPITAL
13.44,2.46,35.38506,-119.03992,29933.27,4042.00,0.50,0.97,0.76,BAKERSFIELD HEART HOSPITAL
13.52,3.28,33.95076,-118.34828,30106.30,5983.38,0.50,0.71,1.00,CENTINELA HOSPITAL MEDICAL CENTER
21.09,2.67,34.05723,-118.36025,47962.45,4525.60,0.50,0.64,0.70,OLYMPIA MEDICAL CENTER
9.46,2.62,32.77629,-117.05730,20551.55,4413.73,0.75,0.79,0.64,ALVARADO HOSPITAL MEDICAL CENTER
10.20,3.50,34.06958,-118.26344,22295.82,6498.82,0.00,0.00,0.00,SILVER LAKE MEDICAL CENTER
7.68,2.46,40.41481,-104.70890,16340.43,4045.52,0.50,0.74,0.58,NORTH COLORADO MEDICAL CENTER
6.41,2.30,40.57315,-105.05741,13346.82,3661.00,0.50,0.69,0.96,POUDRE VALLEY HOSPITAL
7.61,2.46,38.83903,-104.80024,16180.78,4039.59,0.67,0.69,0.33,MEMORIAL HOSPITAL CENTRAL
8.60,2.26,38.86559,-104.82182,18521.29,3568.89,0.50,0.70,0.38,CENTURA HEALTH-PENROSE ST FRANCIS HEALTH SERVICES
8.71,2.94,41.30978,-72.93806,18767.83,5177.00,0.67,0.57,0.08,HOSPITAL OF ST RAPHAEL
8.57,2.78,41.55959,-73.05941,18453.23,4795.46,0.33,0.57,0.70,WATERBURY HOSPITAL
6.94,2.56,41.33722,-72.10380,14591.64,4286.27,0.50,0.72,0.93,LAWRENCE & MEMORIAL HOSPITAL
9.47,3.27,41.18881,-73.16645,20557.62,5948.54,0.50,0.51,0.21,BRIDGEPORT HOSPITAL
8.03,2.62,41.03431,-73.63020,17162.55,4425.95,0.50,0.49,0.64,GREENWICH HOSPITAL ASSOCIATION
7.65,3.49,41.30400,-72.93502,16274.18,6477.52,0.67,0.41,0.03,YALE-NEW HAVEN HOSPITAL
6.75,3.11,41.75412,-72.67927,14153.00,5569.88,0.50,0.47,0.10,HARTFORD HOSPITAL
7.05,2.80,41.20049,-73.20281,14867.08,4844.31,0.67,0.79,0.64,ST VINCENT'S MEDICAL CENTER
4.83,2.75,41.40474,-73.44739,9636.73,4714.20,0.50,0.66,0.58,DANBURY HOSPITAL
10.13,2.92,41.11147,-73.42010,22118.56,5119.80,0.50,0.72,0.93,NORWALK HOSPITAL ASSOCIATION
6.16,2.71,41.66107,-72.78671,12759.60,4634.27,0.50,0.53,0.08,HOSPITAL OF CENTRAL CONNECTICUT THE
5.16,2.84,39.69005,-75.68408,10397.38,4935.85,0.67,0.59,0.39,CHRISTIANA CARE HEALTH SERVICES INC.
6.96,2.59,39.74954,-75.56662,14644.23,4338.31,0.50,0.81,0.80,ST FRANCIS HOSPITAL
5.46,2.63,39.15135,-75.52309,11105.70,4437.19,0.50,0.59,0.91,BAYHEALTH - KENT GENERAL HOSPITAL
7.40,3.16,38.90106,-77.05079,15690.78,5692.83,0.50,0.50,0.14,GEORGE WASHINGTON UNIV HOSPITAL
6.88,4.05,38.91770,-77.02193,14470.02,7777.93,0.50,0.66,0.01,HOWARD UNIVERSITY HOSPITAL
6.26,2.93,38.94397,-76.99040,13000.71,5141.18,0.50,0.57,0.25,PROVIDENCE HOSPITAL
8.98,3.15,38.92944,-77.01473,19404.97,5661.00,0.33,0.59,0.02,WASHINGTON HOSPITAL CENTER
8.52,3.07,30.34913,-81.66391,18318.33,5486.15,0.50,0.62,0.00,SHANDS JACKSONVILLE MEDICAL CENTER
11.00,2.46,26.50479,-80.06979,24168.20,4039.97,0.50,0.54,0.99,BETHESDA MEMORIAL HOSPITAL
9.87,2.57,28.52517,-81.37729,21507.68,4294.95,0.67,0.47,0.29,ORLANDO HEALTH
7.93,2.44,28.57345,-81.36990,16945.41,3982.41,0.83,0.66,0.25,FLORIDA HOSPITAL
15.06,2.79,25.78846,-80.21644,33739.74,4819.41,0.83,0.56,0.01,UNIVERSITY OF MIAMI HOSPITAL
6.69,2.32,26.62849,-81.87423,14005.00,3717.03,0.67,0.53,0.16,LEE MEMORIAL HOSPITAL
6.34,2.73,29.20117,-81.05828,13188.79,4675.64,0.67,0.76,0.80,HALIFAX HEALTH MEDICAL CENTER
7.44,2.27,26.15053,-81.79919,15769.48,3596.45,0.67,0.62,0.39,NAPLES COMMUNITY HOSPITAL
7.80,2.24,28.08771,-80.61362,16623.27,3519.04,0.67,0.59,0.17,HOLMES REGIONAL MEDICAL CENTER
7.89,3.91,25.79143,-80.21250,16849.70,7450.79,0.83,0.49,0.05,JACKSON MEMORIAL HOSPITAL
7.21,2.41,30.47650,-87.21219,15248.54,3932.43,0.50,0.41,0.39,SACRED HEART HOSPITAL
5.95,2.21,30.15963,-85.64818,12264.33,3458.56,0.67,0.74,0.43,BAY MEDICAL CENTER
6.43,2.68,28.63051,-80.82437,13393.21,4559.53,0.50,0.69,0.98,PARRISH MEDICAL CENTER
14.12,2.68,25.86166,-80.21398,31536.72,4551.80,0.50,0.84,0.70,NORTH SHORE MEDICAL CENTER
7.75,2.34,28.54917,-81.52746,16512.00,3753.64,0.50,0.70,0.58,HEALTH CENTRAL
8.51,2.53,27.76332,-82.64325,18298.58,4214.92,0.50,0.82,0.20,BAYFRONT MEDICAL CENTER INC
12.04,2.82,25.81317,-80.13996,26615.91,4887.26,0.67,0.47,0.25,MOUNT SINAI MEDICAL CENTER
9.75,2.33,27.49789,-82.56220,21229.14,3745.00,0.50,0.55,0.30,MANATEE MEMORIAL HOSPITAL
10.80,2.58,26.01867,-80.17981,23704.37,4334.84,0.83,0.64,0.76,MEMORIAL REGIONAL HOSPITAL
8.29,2.95,26.10282,-80.14245,17776.43,5203.93,0.75,0.76,0.97,BROWARD HEALTH BROWARD GENERAL MEDICAL CENTER
6.74,2.26,30.30835,-81.68919,14139.59,3559.61,0.50,0.69,0.83,ST VINCENT'S MEDICAL CENTER
7.57,2.12,28.01404,-82.78368,16084.36,3232.27,0.50,0.75,0.54,MEASE HOSPITAL DUNEDIN
9.22,2.35,27.19837,-80.24306,19968.74,3785.00,0.67,0.70,0.58,MARTIN MEMORIAL MEDICAL CENTER
9.45,2.23,28.26092,-82.18802,20519.26,3498.81,0.50,0.62,0.89,FLORIDA HOSPITAL ZEPHYRHILLS
6.57,2.13,26.94042,-82.04094,13720.19,3267.50,0.50,0.72,0.86,CHARLOTTE REGIONAL MEDICAL CENTER
6.53,2.18,27.46707,-81.43358,13623.79,3386.53,0.00,0.00,0.00,HIGHLANDS REGIONAL MEDICAL CENTER
7.80,2.76,25.86856,-80.31222,16633.67,4753.00,0.50,0.89,0.93,PALM SPRINGS GENERAL HOSPITAL
10.43,2.23,28.02768,-81.72466,22836.53,3503.00,0.50,0.62,0.03,WINTER HAVEN HOSPITAL
15.83,3.04,25.84597,-80.26872,35569.03,5401.51,0.75,0.82,1.00,HIALEAH HOSPITAL
8.10,2.25,28.82358,-81.71133,17331.19,3554.61,0.50,0.71,0.48,FLORIDA HOSPITAL WATERMAN
6.31,2.62,25.74067,-80.21244,13116.59,4418.82,0.00,0.00,0.00,MERCY HOSPITAL INC
7.35,2.12,28.25431,-82.71447,15563.23,3233.00,0.50,0.96,0.39,MORTON PLANT NORTH BAY HOSPITAL
6.70,2.20,27.78088,-82.65126,14034.47,3430.41,0.50,0.69,0.58,ST ANTHONY'S HOSPITAL
8.63,2.13,27.09043,-82.44499,18581.27,3266.00,0.50,0.76,0.48,VENICE REGIONAL MEDICAL CENTER
15.32,2.31,28.53906,-82.44193,34344.28,3692.56,0.50,0.75,0.58,BROOKSVILLE REGIONAL HOSPITAL
7.42,2.24,28.91403,-81.28480,15734.08,3512.42,0.83,0.75,0.05,FLORIDA HOSPITAL FISH MEMORIAL
10.57,2.24,26.18711,-80.11941,23166.69,3512.00,0.83,0.57,0.38,HOLY CROSS HOSPITAL INC
8.56,2.46,27.98242,-82.49025,18414.62,4046.02,0.67,0.60,0.30,ST JOSEPH'S HOSPITAL
8.24,2.90,25.77941,-80.29397,17657.00,5086.92,0.00,0.00,0.00,METROPOLITAN HOSPITAL OF MIAMI
9.60,2.23,26.98905,-82.09559,20865.20,3498.73,0.50,0.69,0.43,PEACE RIVER REGIONAL MEDICAL CENTER
11.23,2.38,26.59805,-80.09271,24704.30,3845.26,1.00,0.60,0.28,JFK MEDICAL CENTER
7.16,2.19,28.80659,-81.86906,15129.50,3398.43,0.33,0.68,0.25,LEESBURG REGIONAL MEDICAL CENTER
3.88,2.20,27.31827,-82.53140,7399.45,3418.64,0.33,0.38,0.70,SARASOTA MEMORIAL HOSPITAL
10.38,2.41,30.31525,-81.66398,22712.32,3925.13,0.67,0.47,0.13,BAPTIST MEDICAL CENTER
7.57,2.65,29.86371,-81.31749,16080.42,4488.63,0.67,0.76,0.30,FLAGLER HOSPITAL
6.97,2.24,28.33522,-80.72319,14674.26,3528.10,0.50,0.64,0.97,WUESTHOFF MEDICAL CENTER  ROCKLEDGE
9.93,2.16,27.89590,-81.56547,21660.44,3326.29,0.00,0.00,0.00,LAKE WALES MEDICAL CENTER
4.32,2.28,27.65832,-80.39307,8424.47,3625.00,0.67,0.76,0.99,INDIAN RIVER MEDICAL CENTER
6.92,2.25,27.50001,-81.43962,14561.55,3536.91,0.50,0.61,0.86,FLORIDA HOSPITAL HEARTLAND MEDICAL CENTER
14.54,2.56,28.29946,-81.41021,32522.64,4271.76,0.50,0.64,0.51,OSCEOLA REGIONAL MEDICAL CENTER
6.34,3.33,29.64155,-82.34844,13184.86,6093.25,0.67,0.54,0.30,SHANDS HOSPITAL AT THE UNIVERSITY OF FLORIDA
6.20,2.46,29.47897,-81.18915,12850.22,4050.00,0.50,0.51,0.39,FLORIDA HOSPITAL FLAGLER
7.64,2.19,27.91798,-81.84402,16252.53,3399.20,0.00,0.00,0.00,BARTOW REGIONAL MEDICAL CENTER
14.15,2.52,30.73540,-86.56171,31602.92,4175.00,0.50,0.90,0.97,NORTH OKALOOSA MEDICAL CENTER
6.51,2.23,27.95192,-82.80379,13589.36,3501.00,0.67,0.62,0.10,MORTON PLANT HOSPITAL
11.72,2.37,25.96994,-80.14533,25863.54,3821.89,0.50,0.64,0.80,AVENTURA HOSPITAL AND MEDICAL CENTER
8.84,2.27,28.01563,-82.13900,19089.67,3588.00,0.50,0.93,0.58,SOUTH FLORIDA BAPTIST HOSPITAL
10.29,2.28,28.18120,-81.64018,22507.54,3616.00,0.50,0.72,0.58,HEART OF FLORIDA REGIONAL MEDICAL CENTER
5.28,2.69,30.26389,-81.44283,10690.13,4594.07,0.83,0.62,0.91,MAYO CLINIC
9.74,2.63,30.18340,-82.68783,21206.86,4441.71,0.00,0.00,0.00,LAKE CITY MEDICAL CENTER
8.70,2.27,28.06172,-81.95304,18754.75,3592.34,0.50,0.53,0.03,LAKELAND REGIONAL MEDICAL CENTER
10.57,2.40,28.81611,-81.28351,23153.71,3902.36,0.50,0.56,0.98,CENTRAL FLORIDA REGIONAL HOSPITAL
11.88,2.85,26.12647,-80.20519,26241.85,4961.75,0.50,0.81,0.06,PLANTATION GENERAL HOSPITAL
8.80,2.21,28.07111,-82.42342,18978.61,3448.00,0.50,0.69,0.38,FLORIDA HOSPITAL TAMPA
5.83,2.36,27.22739,-81.85108,11973.88,3811.00,0.00,0.00,0.00,DESOTO MEMORIAL HOSPITAL
9.43,2.24,26.83035,-80.08655,20472.65,3511.00,1.00,0.56,0.38,PALM BEACH GARDENS MEDICAL CENTER
15.67,2.38,30.28793,-81.60103,35173.19,3863.81,0.33,0.49,0.25,MEMORIAL HOSPITAL JACKSONVILLE
14.66,2.85,25.74360,-80.25465,32803.17,4966.00,0.50,0.82,0.41,CORAL GABLES HOSPITAL
16.65,2.91,25.88563,-80.32635,37492.53,5108.24,0.67,0.79,0.91,PALMETTO GENERAL HOSPITAL
11.81,2.44,26.26259,-80.20292,26093.28,3999.89,0.50,0.51,0.98,NORTHWEST MEDICAL CENTER
13.55,2.24,29.66085,-82.41172,30185.55,3533.61,0.33,0.53,0.17,NORTH FLORIDA REGIONAL MEDICAL CENTER
13.91,2.77,25.73195,-80.38580,31024.45,4776.45,0.33,0.51,0.80,KENDALL REGIONAL MEDICAL CENTER
9.75,2.11,29.17550,-82.13680,21227.74,3206.52,0.83,0.55,0.86,OCALA REGIONAL MEDICAL CENTER
9.33,2.13,27.48213,-82.62126,20238.54,3265.00,0.50,0.75,0.69,BLAKE MEDICAL CENTER
10.45,2.23,27.84359,-80.48849,22865.07,3489.37,0.00,0.00,0.00,SEBASTIAN RIVER MEDICAL CENTER
6.53,2.24,26.52735,-81.83337,13628.60,3523.45,0.50,0.59,0.64,GULF COAST MEDICAL CENTER LEE MEM HEALTH SYSTEM
15.75,2.19,30.45448,-86.63362,35360.05,3409.80,0.50,0.72,0.64,FORT WALTON BEACH MEDICAL CENTER
15.30,2.29,30.16550,-81.73775,34317.69,3641.97,0.33,0.69,0.58,ORANGE PARK MEDICAL CENTER
11.64,2.26,26.12354,-80.25951,25675.41,3562.00,0.50,0.57,0.74,WESTSIDE REGIONAL MEDICAL CENTER
12.45,2.18,30.51624,-87.21856,27580.77,3392.46,0.50,0.65,0.05,WEST FLORIDA HOSPITAL
6.11,2.28,29.64481,-81.69431,12655.37,3625.00,0.50,0.79,0.48,PUTNAM COMMUNITY MEDICAL CENTER
9.74,2.13,26.98884,-82.09877,21198.43,3267.00,0.50,0.80,0.58,FAWCETT MEMORIAL HOSPITAL
17.39,2.29,27.82545,-82.70122,39231.14,3640.24,0.50,0.65,0.33,NORTHSIDE HOSPITAL
13.09,2.38,27.93259,-82.28759,29097.41,3854.35,0.67,0.68,0.21,BRANDON REGIONAL HOSPITAL
7.36,2.13,26.63958,-81.94164,15584.58,3253.00,0.50,0.53,0.21,CAPE CORAL HOSPITAL
14.06,2.50,27.43392,-80.34350,31394.94,4125.11,0.83,0.54,0.30,LAWNWOOD REGIONAL MEDICAL CENTER & HEART INSTITUTE
11.26,2.35,27.91458,-82.80382,24793.62,3784.85,0.50,0.49,0.25,LARGO MEDICAL CENTER
5.85,2.17,28.95195,-82.62421,12033.08,3361.67,0.50,0.72,0.21,SEVEN RIVERS REGIONAL MEDICAL CENTER
8.76,2.64,26.92138,-80.09708,18887.22,4459.06,0.50,0.61,0.54,JUPITER MEDICAL CENTER
10.02,2.30,30.47616,-84.23140,21865.30,3669.90,0.50,0.66,0.58,CAPITAL REGIONAL MEDICAL CENTER
10.08,2.12,28.36128,-82.68883,22008.77,3233.05,0.67,0.68,0.91,REGIONAL MEDICAL CENTER BAYONET POINT
12.40,2.29,26.43709,-80.12728,27479.73,3634.58,0.83,0.72,0.93,DELRAY MEDICAL CENTER
10.26,2.32,27.28861,-80.29431,22433.60,3721.20,0.50,0.65,0.54,ST LUCIE MEDICAL CENTER
15.23,2.24,28.53585,-82.53404,34132.89,3523.72,0.67,0.71,0.58,OAK HILL HOSPITAL
6.62,2.12,28.03957,-82.70875,13857.61,3234.00,0.67,0.66,0.54,MEASE COUNTRYSIDE HOSPITAL
7.91,2.51,26.65230,-80.20504,16880.86,4157.71,0.50,0.74,0.33,WELLINGTON REGIONAL MEDICAL CENTER
10.26,2.49,26.01394,-80.30980,22432.70,4109.70,0.67,0.71,0.64,MEMORIAL HOSPITAL WEST
7.35,3.25,25.74731,-80.31765,15573.22,5893.47,0.50,0.85,0.78,WESTCHESTER GENERAL HOSPITAL
11.43,2.18,26.21388,-81.73257,25194.17,3381.00,0.33,0.80,0.33,PHYSICIANS REGIONAL MEDICAL CENTER - PINE RIDGE
6.84,2.27,26.08155,-80.36449,14376.50,3601.33,1.00,0.57,0.48,CLEVELAND CLINIC HOSPITAL
6.24,2.12,28.94952,-81.95843,12944.52,3248.00,0.33,0.80,0.94,VILLAGES REGIONAL HOSPITAL THE
6.78,2.20,28.10969,-80.67280,14234.17,3419.67,0.50,0.72,0.38,WUESTHOFF MEDICAL CENTER - MELBOURNE
17.38,3.88,25.72132,-80.27116,39205.09,7386.17,0.00,0.00,0.00,DOCTORS HOSPITAL INC
9.54,2.15,28.24311,-81.30279,20720.00,3317.06,0.50,0.86,0.41,ST CLOUD REGIONAL MEDICAL CENTER
5.95,2.10,30.25377,-81.58270,12267.17,3189.75,0.50,0.78,0.30,ST VINCENT'S MEDICAL CENTER SOUTHSIDE
7.39,2.43,31.22516,-82.34898,15660.27,3974.40,0.50,0.94,0.33,SATILLA REGIONAL MEDICAL CENTER
6.75,2.75,33.79230,-84.32107,14150.00,4733.00,0.50,0.41,0.08,EMORY UNIVERSITY HOSPITAL
6.52,2.33,32.02825,-81.09977,13621.55,3730.18,0.83,0.81,0.02,CANDLER HOSPITAL
5.81,2.48,33.47096,-81.98176,11933.79,4093.89,0.50,0.51,0.21,UNIVERSITY HOSPITAL
6.67,2.34,34.30335,-83.81737,13970.45,3767.55,0.67,0.59,0.45,NORTHEAST GEORGIA MEDICAL CENTER INC
10.36,2.33,34.19990,-84.79378,22670.73,3738.00,0.50,0.62,0.39,CARTERSVILLE MEDICAL CENTER
8.24,2.28,33.96770,-84.55011,17677.37,3626.24,0.67,0.62,0.45,WELLSTAR KENNESTONE HOSPITAL
6.90,2.57,32.03185,-81.09158,14512.67,4304.00,0.67,0.61,0.25,MEMORIAL HEALTH UNIV MED CEN INC
10.28,2.13,31.98515,-81.15475,22470.18,3266.64,0.67,0.72,0.33,ST JOSEPH'S HOSPITAL - SAVANNAH
6.42,2.36,33.78334,-83.71709,13372.25,3808.00,0.50,0.89,0.02,WALTON REGIONAL MEDICAL CENTER
7.39,2.57,34.26000,-85.17000,15673.67,4298.53,0.50,0.68,0.89,FLOYD MEDICAL CENTER
5.19,2.30,32.61642,-83.63065,10470.92,3663.96,0.50,0.74,0.74,HOUSTON MEDICAL CENTER
6.00,2.36,33.96117,-83.39832,12378.58,3798.00,0.50,0.69,0.93,ATHENS REGIONAL MEDICAL CENTER
6.35,2.43,32.41483,-81.76990,13203.64,3967.91,0.50,0.82,0.39,EAST GEORGIA REGIONAL MEDICAL CENTER
6.71,2.61,33.78956,-84.28077,14063.72,4390.92,0.50,0.84,0.11,DEKALB MEDICAL CENTER
6.62,2.57,33.76810,-84.38616,13857.71,4301.33,0.33,0.45,0.10,EMORY UNIVERSITY HOSPITAL MIDTOWN
5.91,3.16,33.75205,-84.38272,12168.42,5680.83,0.33,0.56,0.00,GRADY MEMORIAL HOSPITAL
10.45,2.42,33.81003,-84.39568,22870.70,3941.95,0.33,0.57,0.45,PIEDMONT HOSPITAL
6.72,2.13,31.50971,-82.86341,14073.64,3271.00,0.00,0.00,0.00,COFFEE REGIONAL MEDICAL CENTER
6.35,2.44,33.68072,-84.00200,13214.36,3994.45,0.50,0.56,0.33,ROCKDALE MEDICAL CENTER
9.15,2.29,31.47069,-83.50473,19801.06,3644.25,0.17,0.80,0.32,TIFT REGIONAL MEDICAL CENTER
5.95,2.62,32.83041,-83.63476,12261.12,4411.08,0.67,0.49,0.45,MEDICAL CENTER OF CENTRAL GEORGIA
7.88,2.61,32.54026,-82.95741,16816.46,4389.46,0.00,0.00,0.00,FAIRVIEW PARK HOSPITAL
7.06,2.39,32.20903,-82.37585,14875.75,3886.17,0.00,0.00,0.00,MEADOWS REGIONAL MEDICAL CENTER
7.75,2.41,33.85638,-84.60446,16511.82,3928.45,0.50,0.56,0.33,WELLSTAR COBB HOSPITAL
8.14,2.33,32.84705,-83.61823,17427.00,3741.92,0.67,0.62,0.10,COLISEUM MEDICAL CENTER
7.64,2.17,34.25704,-85.16467,16242.47,3367.53,0.50,0.88,0.25,REDMOND REGIONAL MEDICAL CENTER
6.00,2.33,33.51144,-84.22200,12394.13,3725.33,0.50,0.91,0.93,HENRY MEDICAL CENTER INC
8.62,2.27,33.87683,-84.02136,18570.08,3585.50,0.50,0.78,0.45,EMORY EASTSIDE MEDICAL CENTER
14.92,2.31,34.06334,-84.31976,33413.54,3687.00,0.75,0.70,0.74,NORTH FULTON REGIONAL HOSPITAL
5.63,2.41,33.70365,-84.14697,11508.53,3911.71,0.50,0.84,0.78,DEKALB MEDICAL CENTER AT HILLANDALE
7.87,2.30,33.39118,-84.81563,16782.50,3668.57,0.50,0.89,0.05,PIEDMONT NEWNAN HOSPITAL INC
5.33,3.10,21.30780,-157.85505,10817.36,5553.93,0.67,0.69,0.45,THE QUEENS MEDICAL CENTER
6.64,2.34,43.61218,-116.19234,13900.73,3759.36,0.67,0.61,0.16,ST LUKES REGIONAL MEDICAL CENTER
11.77,2.67,41.52896,-88.13550,25996.91,4534.55,0.50,0.75,0.83,PROVENA ST JOSEPH MEDICAL CENTER
9.70,2.68,42.07012,-88.33180,21115.28,4559.11,0.50,0.82,0.25,SHERMAN HOSPITAL
7.15,2.58,42.06550,-87.68428,15094.51,4324.87,0.33,0.55,0.58,EVANSTON HOSPITAL
7.29,2.44,39.93563,-91.39833,15422.12,4005.41,0.50,0.55,0.93,BLESSING HOSPITAL
5.84,3.42,41.86011,-87.69571,12000.92,6303.15,0.33,0.66,0.01,MT SINAI HOSPITAL MEDICAL CENTER
5.66,2.40,41.11319,-88.83500,11587.18,3889.00,0.00,0.00,0.00,ST MARYS HOSPITAL
4.03,2.14,39.12680,-88.55059,7752.63,3280.63,0.00,0.00,0.00,ST ANTHONYS MEMORIAL HOSPITAL
4.29,2.29,38.52908,-89.11604,8349.87,3646.65,0.50,0.86,0.17,ST MARYS HOSPITAL
6.24,2.66,41.72636,-87.56727,12961.29,4521.57,0.50,0.65,0.74,ADVOCATE TRINITY HOSPITAL
8.87,2.29,41.80160,-89.69714,19144.00,3629.44,0.00,0.00,0.00,CGH MEDICAL CENTER
4.03,2.20,38.32292,-88.91026,7730.38,3425.00,0.50,0.81,0.91,GOOD SAMARITAN REGIONAL HLTH CENTER
7.74,2.95,41.89141,-87.77618,16495.54,5202.77,0.50,0.72,0.93,WEST SUBURBAN MEDICAL CENTER
6.51,2.51,42.05624,-87.74012,13598.18,4160.29,0.50,0.75,0.86,SKOKIE HOSPITAL
7.29,2.74,41.83195,-87.79266,15433.55,4707.82,0.50,0.79,0.58,MACNEAL  HOSPITAL
7.80,2.25,41.66900,-87.81414,16621.00,3548.00,0.50,0.72,0.96,PALOS COMMUNITY HOSPITAL
6.61,2.37,41.79660,-87.88627,13813.00,3834.45,0.83,0.64,0.38,ADVENTIST LA GRANGE MEMORIAL HOSPITAL
7.40,2.47,40.70200,-89.59222,15683.97,4059.97,0.67,0.57,0.03,SAINT FRANCIS MEDICAL CENTER
8.79,2.93,41.69322,-87.62436,18973.15,5140.31,0.50,1.00,0.30,ROSELAND COMMUNITY HOSPITAL
11.31,3.09,42.02578,-87.68371,24911.60,5518.63,0.50,0.75,0.38,RHC ST FRANCIS HOSPITAL
8.20,2.94,41.96698,-87.64941,17566.37,5180.07,0.50,0.70,0.43,LOUIS A WEISS MEMORIAL HOSPITAL
3.89,2.96,41.87259,-87.76181,7418.89,5209.26,0.25,0.88,0.72,LORETTO HOSPITAL
8.23,2.71,42.37840,-87.83329,17636.22,4622.88,0.50,0.74,0.63,VISTA MEDICAL CENTER EAST
10.40,2.48,40.11696,-88.21506,22766.67,4082.62,0.33,0.64,0.14,CARLE FOUNDATION HOSPITAL
4.71,3.08,41.77813,-87.63330,9343.25,5508.50,0.50,1.00,0.78,ST BERNARD HOSPITAL
14.53,3.39,41.97532,-87.69958,32491.70,6225.60,0.50,0.85,0.51,SWEDISH COVENANT HOSPITAL
7.28,2.25,42.31832,-88.27920,15402.09,3553.00,0.50,0.84,0.25,CENTEGRA HEALTH SYSTEM - MC HENRY HOSPITAL
9.44,2.48,41.98743,-87.81440,20486.18,4076.73,0.67,0.62,0.70,RESURRECTION MEDICAL CENTER
7.17,2.73,41.65880,-87.67729,15132.83,4679.42,0.50,0.65,0.94,METROSOUTH MEDICAL CENTER
8.09,3.60,41.87497,-87.66927,17318.45,6736.68,0.50,0.42,0.33,RUSH UNIVERSITY MEDICAL CENTER
3.97,3.61,41.87381,-87.67421,7602.88,6744.62,0.83,0.55,0.16,JOHN H STROGER JR HOSPITAL
7.22,2.60,41.76946,-87.69239,15258.20,4363.33,0.50,0.82,0.94,HOLY CROSS HOSPITAL
6.26,2.25,39.86644,-88.96090,12997.10,3550.69,0.50,0.60,0.70,DECATUR MEMORIAL HOSPITAL
6.82,2.46,39.80893,-89.65530,14309.86,4037.11,0.83,0.57,0.11,MEMORIAL MEDICAL CENTER
6.58,3.09,41.89006,-87.70757,13754.77,5534.74,0.00,0.00,0.00,SACRED HEART HOSPITAL
8.98,2.40,41.12049,-87.87187,19412.82,3902.64,0.50,0.69,0.97,PROVENA ST MARYS HOSPITAL
5.37,3.09,41.84639,-87.62345,10889.41,5520.50,0.25,0.46,0.39,MERCY HOSPITAL AND MEDICAL CENTER
7.44,2.74,41.52283,-87.71111,15791.79,4695.79,0.50,0.75,0.33,FRANCISCAN ST JAMES HEALTH
7.08,2.31,42.27597,-88.40019,14929.38,3697.15,0.50,0.71,0.57,CENTEGRA HEALTH SYSTEM - WOODSTOCK HOSPITAL
9.94,3.09,41.75746,-87.58559,21668.31,5516.25,0.00,0.00,0.00,JACKSON PARK HOSPITAL
9.87,2.38,41.72094,-87.69220,21514.90,3843.76,0.17,0.64,0.70,LITTLE COMPANY OF MARY HOSPITAL
10.25,3.13,41.90414,-87.68254,22400.32,5622.61,0.75,0.50,0.54,ST MARY & ELIZABETH MED CTR-DIVISION CAMPUS
7.78,2.75,41.74948,-87.56909,16583.25,4719.50,0.50,0.88,0.72,SOUTH SHORE HOSPITAL
9.86,3.49,41.93641,-87.65295,21486.00,6464.77,0.50,0.78,0.86,ADVOCATE ILLINOIS MASONIC MEDICAL CENTER
8.21,2.20,38.55020,-90.02146,17589.00,3430.74,0.67,0.81,0.21,MEMORIAL HOSPITAL
7.21,2.46,41.60726,-87.66060,15234.26,4043.53,0.50,0.65,0.76,INGALLS MEMORIAL HOSPITAL
7.90,2.25,41.86362,-87.93567,16854.33,3548.00,0.50,0.76,0.93,ELMHURST MEMORIAL HOSPITAL
8.74,2.39,42.27447,-87.95764,18847.45,3864.74,0.50,0.70,0.80,ADVOCATE CONDELL MEDICAL CENTER
7.67,3.15,41.90078,-87.69925,16329.18,5664.82,0.50,0.86,0.70,NORWEGIAN-AMERICAN HOSPITAL
8.38,2.80,41.72031,-87.73249,18003.00,4848.19,0.50,0.57,0.74,ADVOCATE CHRIST HOSPITAL & MEDICAL CENTER
7.60,2.52,40.70065,-89.59505,16163.62,4172.44,0.50,0.79,0.48,METHODIST MEDICAL CENTER OF ILLINOIS
10.42,2.26,41.88566,-88.34311,22806.69,3562.75,0.50,0.81,0.05,DELNOR COMMUNITY HOSPITAL
6.28,2.35,41.54446,-87.98379,13042.63,3791.69,0.50,0.69,0.89,SILVER CROSS HOSPITAL  AND MEDICAL CENTERS
6.90,2.88,42.03837,-87.84820,14510.45,5021.87,0.83,0.78,0.70,ADVOCATE LUTHERAN GENERAL HOSPITAL
8.34,2.97,41.93418,-87.63579,17910.29,5249.00,0.50,0.61,0.29,SAINT JOSEPH HOSPITAL
7.35,2.45,42.26584,-89.07428,15565.45,4028.97,0.50,0.65,0.76,SWEDISH AMERICAN HOSPITAL
9.21,2.25,41.76076,-88.15016,19948.31,3556.69,0.50,0.69,0.30,EDWARD HOSPITAL
6.68,2.50,42.29844,-89.09897,13997.62,4144.44,0.50,0.88,0.57,ROCKFORD MEMORIAL HOSPITAL
8.28,2.94,41.89166,-87.84838,17751.82,5166.55,0.50,0.68,0.86,WESTLAKE COMMUNITY HOSPITAL
10.58,2.25,41.87269,-88.15684,23188.92,3549.83,0.67,0.62,0.89,CENTRAL DUPAGE HOSPITAL
5.95,2.55,41.56720,-87.69566,12265.83,4255.04,0.50,0.80,0.64,ADVOCATE SOUTH SUBURBAN HOSPITAL
8.03,2.36,42.06732,-87.99368,17177.69,3811.69,0.67,0.68,0.58,NORTHWEST COMMUNITY HOSPITAL
9.13,2.28,42.00413,-88.01745,19761.93,3609.48,0.67,0.79,0.89,ALEXIAN BROTHERS MEDICAL CENTER
4.08,2.20,41.48200,-90.57158,7859.42,3438.33,0.50,0.59,0.64,TRINITY ROCK ISLAND
8.08,2.95,41.89477,-87.62131,17295.39,5186.58,0.50,0.61,0.94,NORTHWESTERN MEMORIAL HOSPITAL
6.67,2.29,41.96185,-88.72130,13966.42,3644.73,0.50,0.81,0.03,KISHWAUKEE COMMUNITY HOSPITAL
8.15,2.38,41.81791,-88.00907,17460.94,3847.72,0.50,0.86,0.96,ADVOCATE GOOD SAMARITAN HOSPITAL
10.49,2.34,42.05260,-88.14173,22981.43,3753.33,0.50,0.80,0.58,ST ALEXIUS MEDICAL CENTER
5.92,2.37,42.19586,-88.17286,12197.92,3835.46,0.50,0.80,0.96,ADVOCATE GOOD SHEPHERD HOSPITAL
4.77,2.59,41.59920,-87.35764,9482.42,4341.62,0.50,0.65,0.94,METHODIST HOSPITALS INC
6.30,2.53,41.61514,-87.52413,13085.50,4197.81,0.50,0.81,0.74,FRANCISCAN ST MARGARET HEALTH - HAMMOND
5.23,2.54,41.63466,-87.44901,10573.04,4229.52,0.50,0.79,0.89,ST CATHERINE HOSPITAL INC
5.56,2.27,38.28244,-85.74923,11337.27,3598.82,0.50,0.84,0.48,CLARK MEMORIAL HOSPITAL
7.01,2.28,41.03874,-85.24876,14763.40,3616.60,0.67,0.64,0.32,LUTHERAN HOSPITAL OF INDIANA
5.50,2.32,41.70568,-85.93404,11210.06,3709.87,0.67,0.54,0.70,ELKHART GENERAL HOSPITAL
6.50,2.31,41.04659,-85.10906,13573.77,3694.77,0.83,0.60,0.45,PARKVIEW REGIONAL MEDICAL CENTER
5.77,2.33,39.48518,-87.40893,11834.00,3732.53,0.50,0.62,0.33,UNION HOSPITAL INC
4.05,3.17,39.78091,-86.17629,7797.19,5716.56,0.33,0.70,0.28,WILLIAM N WISHARD MEMORIAL HOSPITAL
7.07,2.30,39.72432,-86.10055,14901.50,3657.83,0.00,0.00,0.00,FRANCISCAN ST FRANCIS HEALTH - BEECH GROVE
4.89,2.33,41.51266,-87.26125,9759.54,3741.50,0.50,0.79,0.86,ST MARY MEDICAL CENTER INC
5.89,2.17,38.30195,-85.83409,12119.85,3347.00,0.67,0.85,0.86,FLOYD MEMORIAL HOSPITAL AND HEALTH SERVICES
3.78,2.46,39.86405,-84.88413,7158.50,4034.00,1.00,0.64,0.28,REID HOSPITAL & HEALTH CARE SERVICES
8.23,3.05,39.79009,-86.16260,17643.43,5422.10,0.50,0.51,0.80,INDIANA UNIVERSITY HEALTH
6.20,2.44,41.68479,-86.25217,12858.60,4004.20,0.67,0.60,0.08,MEMORIAL HOSPITAL OF SOUTH BEND
7.36,2.67,39.78704,-86.07673,15583.08,4532.83,0.50,0.82,0.83,COMMUNITY HOSPITAL EAST
7.47,2.16,37.98293,-87.57072,15850.44,3330.49,0.83,0.66,0.14,DEACONESS HOSPITAL INC
7.98,2.82,39.91001,-86.19660,17050.53,4901.20,0.67,0.47,0.89,ST VINCENT HOSPITAL & HEALTH SERVICES
7.37,2.53,40.19679,-85.41573,15612.36,4207.59,0.67,0.62,0.85,INDIANA UNIVERSITY HEALTH BALL MEMORIAL HOSPITAL
6.10,2.19,37.96320,-87.50292,12614.30,3413.96,0.67,0.68,0.32,ST MARY'S MEDICAL CENTER OF EVANSVILLE INC
5.12,2.47,41.15823,-85.46490,10318.33,4058.50,0.00,0.00,0.00,PARKVIEW WHITLEY HOSPITAL
4.59,2.27,40.12998,-85.69436,9052.09,3600.00,0.50,0.86,0.38,COMMUNITY HOSPITAL OF ANDERSON AND MADISON COUNTY
8.04,2.47,41.55065,-87.50619,17186.73,4064.76,0.50,0.75,0.86,COMMUNITY HOSPITAL
7.09,2.59,39.78047,-86.34084,14963.50,4348.44,0.00,0.00,0.00,IU HEALTH WEST HOSPITAL
7.04,2.35,39.64935,-86.07960,14840.00,3781.67,0.67,0.80,0.91,FRANCISCAN ST FRANCIS HEALTH - INDIANAPOLIS
6.44,2.28,39.90060,-86.04218,13417.09,3607.64,0.50,0.78,0.76,COMMUNITY HOSPITAL NORTH
8.76,3.26,40.40296,-86.80885,18880.92,5937.00,0.50,0.84,0.97,INDIANA UNIVERSITY HEALTH ARNETT HOSPITAL
4.80,2.27,42.49388,-94.18926,9558.09,3586.45,0.00,0.00,0.00,TRINITY REGIONAL MEDICAL CENTER
5.67,2.20,42.03321,-93.61164,11608.39,3436.00,0.00,0.00,0.00,MARY GREELEY MEDICAL CENTER
5.18,2.22,41.54190,-90.55691,10448.17,3481.83,0.67,0.59,0.97,GENESIS MEDICAL CENTER-DAVENPORT
7.73,3.09,41.66092,-91.54800,16474.18,5525.64,0.17,0.39,0.64,UNIVERSITY OF IOWA HOSPITAL & CLINICS
5.80,2.33,43.15063,-93.21718,11906.80,3741.24,0.50,0.82,0.64,MERCY MEDICAL CENTER-NORTH IOWA
5.80,2.42,41.86141,-90.18921,11922.67,3947.87,0.00,0.00,0.00,MERCY MEDICAL CENTER-CLINTON
6.75,2.41,41.58955,-93.63248,14145.75,3930.17,0.67,0.38,0.83,IOWA METHODIST MEDICAL CENTER
9.04,2.40,41.59886,-93.62344,19542.20,3907.76,0.83,0.75,0.29,MERCY MEDICAL CENTER-DES MOINES
4.66,2.24,42.52665,-92.33957,9230.19,3530.94,0.50,0.81,0.07,ALLEN MEMORIAL HOSPITAL
9.85,2.64,39.05583,-94.60912,21464.78,4460.17,0.67,0.54,0.64,UNIVERSITY OF KANSAS HOSPITAL
9.75,2.31,39.05128,-95.69572,21236.34,3676.00,0.67,0.71,0.11,STORMONT-VAIL HEALTHCARE
7.98,2.16,38.99549,-94.69061,17059.12,3343.75,0.67,0.46,0.21,SHAWNEE MISSION MEDICAL CENTER
8.23,2.42,37.70405,-97.31386,17644.81,3956.26,0.67,0.69,0.21,VIA CHRISTI HOSPITALS WICHITA INC
11.80,2.45,37.69556,-97.29785,26049.45,4010.00,0.67,0.53,0.05,WESLEY MEDICAL CENTER
5.29,2.16,37.11520,-82.81022,10723.71,3328.86,0.00,0.00,0.00,WHITESBURG ARH HOSPITAL
5.33,2.33,38.47021,-82.63498,10803.30,3741.89,0.67,0.60,0.54,KING'S DAUGHTERS' MEDICAL CENTER
5.46,2.15,38.03140,-84.52194,11116.47,3315.29,0.83,0.68,0.80,SAINT JOSEPH HOSPITAL
6.93,2.38,37.11784,-84.10910,14574.33,3849.58,0.50,0.75,0.64,SAINT JOSEPH HOSPITAL LONDON
4.67,2.17,37.71183,-85.87623,9247.48,3346.78,0.83,0.79,0.39,HARDIN MEMORIAL HOSPITAL
6.27,2.37,36.99641,-86.43006,13011.03,3829.24,0.67,0.53,0.33,THE MEDICAL CENTER AT BOWLING GREEN
2.67,2.24,36.76316,-83.70793,4537.04,3531.81,0.00,0.00,0.00,PINEVILLE COMMUNITY HOSPITAL
5.68,2.15,36.60798,-88.30957,11626.75,3311.50,0.00,0.00,0.00,MURRAY-CALLOWAY COUNTY HOSPITAL
4.66,2.40,37.27729,-83.22802,9232.67,3908.29,0.50,0.88,0.58,HAZARD ARH REGIONAL MEDICAL CENTER
5.86,2.34,39.06704,-84.49946,12046.75,3763.22,0.33,0.59,0.80,ST ELIZABETH MEDICAL CENTER NORTH
4.25,2.31,38.50697,-82.69222,8255.31,3680.69,0.50,0.80,0.91,OUR LADY OF BELLEFONTE HOSPITAL
3.92,2.59,37.76518,-87.10197,7471.75,4336.31,0.50,0.66,0.30,OWENSBORO MEDICAL HEALTH SYSTEM
6.56,2.51,38.24927,-85.75081,13704.59,4165.65,0.67,0.51,0.08,JEWISH HOSPITAL & ST MARY'S HEALTHCARE
9.10,2.56,37.16218,-83.76137,19698.71,4270.00,0.00,0.00,0.00,MEMORIAL HOSPITAL
10.02,2.64,37.47264,-82.52605,21857.91,4467.65,0.75,0.86,0.10,PIKEVILLE MEDICAL CENTER
3.86,2.34,36.80963,-83.31313,7344.93,3755.13,0.00,0.00,0.00,HARLAN APPALACHIAN REGIONAL HEALTHCARE HOSPITAL
8.62,2.67,37.85504,-87.58345,18561.86,4538.00,0.50,1.00,0.30,METHODIST HOSPITAL
8.80,3.12,38.03282,-84.50674,18986.96,5589.20,0.33,0.62,0.33,UNIVERSITY OF KENTUCKY HOSPITAL
5.66,2.37,36.92128,-84.11838,11586.55,3817.73,0.25,0.79,0.83,BAPTIST REGIONAL MEDICAL CENTER
8.09,2.50,38.24806,-85.75125,17315.00,4137.87,0.50,0.35,0.39,NORTON HOSPITALS INC
4.97,2.43,38.00003,-84.19667,9962.50,3967.00,0.00,0.00,0.00,CLARK REGIONAL MEDICAL CENTER
5.81,2.09,37.06431,-88.67523,11936.17,3171.00,0.50,0.42,0.20,LOURDES HOSPITAL
5.59,2.32,38.01849,-84.51236,11411.78,3711.17,0.50,0.71,0.58,CENTRAL BAPTIST HOSPITAL
5.05,2.14,37.07404,-88.62685,10150.71,3290.43,0.50,0.80,0.39,WESTERN BAPTIST HOSPITAL
3.27,2.45,36.69659,-85.13726,5956.38,4006.38,0.00,0.00,0.00,CLINTON COUNTY HOSPITAL INC
6.71,2.30,36.51878,-88.89564,14056.27,3666.82,0.00,0.00,0.00,PARKWAY REGIONAL HOSPITAL
8.84,2.27,36.96603,-86.43639,19074.38,3583.46,0.50,0.85,0.94,GREENVIEW REGIONAL HOSPITAL
8.11,2.18,38.11425,-82.60321,17363.40,3385.00,0.00,0.00,0.00,THREE RIVERS MEDICAL CENTER
5.43,2.09,38.23898,-85.63941,11042.06,3180.21,0.67,0.57,0.74,BAPTIST HOSPITAL EAST
6.91,2.39,37.08724,-84.61828,14537.78,3878.00,0.67,0.60,0.17,LAKE CUMBERLAND REGIONAL HOSPITAL
7.38,2.15,37.56166,-83.37202,15629.69,3300.69,0.00,0.00,0.00,KENTUCKY RIVER MEDICAL CENTER
11.53,3.03,38.24802,-85.74464,25427.07,5387.86,0.25,0.81,0.08,UNIVERSITY OF LOUISVILLE HOSPITAL
5.12,2.29,30.20227,-92.01906,10311.42,3634.33,0.50,0.74,0.30,LAFAYETTE GENERAL MEDICAL CENTER
6.76,2.12,30.22981,-93.36867,14183.45,3228.55,0.50,0.84,0.82,WEST CALCASIEU CAMERON HOSPITAL
10.28,2.37,31.31451,-92.44997,22475.00,3836.77,0.67,0.40,0.39,RAPIDES REGIONAL MEDICAL CENTER
5.89,2.59,30.01875,-90.19452,12117.17,4358.30,0.67,0.61,0.63,OCHSNER FOUNDATION HOSPITAL
9.82,2.24,30.28456,-89.77038,21391.18,3519.45,0.50,0.82,0.38,SLIDELL MEMORIAL HOSPITAL AND MEDICAL CENTER
8.33,4.20,32.49443,-93.75011,17888.53,8139.67,0.50,0.69,0.14,CHRISTUS SCHUMPERT HEALTH SYSTEM
9.27,2.27,30.46834,-90.11383,20086.18,3591.64,0.50,0.70,0.08,ST TAMMANY PARISH HOSPITAL
9.53,2.53,29.92596,-90.09191,20710.58,4213.00,0.67,0.68,0.64,TOURO INFIRMARY
4.57,2.45,30.40118,-91.11160,9023.21,4016.53,0.83,0.51,0.33,OUR LADY OF THE LAKE REGIONAL MEDICAL CENTER
4.11,2.49,30.45015,-91.15273,7930.71,4106.14,0.33,0.76,0.38,BATON ROUGE GENERAL MEDICAL CENTER
2.28,2.34,32.86785,-91.38322,3609.27,3750.55,0.00,0.00,0.00,WEST CARROLL MEMORIAL HOSPITAL
7.04,2.44,32.51544,-92.63343,14842.78,3993.44,0.50,0.64,0.21,NORTHERN LOUISIANA MEDICAL CENTER
5.55,3.00,32.48177,-93.76264,11330.82,5316.55,1.00,0.80,0.00,LSU HEALTH SCIENCES CENTER - SHREVEPORT
4.40,2.20,30.15052,-92.03698,8615.92,3423.25,0.50,0.71,0.58,OUR LADY OF LOURDES REGIONAL MEDICAL CENTER INC
7.04,2.36,32.48393,-93.77884,14827.29,3795.00,0.50,0.64,0.63,WILLIS KNIGHTON MEDICAL CENTER
6.81,2.31,32.49997,-92.11359,14296.67,3682.67,0.67,0.62,0.99,ST FRANCIS MEDICAL CENTER
3.45,2.46,32.15824,-91.70520,6372.27,4045.87,0.00,0.00,0.00,FRANKLIN MEDICAL CENTER
7.70,2.25,32.51315,-92.15713,16396.75,3536.98,0.00,0.00,0.00,GLENWOOD REGIONAL MEDICAL CENTER
7.30,2.17,31.13861,-93.26892,15455.92,3364.00,0.00,0.00,0.00,BYRD REGIONAL HOSPITAL
4.25,2.39,30.68494,-92.26601,8262.73,3876.33,0.00,0.00,0.00,MERCY REGIONAL MEDICAL CENTER
9.20,2.95,29.95570,-90.07587,19933.59,5197.68,0.33,0.41,0.00,TULANE MEDICAL CENTER
7.31,2.40,30.19775,-92.07724,15468.86,3907.79,0.50,0.89,0.74,THE REGIONAL MEDICAL CENTER OF ACADIANA
5.40,2.47,44.80988,-68.74929,10967.00,4054.88,0.50,0.59,0.38,EASTERN MAINE MEDICAL CENTER
3.20,3.05,39.62183,-77.68219,5787.80,5440.45,0.00,0.00,0.00,MERITUS MEDICAL CENTER
4.07,3.87,39.28817,-76.62438,7842.38,7371.79,0.00,0.00,0.00,UNIVERSITY OF MARYLAND MEDICAL CENTER
3.13,3.02,38.93090,-76.92161,5630.06,5356.76,0.00,0.00,0.00,PRINCE GEORGES HOSPITAL CENTER
3.43,3.28,39.01578,-77.03591,6316.56,5978.36,0.00,0.00,0.00,HOLY CROSS HOSPITAL
2.87,2.75,39.42366,-77.41386,5012.25,4733.67,0.00,0.00,0.00,FREDERICK MEMORIAL HOSPITAL
3.07,2.93,39.54345,-76.09153,5476.55,5148.00,0.00,0.00,0.00,HARFORD MEMORIAL HOSPITAL
3.09,2.96,39.38813,-76.61068,5537.29,5208.81,0.00,0.00,0.00,SAINT JOSEPH MEDICAL CENTER
4.10,3.89,39.29297,-76.61314,7896.56,7422.62,0.00,0.00,0.00,MERCY MEDICAL CENTER INC
4.17,4.00,39.29688,-76.59242,8066.88,7672.47,0.00,0.00,0.00,JOHNS HOPKINS HOSPITAL THE
3.25,3.11,39.27352,-76.67219,5900.28,5580.24,0.00,0.00,0.00,SAINT AGNES HOSPITAL
3.68,3.50,39.35262,-76.66196,6912.00,6497.24,0.00,0.00,0.00,SINAI HOSPITAL OF BALTIMORE
3.01,2.90,39.35169,-76.47919,5333.35,5066.35,0.00,0.00,0.00,FRANKLIN SQUARE HOSPITAL CENTER
3.57,3.42,38.98482,-77.00139,6666.92,6301.04,0.00,0.00,0.00,WASHINGTON ADVENTIST HOSPITAL
3.39,3.23,39.15402,-77.05431,6237.09,5862.73,0.00,0.00,0.00,MONTGOMERY GENERAL HOSPITAL INC
3.28,3.13,38.36248,-75.59799,5976.20,5617.52,0.00,0.00,0.00,PENINSULA REGIONAL MEDICAL CENTER
2.85,2.72,38.99743,-77.11048,4963.00,4665.17,0.00,0.00,0.00,SUBURBAN HOSPITAL
2.79,2.68,38.99014,-76.53398,4822.27,4570.77,0.00,0.00,0.00,ANNE ARUNDEL MEDICAL CENTER
3.26,3.11,39.32930,-76.61432,5922.10,5566.85,0.00,0.00,0.00,UNION MEMORIAL HOSPITAL
3.03,2.89,39.64928,-78.73206,5386.50,5063.18,0.00,0.00,0.00,WESTERN MARYLAND REGIONAL MEDICAL CENTER
3.04,2.91,38.29124,-76.63579,5416.29,5091.41,0.00,0.00,0.00,SAINT MARY'S HOSPITAL
4.32,4.11,39.29100,-76.54623,8425.59,7920.04,0.00,0.00,0.00,JOHNS HOPKINS BAYVIEW MEDICAL CENTER
2.54,2.43,39.60859,-75.83201,4227.95,3974.40,0.00,0.00,0.00,UNION HOSPITAL OF CECIL COUNTY
3.40,3.24,39.55808,-76.99107,6266.84,5890.95,0.00,0.00,0.00,CARROLL HOSPITAL CENTER
2.96,2.83,39.25189,-76.61399,5223.11,4909.68,0.00,0.00,0.00,HARBOR HOSPITAL
2.82,2.70,38.52905,-76.97068,4894.12,4600.38,0.00,0.00,0.00,CIVISTA MEDICAL CENTER
2.70,2.58,38.76970,-76.07697,4596.81,4321.00,0.00,0.00,0.00,MEMORIAL HOSPITAL AT EASTON
3.64,3.47,39.29994,-76.62138,6822.57,6413.21,0.00,0.00,0.00,MARYLAND GENERAL  HOSPITAL
2.60,2.49,38.55963,-76.59455,4380.42,4117.58,0.00,0.00,0.00,CALVERT MEMORIAL HOSPITAL
3.50,3.34,39.35852,-76.78208,6491.83,6108.40,0.00,0.00,0.00,NORTHWEST HOSPITAL CENTER
3.00,2.90,39.13732,-76.62228,5307.92,5076.54,0.00,0.00,0.00,BALTIMORE WASHINGTON  MEDICAL CENTER
3.84,3.66,39.39017,-76.62216,7302.85,6864.54,0.00,0.00,0.00,GREATER BALTIMORE MEDICAL CENTER
2.98,2.89,39.21273,-76.88526,5277.08,5054.58,0.00,0.00,0.00,HOWARD COUNTY GENERAL HOSPITAL
2.97,2.85,38.96851,-76.86203,5235.74,4971.19,0.00,0.00,0.00,DOCTORS'  COMMUNITY HOSPITAL
3.12,3.00,38.74827,-76.87590,5600.98,5312.33,0.00,0.00,0.00,SOUTHERN MARYLAND HOSPITAL CENTER
3.48,3.35,39.35962,-76.58851,6453.25,6145.82,0.00,0.00,0.00,GOOD SAMARITAN HOSPITAL
3.24,3.12,39.09796,-77.19799,5887.27,5593.88,0.00,0.00,0.00,SHADY GROVE ADVENTIST HOSPITAL
4.57,2.82,42.70912,-71.14877,9006.69,4893.92,0.50,0.71,0.80,LAWRENCE GENERAL HOSPITAL
4.83,3.01,41.65298,-70.27484,9636.06,5338.35,0.50,0.56,0.96,CAPE COD HOSPITAL
4.24,2.75,41.69217,-71.16474,8228.57,4717.07,0.50,1.00,0.86,SAINT ANNE'S HOSPITAL
3.90,2.50,42.81476,-70.89068,7424.58,4138.00,0.00,0.00,0.00,ANNA JAQUES HOSPITAL
4.37,3.75,42.35843,-71.05977,8547.90,7079.77,0.67,0.51,0.00,BOSTON MEDICAL CENTER CORPORATION
4.03,2.57,42.56407,-70.87543,7753.29,4310.43,0.50,0.62,0.64,BEVERLY HOSPITAL CORPORATION
9.04,2.65,42.51078,-70.90712,19541.38,4479.69,0.33,0.47,0.70,NORTH SHORE MEDICAL CENTER
3.01,3.41,42.34896,-71.14768,5331.54,6279.08,0.50,0.69,0.58,ST ELIZABETH'S MEDICAL CENTER
4.45,2.84,42.03597,-71.09792,8725.21,4934.21,0.50,0.61,0.58,SIGNATURE HEALTHCARE BROCKTON HOSPITAL
3.94,2.49,41.94445,-70.64511,7534.85,4108.44,0.50,0.82,0.25,JORDAN HOSPITAL INC
5.22,3.01,42.64636,-71.34118,10552.10,5342.19,0.50,0.88,0.96,LOWELL GENERAL HOSPITAL
3.75,2.58,42.46049,-71.06203,7081.22,4322.91,0.50,0.53,0.76,HALLMARK HEALTH SYSTEM
11.38,3.54,42.36227,-71.06941,25057.22,6593.24,0.50,0.44,0.16,MASSACHUSETTS GENERAL HOSPITAL
3.81,2.52,41.90456,-71.09562,7230.77,4176.62,0.50,0.85,0.25,MORTON HOSPITAL
4.75,2.63,41.70928,-71.14519,9444.54,4439.56,0.25,0.51,0.89,SOUTHCOAST HOSPITAL GROUP INC
5.97,2.96,42.12077,-72.60525,12316.93,5217.50,0.33,0.61,0.83,BAYSTATE MEDICAL CENTER
5.24,3.47,42.33719,-71.10939,10587.27,6428.27,0.33,0.71,0.33,BETH ISRAEL DEACONESS MEDICAL CENTER
4.79,2.43,42.17644,-70.95398,9533.05,3966.00,0.67,0.70,0.48,SOUTH SHORE HOSPITAL
5.84,2.53,42.33149,-71.24568,12014.13,4199.13,0.67,0.70,0.99,NEWTON-WELLESLEY HOSPITAL
3.03,2.38,42.46581,-71.12210,5377.86,3846.00,0.50,0.59,0.25,WINCHESTER HOSPITAL
8.55,3.21,42.33600,-71.10704,18392.56,5811.56,0.67,0.40,0.20,BRIGHAM AND WOMEN'S HOSPITAL
3.32,2.72,42.09864,-71.06607,6070.16,4650.47,0.50,0.59,0.93,GOOD SAMARITAN MEDICAL CENTER
5.01,3.66,42.34951,-71.06331,10061.69,6863.94,0.50,0.64,0.86,TUFTS MEDICAL CENTER
9.55,3.26,42.30049,-71.12771,20761.62,5937.77,0.50,0.96,0.03,FAULKNER HOSPITAL
3.71,2.43,42.18869,-71.20197,6980.18,3966.79,0.50,0.78,0.82,NORWOOD HOSPITAL
7.75,3.36,42.27720,-71.75922,16508.12,6161.55,0.50,0.36,0.30,UMASS MEMORIAL MEDICAL CENTER INC
3.63,2.74,42.48585,-71.20686,6798.86,4710.50,0.67,0.76,0.16,LAHEY CLINIC HOSPITAL
4.33,2.66,42.28385,-71.41896,8437.63,4513.26,0.50,0.76,0.86,METROWEST MEDICAL CENTER
4.70,2.31,42.39466,-83.40537,9330.36,3690.08,0.50,0.60,0.64,ST MARY MERCY HOSPITAL
5.49,2.72,42.28551,-85.58042,11190.76,4645.12,0.67,0.82,0.14,BRONSON METHODIST HOSPITAL
5.70,2.69,42.45741,-83.20513,11669.46,4574.46,0.83,0.57,0.48,PROVIDENCE HOSPITAL AND MEDICAL CENTERS
6.09,2.72,42.29077,-83.21504,12589.63,4656.47,0.33,0.49,0.70,OAKWOOD HOSPITAL AND MEDICAL CENTER
4.27,2.39,42.08955,-86.47781,8315.88,3873.42,0.33,0.69,0.89,LAKELAND HOSPITAL ST JOSEPH
5.24,3.10,42.41911,-83.18228,10595.71,5539.95,0.83,0.46,0.21,SINAI-GRACE HOSPITAL
5.55,2.90,42.61425,-83.27602,11328.38,5076.86,0.67,0.53,0.80,ST JOSEPH MERCY OAKLAND
5.18,2.73,42.96881,-85.66649,10452.46,4667.80,0.33,0.66,0.83,SPECTRUM HEALTH - BUTTERWORTH CAMPUS
5.32,2.28,43.58941,-83.86908,10792.64,3617.20,0.33,0.55,0.99,MCLAREN BAY REGION
7.20,3.27,42.28388,-83.72960,15203.63,5949.80,0.50,0.61,0.43,UNIVERSITY OF MICHIGAN HEALTH SYSTEM
4.63,2.37,42.61490,-82.96060,9147.67,3838.10,0.50,0.66,0.54,HENRY FORD MACOMB HOSPITAL
6.57,3.23,42.36762,-83.08461,13726.02,5846.89,0.67,0.47,0.08,HENRY FORD HOSPITAL
5.14,2.42,43.42857,-83.95556,10364.58,3947.42,0.83,0.61,0.64,COVENANT MEDICAL CENTER INC
3.81,2.35,42.33111,-85.17817,7216.18,3784.06,0.50,0.84,0.64,BRONSON BATTLE CREEK HOSPITAL
8.23,2.41,43.42612,-83.94185,17653.82,3920.55,0.67,0.64,0.58,ST MARY'S OF MICHIGAN MEDICAL CENTER
4.89,2.55,42.38392,-82.91480,9765.62,4256.12,0.50,0.62,0.51,BEAUMONT HOSPITAL GROSSE POINTE
6.47,2.37,42.25117,-84.39240,13485.35,3826.48,0.50,0.85,0.99,ALLEGIANCE HEALTH
7.15,2.55,44.76156,-85.64143,15094.59,4256.18,0.50,0.41,0.58,MUNSON MEDICAL CENTER
6.32,2.28,41.91643,-83.39771,13129.65,3626.80,0.50,0.69,0.38,MERCY MEMORIAL HOSPITAL SYSTEM
4.48,3.54,42.35230,-83.05676,8811.75,6596.85,0.67,0.62,0.64,HARPER UNIVERSITY HOSPITAL
4.93,2.57,42.30489,-85.56152,9858.22,4296.61,0.67,0.47,0.76,BORGESS MEDICAL CENTER
7.20,2.68,42.51418,-83.19259,15209.83,4559.98,0.67,0.60,0.16,WILLIAM BEAUMONT HOSPITAL
5.26,2.65,43.01399,-83.73250,10651.32,4481.14,0.50,0.60,0.33,MCLAREN FLINT
5.98,2.42,42.27424,-83.36580,12330.72,3942.56,0.50,0.70,0.48,OAKWOOD ANNAPOLIS HOSPITAL
4.89,2.42,42.21065,-83.14861,9766.77,3939.68,0.50,0.70,0.96,HENRY FORD WYANDOTTE HOSPITAL
4.97,2.97,42.46176,-83.37629,9950.88,5248.79,0.50,0.79,0.25,BOTSFORD HOSPITAL
5.91,2.44,42.26181,-83.66003,12179.21,3991.14,0.67,0.62,0.33,ST JOSEPH MERCY HOSPITAL
5.88,2.86,42.41975,-82.91442,12092.80,4980.43,0.67,0.72,0.10,ST JOHN HOSPITAL AND MEDICAL CENTER
6.63,2.58,42.70417,-84.55488,13876.00,4319.69,0.33,0.76,0.21,MCLAREN - GREATER LANSING
5.46,2.44,42.11695,-83.21365,11113.09,3990.45,0.33,0.70,0.80,OAKWOOD SOUTHSHORE MEDICAL CENTER
6.09,2.26,43.06290,-83.32082,12587.83,3562.75,0.50,0.64,0.91,LAPEER REGIONAL MEDICAL CENTER
5.74,2.49,42.50514,-83.00422,11773.91,4107.06,0.67,0.56,0.86,ST JOHN MACOMB-OAKLAND HOSPITAL-MACOMB CENTER
6.34,2.75,42.89254,-83.63621,13197.31,4724.81,0.67,0.70,0.14,GENESYS REGIONAL MEDICAL CENTER - HEALTH PARK
6.53,2.27,42.98625,-82.42802,13630.38,3590.00,0.50,0.62,0.30,PORT HURON HOSPITAL
4.55,2.49,42.58900,-82.89799,8974.28,4104.33,0.67,0.61,0.64,MOUNT CLEMENS REGIONAL MEDICAL CENTER
9.20,2.73,42.73767,-84.51698,19920.23,4666.84,0.83,0.69,0.01,EDWARD W SPARROW HOSPITAL
3.82,2.63,42.33215,-83.31195,7256.43,4444.86,0.50,0.82,0.38,GARDEN CITY HOSPITAL
7.04,2.33,42.67850,-83.14771,14841.74,3724.61,0.50,0.65,0.80,CRITTENTON HOSPITAL MEDICAL CENTER
7.95,2.40,42.61826,-83.09239,16971.89,3901.16,0.83,0.60,0.63,WILLIAM BEAUMONT HOSPITAL-TROY
7.18,3.60,42.35295,-83.05447,15172.65,6727.15,0.67,0.65,0.05,DETROIT RECEIVING HOSPITAL & UNIV HEALTH CENTER
7.35,2.16,42.53914,-83.40777,15566.20,3326.53,0.50,0.54,0.39,HENRY FORD WEST BLOOMFIELD HOSPITAL
6.92,2.50,45.01403,-93.32177,14559.23,4146.50,0.67,0.69,0.83,NORTH MEMORIAL MEDICAL CENTER
4.72,2.48,46.79380,-92.09573,9366.00,4096.57,0.83,0.75,0.80,ESSENTIA HEALTH ST MARY'S MEDICAL CENTER
13.28,7.14,44.97210,-93.26240,29553.00,15071.08,0.33,0.38,0.30,HENNEPIN COUNTY MEDICAL CENTER
5.69,2.79,44.02052,-92.48292,11663.53,4827.21,0.83,0.42,0.32,MAYO CLINIC - SAINT MARYS HOSPITAL
6.60,2.74,45.57390,-94.16942,13794.88,4698.97,0.50,0.61,0.38,ST CLOUD HOSPITAL
8.61,2.46,44.94214,-93.10858,18540.96,4047.26,0.50,0.86,0.33,UNITED HOSPITAL
6.65,2.94,44.95570,-93.09429,13912.73,5179.82,0.50,0.79,0.17,REGIONS HOSPITAL
8.14,3.23,45.18355,-93.36789,17424.00,5848.34,0.50,0.74,0.96,MERCY HOSPITAL
9.13,2.34,45.10789,-93.25685,19761.26,3768.84,0.33,0.85,0.86,UNITY HOSPITAL
4.83,2.32,34.24336,-88.71753,9626.50,3707.00,0.67,0.61,0.48,NORTH MISSISSIPPI MEDICAL CENTER
12.94,2.35,30.39599,-88.89061,28755.62,3775.67,0.50,0.80,0.48,BILOXI REGIONAL MEDICAL CENTER
9.88,2.24,34.93596,-88.55955,21542.31,3513.50,0.50,0.72,0.80,MAGNOLIA REGIONAL HEALTH CENTER
10.30,2.35,30.36674,-89.11535,22516.38,3782.10,0.50,0.66,0.69,MEMORIAL HOSPITAL AT GULFPORT
9.17,2.41,32.35265,-90.87788,19864.45,3915.81,0.50,0.80,0.38,RIVER REGION HEALTH SYSTEM
10.63,2.27,30.37516,-88.53226,23291.88,3596.58,0.50,0.70,0.03,SINGING RIVER HOSPITAL
5.11,2.20,32.33616,-90.15652,10297.25,3424.50,0.50,0.60,0.45,ST DOMINIC-JACKSON MEMORIAL HOSPITAL
5.85,2.22,31.69405,-89.13061,12035.09,3468.00,0.50,0.72,0.16,SOUTH CENTRAL REG MED CTR
7.97,2.35,31.31872,-89.32955,17033.92,3790.67,0.50,0.57,0.54,FORREST GENERAL HOSPITAL
10.51,2.31,31.32573,-89.36670,23014.90,3684.83,0.50,0.56,0.20,WESLEY MEDICAL CENTER
8.74,2.15,32.28618,-90.03434,18842.07,3307.50,0.50,0.69,0.07,CROSSGATES RIVER OAKS HOSPITAL
4.63,2.37,31.24000,-90.45000,9153.67,3819.75,0.50,0.84,0.82,SOUTHWEST MS REGIONAL MEDICAL CENTER
5.88,2.21,32.37280,-88.69954,12114.55,3458.09,0.50,0.78,0.39,ANDERSON REGIONAL MEDICAL CENTER
6.07,2.53,34.62445,-89.95655,12544.17,4211.00,0.00,0.00,0.00,NORTH OAK REGIONAL MEDICAL CENTER
5.89,2.36,34.96927,-89.99709,12122.71,3794.33,0.50,0.69,0.11,BAPTIST MEMORIAL HOSPITAL DESOTO
5.41,2.07,38.57670,-92.17352,11001.18,3126.00,0.50,0.86,0.01,ST MARYS HEALTH CENTER
9.88,2.23,37.06032,-94.52747,21521.33,3497.67,0.00,0.00,0.00,ST JOHN'S REGIONAL MEDICAL CENTER
7.67,2.29,38.78060,-90.48379,16315.21,3649.14,0.50,0.76,0.38,SSM ST JOSEPH HEALTH CENTER
6.03,2.77,39.77393,-94.77089,12460.63,4782.74,0.50,0.59,0.51,HEARTLAND REGIONAL MEDICAL CENTER
5.78,2.28,38.64281,-90.44448,11857.87,3628.33,0.83,0.57,0.74,MERCY HOSPITAL ST LOUIS
9.79,2.75,40.19296,-92.59085,21324.91,4726.87,0.00,0.00,0.00,NORTHEAST REGIONAL MEDICAL CENTER
4.03,2.18,38.16498,-90.38082,7731.92,3377.68,0.50,0.84,0.83,JEFFERSON REGIONAL MEDICAL CENTER
5.91,2.68,38.63524,-90.26508,12163.51,4552.55,0.50,0.56,0.12,BARNES JEWISH HOSPITAL
6.80,2.30,37.14560,-93.28037,14271.22,3675.41,0.50,0.61,0.86,COX MEDICAL CENTER
6.16,2.42,38.56571,-92.18204,12771.79,3940.93,0.50,0.84,0.58,CAPITAL REGION MEDICAL CENTER
4.50,3.37,39.08401,-94.57591,8842.20,6177.53,0.33,0.59,0.02,TRUMAN MEDICAL CENTER HOSPITAL HILL
10.05,2.88,37.17999,-93.27409,21931.47,5022.68,0.67,0.61,0.25,ST JOHN'S REGIONAL HEALTH CENTER
5.08,2.04,38.94903,-92.31563,10217.80,3053.20,0.67,0.74,0.43,BOONE HOSPITAL CENTER
8.81,2.16,38.93592,-94.60376,19012.29,3328.64,0.50,0.75,0.89,ST JOSEPH MEDICAL CENTER
6.56,2.76,38.63268,-90.31089,13712.40,4752.28,0.83,0.78,0.58,SSM ST MARYS HEALTH CENTER
6.52,2.18,36.64970,-93.22138,13609.69,3370.54,0.50,0.71,0.80,SKAGGS REGIONAL MEDICAL CENTER
14.40,2.22,39.04749,-94.34105,32184.37,3485.07,0.50,0.72,0.39,CENTERPOINT MEDICAL CENTER OF INDEPENDENCE LLC
7.46,2.22,39.14957,-94.55148,15821.69,3479.24,0.50,0.59,0.64,NORTH KANSAS CITY HOSPITAL
8.57,2.33,38.75097,-90.43255,18437.40,3732.80,0.67,0.69,0.43,SSM DEPAUL HEALTH CENTER
7.05,3.39,38.62280,-90.24049,14867.20,6239.40,0.50,0.46,0.05,ST LOUIS UNIVERSITY HOSPITAL
4.92,2.12,38.63702,-90.44699,9842.08,3230.00,0.67,0.69,0.48,MISSOURI BAPTIST MEDICAL CENTER
10.18,2.53,36.78510,-90.42779,22235.16,4202.95,0.50,0.60,0.39,POPLAR BLUFF REGIONAL MEDICAL CENTER
8.95,2.33,37.05238,-94.52777,19349.04,3744.78,0.83,0.68,0.86,FREEMAN HEALTH SYSTEM - FREEMAN WEST
8.67,2.53,39.04761,-94.59037,18679.47,4203.00,0.67,0.50,0.17,ST LUKES HOSPITAL OF KANSAS CITY
5.20,2.18,39.27591,-94.42572,10509.86,3382.57,0.33,0.60,0.33,LIBERTY HOSPITAL
6.05,2.18,38.65123,-90.50301,12509.62,3381.75,0.67,0.68,0.12,ST LUKES HOSPITAL
6.70,2.25,38.77576,-90.23906,14028.71,3550.10,0.67,0.75,0.05,CHRISTIAN HOSPITAL NORTHEAST
9.57,2.27,37.30401,-89.57190,20790.17,3591.33,0.50,0.65,0.11,ST FRANCIS MEDICAL CENTER
8.61,2.16,38.94062,-94.37842,18527.00,3323.00,0.00,0.00,0.00,SAINT LUKE'S EAST LEE'S SUMMIT HOSPITAL
7.45,2.30,40.78318,-96.63709,15793.17,3674.00,0.67,0.70,0.64,BRYANLGH MEDICAL CENTER
4.54,2.76,40.70646,-99.08136,8944.45,4751.00,0.50,0.69,0.51,GOOD SAMARITAN HOSPITAL
6.53,2.86,41.25522,-95.97892,13634.80,4991.68,0.50,0.53,0.51,THE NEBRASKA MEDICAL CENTER
11.47,2.46,39.52637,-119.79456,25277.70,4048.56,0.50,0.66,0.17,RENOWN REGIONAL MEDICAL CENTER
15.59,2.75,36.13459,-115.13576,34981.22,4721.06,0.67,0.69,0.10,SUNRISE HOSPITAL AND MEDICAL CENTER
17.48,2.73,36.19568,-115.12284,39452.50,4689.00,0.50,0.62,0.08,NORTH VISTA HOSPITAL
11.45,3.12,36.15896,-115.16558,25242.06,5600.65,0.33,0.60,0.00,UMC OF SOUTHERN NEVADA
14.08,2.52,36.03931,-114.98259,31422.92,4171.33,0.75,0.76,0.54,SAINT ROSE DOMINICAN HOSPITAL - DE LIMA
15.08,2.76,36.16380,-115.16574,33790.19,4753.90,0.67,0.70,0.54,VALLEY HOSPITAL MEDICAL CENTER
13.58,2.56,36.11363,-115.12573,30261.32,4268.21,0.83,0.70,0.64,DESERT SPRINGS HOSPITAL
15.28,2.51,36.21599,-115.25095,34259.93,4169.68,0.67,0.57,0.14,MOUNTAINVIEW HOSPITAL
16.27,2.54,36.16586,-115.32436,36601.75,4236.35,0.83,0.72,0.28,SUMMERLIN HOSPITAL MEDICAL CENTER
17.97,2.79,36.00527,-115.11618,40611.07,4821.00,0.50,0.50,0.33,SAINT ROSE DOMINICAN HOSPITAL - SIENA CAMPUS
15.60,2.52,36.09056,-115.24058,35010.44,4192.81,0.67,0.79,0.13,SPRING VALLEY HOSPITAL MEDICAL CENTER
13.92,2.54,36.05712,-115.27116,31056.64,4228.18,0.50,0.79,0.19,SAINT ROSE DOMINICAN HOSPITAL - SAN MARTIN CAMPUS
15.94,2.40,36.28588,-115.28772,35811.50,3900.62,0.75,0.66,0.39,CENTENNIAL HILLS HOSPITAL MEDICAL CENTER
5.85,2.47,43.19846,-71.56230,12034.83,4074.72,0.33,0.64,0.94,CONCORD HOSPITAL
6.13,3.19,43.67286,-72.27232,12688.69,5756.54,0.50,0.39,0.01,MARY HITCHCOCK MEMORIAL HOSPITAL
6.30,2.41,43.00792,-71.46807,13097.06,3912.41,0.50,0.57,0.21,ELLIOT HOSPITAL
9.17,2.30,42.87652,-71.31722,19869.20,3664.00,0.00,0.00,0.00,PARKLAND MEDICAL CENTER
8.12,2.35,43.21231,-70.87499,17383.21,3775.14,0.50,0.74,0.03,WENTWORTH-DOUGLASS HOSPITAL
14.67,2.83,40.88346,-74.05564,32815.86,4909.97,0.50,0.59,0.86,HACKENSACK UNIVERSITY MEDICAL CENTER
19.25,4.07,40.71011,-74.21368,43628.33,7840.67,0.67,0.56,0.11,NEWARK BETH ISRAEL MEDICAL CENTER
10.11,2.98,40.79576,-73.99575,22081.03,5258.00,0.25,0.62,0.32,PALISADES MEDICAL CTR-NY PRESBYTERIAN HEALTHCARE S
9.97,2.81,40.84945,-74.13768,21749.31,4857.69,0.50,0.56,0.86,ST MARY'S HOSPITAL PASSAIC
9.20,2.62,40.88275,-74.01021,19918.83,4410.04,0.67,0.68,0.58,HOLY NAME MEDICAL CENTER
16.76,2.69,40.78556,-74.17598,37758.55,4579.64,0.67,0.84,0.96,CLARA MAASS MEDICAL CENTER
12.03,2.54,40.35684,-74.66166,26592.17,4238.11,0.50,0.56,0.21,UNIVERSITY MEDICAL CENTER AT PRINCETON
6.81,2.38,39.08752,-74.81657,14305.44,3847.00,0.50,0.74,0.48,CAPE REGIONAL MEDICAL CENTER INC
9.70,2.52,40.98359,-74.10047,21112.61,4182.00,0.50,0.79,0.21,VALLEY HOSPITAL
16.51,3.36,39.94152,-75.11680,37168.32,6157.21,0.67,0.42,0.03,COOPER UNIVERSITY HOSPITAL
11.68,2.83,40.78883,-74.46620,25764.81,4909.12,0.67,0.44,0.39,MORRISTOWN MEMORIAL HOSPITAL
15.09,3.17,40.90215,-74.16634,33823.26,5710.18,0.17,0.54,0.94,ST JOSEPH'S REGIONAL MEDICAL CENTER
15.30,2.70,39.78261,-74.91670,34305.63,4603.23,0.50,0.53,0.74,VIRTUA WEST JERSEY HOSPITALS BERLIN
13.35,2.92,40.66005,-74.21417,29712.91,5115.27,0.50,0.75,0.39,TRINITAS REGIONAL MEDICAL CENTER
19.80,2.49,41.05754,-74.76857,44922.93,4108.00,0.50,0.78,0.80,NEWTON MEMORIAL HOSPITAL
15.00,2.76,39.92695,-75.09537,33607.20,4748.80,0.50,0.70,0.11,OUR LADY OF LOURDES MEDICAL CENTER
17.17,2.56,39.44743,-75.05838,38726.94,4273.69,0.50,0.62,0.01,SOUTH JERSEY HEALTHCARE REGIONAL MEDICAL CENTER
14.38,2.33,40.35309,-74.06484,32136.72,3726.00,0.33,0.61,0.70,RIVERVIEW MEDICAL CENTER
13.31,2.98,40.49581,-74.44980,29615.14,5273.31,0.67,0.51,0.01,ROBERT WOOD JOHNSON UNIVERSITY HOSPITAL
19.64,2.87,40.51891,-74.28183,44535.33,5017.92,0.75,0.69,0.69,RARITAN BAY MEDICAL CENTER
12.40,3.18,40.74132,-74.03369,27481.18,5726.55,0.00,0.00,0.00,HOBOKEN UNIVERSITY MEDICAL CENTER
13.20,2.32,39.96484,-74.21708,29351.22,3719.61,0.50,0.47,0.89,COMMUNITY MEDICAL CENTER
13.08,2.81,40.90400,-73.96847,29069.27,4865.20,0.67,0.81,0.54,ENGLEWOOD HOSPITAL AND MEDICAL CENTER
15.17,2.33,39.31464,-74.59391,34009.57,3739.86,0.17,0.72,0.83,SHORE MEDICAL CENTER
23.51,2.42,40.56804,-74.59579,53660.18,3939.12,0.50,0.68,0.30,SOMERSET MEDICAL CENTER
12.81,2.71,40.89538,-74.46479,28429.15,4622.00,0.50,0.64,0.70,SAINT CLARE'S HOSPITAL
9.04,2.73,40.71264,-74.35460,19552.87,4689.07,0.50,0.53,0.58,OVERLOOK HOSPITAL
15.37,2.38,40.07832,-74.13009,34480.41,3850.32,0.50,0.57,0.48,OCEAN MEDICAL CENTER
13.29,3.04,40.81058,-74.20459,29562.36,5413.55,0.50,0.69,0.43,MOUNTAINSIDE HOSPITAL
15.71,2.63,39.98588,-74.79393,35267.26,4436.59,0.67,0.55,0.54,VIRTUA MEMORIAL HOSPITAL OF BURLINGTON COUNTY
16.60,2.74,40.70180,-75.17825,37384.00,4705.18,0.00,0.00,0.00,ST LUKE'S WARREN HOSPITAL
18.37,2.43,40.04632,-74.88059,41556.76,3966.35,0.50,0.49,0.07,LOURDES MEDICAL CENTER OF BURLINGTON COUNTY
19.36,2.55,39.35775,-74.43449,43868.45,4247.76,0.67,0.65,0.89,ATLANTICARE REGIONAL MEDICAL CENTER - CITY DIV
17.39,2.96,40.50214,-74.46015,39229.89,5211.03,0.50,0.54,0.30,SAINT PETER'S UNIVERSITY HOSPITAL
18.87,2.65,40.21065,-74.03566,42714.25,4494.18,0.50,0.59,0.07,JERSEY SHORE UNIVERSITY MEDICAL CENTER
15.50,3.38,40.71663,-74.05013,34779.40,6208.47,0.83,0.74,0.83,LIBERTYHEALTH-JERSEY CITY MEDICAL CENTER CAMPUS
17.66,2.94,40.29563,-73.98518,39869.64,5167.71,0.50,0.50,0.86,MONMOUTH MEDICAL CENTER
16.05,3.14,40.76190,-74.30335,36066.56,5643.50,0.83,0.54,0.03,SAINT BARNABAS MEDICAL CENTER
17.76,2.44,39.84392,-75.14985,40098.40,3997.40,0.50,0.70,0.33,UNDERWOOD - MEMORIAL HOSPITAL
12.60,2.74,40.75402,-74.21335,27951.55,4703.45,0.50,0.74,0.58,EAST ORANGE GENERAL HOSPITAL
16.25,2.48,40.07503,-74.21832,36552.08,4097.92,0.50,0.71,0.76,KIMBALL MEDICAL CENTER
15.10,2.89,39.82811,-75.00895,33841.13,5047.70,0.67,0.60,0.69,KENNEDY UNIVERSITY HOSPITAL - STRATFORD DIV
8.64,2.46,39.59285,-75.44416,18601.88,4047.00,0.00,0.00,0.00,MEMORIAL HOSPITAL OF SALEM COUNTY
19.20,2.75,40.23629,-74.75256,43509.27,4735.91,0.50,0.78,0.58,CAPITAL HEALTH SYSTEM-FULD CAMPUS
7.21,3.03,40.74323,-74.17431,15242.05,5394.95,0.50,0.69,0.51,SAINT MICHAEL'S MEDICAL CENTER INC
15.43,2.66,40.55784,-74.34970,34622.08,4509.42,0.50,0.71,0.58,JFK MEDICAL CTR - ANTHONY M. YELENCSICS COMMUNITY
19.27,2.47,40.21575,-74.67273,43675.12,4075.58,0.50,0.68,0.80,ROBERT WOOD JOHNSON UNIVERSITY HOSPITAL HAMILTON
12.32,2.33,40.40516,-74.19203,27277.92,3726.00,0.50,0.81,0.98,BAYSHORE COMMUNITY HOSPITAL
21.51,2.49,40.85399,-74.82906,48946.18,4106.09,0.00,0.00,0.00,HACKETTSTOWN REGIONAL MEDICAL CENTER
14.73,2.70,40.78621,-74.07568,32954.36,4615.00,0.50,0.84,0.73,MEADOWLANDS HOSPITAL MEDICAL CENTER
6.86,3.46,35.08838,-106.61590,14423.27,6390.00,0.83,0.46,0.11,UNM HOSPITAL
5.37,2.74,36.72387,-108.21749,10899.27,4711.73,0.50,0.71,0.83,SAN JUAN REGIONAL MEDICAL CENTER
7.66,2.46,32.29186,-106.73470,16300.54,4043.15,0.50,0.64,0.03,MEMORIAL MEDICAL CENTER INC
9.42,2.35,32.44263,-104.25776,20454.73,3788.45,0.00,0.00,0.00,CARLSBAD MEDICAL CENTER
7.70,3.33,40.59458,-73.78144,16398.93,6080.71,0.00,0.00,0.00,PENINSULA HOSPITAL CENTER
7.96,2.67,41.92720,-73.99535,17014.00,4544.67,0.50,0.84,0.39,KINGSTON HOSPITAL
4.56,2.74,42.87482,-78.84942,8980.50,4709.69,0.33,0.45,0.08,KALEIDA HEALTH
3.72,4.47,40.83139,-73.90306,7006.50,8770.00,0.50,0.60,0.54,BRONX-LEBANON HOSPITAL CENTER
3.88,2.23,42.09299,-75.93704,7386.79,3494.71,0.50,0.74,1.00,OUR LADY OF LOURDES MEMORIAL HOSPITAL INC
9.31,2.79,42.65345,-73.77543,20188.57,4807.86,0.67,0.60,0.64,ALBANY MEDICAL CENTER HOSPITAL
3.83,3.82,40.70141,-73.81630,7275.47,7244.67,0.00,0.79,0.39,JAMAICA HOSPITAL MEDICAL CENTER
4.82,3.27,40.61384,-73.94851,9608.16,5956.47,0.00,0.00,0.00,NEW YORK COMMUNITY HOSPITAL OF BROOKLYN INC.
9.66,2.57,41.69441,-73.93432,21022.16,4294.16,0.83,0.82,0.54,VASSAR BROTHERS MEDICAL CENTER
7.37,3.91,40.79041,-73.95386,15612.76,7457.48,0.83,0.39,0.05,MOUNT SINAI HOSPITAL
5.68,3.93,40.72548,-73.55287,11621.03,7499.72,0.50,0.89,0.05,NASSAU UNIVERSITY MEDICAL CENTER
8.88,3.33,40.63588,-74.10556,19164.61,6085.44,0.67,0.53,0.20,RICHMOND UNIVERSITY MEDICAL CENTER
8.39,2.83,40.72567,-73.24189,18010.86,4907.00,0.50,0.59,0.38,SOUTHSIDE HOSPITAL
10.51,2.89,40.87946,-73.41621,23021.79,5057.79,0.50,0.66,0.39,HUNTINGTON HOSPITAL
10.09,3.80,40.80556,-73.96131,22037.67,7208.83,0.33,0.56,0.05,ST LUKE'S ROOSEVELT HOSPITAL
8.03,3.35,40.74722,-73.82521,17165.19,6131.60,0.67,0.64,0.80,NEW YORK HOSPITAL MEDICAL CENTER OF QUEENS
4.99,3.97,40.68983,-73.97794,10013.64,7603.64,0.83,0.71,0.14,BROOKLYN HOSPITAL CENTER AT DOWNTOWN CAMPUS
6.91,2.17,42.65583,-73.80372,14540.00,3357.76,0.33,0.47,0.54,ST PETER'S HOSPITAL
11.28,3.99,40.87987,-73.87996,24834.36,7646.65,0.50,0.39,0.45,MONTEFIORE MEDICAL CENTER
6.42,2.62,40.94161,-73.83650,13382.95,4424.00,0.33,0.64,0.12,LAWRENCE HOSPITAL CENTER
3.55,4.54,40.81770,-73.92401,6616.50,8951.86,0.75,0.84,0.39,LINCOLN MEDICAL & MENTAL HEALTH CENTER
3.92,2.39,44.85685,-74.29199,7474.55,3871.09,0.00,0.00,0.00,ALICE HYDE MEDICAL CENTER
6.51,3.32,40.91304,-73.84024,13587.00,6059.08,0.00,0.00,0.00,MOUNT VERNON HOSPITAL
4.79,2.30,42.10076,-76.82800,9537.69,3653.38,0.50,0.65,0.33,ARNOT OGDEN MEDICAL CENTER
4.72,2.33,42.24595,-73.77855,9364.31,3730.00,0.00,0.00,0.00,COLUMBIA MEMORIAL HOSPITAL
8.20,3.75,40.76487,-73.95398,17579.44,7086.23,0.33,0.33,0.74,NEW YORK-PRESBYTERIAN HOSPITAL
11.98,2.77,41.09642,-73.92501,26485.45,4781.00,0.67,0.78,0.76,NYACK HOSPITAL
10.06,3.28,40.77686,-73.70212,21950.13,5978.83,0.33,0.61,0.69,NORTH SHORE UNIVERSITY HOSPITAL
10.82,3.17,40.77362,-73.96093,23747.89,5703.71,0.33,0.46,0.11,LENOX HILL HOSPITAL
4.91,2.38,43.19244,-77.58590,9824.07,3860.00,0.67,0.46,0.17,ROCHESTER GENERAL HOSPITAL
10.81,2.58,41.44138,-74.36821,23723.15,4317.85,0.50,0.62,0.70,ORANGE REGIONAL MEDICAL CENTER
6.50,4.60,40.85407,-73.84688,13553.67,9090.60,0.50,0.70,0.74,JACOBI MEDICAL CENTER
5.44,4.17,40.74465,-73.88620,11054.10,8070.69,0.25,0.84,0.32,ELMHURST HOSPITAL CENTER
4.84,3.14,42.69590,-74.92278,9650.38,5644.75,0.50,0.84,0.76,MARY IMOGENE BASSETT HOSPITAL
4.13,2.64,43.05571,-76.14981,7983.68,4471.79,0.83,0.38,0.20,ST JOSEPH'S HOSPITAL HEALTH CENTER
9.96,2.61,40.78000,-72.97763,21724.40,4395.10,0.33,0.60,0.32,BROOKHAVEN MEMORIAL HOSPITAL MEDICAL CENTER
5.72,3.72,40.68964,-73.99657,11729.62,7001.88,0.00,0.00,0.00,LONG ISLAND COLLEGE HOSPITAL
10.95,2.79,41.11299,-74.13732,24063.77,4822.77,0.67,0.82,0.83,GOOD SAMARITAN HOSPITAL OF SUFFERN
7.56,3.24,40.58440,-74.08507,16066.56,5883.27,0.67,0.71,0.38,STATEN ISLAND UNIVERSITY HOSPITAL
2.87,2.40,43.17738,-78.67123,5010.77,3909.77,0.00,0.00,0.00,EASTERN NIAGARA HOSPITAL
13.91,3.07,40.74083,-73.64306,31039.55,5477.39,0.67,0.50,0.74,WINTHROP-UNIVERSITY HOSPITAL
8.88,3.69,40.73265,-73.98162,19186.30,6935.70,0.50,0.60,0.39,BETH ISRAEL MEDICAL CENTER
9.50,2.74,40.87062,-73.62249,20647.44,4709.31,0.50,0.82,0.86,GLEN COVE HOSPITAL
9.26,2.50,40.80462,-73.67023,20072.48,4126.22,0.83,0.72,0.94,ST FRANCIS HOSPITAL ROSLYN
5.28,3.31,40.91276,-73.78720,10696.38,6036.77,0.50,0.84,0.07,SOUND SHORE MEDICAL CENTER OF WESTSCHESTER
9.89,2.45,40.94000,-73.05510,21558.08,4027.12,0.50,0.64,0.64,JOHN T MATHER MEMORIAL HOSPITAL  OF PORT JEFFERSON
5.34,3.67,40.75543,-73.81532,10826.14,6884.79,0.25,0.72,0.64,FLUSHING HOSPITAL MEDICAL CENTER
10.05,3.93,40.63937,-73.99851,21941.94,7503.66,0.50,0.45,0.54,MAIMONIDES MEDICAL CENTER
10.88,3.74,40.75332,-73.70899,23887.65,7052.04,0.50,0.45,0.91,LONG ISLAND JEWISH MEDICAL CENTER
4.80,3.88,40.58549,-73.96558,9550.54,7388.38,0.25,0.72,0.30,CONEY ISLAND HOSPITAL
6.31,2.60,40.65189,-73.63096,13122.69,4360.00,0.50,0.53,0.43,SOUTH NASSAU COMMUNITIES HOSPITAL
4.80,4.57,40.78443,-73.94474,9549.62,9019.46,0.25,0.70,0.47,METROPOLITAN HOSPITAL CENTER
10.02,3.35,40.65957,-73.93378,21868.29,6141.29,0.25,0.78,0.96,KINGSBROOK JEWISH MEDICAL CENTER
7.02,3.14,40.96967,-73.88447,14785.05,5640.14,0.50,0.75,0.86,ST JOHN'S RIVERSIDE HOSPITAL
10.20,3.78,40.74335,-73.97408,22276.93,7156.93,0.33,0.64,0.21,NYU HOSPITALS CENTER
5.03,2.46,43.45491,-76.51645,10109.93,4029.21,0.00,0.00,0.00,OSWEGO HOSPITAL
5.47,3.86,40.70419,-73.91754,11143.38,7343.23,0.50,0.81,0.16,WYCKOFF HEIGHTS MEDICAL CENTER
6.48,4.23,40.71730,-73.80353,13509.74,8207.47,0.25,0.84,0.28,QUEENS HOSPITAL CENTER
4.32,4.12,40.65533,-73.91221,8433.36,7958.45,0.50,0.62,0.54,BROOKDALE HOSPITAL MEDICAL CENTER
6.26,3.58,40.66762,-73.97850,13007.74,6692.68,0.33,0.55,0.30,NEW YORK METHODIST HOSPITAL
4.52,4.37,40.81477,-73.94027,8890.44,8542.44,0.50,0.78,0.42,HARLEM HOSPITAL CENTER
5.86,3.20,43.04269,-76.14043,12053.93,5784.07,0.67,0.41,0.03,UNIVERSITY HOSPITAL S U N Y HEALTH SCIENCE CENTER
13.58,2.70,40.94779,-73.06033,30257.07,4616.43,0.50,0.59,0.30,ST CHARLES HOSPITAL
8.33,2.64,40.68896,-73.63259,17870.54,4474.23,0.50,0.62,0.38,MERCY MEDICAL CENTER
8.14,2.97,41.10880,-73.86355,17425.91,5247.91,0.00,0.00,0.00,PHELPS MEMORIAL HOSPITAL ASSN
8.91,2.61,41.50307,-74.01517,19256.52,4397.71,0.33,0.81,0.96,ST LUKE'S CORNWALL HOSPITAL
10.03,2.67,40.69327,-73.29412,21885.22,4534.39,0.50,0.70,0.74,GOOD SAMARITAN HOSPITAL MEDICAL CENTER
5.34,2.52,41.02614,-73.76978,10819.21,4177.36,0.50,0.62,0.45,WHITE PLAINS HOSPITAL CENTER
4.54,3.89,40.64666,-74.02049,8940.72,7422.03,0.50,0.68,0.05,LUTHERAN MEDICAL CENTER
7.08,2.78,40.83778,-73.85417,14934.90,4796.40,0.50,0.66,0.16,NEW YORK WESTCHESTER SQUARE MEDICAL CENTER
6.85,2.84,40.88512,-72.38030,14399.43,4924.86,0.50,0.89,0.73,SOUTHAMPTON HOSPITAL
4.59,4.04,40.65508,-73.94521,9067.21,7759.79,0.50,0.66,0.08,UNIVERSITY HOSPITAL OF BROOKLYN ( DOWNSTATE )
6.14,3.06,40.72931,-73.85219,12719.95,5453.68,0.50,0.55,0.14,FOREST HILLS HOSPITAL
7.43,2.59,40.68104,-73.68633,15767.25,4347.62,0.50,0.66,0.70,FRANKLIN HOSPITAL
9.29,3.48,40.90922,-73.11520,20135.20,6441.54,0.50,0.60,0.45,UNIVERSITY HOSPITAL ( STONY BROOK )
5.21,2.45,42.11422,-75.95851,10516.08,4009.38,0.67,0.49,0.93,UNITED HEALTH SERVICES HOSPITALS INC
8.03,4.27,40.59803,-73.75296,17161.74,8305.21,0.50,0.64,0.08,ST JOHN'S EPISCOPAL HOSPITAL AT SOUTH SHORE
5.89,4.47,40.85263,-73.89184,12131.25,8773.92,0.50,0.62,0.45,ST BARNABAS HOSPITAL
14.98,2.53,40.85738,-73.18681,33550.37,4195.73,0.50,0.76,0.89,ST CATHERINE OF SIENA HOSPITAL
7.25,2.60,35.43754,-80.60147,15339.44,4378.52,0.67,0.65,0.16,CAROLINAS MEDICAL CENTER-NORTHEAST
5.23,2.45,35.57658,-82.54922,10577.16,4012.52,0.67,0.40,0.82,MEMORIAL MISSION HOSPITAL AND ASHEVILLE SURGERY CE
5.60,2.38,34.75124,-79.46789,11450.58,3853.67,0.00,0.00,0.00,SCOTLAND MEMORIAL HOSPITAL
6.17,2.51,35.39772,-77.95250,12792.94,4169.18,0.50,0.81,0.08,WAYNE MEMORIAL HOSPITAL
6.58,2.38,35.36251,-81.96692,13764.62,3841.38,0.00,0.00,0.00,RUTHERFORD HOSPITAL INC
4.91,2.50,36.07581,-80.29779,9822.69,4139.62,0.50,0.53,0.39,FORSYTH MEMORIAL HOSPITAL
4.82,2.27,35.32080,-82.46812,9612.33,3586.92,0.00,0.00,0.00,MARGARET R PARDEE MEMORIAL HOSPITAL
8.20,2.49,35.30288,-81.53571,17577.46,4102.46,0.50,0.71,0.64,CLEVELAND REGIONAL MEDICAL CENTER
8.98,2.62,35.03156,-78.93205,19414.85,4413.87,0.50,0.50,0.19,CAPE FEAR VALLEY MEDICAL CENTER
8.92,3.19,36.00850,-78.94006,19278.22,5760.00,0.67,0.44,0.76,DUKE UNIVERSITY HOSPITAL
5.29,2.42,35.27341,-81.13688,10711.13,3950.65,0.50,0.70,0.70,GASTON MEMORIAL HOSPITAL
2.95,2.30,35.54918,-77.03985,5196.92,3656.42,0.00,0.00,0.00,BEAUFORT COUNTY MEDICAL CENTER
6.56,2.26,35.79986,-80.87863,13695.47,3562.00,0.50,0.62,0.96,IREDELL MEMORIAL HOSPITAL INC
7.32,3.02,35.60726,-77.40477,15495.89,5365.25,0.50,0.46,0.01,PITT COUNTY MEMORIAL HOSPITAL
6.77,2.39,34.76273,-77.38582,14207.88,3872.65,0.50,0.59,0.17,ONSLOW MEMORIAL HOSPITAL
5.03,3.24,36.09062,-80.27161,10088.04,5886.10,0.83,0.55,0.58,NORTH CAROLINA BAPTIST HOSPITAL
7.02,2.82,34.63723,-79.01213,14786.00,4893.00,0.50,0.71,0.64,SOUTHEASTERN REGIONAL MEDICAL CENTER
5.85,2.39,35.22196,-80.83287,12042.71,3877.41,0.50,0.64,0.14,PRESBYTERIAN HOSPITAL
4.52,3.30,35.90529,-79.04963,8903.45,6019.09,0.67,0.41,0.01,UNIVERSITY OF NORTH CAROLINA HOSPITAL
4.77,2.30,36.15893,-81.15703,9488.42,3666.33,0.00,0.00,0.00,WILKES REGIONAL MEDICAL CENTER
4.61,2.48,34.33747,-78.69425,9113.79,4090.21,0.00,0.00,0.00,COLUMBUS REGIONAL HEALTHCARE SYSTEM
7.68,2.62,35.78523,-78.58836,16335.80,4420.10,0.33,0.50,0.80,WAKEMED RALEIGH CAMPUS
5.16,2.34,36.06347,-79.50208,10400.06,3766.82,0.33,0.60,0.16,ALAMANCE REGIONAL MEDICAL CENTER
6.70,2.49,35.50624,-78.32511,14029.73,4113.00,0.50,0.55,0.25,JOHNSTON MEMORIAL HOSPITAL
4.98,2.54,36.09251,-79.78855,9991.68,4224.32,0.67,0.66,0.51,MOSES H CONE MEMORIAL HOSPITAL THE
6.11,2.27,35.21029,-80.82084,12634.17,3593.67,0.50,0.54,0.51,CAROLINAS MED CENTER-MERCY
6.69,2.35,34.90228,-79.71125,14011.80,3775.47,0.00,0.00,0.00,SANDHILLS REGIONAL MEDICAL CENTER
7.48,2.98,35.92115,-77.55585,15865.17,5270.83,0.50,0.85,0.06,HERITAGE HOSPITAL
8.43,3.13,35.20397,-80.83908,18113.50,5609.12,0.67,0.64,0.25,CAROLINAS MEDICAL CENTER/BEHAV HEALTH
5.83,2.21,35.81801,-78.70283,11976.14,3456.78,0.50,0.65,0.54,REX HOSPITAL
4.36,2.44,35.20554,-79.45645,8530.33,3988.98,0.67,0.60,0.45,FIRSTHEALTH MOORE REGIONAL HOSPITAL
7.98,2.22,35.73751,-81.33702,17054.84,3480.58,0.50,0.68,0.17,FRYE REGIONAL MEDICAL CENTER
6.36,2.41,35.71177,-79.81489,13227.40,3926.20,0.50,0.55,0.29,RANDOLPH HOSPITAL
7.14,2.43,35.71850,-77.94518,15064.69,3974.77,0.50,0.69,0.89,WILSON MEDICAL CENTER
4.55,2.51,34.97382,-80.52250,8978.25,4164.81,0.50,0.69,0.69,CAROLINAS MEDICAL CENTER-UNION
4.64,2.59,35.11420,-77.06568,9183.70,4343.35,0.33,0.74,0.91,CAROLINA EAST MEDICAL CENTER
6.93,2.58,34.23786,-77.94764,14574.21,4331.12,0.83,0.70,0.58,NEW HANOVER REGIONAL MEDICAL CENTER
5.78,2.58,35.97538,-77.85012,11863.23,4327.92,0.50,0.65,0.14,NASH GENERAL HOSPITAL
4.79,2.40,36.43295,-77.64729,9529.00,3901.00,0.00,0.00,0.00,HALIFAX REGIONAL MEDICAL CENTER INC
6.35,2.45,36.04960,-78.90617,13218.57,4018.71,0.50,0.51,0.70,DURHAM REGIONAL HOSPITAL
9.56,2.34,35.74046,-78.78127,20766.86,3758.93,0.50,0.72,0.14,WAKEMED CARY HOSPITAL
4.76,2.27,35.52586,-82.94351,9457.60,3585.40,0.00,0.00,0.00,MEDWEST HAYWOOD
4.62,2.46,46.88496,-96.78609,9131.31,4033.00,0.67,0.61,0.48,SANFORD MEDICAL CENTER FARGO
6.01,3.47,39.13707,-84.50392,12408.36,6428.32,0.67,0.45,0.21,UNIVERSITY HOSPITAL INC
7.76,2.44,40.03064,-83.03440,16541.76,3999.03,0.83,0.71,0.21,RIVERSIDE METHODIST HOSPITAL
4.85,2.47,38.75320,-82.97800,9673.33,4074.17,0.50,0.61,0.69,SOUTHERN OHIO MEDICAL CENTER
5.97,2.19,40.73578,-84.08630,12309.58,3396.58,0.75,0.61,0.14,LIMA MEMORIAL HEALTH SYSTEM
4.80,2.35,40.57098,-83.12972,9549.84,3770.53,0.50,0.91,0.48,MARION GENERAL HOSPITAL
4.14,2.38,40.11479,-82.94677,8005.22,3847.14,0.50,0.66,0.12,MOUNT CARMEL ST ANN'S HOSPITAL
6.83,2.38,39.20680,-84.38093,14339.95,3861.50,0.50,0.76,0.94,JEWISH HOSPITAL LLC
6.57,2.79,39.96098,-82.99077,13719.50,4822.05,0.67,0.79,0.21,GRANT MEDICAL CENTER
8.59,2.55,41.08161,-81.50007,18489.79,4251.18,0.67,0.64,0.33,SUMMA HEALTH SYSTEMS HOSPITALS
8.25,2.44,41.07747,-81.53042,17695.54,3983.00,0.67,0.70,0.64,AKRON GENERAL MEDICAL CENTER
5.39,2.42,39.95805,-83.02191,10951.50,3945.31,0.67,0.42,0.02,MOUNT CARMEL HEALTH
4.55,2.35,39.97510,-82.01812,8964.84,3770.30,0.50,0.79,0.93,GENESIS HEALTHCARE SYSTEM
4.59,2.12,41.38265,-81.73127,9072.84,3243.56,0.50,0.75,0.94,PARMA COMMUNITY GENERAL HOSPITAL
7.89,3.04,41.61788,-83.61632,16830.00,5413.33,0.67,0.69,0.07,UNIVERSITY OF TOLEDO MEDICAL CENTER
10.09,2.72,39.74547,-84.18523,22037.13,4650.22,0.67,0.45,0.02,MIAMI VALLEY HOSPITAL
11.39,2.43,39.78778,-84.23493,25088.35,3963.91,0.67,0.56,0.16,GOOD SAMARITAN HOSPITAL
3.03,2.27,38.84439,-82.23902,5395.45,3601.91,0.00,0.00,0.00,HOLZER MEDICAL CENTER
8.72,2.17,41.23549,-80.79865,18804.23,3364.15,0.67,0.56,0.01,TRUMBULL MEMORIAL HOSPITAL
5.25,2.21,39.31257,-84.51774,10611.58,3441.50,0.50,0.90,0.70,MERCY HOSPITAL FAIRFIELD
6.81,2.36,41.11441,-80.65565,14305.21,3799.00,0.83,0.49,0.21,ST ELIZABETH HEALTH CENTER
5.31,2.25,40.74115,-84.11804,10753.11,3550.78,0.67,0.74,0.07,ST RITA'S MEDICAL CENTER
11.86,2.45,41.67775,-83.59589,26199.19,4026.77,0.33,0.70,0.58,TOLEDO HOSPITAL THE
4.07,2.30,40.81219,-81.39625,7839.23,3657.62,0.50,0.62,0.43,MERCY MEDICAL CENTER
3.89,2.29,39.71750,-82.57772,7402.07,3640.40,0.50,0.82,0.91,FAIRFIELD MEDICAL CENTER
9.26,3.01,41.58130,-81.48979,20067.00,5330.08,0.00,0.00,0.00,UHHS RICHMOND HEIGHTS HOSPITAL
8.79,2.39,39.49896,-84.31496,18972.93,3872.43,0.50,0.64,0.33,ATRIUM MEDICAL CENTER
8.20,2.35,41.45013,-81.82397,17580.05,3789.75,0.67,0.60,0.19,FAIRVIEW HOSPITAL
5.72,2.18,41.17554,-81.24915,11716.59,3376.35,0.50,0.76,0.38,ROBINSON MEMORIAL HOSPITAL
9.20,2.56,39.69724,-84.19232,19919.15,4271.62,0.67,0.80,0.58,KETTERING MEDICAL CENTER
7.27,2.17,41.59825,-81.54884,15369.31,3368.54,0.50,0.70,0.58,EUCLID HOSPITAL
9.44,2.98,39.99445,-83.01872,20488.64,5267.57,0.67,0.50,0.03,OHIO STATE UNIVERSITY HOSPITALS
7.16,2.35,39.92755,-83.81573,15121.50,3775.89,0.50,0.68,0.48,SPRINGFIELD REGIONAL MEDICAL CENTER
5.41,2.20,41.55725,-83.68141,10989.20,3436.72,0.50,0.65,0.86,ST LUKE'S HOSPITAL
6.70,2.12,41.66317,-81.24696,14035.39,3230.33,0.50,0.74,0.39,LAKE HEALTH
7.73,2.96,41.66810,-83.54275,16457.21,5228.53,0.50,0.70,0.05,MERCY ST VINCENT MEDICAL CENTER
5.43,2.32,41.43653,-81.94451,11033.55,3713.65,0.50,0.72,0.76,ST JOHN MEDICAL CENTER
9.53,2.64,39.13975,-84.52173,20695.50,4473.93,0.67,0.84,0.69,GOOD SAMARITAN HOSPITAL
6.15,3.07,41.50772,-81.60592,12750.89,5484.57,0.83,0.46,0.45,UNIVERSITY HOSPITALS OF CLEVELAND
6.23,2.40,41.44829,-81.53736,12926.15,3889.15,0.50,0.81,0.21,SOUTH POINTE HOSPITAL
4.39,2.17,41.36649,-82.09708,8589.09,3352.48,0.67,0.75,0.98,EMH REGIONAL MEDICAL CENTER
5.39,2.14,39.43061,-81.46454,10944.18,3279.64,0.50,0.71,1.00,MARIETTA MEMORIAL HOSPITAL
7.17,3.01,39.95311,-83.13803,15154.12,5343.29,0.50,0.49,0.48,DOCTORS HOSPITAL
8.34,2.14,41.37028,-81.83189,17897.29,3282.77,0.50,0.71,0.74,SOUTHWEST GENERAL HEALTH CENTER
5.16,2.38,39.39463,-82.96979,10402.00,3861.00,0.50,0.50,0.25,ADENA REGIONAL MEDICAL CENTER
6.68,2.49,39.12105,-84.51059,13991.72,4103.39,0.83,0.46,0.89,CHRIST HOSPITAL
5.83,2.24,41.43688,-82.23761,11981.27,3514.13,0.50,0.82,0.70,MERCY REGIONAL MEDICAL CENTER
8.19,2.33,39.25076,-84.34341,17542.69,3724.46,0.50,0.62,0.99,BETHESDA NORTH HOSPITAL
8.85,2.72,41.50248,-81.62110,19112.26,4654.48,0.33,0.33,0.25,CLEVELAND CLINIC
4.31,2.20,40.35601,-80.62502,8395.00,3438.47,0.50,0.81,0.64,TRINITY MEDICAL CTR EAST&TRINITY MEDICAL CTR WEST
9.20,2.22,41.48479,-81.79649,19926.14,3468.00,0.50,0.68,0.70,LAKEWOOD HOSPITAL
5.17,2.15,41.52013,-81.43291,10424.86,3315.76,0.67,0.45,0.38,HILLCREST HOSPITAL
4.98,2.28,39.20463,-84.57093,9976.33,3617.58,0.50,0.68,0.39,MERCY FRANCISCAN HOSPITAL - MT AIRY
6.87,2.34,39.63778,-84.24864,14448.27,3762.00,0.50,0.82,0.25,KETTERING MEDICAL CENTER - SYCAMORE
5.50,2.07,40.99498,-80.66192,11212.21,3126.00,0.50,0.70,0.30,ST ELIZABETH BOARDMAN HEALTH CENTER
8.25,2.65,36.14687,-95.96841,17693.86,4495.55,0.83,0.76,0.32,HILLCREST MEDICAL CENTER
8.82,2.20,35.22999,-97.44074,19044.47,3419.84,0.50,0.74,0.21,NORMAN REGIONAL HEALTH SYSTEM
10.71,2.41,34.00655,-96.39398,23487.17,3932.13,0.00,0.00,0.00,MEDICAL CENTER OF SOUTHEASTERN OKLAHOMA
5.83,2.27,35.75351,-95.40612,11980.92,3592.23,0.50,0.70,0.03,MUSKOGEE REGIONAL MEDICAL CENTER
8.55,2.72,35.52960,-97.57496,18404.12,4646.06,1.00,0.76,0.91,INTEGRIS BAPTIST MEDICAL CENTER
6.52,2.21,34.93621,-95.74888,13607.60,3442.00,0.00,0.00,0.00,MCALESTER REGIONAL HEALTH CENTER
5.94,2.75,35.47800,-97.52352,12245.86,4735.38,0.67,0.59,0.33,ST ANTHONY HOSPITAL
4.43,2.23,34.60992,-98.43419,8675.81,3491.81,0.50,0.62,0.48,COMANCHE COUNTY MEMORIAL HOSPITAL
5.29,2.34,36.06135,-95.95154,10721.56,3752.40,0.83,0.61,0.45,SAINT FRANCIS HOSPITAL INC
9.78,3.01,35.48138,-97.49624,21302.82,5334.55,0.67,0.45,0.01,O U MEDICAL CENTER
8.08,2.18,35.46721,-97.39370,17281.60,3384.24,0.50,0.76,0.93,MIDWEST REGIONAL MEDICAL CENTER
5.11,2.31,36.13393,-95.96718,10275.97,3684.54,0.50,0.51,0.11,ST JOHN MEDICAL CENTER INC
2.51,2.31,35.80907,-94.64301,4164.07,3698.00,0.00,0.00,0.00,MEMORIAL HOSPITAL OF STILWELL
7.24,2.38,36.03590,-95.86511,15305.50,3847.17,0.50,0.60,0.30,SOUTHCREST HOSPITAL
4.06,2.10,35.60901,-97.59429,7820.07,3182.00,0.75,0.96,0.30,OKLAHOMA HEART HOSPITAL
3.97,2.09,35.38969,-97.42688,7602.94,3166.83,0.50,1.00,0.90,OKLAHOMA HEART HOSPITAL SOUTH
4.83,2.49,45.50973,-122.77368,9625.91,4107.09,0.33,0.55,0.14,PROVIDENCE ST VINCENT MEDICAL CENTER
7.87,2.31,41.40075,-75.64594,16787.00,3679.85,0.50,0.78,0.94,COMMUNITY MEDICAL CENTER
8.62,2.14,40.25296,-76.92151,18566.09,3285.55,0.83,0.85,0.96,HOLY SPIRIT HOSPITAL
9.57,2.41,42.11102,-80.07912,20805.44,3917.17,0.50,0.72,0.58,SAINT VINCENT HEALTH CENTER
4.50,2.14,40.80231,-75.61515,8849.42,3292.00,0.00,0.00,0.00,PALMERTON HOSPITAL
5.50,2.41,40.18302,-80.24767,11207.00,3931.07,0.50,0.76,0.94,WASHINGTON HOSPITAL THE
8.43,2.60,40.33271,-75.95020,18122.00,4371.63,0.50,0.68,0.21,READING HOSPITAL MEDICAL CENTER
4.81,2.64,39.94604,-76.71884,9574.56,4456.44,0.67,0.45,0.08,YORK HOSPITAL
11.02,2.55,40.60811,-75.39260,24227.82,4258.79,0.67,0.54,0.58,ST LUKE'S HOSPITAL BETHLEHEM
6.60,2.37,40.32799,-76.44588,13798.60,3829.00,0.50,0.59,0.70,GOOD SAMARITAN HOSPITAL
5.83,2.72,40.25661,-76.87572,11989.83,4651.54,0.83,0.47,0.01,PINNACLE HEALTH HOSPITALS
13.23,2.35,40.10226,-74.86338,29425.21,3780.14,0.50,0.72,0.13,LOWER BUCKS HOSPITAL
5.38,2.21,40.52204,-78.39824,10928.93,3459.33,0.83,0.61,0.39,ALTOONA REGIONAL HEALTH SYSTEM
6.64,2.31,40.04740,-76.30540,13889.76,3685.76,0.67,0.60,0.83,LANCASTER GENERAL HOSPITAL
7.99,2.67,40.48928,-79.89596,17070.40,4543.80,0.50,0.72,0.64,UPMC ST MARGARET
6.87,2.07,40.57319,-80.01455,14428.18,3121.27,0.50,0.57,0.48,UPMC PASSAVANT
16.41,2.60,40.12453,-75.33533,36920.36,4367.82,0.50,0.69,0.83,MONTGOMERY HOSPITAL
4.87,2.47,40.32674,-78.92197,9733.75,4067.17,0.50,0.61,0.03,CONEMAUGH VALLEY MEMORIAL HOSPITAL
15.88,3.28,39.95045,-75.19259,35669.75,5979.33,0.50,0.34,0.39,HOSPITAL OF UNIV OF PENNSYLVANIA
9.60,2.67,40.07160,-74.98341,20867.48,4539.74,0.33,0.68,0.05,ARIA HEALTH
10.97,2.28,40.24397,-75.61364,24111.59,3612.00,0.50,0.84,0.48,POTTSTOWN MEMORIAL MEDICAL CENTER
10.13,2.74,40.60000,-75.47000,22114.68,4693.30,0.67,0.59,0.54,LEHIGH VALLEY HOSPITAL
8.34,2.26,41.25860,-75.86729,17899.00,3575.14,0.50,0.60,0.80,WILKES-BARRE GENERAL HOSPITAL
12.44,2.43,40.01883,-75.32115,27566.63,3972.33,0.50,0.71,0.86,MAIN LINE HOSPITAL BRYN MAWR CAMPUS
11.41,3.96,40.03678,-75.14351,25137.23,7581.92,0.67,0.62,0.05,ALBERT EINSTEIN MEDICAL CENTER
7.31,2.34,39.93492,-77.64744,15468.93,3768.46,0.50,0.59,0.48,CHAMBERSBURG HOSPITAL
15.11,2.28,40.04475,-75.50425,33862.56,3607.00,0.50,0.71,0.20,MAIN LINE HOSPITAL PAOLI
11.46,3.06,39.92871,-75.26873,25263.13,5443.81,0.67,0.65,0.17,MERCY FITZGERALD HOSPITAL
15.15,2.55,40.68708,-75.24272,33963.76,4248.47,0.67,0.69,0.03,EASTON HOSPITAL
11.15,3.18,40.44190,-79.96044,24520.70,5726.80,0.83,0.55,0.11,UPMC PRESBYTERIAN SHADYSIDE
12.32,3.06,39.94969,-75.15712,27281.88,5460.62,0.67,0.41,0.58,THOMAS JEFFERSON UNIVERSITY HOSPITAL
7.11,2.28,39.97024,-75.60259,15008.50,3607.42,0.33,0.75,0.19,CHESTER COUNTY HOSPITAL
29.31,3.11,39.85598,-75.36791,67333.42,5580.36,0.67,0.56,0.14,CROZER CHESTER MEDICAL CENTER
12.79,2.87,39.98905,-75.27707,28397.37,5014.79,0.50,0.54,0.25,MAIN LINE HOSPITAL LANKENAU
7.15,2.60,40.99225,-75.17466,15101.00,4366.00,0.50,0.90,0.64,POCONO MEDICAL CENTER
7.19,2.28,40.30531,-75.14763,15187.75,3609.00,0.33,0.84,0.93,DOYLESTOWN HOSPITAL
11.30,2.35,40.05931,-75.04140,24871.36,3771.45,0.50,0.50,0.30,NAZARETH HOSPITAL
6.07,2.37,41.23235,-80.49626,12544.07,3821.33,0.50,0.80,0.76,SHARON REGIONAL HEALTH SYSTEM
11.53,2.84,39.95825,-75.19909,25412.60,4947.53,0.67,0.54,0.54,PENN PRESBYTERIAN MEDICAL CENTER
13.99,2.93,39.94560,-75.15561,31230.00,5158.14,0.50,0.56,0.70,PENNSYLVANIA HOSP OF THE UNIV OF PA HEALTH SYS
11.51,2.50,40.12077,-75.11818,25371.98,4141.57,0.83,0.51,0.43,ABINGTON MEMORIAL HOSPITAL
10.39,2.29,40.20064,-74.92952,22728.05,3648.93,0.33,0.71,0.45,ST MARY MEDICAL CENTER
8.22,2.42,40.64463,-75.40842,17619.45,3945.18,0.67,0.66,0.08,LEHIGH VALLEY HOSPITAL - MUHLENBERG
5.11,2.22,40.42897,-79.74808,10295.29,3467.79,0.50,0.57,0.58,WESTERN PENNSYLVANIA HOSP FORBES REGIONAL CAMPUS
8.27,2.08,40.81936,-77.84273,17729.38,3141.85,0.50,0.91,0.58,MOUNT NITTANY MEDICAL CENTER
24.31,3.40,39.95658,-75.16249,55541.96,6261.48,0.83,0.71,0.07,HAHNEMANN UNIVERSITY HOSPITAL
8.87,3.26,41.81254,-71.40760,19141.59,5938.30,0.33,0.49,0.07,RHODE ISLAND HOSPITAL
5.24,2.34,34.95535,-81.05137,10591.12,3748.29,0.50,0.75,0.33,PIEDMONT MEDICAL CENTER
5.58,3.26,32.78272,-79.94543,11402.00,5930.69,0.33,0.76,0.70,MUSC MEDICAL CENTER
7.43,2.67,34.96733,-81.94021,15757.50,4526.67,0.33,0.60,0.54,SPARTANBURG REGIONAL MEDICAL CENTER
9.64,2.96,34.02839,-81.03539,20972.88,5225.06,0.33,0.44,0.21,PALMETTO HEALTH RICHLAND
5.82,2.39,33.37683,-79.29450,11957.17,3865.25,0.00,0.00,0.00,GEORGETOWN MEMORIAL HOSPITAL
10.31,2.20,34.83965,-82.42147,22554.50,3435.08,0.67,0.66,0.11,ST FRANCIS-DOWNTOWN
5.67,2.11,34.01469,-81.01343,11600.21,3216.00,0.50,0.85,0.30,SISTERS OF CHARITY PROVIDENCE HOSPITALS
8.76,2.53,34.51119,-82.64683,18885.97,4212.44,0.50,0.61,0.94,ANMED HEALTH
12.09,2.38,34.71787,-80.78844,26737.39,3849.78,0.50,0.84,0.80,SPRINGS MEMORIAL HOSPITAL
5.81,2.35,34.71211,-81.62921,11934.18,3774.18,0.00,0.00,0.00,WALLACE THOMSON HOSPITAL
7.89,2.20,35.08901,-81.63335,16842.50,3434.38,0.00,0.00,0.00,UPSTATE CAROLINA MEDICAL CENTER
5.41,2.22,34.24654,-80.60702,10989.36,3483.07,0.50,0.74,0.33,KERSHAW HEALTH
8.04,2.42,33.78555,-79.00178,17200.47,3942.82,0.50,0.90,0.69,CONWAY MEDICAL CENTER
7.19,2.40,34.19543,-79.76256,15179.62,3887.92,0.50,0.50,0.80,MCLEOD REGIONAL MEDICAL CENTER-PEE DEE
7.34,2.35,34.05671,-78.89903,15548.92,3786.83,0.00,0.00,0.00,LORIS COMMUNITY HOSPITAL
6.98,2.48,32.33977,-80.68817,14702.50,4084.75,0.25,0.65,0.30,BEAUFORT COUNTY MEMORIAL HOSPITAL
7.96,2.57,33.62185,-80.74922,17014.43,4294.86,0.33,0.70,0.08,TRMC OF ORANGEBURG & CALHOUN
6.74,2.89,34.17571,-82.15791,14135.62,5062.46,0.67,0.65,0.20,SELF REGIONAL HEALTHCARE
8.55,2.19,34.00533,-81.11393,18395.83,3398.00,0.67,0.64,0.48,LEXINGTON MEDICAL CENTER
7.82,2.65,34.81904,-82.41308,16677.25,4478.35,0.50,0.55,0.17,GREENVILLE MEMORIAL HOSPITAL
10.37,2.35,32.97605,-80.07302,22690.76,3790.29,0.50,0.56,0.48,TRIDENT MEDICAL CENTER
5.73,2.51,33.57070,-81.76332,11752.08,4158.31,0.50,0.80,0.08,AIKEN REGIONAL MEDICAL CENTER
12.30,2.40,34.94957,-81.93205,27231.40,3896.33,0.50,0.47,0.89,MARY BLACK MEMORIAL HOSPITAL
8.00,2.26,33.70704,-78.89487,17107.31,3559.71,0.67,0.50,0.58,GRAND STRAND REG MED CENTER
8.84,2.28,34.19543,-79.76256,19081.34,3606.00,0.33,0.66,0.14,CAROLINAS HOSPITAL SYSTEM
6.93,2.08,33.59553,-79.02412,14570.86,3140.00,0.50,0.76,0.39,WACCAMAW COMMUNITY HOSPITAL
4.67,2.49,45.46141,-98.47929,9245.00,4118.73,0.00,0.00,0.00,AVERA ST LUKES
5.43,3.11,43.53460,-96.71136,11038.53,5566.24,0.67,0.60,0.82,AVERA MCKENNAN HOSPITAL & UNIVERSITY HEALTH CENTER
7.55,2.77,44.05563,-103.22633,16033.69,4767.12,0.67,0.42,0.83,RAPID CITY REGIONAL HOSPITAL
4.55,2.30,35.63906,-88.83207,8972.83,3672.06,0.67,0.54,0.28,JACKSON-MADISON COUNTY GENERAL HOSPITAL
4.70,2.35,36.38975,-86.43389,9315.64,3771.18,0.50,0.95,0.48,SUMNER REGIONAL MEDICAL CENTER
5.80,2.18,35.93917,-85.01865,11912.88,3389.12,0.50,0.65,0.45,CUMBERLAND MEDICAL CENTER
6.71,2.07,35.75588,-83.95808,14067.07,3131.71,0.50,0.75,0.48,BLOUNT MEMORIAL HOSPITAL
6.22,2.50,35.93985,-83.94326,12896.17,4142.22,0.33,0.62,0.20,UNIVERSITY OF TN MEMORIAL HOSPITAL
5.56,2.19,36.55401,-82.55483,11344.93,3396.20,0.50,0.59,0.33,WELLMONT HOLSTON VALLEY MEDICAL CENTER
5.32,2.21,36.34603,-82.24972,10785.35,3452.00,0.00,0.00,0.00,SYCAMORE SHOALS HOSPITAL
5.16,2.11,35.98589,-84.28055,10400.75,3207.20,0.67,0.62,0.80,METHODIST MEDICAL CENTER OF OAK RIDGE
7.57,2.31,36.58199,-87.27050,16092.58,3697.23,0.50,0.95,0.39,GATEWAY MEDICAL CENTER
8.44,3.01,36.14316,-86.80048,18147.00,5331.00,0.50,0.44,0.43,VANDERBILT UNIVERSITY HOSPITAL
3.28,2.25,35.59215,-87.86395,5978.71,3543.94,0.00,0.00,0.00,PERRY COMMUNITY HOSPITAL
7.10,2.29,35.12837,-89.86202,14984.26,3629.78,0.50,0.44,0.39,BAPTIST MEMORIAL HOSPITAL
8.46,3.19,35.13640,-90.01928,18183.11,5760.89,0.67,0.51,0.38,METHODIST HEALTHCARE MEMPHIS HOSPITALS
5.74,2.37,35.16217,-88.57374,11783.00,3819.54,0.00,0.00,0.00,MCNAIRY REGIONAL HOSPITAL
5.84,2.29,35.86074,-86.42434,12000.59,3651.88,0.33,0.88,0.16,MIDDLE TENNESSEE MEDICAL CENTER INC
5.79,2.22,35.17733,-86.09081,11902.41,3476.82,0.00,0.00,0.00,SOUTHERN TENNESSEE MEDICAL CENTER
4.96,2.30,36.17121,-85.50938,9922.90,3669.05,0.50,0.74,0.99,COOKEVILLE REGIONAL MEDICAL CENTER
7.17,2.33,36.30767,-82.38497,15135.80,3727.80,0.83,0.50,0.21,JOHNSON CITY MEDICAL CENTER
8.73,2.15,36.04867,-89.38047,18831.30,3306.90,0.00,0.00,0.00,DYERSBURG REGIONAL MEDICAL CENTER
4.30,2.37,35.60668,-87.06635,8383.43,3835.14,0.50,0.72,0.74,MAURY REGIONAL HOSPITAL
5.08,2.17,36.12859,-86.84559,10206.53,3365.80,0.17,0.75,0.99,ST THOMAS HOSPITAL
6.06,2.16,36.43222,-84.94250,12524.57,3342.00,0.00,0.00,0.00,JAMESTOWN REGIONAL MEDICAL CENTER
8.85,2.10,35.04157,-85.26037,19099.38,3181.31,0.33,0.72,0.99,MEMORIAL HEALTHCARE SYSTEM INC
6.18,2.55,35.05068,-85.28823,12802.09,4251.09,0.50,0.53,0.00,ERLANGER MEDICAL CENTER
5.15,2.08,35.99233,-83.92697,10378.08,3153.00,0.50,0.56,0.85,TENNOVA HEALTHCARE
5.41,2.45,35.95747,-83.93660,10991.73,4022.45,0.33,0.56,0.45,FORT SANDERS REGIONAL MEDICAL CENTER
5.13,2.22,35.56334,-86.44873,10336.18,3476.00,0.00,0.00,0.00,HERITAGE MEDICAL CENTER
7.11,2.22,35.36202,-86.20943,15009.62,3472.15,0.00,0.00,0.00,HARTON REGIONAL MEDICAL CENTER
7.83,2.32,36.17752,-86.60840,16702.33,3721.21,0.50,0.76,0.30,SUMMIT MEDICAL CENTER
4.78,2.16,35.91765,-84.10080,9500.45,3340.00,0.33,0.72,0.83,PARKWEST MEDICAL CENTER
3.82,2.63,35.61042,-89.24323,7246.00,4430.36,0.00,0.00,0.00,HAYWOOD PARK COMMUNITY HOSPITAL
15.31,2.41,35.09925,-89.86301,34334.44,3915.52,0.50,0.62,0.58,ST FRANCIS HOSPITAL
8.60,2.21,35.17731,-84.86873,18504.86,3454.57,0.50,0.69,0.38,SKYRIDGE MEDICAL CENTER
7.71,2.47,33.90296,-98.50035,16423.24,4060.56,0.67,0.86,0.48,UNITED REGIONAL HEALTH CARE SYSTEM
8.19,2.39,30.65598,-96.34672,17546.71,3864.90,0.50,0.57,0.32,ST JOSEPH REGIONAL HEALTH CENTER
7.68,2.84,32.78994,-96.78044,16351.43,4929.07,0.83,0.59,0.33,BAYLOR UNIVERSITY MEDICAL CENTER
10.57,2.84,25.91934,-97.51054,23151.54,4929.46,0.50,0.64,0.86,VHS BROWNSVILLE HOSPITAL COMPANY LLC
9.92,2.66,27.53249,-99.47808,21630.13,4505.57,0.50,0.84,0.94,LAREDO MEDICAL CENTER
7.96,2.71,26.17446,-97.67014,17006.69,4640.69,0.50,0.68,0.58,VHS HARLINGEN HOSPITAL COMPANY LLC
7.56,2.18,30.08729,-94.13292,16068.45,3385.81,0.67,0.86,0.80,CHRISTUS HOSPITAL
13.83,3.05,29.74802,-95.36609,30849.08,5432.08,0.50,0.65,0.54,ST JOSEPH MEDICAL CENTER
8.58,2.28,32.50219,-94.73025,18472.53,3608.93,0.50,0.74,0.86,GOOD SHEPHERD MEDICAL CENTER
9.74,2.98,32.72621,-97.32659,21191.45,5268.73,0.67,0.80,0.01,JPS HEALTH NETWORK
19.04,2.32,33.57524,-101.89272,43121.42,3702.42,0.50,0.41,0.48,COVENANT MEDICAL CENTER
6.30,2.18,31.51444,-97.19927,13091.82,3373.95,0.50,0.50,0.33,PROVIDENCE HEALTH CENTER
6.74,2.65,32.81224,-96.83795,14120.94,4499.56,0.33,0.64,0.30,UT SOUTHWESTERN UNIVERSITY HOSPITAL
10.40,2.38,27.77751,-97.39515,22761.06,3855.55,0.83,0.57,0.96,CHRISTUS SPOHN HOSPITAL CORPUS CHRISTI
7.44,2.64,31.07837,-97.36403,15778.59,4457.47,0.50,0.56,0.86,SCOTT & WHITE MEMORIAL HOSPITAL
5.90,2.50,33.17573,-94.97180,12139.08,4135.42,0.00,0.00,0.00,TITUS REGIONAL MEDICAL CENTER
10.52,2.57,30.30491,-97.74540,23040.10,4295.00,0.17,0.56,0.64,SETON MEDICAL CENTER AUSTIN
8.91,2.40,29.43360,-98.49265,19257.01,3909.60,0.67,0.61,0.25,BAPTIST MEDICAL CENTER
7.24,2.27,32.74944,-97.11630,15306.20,3589.16,0.67,0.55,0.64,TEXAS HEALTH ARLINGTON MEMORIAL HOSPITAL
10.42,3.38,29.71431,-95.39680,22797.41,6215.67,0.67,0.46,0.14,MEMORIAL HERMANN TEXAS MEDICAL CENTER
7.58,2.36,32.83520,-96.96101,16100.54,3795.46,0.67,0.64,0.25,BAYLOR MEDICAL CENTER AT IRVING
19.22,2.24,32.33824,-95.29122,43560.83,3531.83,0.50,0.55,0.93,EAST TEXAS MEDICAL CENTER
16.39,2.16,32.82932,-97.21399,36872.42,3340.33,0.50,0.68,0.39,NORTH HILLS HOSPITAL
8.97,2.18,28.71321,-100.45571,19391.75,3387.34,0.00,0.00,0.00,FORT DUNCAN MEDICAL CENTER
13.69,2.58,29.66575,-95.18131,30524.50,4316.17,0.50,0.51,0.45,BAYSHORE MEDICAL CENTER
11.75,2.16,32.34280,-95.29201,25929.98,3336.39,0.50,0.60,0.98,MOTHER FRANCES HOSPITAL
16.01,2.59,31.76998,-106.49897,35974.11,4352.61,0.67,0.59,0.08,LAS PALMAS MEDICAL CENTER
12.64,2.83,26.26353,-98.18455,28036.41,4902.62,0.67,0.91,0.74,SOUTH TEXAS HEALTH SYSTEM
9.10,2.87,30.27438,-97.73395,19685.07,5007.47,0.33,0.74,0.03,UNIVERSITY MEDICAL CENTER AT BRACKENRIDGE
6.56,2.51,26.15260,-97.97995,13706.26,4159.79,0.50,0.53,0.89,KNAPP MEDICAL CENTER
9.04,2.70,29.42561,-98.48946,19543.27,4605.00,0.00,0.00,0.00,NIX HEALTH CARE SYSTEM
6.53,2.53,31.84507,-102.37373,13635.62,4212.62,0.33,0.82,0.29,MEDICAL CENTER HOSPITAL
6.87,2.44,31.99616,-102.09950,14441.45,3997.36,0.50,0.55,0.38,MIDLAND MEMORIAL HOSPITAL
9.32,2.45,32.73780,-97.33899,20208.60,4010.36,0.67,0.55,0.58,TEXAS HEALTH HARRIS METHODIST FORT WORTH
7.74,2.31,31.11326,-97.80076,16489.63,3684.74,0.00,0.00,0.00,METROPLEX HOSPITAL
10.95,2.18,27.49018,-97.85078,24061.62,3390.00,0.00,0.00,0.00,CHRISTUS SPOHN HOSPITAL KLEBERG
6.61,2.78,26.19665,-98.31409,13822.00,4798.73,0.25,0.91,0.54,MISSION REGIONAL MEDICAL CENTER
5.58,2.71,29.21470,-99.76962,11395.36,4620.00,0.00,0.00,0.00,UVALDE MEMORIAL HOSPITAL
7.87,2.68,29.81230,-95.43010,16782.79,4551.54,0.67,0.62,0.70,MEMORIAL HERMANN HOSPITAL SYSTEM
6.81,2.19,33.61197,-95.09942,14306.57,3399.86,0.00,0.00,0.00,ETMC CLARKSVILLE
11.22,3.26,29.70719,-95.40048,24681.00,5922.71,0.67,0.44,0.01,ST LUKES EPISCOPAL HOSPITAL
5.49,2.21,32.74765,-97.78477,11194.73,3449.54,0.00,0.00,0.00,WEATHERFORD REGIONAL MEDICAL CENTER
6.62,2.50,35.19934,-101.92186,13857.42,4131.00,0.83,0.82,0.25,NORTHWEST TEXAS HOSPITAL
6.71,2.15,31.33632,-94.74205,14054.69,3307.00,0.50,0.71,0.64,MEMORIAL HEALTH SYSTEM OF EAST TEXAS- LUFKIN
14.00,2.39,30.28473,-95.46714,31245.96,3882.62,0.33,0.53,0.48,CONROE REGIONAL MEDICAL CENTER
6.59,2.17,32.47171,-99.73315,13779.21,3352.50,0.67,0.86,0.39,HENDRICK MEDICAL CENTER
7.06,2.17,35.19533,-101.91907,14888.96,3364.69,0.67,0.60,0.21,BAPTIST ST ANTHONYS HEALTH SYSTEM-BAPTIST CAMPUS
9.10,3.01,29.42825,-98.49859,19696.53,5342.33,0.50,0.80,0.20,CHRISTUS SANTA ROSA HOSPITAL
9.45,2.36,30.58113,-96.29051,20524.75,3814.92,0.00,0.00,0.00,COLLEGE STATION MEDICAL CENTER
8.13,2.45,29.57653,-95.77057,17398.36,4010.18,0.50,0.75,0.14,OAKBEND MEDICAL CENTER
8.22,2.31,30.07104,-94.11927,17615.62,3689.50,0.83,0.64,0.86,MEMORIAL HERMANN BAPTIST BEAUMONT HOSPITAL
9.79,2.44,30.69934,-95.55927,21326.45,3990.27,0.00,0.00,0.00,HUNTSVILLE MEMORIAL HOSPITAL
11.83,2.62,29.71020,-95.39956,26123.18,4410.90,1.00,0.60,0.14,METHODIST HOSPITALTHE
11.67,2.52,29.50795,-98.57224,25762.62,4181.19,0.67,0.62,0.58,METHODIST HOSPITAL
10.98,2.35,32.17167,-95.84417,24127.33,3787.56,0.00,0.00,0.00,EAST TEXAS MEDICAL CENTER ATHENS
11.81,2.30,33.15951,-96.63675,26087.18,3662.00,0.67,0.65,0.03,MEDICAL CENTER OF MCKINNEY
15.11,2.53,29.76963,-94.97926,33861.09,4201.36,0.50,1.00,0.83,SAN JACINTO METHODIST HOSPITAL
8.83,2.59,30.28957,-97.72584,19053.06,4359.00,0.67,0.81,0.64,ST DAVIDS MEDICAL CENTER
6.21,2.32,32.08509,-96.50376,12890.33,3699.33,0.00,0.00,0.00,NAVARRO REGIONAL HOSPITAL
11.04,2.43,32.88076,-96.76226,24269.82,3963.65,0.67,0.66,0.03,TEXAS HEALTH PRESBYTERIAN HOSPITAL  DALLAS
7.06,2.22,33.66003,-96.59459,14879.81,3480.19,0.50,0.71,0.63,TEXAS HEALTH PRESBYTERIAN HOSPITAL-WNJ
7.35,2.65,31.32794,-94.75614,15562.85,4487.85,0.50,0.80,0.64,WOODLAND HEIGHTS MEDICAL CENTER
5.19,2.28,31.61271,-94.64926,10470.31,3626.12,0.50,0.93,0.21,MEMORIAL HOSPITAL
7.10,2.16,32.93228,-97.09436,14973.75,3336.44,0.50,0.56,0.16,BAYLOR REGIONAL MEDICAL CENTER AT GRAPEVINE
6.36,2.21,31.46574,-100.43466,13244.07,3460.59,0.50,0.72,0.80,SHANNON MEDICAL CENTER
8.19,2.17,31.67746,-98.99374,17542.50,3358.42,0.00,0.00,0.00,BROWNWOOD REGIONAL MEDICAL CENTER
7.83,2.57,29.78143,-95.54541,16694.00,4293.59,0.83,0.78,0.93,MEMORIAL HERMANN MEMORIAL CITY MEDICAL CENTER
12.98,2.35,29.54043,-95.12730,28839.24,3792.62,0.67,0.51,0.21,CLEAR LAKE REGIONAL MEDICAL CENTER
11.88,2.31,33.17345,-97.11382,26257.47,3683.65,0.83,0.72,0.54,DENTON REGIONAL MEDICAL CENTER
13.70,2.44,30.01994,-95.44379,30541.95,3989.67,0.50,0.65,0.69,HOUSTON NORTHWEST MEDICAL CENTER
9.16,2.20,32.83479,-97.12428,19844.22,3429.39,0.50,0.62,0.89,TEXAS HEALTH HARRIS METHODIST HURST-EULESS-BEDFORD
7.25,2.58,27.60672,-99.47945,15324.07,4334.00,0.50,0.86,0.03,DOCTORS HOSPITAL OF LAREDO
13.39,2.97,32.91132,-96.77424,29795.95,5249.67,0.83,0.51,0.07,MEDICAL CITY DALLAS HOSPITAL
11.36,2.28,33.02168,-96.76621,25025.86,3613.00,0.50,0.68,0.11,MEDICAL CENTER OF PLANO
8.64,2.14,31.65212,-94.65488,18610.25,3275.00,0.00,0.00,0.00,NACOGDOCHES MEDICAL CENTER
19.14,2.53,29.72272,-95.38754,43357.75,4213.42,0.50,0.75,0.76,PARK PLAZA HOSPITAL
13.26,2.79,25.97780,-97.51442,29499.89,4819.00,0.50,0.60,0.45,VALLEY REGIONAL MEDICAL CENTER
8.45,2.30,33.04634,-97.00473,18171.69,3653.23,0.00,0.00,0.00,MEDICAL CENTER OF LEWISVILLE
11.05,2.25,30.08682,-95.62403,24290.42,3534.92,0.50,0.65,0.76,TOMBALL REGIONAL MEDICAL CENTER
11.39,2.51,32.73563,-97.34483,25095.70,4164.15,0.83,0.41,0.74,PLAZA MEDICAL CENTER OF FORT WORTH
12.38,2.48,32.69299,-97.11219,27415.00,4088.64,0.50,0.60,0.32,MEDICAL CENTER OF ARLINGTON
9.60,2.26,32.67614,-97.32079,20865.71,3581.00,0.83,0.70,0.33,HUGULEY HEALTH SYSTEM
13.29,2.29,32.83517,-96.70473,29579.50,3649.50,0.00,0.00,0.00,DOCTORS HOSPITAL
4.37,2.31,32.70698,-96.27851,8545.14,3686.00,0.00,0.00,0.00,RENAISSANCE HOSPITAL TERRELL
7.74,2.52,29.99677,-95.27641,16494.21,4181.42,0.67,0.70,0.33,MEMORIAL HERMANN NORTHEAST
7.18,2.84,33.58838,-101.89214,15168.58,4942.19,0.50,0.50,0.25,UNIVERSITY MEDICAL CENTER
9.29,2.41,32.77904,-96.60113,20130.15,3922.38,1.00,0.74,0.74,DALLAS REGIONAL MEDICAL CENTER
9.10,2.89,29.35295,-98.54601,19681.83,5042.75,0.75,0.72,0.45,SOUTHWEST GENERAL HOSPITAL
12.09,2.72,26.18586,-98.22085,26742.74,4648.74,0.50,0.66,0.48,RIO GRANDE REGIONAL HOSPITAL
9.49,2.27,30.22723,-97.77447,20608.26,3586.53,0.50,0.44,0.70,ST DAVID'S SOUTH AUSTIN MEDICAL CENTER
9.34,2.43,32.64448,-96.87635,20267.19,3960.15,0.50,0.44,0.89,METHODIST CHARLTON MEDICAL CENTER
3.24,2.16,31.70411,-98.11389,5885.23,3334.00,0.00,0.00,0.00,HAMILTON GENERAL HOSPITAL
10.78,2.32,33.04405,-96.83853,23651.20,3700.53,0.50,0.75,0.11,TEXAS HEALTH PRESBYTERIAN HOSPITAL PLANO
14.83,2.46,30.05004,-95.25454,33204.77,4046.91,0.33,0.62,0.70,KINGWOOD MEDICAL CENTER
8.17,2.21,32.65818,-97.42078,17510.29,3451.93,0.50,0.61,0.82,TEXAS HEALTH HARRIS METHODIST HOSPITAL SOUTHWEST F
11.22,2.41,27.69288,-97.34476,24688.89,3917.33,0.50,0.60,0.86,CORPUS CHRISTI MEDICAL CENTERTHE
6.58,2.41,29.77683,-95.71686,13747.55,3934.18,0.00,0.00,0.00,CHRISTUS ST CATHERINE HOSPITAL
12.71,2.33,29.96603,-95.55127,28193.05,3734.50,0.50,0.78,0.94,METHODIST WILLOWBROOK HOSPITAL
9.78,2.21,30.40505,-97.74357,21300.75,3445.67,0.00,0.00,0.00,SETON  NORTHWEST HOSPITAL
6.59,2.91,26.25286,-98.20590,13773.96,5109.17,0.33,0.66,0.45,DOCTORS HOSPITAL AT RENAISSANCE
6.35,2.10,33.60310,-101.91587,13215.65,3191.00,0.00,0.00,0.00,LUBBOCK HEART HOSPITAL LP
4.13,2.35,38.40552,-78.85730,7971.39,3774.41,0.50,0.70,0.93,ROCKINGHAM MEMORIAL HOSPITAL
3.78,2.41,39.19345,-78.19599,7140.74,3934.04,0.67,0.60,0.74,WINCHESTER MEDICAL CENTER INC
5.89,2.66,36.86268,-76.30355,12133.27,4516.21,0.83,0.59,0.05,SENTARA NORFOLK GENERAL HOSPITAL
9.34,3.38,38.02573,-78.51526,20258.53,6200.95,0.33,0.35,0.25,UNIVERSITY OF VIRGINIA MEDICAL CENTER
4.03,2.35,38.09436,-78.98659,7738.95,3775.95,0.50,0.82,1.00,AUGUSTA HEALTH
3.92,2.34,37.41368,-79.16870,7492.87,3760.33,0.50,0.70,0.58,CENTRA  HEALTH INC
7.79,2.40,38.31158,-77.48061,16609.39,3898.52,0.67,0.74,0.17,MARY WASHINGTON HOSPITAL INC
5.82,2.73,38.71322,-77.80895,11953.73,4672.27,0.00,0.00,0.00,THE FAUQUIER HOSPITAL INC
5.43,2.60,37.25129,-79.94125,11033.74,4373.38,0.50,0.61,0.01,CARILION ROANOKE MEMORIAL CENTER
5.98,2.56,38.82218,-77.10533,12344.67,4268.40,0.67,0.69,0.58,INOVA ALEXANDRIA HOSPITAL
5.26,2.33,39.07405,-77.47754,10636.36,3744.14,0.50,0.84,0.80,INOVA LOUDOUN HOSPITAL
5.25,2.18,36.85098,-76.18989,10617.45,3386.36,0.50,0.65,0.76,SENTARA LEIGH HOSPITAL
7.95,2.32,37.26336,-80.03166,16980.40,3719.84,0.50,0.49,0.08,LEWISGALE MEDICAL CENTER
5.90,2.61,38.88916,-77.12796,12139.00,4394.91,1.00,0.57,0.58,VIRGINIA HOSPITAL CENTER - ARLINGTON
6.28,2.14,36.72172,-81.91249,13043.62,3288.67,0.50,0.90,0.91,JOHNSTON MEMORIAL HOSPITAL
9.18,2.13,36.86449,-76.02844,19873.00,3253.86,0.67,0.62,0.39,SENTARA VIRGINIA BEACH GENERAL HOSPITAL
5.03,2.17,37.09990,-81.79024,10091.24,3357.59,0.00,0.00,0.00,CLINCH VALLEY MEDICAL CENTER
6.24,2.73,38.85764,-77.22772,12954.87,4668.93,0.83,0.54,0.01,INOVA FAIRFAX HOSPITAL
11.88,2.38,37.18253,-77.35957,26238.73,3863.91,0.50,0.76,0.86,SOUTHSIDE REGIONAL MEDICAL CENTER
4.59,2.26,36.57812,-79.40453,9068.79,3576.43,0.50,0.61,0.70,DANVILLE REGIONAL MEDICAL CENTER
3.80,2.13,38.02176,-78.44530,7195.93,3271.93,0.50,0.75,0.89,MARTHA JEFFERSON HOSPITAL
7.16,2.21,36.69555,-79.86374,15124.79,3452.00,0.50,0.57,0.16,MEMORIAL HOSPITAL OF MARTINSVILLE & HENRY COUNTY
4.07,2.45,37.30288,-78.40196,7830.71,4015.24,0.00,0.00,0.00,SOUTHSIDE COMMUNITY HOSPITAL INC
5.68,2.20,37.05580,-76.39048,11625.40,3438.73,0.67,0.66,0.74,SENTARA CAREPLEX HOSPITAL
6.03,2.73,38.88483,-77.37995,12465.75,4681.83,0.50,0.75,0.94,INOVA FAIR OAKS HOSPITAL
11.53,2.33,37.51021,-77.59525,25412.09,3729.59,0.83,0.53,0.32,CJW MEDICAL CENTER
12.74,2.32,37.60459,-77.53929,28283.81,3722.38,0.67,0.64,0.30,HENRICO DOCTORS' HOSPITAL
7.82,2.53,47.15452,-122.50105,16665.86,4199.14,0.00,0.00,0.00,SAINT CLARE HOSPITAL
9.11,2.45,47.05286,-122.84707,19725.17,4019.25,0.50,0.41,0.11,PROVIDENCE ST PETER HOSPITAL
4.95,2.57,46.59360,-120.54741,9905.42,4301.58,0.50,0.75,0.48,YAKIMA VALLEY MEMORIAL HOSPITAL
8.51,2.45,47.58295,-122.62506,18296.44,4015.00,0.67,0.57,0.33,HARRISON MEDICAL CENTER
6.71,2.64,45.62460,-122.58145,14054.00,4461.29,0.67,0.54,0.82,PEACEHEALTH SOUTHWEST MEDICAL CENTER
5.82,2.44,46.28132,-119.28218,11953.06,3995.78,0.33,0.78,0.54,KADLEC REGIONAL MEDICAL CENTER
7.00,3.27,47.60351,-122.32305,14746.92,5941.31,0.67,0.53,0.00,HARBORVIEW MEDICAL CENTER
11.29,2.45,47.17742,-122.28943,24860.26,4022.53,0.50,0.96,0.11,MULTICARE GOOD SAMARITAN HOSPITAL
5.66,2.72,47.44243,-122.21392,11578.29,4647.79,0.50,0.55,0.48,VALLEY MEDICAL CENTER
14.91,2.60,47.24670,-122.44841,33400.24,4363.43,0.67,0.66,0.21,ST JOSEPH MEDICAL CENTER
9.93,2.73,47.25980,-122.45243,21650.81,4686.94,0.83,0.50,0.58,TACOMA GENERAL ALLENMORE HOSPITAL
8.21,2.56,47.29252,-122.32729,17605.36,4287.14,0.50,0.71,0.02,ST FRANCIS COMMUNITY HOSPITAL
9.43,2.68,47.36373,-122.61353,20471.44,4570.12,0.00,0.00,0.00,ST ANTHONY HOSPITAL
5.05,2.84,39.65498,-79.95814,10141.32,4929.81,0.83,0.31,0.05,WEST VIRGINIA UNIVERSITY HOSPITALS
3.77,2.29,38.43236,-82.40067,7139.29,3628.93,0.67,0.60,0.17,ST MARY'S MEDICAL CENTER
7.16,2.57,38.34739,-81.62600,15122.19,4297.91,0.67,0.59,0.11,CHARLESTON AREA MEDICAL CENTER
4.44,2.10,39.66383,-79.94681,8705.86,3182.43,0.50,0.78,0.98,MONONGALIA COUNTY GENERAL HOSPITAL
3.79,2.24,38.92594,-79.84673,7178.47,3524.67,0.00,0.00,0.00,DAVIS MEMORIAL HOSPITAL
3.04,2.21,39.04775,-80.49240,5416.18,3444.18,0.00,0.00,0.00,STONEWALL JACKSON MEM HOSP
5.84,2.12,39.27035,-81.56026,12013.82,3247.77,0.50,0.51,0.11,CAMDEN CLARK MEDICAL CENTER
4.03,2.25,37.79878,-81.16820,7736.11,3535.63,0.50,0.72,0.48,BECKLEY ARH HOSPITAL
3.81,2.21,37.78754,-81.20183,7225.78,3442.50,0.67,0.74,0.83,RALEIGH GENERAL HOSPITAL
6.91,2.28,43.01152,-88.24308,14529.71,3619.00,0.50,0.55,0.25,WAUKESHA MEMORIAL HOSPITAL
5.05,2.31,42.57776,-87.81939,10141.90,3686.60,0.67,0.65,0.20,UNITED HSPTL SYS
6.17,2.21,44.81192,-91.51352,12795.82,3458.65,0.25,0.55,0.70,MAYO CLINIC HEALTH SYSTEM EAU CLAIRE HOSPITAL
6.55,2.52,43.05867,-89.40269,13682.70,4177.96,0.67,0.78,0.70,ST MARY'S HOSPITAL
8.82,2.62,43.06432,-89.40100,19041.00,4417.64,0.67,0.44,0.57,MERITER HSPTL
6.23,2.50,42.73444,-87.82788,12927.13,4135.00,0.50,0.68,0.13,WHEATON FRANCISCAN HEALTHCARE- ALL SAINTS
5.69,2.31,45.07138,-87.61847,11652.55,3678.00,0.00,0.00,0.00,BAY AREA MED CTR
9.85,2.66,42.98958,-87.95079,21469.25,4517.56,0.50,0.65,0.38,AURORA ST LUKES MEDICAL CENTER
6.89,3.22,43.04008,-88.02523,14480.21,5838.16,0.67,0.36,0.11,FROEDTERT MEM LUTHERAN HSPTL
6.75,3.01,41.14037,-104.81660,14144.06,5345.17,0.50,0.70,0.33,CHEYENNE REGIONAL MEDICAL CENTER
8.48,2.24,30.56899,-97.65104,18241.32,3523.18,0.75,0.91,0.30,SETON MEDICAL CENTER WILLIAMSON
10.08,2.25,29.61578,-98.47479,22014.24,3544.97,0.50,0.76,0.33,METHODIST STONE OAK HOSPITAL
12.93,2.72,30.00719,-97.85383,28731.64,4664.21,0.75,0.89,0.43,SETON MEDICAL CENTER HAYS
9.35,3.26,32.77776,-96.56763,20294.45,5926.36,0.50,0.90,0.42,TEXAS REGIONAL MEDICAL CENTER AT SUNNYVALE
9.64,2.19,33.25607,-86.81035,20969.69,3408.69,0.83,0.70,0.64,SHELBY BAPTIST MEDICAL CENTER
5.51,2.66,32.32785,-86.27750,11238.74,4522.48,0.50,0.68,0.54,BAPTIST MEDICAL CENTER SOUTH
6.55,2.53,32.36656,-86.28572,13689.00,4204.60,0.50,0.69,0.83,JACKSON HOSPITAL & CLINIC INC
3.33,2.29,32.82377,-85.17019,6086.45,3637.36,0.00,0.00,0.00,GEORGE H. LANIER MEMORIAL HOSPITAL
4.38,2.23,32.63806,-85.40413,8562.69,3505.23,0.50,0.80,0.14,EAST ALABAMA MEDICAL CENTER AND SNF
6.42,2.66,33.50619,-86.80210,13379.87,4500.55,0.67,0.45,0.11,UNIVERSITY OF ALABAMA HOSPITAL
8.33,2.10,33.66767,-85.83420,17871.73,3186.64,0.00,0.00,0.00,STRINGFELLOW MEMORIAL HOSPITAL
9.05,2.65,34.72007,-86.58108,19585.35,4491.75,0.50,0.65,0.45,HUNTSVILLE HOSPITAL
13.90,2.11,34.00941,-85.97078,31010.93,3214.40,0.67,0.68,0.28,GADSDEN REGIONAL MEDICAL CENTER
8.91,2.21,34.00426,-86.00339,19256.71,3450.33,0.75,0.81,0.91,RIVERVIEW REGIONAL MEDICAL CENTER
7.85,2.21,34.57705,-87.01588,16752.41,3453.41,0.00,0.00,0.00,PARKWAY MEDICAL CENTER
5.33,2.33,33.50734,-86.78958,10810.36,3725.45,0.50,0.72,0.21,ST VINCENT'S BIRMINGHAM
5.72,2.15,33.65640,-85.82284,11717.04,3308.00,0.50,0.60,0.05,NORTHEAST ALABAMA REGIONAL MED CENTER
6.68,2.33,33.20521,-87.52546,13998.42,3728.69,0.67,0.66,0.21,D C H REGIONAL MEDICAL CENTER
8.17,2.30,33.49854,-86.84633,17492.38,3665.00,0.67,0.70,0.08,BAPTIST MEDICAL CENTER-PRINCETON
11.18,2.23,33.51420,-86.74859,24602.44,3509.00,0.67,0.28,0.11,TRINITY MEDICAL CENTER
2.44,2.10,32.43516,-88.32614,3984.35,3188.35,0.00,0.00,0.00,BRYAN W WHITFIELD MEM HOSP INC
6.23,2.24,30.69697,-88.08081,12925.05,3522.76,0.67,0.55,0.25,MOBILE INFIRMARY
7.31,2.56,32.43020,-87.05515,15471.58,4268.26,0.50,0.91,0.32,VAUGHAN REG MED CENTER PARKWAY CAMPUS
17.41,2.16,33.46420,-86.77409,39286.27,3332.20,0.50,0.65,0.30,BROOKWOOD MEDICAL CENTER
5.40,2.32,32.38797,-86.17576,10959.60,3719.95,0.50,0.53,0.91,BAPTIST MEDICAL CENTER EAST
8.18,2.84,33.46514,-112.05797,17533.44,4946.96,0.50,0.49,0.70,BANNER GOOD SAMARITAN MEDICAL CENTER
7.01,2.54,32.25294,-110.88135,14756.83,4221.04,0.50,0.49,0.03,TUCSON MEDICAL CENTER
9.44,2.29,32.22685,-110.85520,20488.32,3638.16,0.67,0.55,0.21,CARONDELET ST JOSEPHS HOSPITAL
9.25,2.57,34.56017,-112.48217,20046.07,4299.71,0.25,0.68,0.17,YAVAPAI REGIONAL MEDICAL CENTER
6.29,2.54,32.68274,-114.63506,13068.64,4219.64,0.50,0.64,0.70,YUMA REGIONAL MEDICAL CENTER
