size_charge,size_pay,lat,lon,state,charge,pay,AcquiredInfect,AcquiredConditions,PatientSafetySummary,name
6.24,2.25,31.21673,-85.36307,AL,24000,6000,50,51,21,Southeast Alabama Medical Center
6.13,2.16,34.80175,-87.67514,AL,23000,6000,50,65,2,Eliza Coffee Memorial Hospital
3.79,2.13,34.36605,-86.42127,AL,13000,5000,0,0,0,Marshall Medical Center North
5.14,2.32,33.59616,-86.66750,AL,19000,6000,66,78,1,St Vincent'S East
7.98,2.32,33.25607,-86.81035,AL,31000,6000,83,70,63,Shelby Baptist Medical Center
3.65,2.24,34.74649,-87.69895,AL,12000,6000,50,91,33,Helen Keller Memorial Hospital
8.09,2.67,32.32785,-86.27750,AL,32000,8000,50,67,54,Baptist Medical Center South
6.83,2.26,32.36656,-86.28572,AL,26000,6000,50,68,82,Jackson Hospital & Clinic Inc
3.79,2.31,32.63806,-85.40413,AL,13000,6000,50,80,13,East Alabama Medical Center And Snf
4.91,2.56,33.50619,-86.80210,AL,18000,7000,66,45,11,University Of Alabama Hospital
7.01,2.40,34.72007,-86.58108,AL,27000,7000,50,65,44,Huntsville Hospital
10.04,2.19,31.23767,-85.45625,AL,41000,6000,50,55,79,Flowers Hospital
4.93,2.16,33.50734,-86.78958,AL,18000,6000,50,72,21,St Vincent'S Birmingham
3.92,2.27,34.66171,-86.04665,AL,13000,6000,0,0,0,Highlands Medical Center
5.05,2.14,33.65640,-85.82284,AL,18000,5000,50,60,5,Northeast Alabama Regional Med Center
3.83,2.34,34.80351,-86.97726,AL,13000,6000,0,0,0,Athens-Limestone Hospital
8.15,2.21,30.42700,-87.68386,AL,32000,6000,50,95,24,South Baldwin Regional Medical Center
5.85,2.47,33.83218,-87.30385,AL,22000,7000,50,78,95,Walker Baptist Medical Center
5.66,2.14,30.68199,-88.19897,AL,21000,6000,83,86,0,Providence Hospital
6.04,2.33,33.20521,-87.52546,AL,23000,6000,66,66,21,D C H Regional Medical Center
4.75,2.05,30.51916,-87.88842,AL,17000,5000,50,90,17,Thomas Hospital
8.40,2.32,33.49854,-86.84633,AL,33000,6000,66,70,8,Baptist Medical Center-Princeton
12.40,2.52,33.51420,-86.74859,AL,51000,7000,66,27,11,Trinity Medical Center
7.37,2.16,32.46417,-86.45177,AL,29000,6000,0,0,0,Prattville Baptist Hospital
6.80,2.31,30.69697,-88.08081,AL,26000,6000,66,55,24,Mobile Infirmary
6.83,2.52,32.43020,-87.05515,AL,26000,7000,50,91,32,Vaughan Reg Med Center Parkway Campus
8.37,2.29,34.69279,-86.57179,AL,33000,6000,50,77,33,Crestwood Medical Center
16.75,2.16,33.46420,-86.77409,AL,70000,6000,50,65,29,Brookwood Medical Center
4.69,2.07,30.68546,-88.13170,AL,17000,5000,50,81,6,Springhill Medical Center
6.83,2.40,32.38797,-86.17576,AL,26000,7000,50,52,90,Baptist Medical Center East
6.36,2.29,33.16547,-86.25380,AL,24000,6000,0,0,0,Coosa Valley Medical Center
8.94,3.23,60.94901,-149.17033,AK,36000,10000,50,81,90,Providence Alaska Medical Center
5.68,2.60,32.25294,-110.88135,AZ,21000,8000,50,48,3,Tucson Medical Center
10.76,3.11,34.73471,-112.03149,AZ,44000,10000,50,73,82,Verde Valley Medical Center
6.20,2.34,32.22734,-111.00065,AZ,24000,6000,33,75,63,Carondelet St  Marys Hospital
7.17,2.30,32.22685,-110.85520,AZ,28000,6000,66,55,21,Carondelet St Josephs Hospital
4.82,2.65,34.56017,-112.48217,AZ,17000,8000,25,67,17,Yavapai Regional Medical Center
5.24,2.52,32.68274,-114.63506,AZ,19000,7000,50,63,69,Yuma Regional Medical Center
8.51,2.46,33.56894,-112.07108,AZ,34000,7000,50,80,16,John C Lincoln North Mountain Hospital
7.04,2.55,32.88123,-111.71067,AZ,27000,7000,50,81,11,Casa Grande Regional Medical Center
8.72,3.50,35.20923,-111.64486,AZ,35000,12000,66,78,88,Flagstaff Medical Center
12.93,2.89,33.29750,-111.87461,AZ,53000,9000,50,78,54,Chandler Regional Medical Center
6.76,2.52,33.48885,-111.92387,AZ,26000,7000,66,76,54,Scottsdale Healthcare-Osborn Medical Center
5.49,2.90,31.55116,-110.27248,AZ,20000,9000,0,0,0,Sierra Vista Regional Health Center Inc
6.29,2.75,35.22024,-114.03585,AZ,24000,8000,66,66,54,Kingman Regional Medical Center
10.64,2.35,33.60432,-112.28378,AZ,43000,6000,83,75,95,Banner Boswell Medical Center
6.76,2.90,34.20195,-110.01913,AZ,26000,9000,50,78,74,Summit Healthcare Regional Medical Center
5.10,3.18,32.24152,-110.94631,AZ,19000,10000,50,37,39,University Of Arizona Medical Ctr-Universit The
7.99,2.54,33.39097,-111.87638,AZ,31000,7000,66,80,56,Banner Desert Medical Center
5.82,3.33,32.82248,-109.73476,AZ,22000,11000,0,0,0,Mt Graham Regional Medical Center
9.79,2.46,34.47988,-114.33938,AZ,39000,7000,50,70,56,Havasu Regional Medical Center
7.68,2.33,32.32103,-111.01102,AZ,30000,6000,50,71,20,Northwest Medical Center
6.81,2.38,33.58235,-111.88527,AZ,26000,7000,66,68,63,Scottsdale Healthcare-Shea Medical Center
9.22,2.39,33.41128,-111.68916,AZ,37000,7000,50,70,63,Banner Baywood Medical Center
8.38,2.68,33.60949,-112.18129,AZ,33000,8000,66,73,76,Banner Thunderbird Medical Center
8.84,2.59,33.66596,-112.11618,AZ,35000,8000,50,73,69,John C Lincoln Deer Valley Hospital
8.58,2.33,33.65965,-112.37283,AZ,34000,6000,50,77,97,Banner Del E Webb Medical Center
5.07,2.70,33.65947,-111.95626,AZ,18000,8000,66,53,95,Mayo Clinic Hospital
9.02,2.28,33.41128,-111.68579,AZ,36000,6000,50,77,69,Banner Heart Hospital
7.71,2.20,32.42929,-110.94843,AZ,30000,6000,50,73,85,Oro Valley Hospital
4.44,2.41,34.58822,-112.33095,AZ,16000,7000,0,0,0,Yavapai Regional Medical Center-East
10.94,2.48,33.28686,-111.75246,AZ,45000,7000,50,63,63,Mercy Gilbert Medical Center
6.98,2.29,33.67102,-111.92184,AZ,27000,6000,50,88,92,Scottsdale Healthcare-Thompson Peak Hospital
5.91,2.27,36.10940,-94.16036,AR,22000,6000,33,77,74,Washington Regional Med Ctr At North Hills
5.37,2.29,34.75031,-92.33897,AR,20000,6000,66,63,82,St Vincent Infirmary Medical Center
3.91,2.27,36.31007,-94.18471,AR,13000,6000,50,67,44,Mercy Medical Center
4.82,2.77,34.74866,-92.35422,AR,17000,8000,50,51,33,Uams Medical Center
5.53,2.37,36.23579,-93.10717,AR,21000,7000,0,0,0,North Arkansas Regional Medical Center
2.98,2.36,35.83746,-90.70386,AR,9000,7000,50,75,2,St Bernards Medical Ctr
7.91,2.32,36.18082,-94.13644,AR,31000,6000,50,68,29,Nw Arkansas Hospitals Llc
6.07,2.23,34.46784,-93.06667,AR,23000,6000,66,66,85,St Josephs Mercy Health Center Inc
3.52,2.09,36.34295,-92.39442,AR,12000,5000,50,65,57,Baxter Regional Medical Center
3.52,2.20,35.08546,-92.45774,AR,12000,6000,50,72,79,Conway Regional Medical Center
4.58,2.20,34.77770,-92.12539,AR,16000,6000,50,60,13,Baptist Health Medical Center North Little Rock
4.39,2.19,35.37445,-94.41868,AR,15000,6000,50,53,85,Sparks Regional Medical Center
5.97,2.11,35.35395,-94.35262,AR,22000,5000,50,66,11,St Edward Mercy Medical Center
4.13,2.21,34.57290,-92.58508,AR,14000,6000,50,88,72,Saline Memorial Hospital
5.65,2.29,34.74866,-92.35422,AR,21000,6000,50,43,21,Baptist Health Medical Center-Little Rock
5.39,2.35,35.80838,-90.66658,AR,20000,6000,50,57,69,Nea Baptist Memorial Hospital
6.73,2.62,35.76927,-91.63408,AR,26000,8000,33,63,37,White River Medical Center
8.39,2.59,40.78366,-124.14246,CA,33000,8000,50,63,63,St Joseph Hospital
11.90,2.68,37.59283,-122.38249,CA,49000,8000,50,71,33,Peninsula Medical Center
15.65,2.83,38.32472,-122.29671,CA,65000,9000,50,72,82,Queen Of The Valley Medical Center
6.66,3.42,32.75426,-117.16592,CA,26000,11000,50,72,69,University Of California San Diego Medical Center
11.07,2.85,32.77495,-117.01467,CA,45000,9000,83,71,33,Grossmont Hospital
10.68,2.55,39.74221,-121.85000,CA,43000,7000,83,71,48,Enloe Medical Center
16.00,3.38,37.82206,-122.26275,CA,67000,11000,50,63,32,Alta Bates Summit Medical Center
12.43,3.52,37.79100,-122.43125,CA,51000,12000,83,63,11,California Pacific Medical Ctr-Pacific Campus Hosp
5.57,2.88,34.67486,-118.15771,CA,21000,9000,50,67,44,Antelope Valley Hospital Med Center
9.85,2.84,36.32737,-119.29548,CA,40000,9000,50,56,12,Kaweah Delta Medical Center
9.72,3.22,36.73000,-119.78000,CA,39000,10000,50,71,0,Community Regional Medical Center
8.25,2.61,33.78036,-117.86495,CA,33000,8000,50,60,88,St Joseph Hospital
16.04,2.94,37.96987,-121.28873,CA,67000,9000,83,68,97,St Josephs Med Center Of Stockton
7.58,3.00,38.28820,-122.46533,CA,30000,9000,0,0,0,Sonoma Valley Hospital
9.53,2.64,36.83532,-119.76562,CA,38000,8000,50,66,57,Saint Agnes Medical Center
8.74,2.45,34.10130,-117.63651,CA,35000,7000,50,66,85,San Antonio Community Hospital
10.84,2.73,32.79949,-117.15394,CA,44000,8000,66,62,11,Sharp Memorial Hospital
10.97,2.97,38.57155,-121.46874,CA,45000,9000,83,77,79,Sutter General Hospital
12.77,2.85,34.02685,-118.48651,CA,53000,9000,50,76,21,Santa Monica - Ucla Med Ctr & Orthopaedic Hospital
9.20,2.47,33.12535,-117.07336,CA,37000,7000,50,55,69,Palomar Medical Center
15.50,2.86,34.22014,-118.53410,CA,65000,9000,33,56,44,Northridge Hospital Medical Center
6.82,2.78,33.18402,-117.29661,CA,26000,8000,50,57,21,Tri-City Medical Center
13.39,2.88,38.25455,-122.63177,CA,55000,9000,0,0,0,Petaluma Valley Hospital
11.61,3.00,36.57886,-121.91316,CA,48000,9000,66,56,57,Community Hospital Of The Monterey Peninsula
7.85,2.53,39.22809,-121.04721,CA,31000,7000,0,0,0,Sierra Nevada Memorial Hospital
8.94,2.49,33.89465,-117.92716,CA,36000,7000,66,71,90,St Jude Medical Center
13.54,2.96,38.44369,-122.70138,CA,56000,9000,66,86,57,Santa Rosa Memorial Hospital
13.30,2.72,37.51164,-120.83800,CA,55000,8000,33,86,16,Emanuel Medical Center Inc
19.15,2.94,37.91341,-122.04163,CA,81000,9000,50,62,33,John Muir Medical Center - Walnut Creek Campus
18.38,3.22,37.55717,-121.98126,CA,78000,10000,50,53,88,Washington Hospital
6.47,2.52,33.62229,-117.92995,CA,25000,7000,50,70,51,Hoag Memorial Hospital Presbyterian
21.22,2.52,39.75720,-121.57018,CA,90000,7000,50,65,57,Feather River Hospital
12.59,4.37,37.75676,-122.40461,CA,52000,15000,75,51,12,San Francisco General Hospital
9.48,2.73,34.13973,-118.03534,CA,38000,8000,50,45,10,Methodist Hospital Of Southern Ca
14.07,3.01,36.98999,-121.98357,CA,58000,9000,50,63,63,Dominican Hospital
18.00,2.76,33.83862,-116.54557,CA,76000,8000,66,81,2,Desert Regional Medical Center
9.45,2.85,40.58654,-122.39168,CA,38000,9000,83,71,44,Mercy Medical Center Redding
10.55,2.72,34.50107,-117.17285,CA,43000,8000,50,87,20,St Mary Medical Center
7.22,2.73,39.15350,-123.20435,CA,28000,8000,0,0,0,Ukiah Valley Medical Center/Hospital D
13.17,2.82,37.36934,-122.08047,CA,54000,9000,66,48,6,El Camino Hospital
8.73,2.72,38.76514,-121.24979,CA,35000,8000,66,77,16,Sutter Roseville Medical Center
11.19,2.98,32.88461,-117.22244,CA,46000,9000,50,63,29,Scripps Memorial Hospital La Jolla
23.89,2.63,38.12186,-121.28665,CA,102000,8000,100,70,94,Lodi Memorial Hospital
9.71,2.43,33.81131,-118.34364,CA,39000,7000,66,67,88,Torrance Memorial Medical Center
9.37,2.52,33.83891,-118.35677,CA,38000,7000,50,86,94,Providence Little Company Of Mary Med Ctr Torrance
17.25,3.12,37.94748,-122.53677,CA,73000,10000,50,63,16,Marin General Hospital
30.00,3.46,38.26174,-122.04662,CA,129000,11000,50,68,29,Northbay Medical Center
12.80,2.54,34.27459,-119.25812,CA,53000,7000,50,53,8,Community Memorial Hospital San Buenaventura
8.16,2.66,34.42951,-119.72333,CA,32000,8000,66,72,32,Santa Barbara Cottage Hospital
5.42,2.56,32.89810,-117.24217,CA,20000,7000,50,75,37,Scripps Green Hospital
12.26,2.73,34.13364,-118.15275,CA,50000,8000,66,65,57,Huntington Memorial Hospital
18.97,3.96,37.43436,-122.18013,CA,80000,14000,50,58,27,Stanford Hospital
10.65,2.97,37.34027,-120.46817,CA,43000,9000,50,77,37,Mercy Medical Center
8.11,2.95,35.64086,-117.67119,CA,32000,9000,0,0,0,Ridgecrest Regional Hospital
11.47,3.98,37.76421,-122.45716,CA,47000,14000,66,52,90,Ucsf Medical Center
24.54,3.02,37.66540,-120.99743,CA,105000,9000,66,66,9,Doctors Medical Center
24.65,3.11,34.20285,-118.62962,CA,105000,10000,50,61,13,West Hills Hospital & Medical Center
10.20,2.93,33.80861,-118.18661,CA,41000,9000,66,65,27,Long Beach Memorial Medical Center
21.20,2.90,37.98396,-122.03464,CA,90000,9000,50,76,97,John Muir Medical Center - Concord Campus
8.09,2.57,38.94514,-121.10174,CA,32000,7000,50,92,48,Sutter Auburn Faith Hospital
10.27,2.65,33.03634,-117.28487,CA,42000,8000,50,65,5,Scripps Memorial Hospital - Encinitas
10.31,3.19,38.66956,-121.31378,CA,42000,10000,66,66,29,Mercy San Juan Medical Center
12.35,2.72,34.20777,-118.88305,CA,51000,8000,50,51,69,Los Robles Hospital & Medical Center
12.81,2.66,37.66867,-120.97339,CA,53000,8000,66,80,54,Memorial  Medical Center
14.58,2.84,33.56100,-117.66530,CA,61000,9000,66,58,12,Mission Hospital Regional Med Center
16.82,2.46,33.76335,-116.40628,CA,71000,7000,50,56,39,Eisenhower Medical Center
13.27,3.67,38.55484,-121.45628,CA,55000,12000,50,50,3,University Of California Davis Medical Center
12.30,2.43,33.60883,-117.70881,CA,51000,7000,50,70,90,Saddleback Memorial Medical Center
11.41,2.80,34.24359,-119.01992,CA,47000,8000,50,73,69,St Johns Pleasant Valley Hospital
20.47,3.22,34.07664,-118.37955,CA,87000,10000,100,58,48,Cedars-Sinai Medical Center
15.85,3.12,35.55536,-120.72067,CA,66000,10000,0,0,0,Twin Cities Community Hospital
7.36,2.61,33.55876,-117.18329,CA,29000,8000,66,73,74,Southwest Healthcare System
19.35,2.79,34.17067,-118.53200,CA,82000,8000,50,57,63,Providence Tarzana Medical Center
6.01,2.49,40.41481,-104.70890,CO,23000,7000,50,73,57,North Colorado Medical Center
7.64,2.33,40.18134,-105.12769,CO,30000,6000,50,71,76,Longmont United Hospital
3.84,2.36,38.48040,-107.86857,CO,13000,6000,0,0,0,Montrose Memorial Hospital
4.10,2.54,37.47150,-105.88350,CO,14000,7000,0,0,0,San Luis Valley Regional Medical Center
6.54,2.33,39.76893,-105.09006,CO,25000,6000,50,47,79,Exempla Lutheran Medical Center
6.03,2.39,40.57315,-105.05741,CO,23000,7000,50,68,95,Poudre Valley Hospital
9.73,2.42,38.23421,-104.62292,CO,39000,7000,50,53,29,Centura Health-St Mary Corwin Medical Center
6.31,2.69,37.23629,-107.82578,CO,24000,8000,0,0,0,Mercy Regional Medical Center
6.22,2.57,38.45565,-105.23021,CO,24000,7000,0,0,0,Centura Health-St Thomas More Hospital
7.34,2.37,38.28184,-104.61256,CO,29000,7000,66,68,29,Parkview Medical Center Inc
6.44,2.37,38.83903,-104.80024,CO,25000,7000,66,68,33,Memorial Hospital Central
6.25,2.47,39.09046,-108.56190,CO,24000,7000,50,48,57,St Marys Hospital And Medical Center
6.65,3.17,39.74234,-104.84156,CO,25000,10000,66,66,69,University Of Colorado Hospital Anschutz Inpatient
8.47,2.25,40.02615,-105.28391,CO,34000,6000,50,91,82,Boulder Community Hospital
4.31,2.24,40.41320,-105.05139,CO,15000,6000,50,92,69,Mckee Medical Center
6.58,2.26,38.86559,-104.82182,CO,25000,6000,50,70,37,Centura Health-Penrose St Francis Health Services
8.55,2.49,39.73231,-104.93396,CO,34000,7000,75,50,32,Rose Medical Center
7.91,2.44,39.65399,-104.98116,CO,31000,7000,33,47,17,Swedish Medical Center
9.99,2.50,39.67005,-104.97490,CO,40000,7000,50,75,79,Centura Health-Porter Adventist Hospital
4.23,2.29,38.74540,-108.04700,CO,15000,6000,0,0,0,Delta County Memorial Hospital
8.76,2.62,39.68859,-104.83205,CO,35000,8000,50,61,13,Medical Center Of Aurora The
8.43,2.46,39.84960,-105.01825,CO,33000,7000,50,61,48,Centura Health-St Anthony North Hospital
8.02,2.26,39.52910,-104.87121,CO,32000,6000,50,76,79,Sky Ridge Medical Center
8.10,2.47,39.57629,-104.98610,CO,32000,7000,50,78,54,Centura Health-Littleton Adventist Hospital
8.96,2.88,41.30978,-72.93806,CT,36000,9000,66,57,8,Hospital Of St Raphael
7.76,2.90,41.77507,-72.69941,CT,30000,9000,50,53,85,St Francis Hospital & Medical Center
7.82,2.71,41.55959,-73.05941,CT,31000,8000,33,57,69,Waterbury Hospital
7.30,2.78,41.05562,-73.55390,CT,28000,8000,50,52,10,Stamford Hospital
3.25,2.52,41.79153,-73.13382,CT,10000,7000,25,78,54,Charlotte Hungerford Hospital
3.96,3.04,41.55241,-73.03554,CT,14000,10000,50,56,39,Saint Marys Hospital
6.25,2.50,41.54874,-72.80148,CT,24000,7000,50,60,79,Midstate Medical Center
7.36,2.55,41.03431,-73.63020,CT,29000,7000,50,48,63,Greenwich Hospital Association
6.73,2.55,41.55473,-72.64872,CT,26000,7000,33,61,92,Middlesex Hospital
4.47,2.93,41.71622,-72.22399,CT,16000,9000,0,0,0,Windham Comm Mem Hosp & Hatch Hosp
7.91,3.30,41.30400,-72.93502,CT,31000,11000,66,41,3,Yale-New Haven Hospital
5.61,2.61,41.54301,-72.08799,CT,21000,8000,50,70,44,William W Backus Hospital
6.70,3.12,41.75412,-72.67927,CT,26000,10000,50,47,9,Hartford Hospital
5.46,2.48,41.78185,-72.52591,CT,20000,7000,50,68,1,Manchester Memorial Hospital
6.46,2.78,41.20049,-73.20281,CT,25000,8000,66,78,63,St Vincent'S Medical Center
5.32,2.95,41.40474,-73.44739,CT,20000,9000,50,66,57,Danbury Hospital
7.65,2.96,41.11147,-73.42010,CT,30000,9000,50,72,92,Norwalk Hospital Association
7.41,2.84,41.66107,-72.78671,CT,29000,9000,50,52,8,Hospital Of Central Connecticut The
5.37,2.73,39.69005,-75.68408,DE,20000,8000,66,58,39,Christiana Care Health Services Inc.
4.72,2.60,39.15135,-75.52309,DE,17000,8000,50,58,90,Bayhealth - Kent General Hospital
6.03,2.44,38.77159,-75.14210,DE,23000,7000,50,90,81,Beebe Medical Center
7.81,2.98,38.90106,-77.05079,DC,31000,9000,50,50,13,George Washington Univ Hospital
8.81,3.99,38.91770,-77.02193,DC,35000,14000,50,66,0,Howard University Hospital
6.85,3.23,38.91221,-77.07588,DC,26000,10000,66,65,0,Georgetown University Hospital
5.14,2.27,38.93576,-77.10909,DC,19000,6000,50,76,97,Sibley Memorial Hospital
6.17,2.94,38.94397,-76.99040,DC,23000,9000,50,57,24,Providence Hospital
7.54,3.07,38.92944,-77.01473,DC,29000,10000,33,58,1,Washington Hospital Center
8.42,3.14,30.34913,-81.66391,FL,33000,10000,50,62,0,Shands Jacksonville Medical Center
8.30,2.43,26.50479,-80.06979,FL,33000,7000,50,53,99,Bethesda Memorial Hospital
10.34,2.50,28.52517,-81.37729,FL,42000,7000,66,47,29,Orlando Health
9.06,2.60,28.57345,-81.36990,FL,36000,8000,83,66,24,Florida Hospital
12.47,2.61,25.68309,-80.34038,FL,51000,8000,50,62,85,Baptist Hospital Of Miami Inc
10.22,2.69,25.78846,-80.21644,FL,41000,8000,83,56,0,University Of Miami Hospital
6.51,2.32,26.62849,-81.87423,FL,25000,6000,66,52,16,Lee Memorial Hospital
5.09,2.11,29.01347,-80.94096,FL,19000,5000,50,68,9,Bert Fish Medical Center
5.72,2.36,29.20117,-81.05828,FL,21000,7000,66,76,79,Halifax Health Medical Center
6.07,2.35,26.15053,-81.79919,FL,23000,6000,66,62,39,Naples Community Hospital
6.52,2.28,28.08771,-80.61362,FL,25000,6000,66,58,17,Holmes Regional Medical Center
6.20,2.19,28.83363,-82.33561,FL,24000,6000,50,55,44,Citrus Memorial Hospital
5.14,2.74,30.47650,-87.21219,FL,19000,8000,50,41,39,Sacred Heart Hospital
13.35,2.68,25.86166,-80.21398,FL,55000,8000,50,83,69,North Shore Medical Center
8.70,2.59,27.76332,-82.64325,FL,35000,8000,50,82,20,Bayfront Medical Center Inc
13.13,2.76,25.81317,-80.13996,FL,54000,8000,66,47,24,Mount Sinai Medical Center
6.99,2.36,27.49789,-82.56220,FL,27000,6000,50,55,29,Manatee Memorial Hospital
12.29,2.55,26.01867,-80.17981,FL,51000,7000,83,63,76,Memorial Regional Hospital
6.62,2.27,30.30835,-81.68919,FL,25000,6000,50,68,82,St Vincent'S Medical Center
7.58,2.24,27.19837,-80.24306,FL,30000,6000,66,70,57,Martin Memorial Medical Center
8.40,2.21,28.26092,-82.18802,FL,33000,6000,50,62,88,Florida Hospital Zephyrhills
8.53,2.25,26.94042,-82.04094,FL,34000,6000,50,72,85,Charlotte Regional Medical Center
10.55,2.35,28.55140,-81.72120,FL,43000,6000,0,0,0,South Lake Hospital
7.41,2.37,28.02768,-81.72466,FL,29000,7000,50,62,2,Winter Haven Hospital
6.75,2.45,28.82358,-81.71133,FL,26000,7000,50,71,48,Florida Hospital Waterman
6.57,2.19,29.17594,-82.13898,FL,25000,6000,50,60,94,Munroe Regional Medical Center
6.14,2.10,27.78088,-82.65126,FL,23000,5000,50,68,57,St Anthony'S Hospital
4.72,2.21,29.24333,-81.10760,FL,17000,6000,50,67,95,Florida Hospital Memorial Medical Center
6.49,2.16,27.09043,-82.44499,FL,25000,6000,50,76,48,Venice Regional Medical Center
12.56,2.34,28.53906,-82.44193,FL,52000,6000,50,75,57,Brooksville Regional Hospital
8.10,2.40,26.18711,-80.11941,FL,32000,7000,83,57,37,Holy Cross Hospital Inc
7.59,2.45,27.98242,-82.49025,FL,30000,7000,66,60,29,St Joseph'S Hospital
8.29,2.29,26.98905,-82.09559,FL,33000,6000,50,68,43,Peace River Regional Medical Center
11.91,2.41,26.59805,-80.09271,FL,49000,7000,100,60,27,Jfk Medical Center
5.79,2.29,28.80659,-81.86906,FL,22000,6000,33,67,24,Leesburg Regional Medical Center
5.82,2.32,27.31827,-82.53140,FL,22000,6000,33,37,69,Sarasota Memorial Hospital
8.27,2.37,30.31525,-81.66398,FL,33000,7000,66,47,12,Baptist Medical Center
8.38,2.72,29.86371,-81.31749,FL,33000,8000,66,76,29,Flagler Hospital
6.09,2.25,28.33522,-80.72319,FL,23000,6000,50,63,97,Wuesthoff Medical Center  Rockledge
6.69,2.26,30.43066,-87.23191,FL,26000,6000,50,72,17,Baptist Hospital
4.66,2.33,27.65832,-80.39307,FL,17000,6000,66,76,99,Indian River Medical Center
8.36,2.58,27.50001,-81.43962,FL,33000,7000,50,61,85,Florida Hospital Heartland Medical Center
12.46,2.42,28.29946,-81.41021,FL,51000,7000,50,63,51,Osceola Regional Medical Center
6.70,3.30,29.64155,-82.34844,FL,26000,11000,66,53,29,Shands Hospital At The University Of Florida
6.91,2.15,30.27449,-81.40071,FL,27000,6000,66,93,69,Baptist Medical Center  Beaches
12.35,2.74,25.47971,-80.43038,FL,51000,8000,50,86,69,Homestead Hospital
5.76,2.19,27.95192,-82.80379,FL,22000,6000,66,62,9,Morton Plant Hospital
11.57,2.93,27.93740,-82.45927,FL,47000,9000,66,66,0,Tampa General Hospital
11.51,2.36,25.96994,-80.14533,FL,47000,6000,50,63,79,Aventura Hospital And Medical Center
7.76,2.31,28.01563,-82.13900,FL,30000,6000,50,92,57,South Florida Baptist Hospital
7.62,2.42,30.45726,-84.26175,FL,30000,7000,66,57,63,Tallahassee Memorial Healthcare
6.75,2.23,30.65118,-81.44923,FL,26000,6000,0,0,0,Baptist Medical Center - Nassau
3.98,2.66,30.26389,-81.44283,FL,14000,8000,83,62,90,Mayo Clinic
10.29,2.36,25.70328,-80.29391,FL,42000,6000,50,65,69,South Miami Hospital Inc
6.88,2.54,30.18340,-82.68783,FL,27000,7000,0,0,0,Lake City Medical Center
6.84,2.26,28.06172,-81.95304,FL,26000,6000,50,52,3,Lakeland Regional Medical Center
6.47,2.25,26.35875,-80.10203,FL,25000,6000,66,46,43,Boca Raton Regional Hospital
10.17,3.31,28.07111,-82.42342,FL,41000,11000,50,68,37,Florida Hospital Tampa
9.33,2.27,26.83035,-80.08655,FL,37000,6000,100,56,37,Palm Beach Gardens Medical Center
11.81,2.44,30.28793,-81.60103,FL,48000,7000,33,48,24,Memorial Hospital Jacksonville
13.17,2.22,28.19342,-82.46987,FL,54000,6000,50,77,43,Medical Center Of Trinity
12.68,2.31,29.66085,-82.41172,FL,52000,6000,33,52,17,North Florida Regional Medical Center
9.93,2.22,29.17550,-82.13680,FL,40000,6000,83,55,85,Ocala Regional Medical Center
9.21,2.18,27.48213,-82.62126,FL,37000,6000,50,75,69,Blake Medical Center
7.43,2.39,26.52735,-81.83337,FL,29000,7000,50,58,63,Gulf Coast Medical Center Lee Mem Health System
12.66,2.36,30.45448,-86.63362,FL,52000,6000,50,72,63,Fort Walton Beach Medical Center
13.38,2.24,30.16550,-81.73775,FL,55000,6000,33,68,57,Orange Park Medical Center
9.11,2.25,30.51624,-87.21856,FL,36000,6000,50,65,4,West Florida Hospital
6.36,3.39,29.64481,-81.69431,FL,24000,11000,50,78,48,Putnam Community Medical Center
12.27,2.14,26.98884,-82.09877,FL,50000,6000,50,80,57,Fawcett Memorial Hospital
14.13,2.40,27.93259,-82.28759,FL,59000,7000,66,67,21,Brandon Regional Hospital
5.70,2.18,26.63958,-81.94164,FL,21000,6000,50,52,21,Cape Coral Hospital
11.66,2.25,27.91458,-82.80382,FL,48000,6000,50,48,24,Largo Medical Center
9.18,2.24,26.92138,-80.09708,FL,37000,6000,50,61,54,Jupiter Medical Center
13.29,2.14,28.36128,-82.68883,FL,55000,6000,66,67,90,Regional Medical Center Bayonet Point
9.13,2.21,26.43709,-80.12728,FL,37000,6000,83,72,92,Delray Medical Center
10.57,2.44,27.28861,-80.29431,FL,43000,7000,50,65,54,St Lucie Medical Center
14.33,2.15,28.53585,-82.53404,FL,60000,6000,66,71,57,Oak Hill Hospital
6.73,2.16,28.03957,-82.70875,FL,26000,6000,66,66,54,Mease Countryside Hospital
7.97,2.35,26.35614,-80.19956,FL,31000,6000,50,80,82,West Boca Medical Center
7.84,2.51,26.65230,-80.20504,FL,31000,7000,50,73,33,Wellington Regional Medical Center
9.22,2.14,26.01394,-80.30980,FL,37000,6000,66,71,63,Memorial Hospital West
9.23,2.18,26.21388,-81.73257,FL,37000,6000,33,80,33,Physicians Regional Medical Center - Pine Ridge
8.79,2.42,26.70181,-80.05055,FL,35000,7000,50,58,63,Good Samaritan Medical Center
5.66,2.17,28.94952,-81.95843,FL,21000,6000,33,80,94,Villages Regional Hospital The
6.03,2.12,27.38993,-82.43343,FL,23000,5000,0,0,0,Lakewood Ranch Medical Center
5.89,2.33,34.78963,-84.98398,GA,22000,6000,50,76,10,Hamilton Medical Center
4.50,2.38,32.88710,-84.33393,GA,16000,7000,0,0,0,Upson Regional Medical Center
5.67,2.18,31.22516,-82.34898,GA,21000,6000,50,93,33,Satilla Regional Medical Center
7.48,2.38,34.17863,-84.13992,GA,29000,7000,66,63,46,Northside Hospital Forsyth
5.84,2.47,31.59023,-84.15756,GA,22000,7000,50,53,11,Phoebe Putney Memorial Hospital
4.73,2.62,33.79230,-84.32107,GA,17000,8000,50,41,8,Emory University Hospital
5.22,2.31,33.56970,-85.07276,GA,19000,6000,25,78,90,Tanner Medical Center - Carrollton
4.52,2.34,33.03204,-85.05781,GA,16000,6000,50,78,95,West Georgia Medical Center
5.51,2.40,32.02825,-81.09977,GA,20000,7000,83,81,1,Candler Hospital
7.04,2.79,31.17425,-81.48459,GA,27000,8000,50,61,17,Southeast Georgia Health System- Brunswick Campus
5.76,2.34,33.47096,-81.98176,GA,22000,6000,50,51,21,University Hospital
7.44,2.36,34.30335,-83.81737,GA,29000,6000,66,58,44,Northeast Georgia Medical Center Inc
8.14,2.33,33.23886,-84.26706,GA,32000,6000,33,78,69,Spalding Regional Medical Center
6.56,2.24,34.59332,-83.34788,GA,25000,6000,0,0,0,Stephens County Hospital
4.73,3.13,33.47091,-81.98988,GA,17000,10000,66,45,37,Medical College Of Ga Hospitals And Clinics
6.58,2.33,33.96770,-84.55011,GA,25000,6000,66,62,44,Wellstar Kennestone Hospital
5.02,2.60,32.03185,-81.09158,GA,18000,8000,66,61,24,Memorial Health Univ Med Cen Inc
5.49,2.24,30.82614,-83.97393,GA,20000,6000,50,75,48,John D Archbold Memorial Hospital
6.48,2.17,31.98515,-81.15475,GA,25000,6000,66,72,33,St Joseph'S Hospital - Savannah
3.72,2.26,34.88620,-83.96241,GA,13000,6000,0,0,0,Union General Hospital
7.60,2.60,34.26000,-85.17000,GA,30000,8000,50,67,88,Floyd Medical Center
5.14,2.69,32.46602,-84.98695,GA,19000,8000,33,86,63,Medical Center The
5.85,2.29,32.61642,-83.63065,GA,22000,6000,50,73,74,Houston Medical Center
5.71,2.39,33.96117,-83.39832,GA,21000,7000,50,68,92,Athens Regional Medical Center
5.07,2.52,33.78956,-84.28077,GA,19000,7000,50,83,11,Dekalb Medical Center
5.77,2.54,33.76810,-84.38616,GA,22000,7000,33,45,9,Emory University Hospital Midtown
5.99,3.10,33.75205,-84.38272,GA,23000,10000,33,56,0,Grady Memorial Hospital
5.43,2.19,33.90877,-84.35180,GA,20000,6000,50,55,3,Saint Joseph'S Hospital Of Atlanta Inc
5.81,2.23,33.81003,-84.39568,GA,22000,6000,33,57,44,Piedmont Hospital
5.46,2.39,33.96351,-84.01769,GA,20000,7000,50,90,44,Gwinnett Medical Center
6.57,2.54,33.68072,-84.00200,GA,25000,7000,50,56,33,Rockdale Medical Center
7.04,2.35,31.47069,-83.50473,GA,27000,6000,16,80,32,Tift Regional Medical Center
4.19,2.17,31.97683,-83.78280,GA,15000,6000,0,0,0,Crisp Regional Hospital
7.44,2.53,32.83041,-83.63476,GA,29000,7000,66,48,44,Medical Center Of Central Georgia
6.03,2.32,30.86250,-83.28630,GA,23000,6000,66,67,74,South Georgia Medical Center
6.94,2.53,32.54026,-82.95741,GA,27000,7000,0,0,0,Fairview Park Hospital
4.18,2.24,32.50679,-84.95933,GA,15000,6000,83,67,69,St Francis Hospital Inc
6.78,2.60,33.85638,-84.60446,GA,26000,8000,50,56,33,Wellstar Cobb Hospital
8.12,2.38,33.08014,-83.23210,GA,32000,7000,50,88,4,Oconee Regional Medical Center
6.98,2.34,32.84705,-83.61823,GA,27000,6000,66,62,9,Coliseum Medical Center
7.41,2.55,33.57843,-84.38897,GA,29000,7000,50,78,24,Southern Regional Medical Center
6.92,2.34,34.25704,-85.16467,GA,27000,6000,50,87,24,Redmond Regional Medical Center
4.78,2.35,33.51144,-84.22200,GA,17000,6000,50,91,92,Henry Medical Center Inc
15.48,2.45,34.06334,-84.31976,GA,65000,7000,75,70,74,North Fulton Regional Hospital
6.74,2.24,32.86625,-83.69421,GA,26000,6000,0,0,0,Coliseum Northside Hospital
6.42,2.25,33.45252,-84.50697,GA,24000,6000,50,60,33,Piedmont Fayette Hospital
17.19,2.70,33.68000,-84.42685,GA,72000,8000,50,85,28,South Fulton Medical Center
5.17,3.38,21.30780,-157.85505,HI,19000,11000,66,68,44,The Queens Medical Center
3.78,2.27,42.59072,-114.49627,ID,13000,6000,50,63,29,St Lukes Magic Valley Rmc
4.10,2.35,43.61218,-116.19234,ID,14000,6000,66,61,16,St Lukes Regional Medical Center
4.34,2.25,43.61359,-116.25484,ID,15000,6000,66,78,24,St Alphonsus Regional Medical Center
4.89,2.33,43.65510,-116.69360,ID,18000,6000,0,0,0,West Valley Medical Center
4.82,2.34,43.46987,-111.99208,ID,17000,6000,66,66,57,Eastern Idaho Regional Medical Center
4.11,2.78,42.87331,-112.42180,ID,14000,8000,33,76,39,Portneuf Medical Center
4.06,2.39,47.69645,-116.79476,ID,14000,7000,50,71,48,Kootenai Medical Center
10.43,2.40,41.52896,-88.13550,IL,42000,7000,50,75,82,Provena St Joseph Medical Center
6.40,2.71,42.06550,-87.68428,IL,24000,8000,33,55,57,Evanston Hospital
4.77,2.25,37.80207,-89.02660,IL,17000,6000,0,0,0,Herrin Hospital
6.95,2.57,39.93563,-91.39833,IL,27000,7000,50,55,92,Blessing Hospital
7.83,3.36,41.86011,-87.69571,IL,31000,11000,33,66,0,Mt Sinai Hospital Medical Center
10.17,2.43,41.72930,-88.26976,IL,41000,7000,50,90,63,Copley Memorial Hospital
9.04,2.55,42.07012,-88.33180,IL,36000,7000,50,82,24,Sherman Hospital
4.07,2.18,39.12680,-88.55059,IL,14000,6000,0,0,0,St Anthonys Memorial Hospital
8.13,2.30,41.80160,-89.69714,IL,32000,6000,0,0,0,Cgh Medical Center
4.76,2.17,38.32292,-88.91026,IL,17000,6000,50,81,90,Good Samaritan Regional Hlth Center
6.44,2.50,41.72636,-87.56727,IL,25000,7000,50,65,74,Advocate Trinity Hospital
6.81,2.77,41.89141,-87.77618,IL,26000,8000,50,72,92,West Suburban Medical Center
8.50,2.67,42.05624,-87.74012,IL,34000,8000,50,75,85,Skokie Hospital
5.03,2.42,39.80726,-89.64496,IL,18000,7000,50,58,79,St Johns Hospital
6.83,2.63,41.83195,-87.79266,IL,26000,8000,50,78,57,Macneal  Hospital
8.58,2.38,41.66900,-87.81414,IL,34000,7000,50,72,95,Palos Community Hospital
7.07,2.70,40.98818,-90.36374,IL,27000,8000,0,0,0,St Mary Medical Center
7.39,2.47,41.79660,-87.88627,IL,29000,7000,83,63,37,Adventist La Grange Memorial Hospital
7.75,2.75,40.70200,-89.59222,IL,30000,8000,66,57,3,Saint Francis Medical Center
8.71,2.85,42.02578,-87.68371,IL,35000,9000,50,75,37,Rhc St Francis Hospital
11.24,2.52,42.37840,-87.83329,IL,46000,7000,50,73,62,Vista Medical Center East
7.81,3.44,41.78829,-87.60485,IL,31000,11000,66,66,11,The University Of Chicago Medical Center
9.32,2.91,40.11696,-88.21506,IL,37000,9000,33,63,13,Carle Foundation Hospital
9.37,2.29,40.13811,-87.64569,IL,38000,6000,0,0,0,Provena United Samaritans Medctr-Logan
7.75,2.66,41.36897,-88.42537,IL,30000,8000,0,0,0,Morris Hospital & Healthcare Centers
6.62,2.40,40.11739,-88.22714,IL,25000,7000,50,62,21,Provena Covenant Medical Center- Urbana
10.36,2.79,41.97532,-87.69958,IL,42000,8000,50,85,51,Swedish Covenant Hospital
8.56,2.27,42.31832,-88.27920,IL,34000,6000,50,83,24,Centegra Health System - Mc Henry Hospital
8.26,2.60,41.98743,-87.81440,IL,33000,8000,66,62,69,Resurrection Medical Center
6.87,2.81,41.65880,-87.67729,IL,26000,8000,50,65,94,Metrosouth Medical Center
7.87,3.21,41.87497,-87.66927,IL,31000,10000,50,42,33,Rush University Medical Center
7.42,2.23,40.56211,-89.63314,IL,29000,6000,0,0,0,Pekin Memorial Hospital
7.30,2.40,41.80555,-87.92059,IL,28000,7000,50,67,54,Hinsdale Hospital
4.81,3.64,41.87381,-87.67421,IL,17000,12000,83,55,16,John H Stroger Jr Hospital
5.24,2.37,40.49639,-88.99106,IL,19000,7000,0,0,0,Bromenn Healthcare
7.12,2.26,42.25244,-87.86528,IL,28000,6000,25,90,21,Lake Forest Hospital
6.67,2.77,41.76946,-87.69239,IL,26000,8000,50,82,94,Holy Cross Hospital
5.49,2.29,39.86644,-88.96090,IL,20000,6000,50,60,69,Decatur Memorial Hospital
5.10,2.46,39.80893,-89.65530,IL,19000,7000,83,57,11,Memorial Medical Center
6.79,3.68,41.86927,-87.67052,IL,26000,12000,50,76,29,University Of Illinois Hospital
4.49,3.10,41.84639,-87.62345,IL,16000,10000,25,46,39,Mercy Hospital And Medical Center
4.44,2.23,37.72790,-89.22058,IL,16000,6000,50,63,90,Memorial Hospital Of Carbondale
7.67,2.77,41.52283,-87.71111,IL,30000,8000,50,75,33,Franciscan St James Health
8.63,2.46,41.78566,-88.32886,IL,34000,7000,50,72,48,Provena Mercy Medical Center
8.07,2.57,42.27597,-88.40019,IL,32000,7000,50,71,56,Centegra Health System - Woodstock Hospital
7.83,2.36,41.72094,-87.69220,IL,31000,6000,16,63,69,Little Company Of Mary Hospital
9.91,3.41,41.90414,-87.68254,IL,40000,11000,75,50,54,St Mary & Elizabeth Med Ctr-Division Campus
7.41,3.38,41.93641,-87.65295,IL,29000,11000,50,77,85,Advocate Illinois Masonic Medical Center
7.19,2.38,38.55020,-90.02146,IL,28000,7000,66,81,21,Memorial Hospital
6.73,2.51,41.12572,-87.88526,IL,26000,7000,50,72,81,Riverside Medical Center
4.89,2.25,39.48849,-88.27581,IL,18000,6000,0,0,0,Sarah Bush Lincoln Health Center
6.57,2.40,41.60726,-87.66060,IL,25000,7000,50,65,76,Ingalls Memorial Hospital
8.80,2.29,41.86362,-87.93567,IL,35000,6000,50,76,92,Elmhurst Memorial Hospital
10.80,2.41,42.27447,-87.95764,IL,44000,7000,50,70,79,Advocate Condell Medical Center
7.50,2.87,41.72031,-87.73249,IL,29000,9000,50,57,74,Advocate Christ Hospital & Medical Center
6.90,2.45,40.70065,-89.59505,IL,27000,7000,50,78,48,Methodist Medical Center Of Illinois
9.26,2.29,41.88566,-88.34311,IL,37000,6000,50,81,4,Delnor Community Hospital
6.90,2.38,41.54446,-87.98379,IL,27000,7000,50,68,88,Silver Cross Hospital  And Medical Centers
7.70,2.91,42.03837,-87.84820,IL,30000,9000,83,77,69,Advocate Lutheran General Hospital
6.72,2.55,42.26584,-89.07428,IL,26000,7000,50,65,76,Swedish American Hospital
7.64,2.38,41.76076,-88.15016,IL,30000,7000,50,68,29,Edward Hospital
6.42,2.20,42.26634,-89.00900,IL,25000,6000,50,50,29,Saint Anthony Medical Center
5.40,2.50,42.29844,-89.09897,IL,20000,7000,50,87,56,Rockford Memorial Hospital
8.98,2.56,41.87269,-88.15684,IL,36000,7000,66,62,88,Central Dupage Hospital
6.58,2.87,41.56720,-87.69566,IL,25000,9000,50,80,63,Advocate South Suburban Hospital
7.87,2.68,42.06732,-87.99368,IL,31000,8000,66,67,57,Northwest Community Hospital
9.19,2.32,42.00413,-88.01745,IL,37000,6000,66,78,88,Alexian Brothers Medical Center
4.50,2.23,41.49581,-90.41871,IL,16000,6000,0,0,0,Genesis Medical Center Illini Campus
5.06,3.06,41.86110,-87.83404,IL,18000,10000,66,46,4,Loyola University Medical Center
4.19,2.22,41.48200,-90.57158,IL,15000,6000,50,58,63,Trinity Rock Island
6.48,3.00,41.89477,-87.62131,IL,25000,9000,50,61,94,Northwestern Memorial Hospital
8.12,2.28,41.96185,-88.72130,IL,32000,6000,50,81,3,Kishwaukee Community Hospital
4.50,2.15,38.73818,-89.94728,IL,16000,6000,50,87,29,Anderson Hospital
8.87,2.37,42.05260,-88.14173,IL,35000,7000,50,80,57,St Alexius Medical Center
6.05,2.60,42.19586,-88.17286,IL,23000,8000,50,80,95,Advocate Good Shepherd Hospital
5.27,2.55,41.59920,-87.35764,IN,19000,7000,50,65,94,Methodist Hospitals Inc
4.57,2.23,40.42687,-86.88197,IN,16000,6000,0,0,0,Franciscan St Elizabeth Health - Lafayette Central
4.65,2.22,39.76255,-86.50165,IN,17000,6000,0,0,0,Hendricks Regional Health
7.13,2.53,41.61055,-86.72511,IN,28000,7000,0,0,0,Indiana University Health La Porte Hospital
4.09,2.01,40.44665,-86.12707,IN,14000,5000,50,80,54,Howard Regional Health System
5.29,2.37,38.28244,-85.74923,IN,19000,7000,50,83,48,Clark Memorial Hospital
5.27,2.29,40.56435,-85.66576,IN,19000,6000,50,70,88,Marion General Hospital
5.64,2.73,41.70877,-86.17026,IN,21000,8000,50,88,57,Saint Joseph Regional Medical Center
6.23,2.33,41.03874,-85.24876,IN,24000,6000,66,63,32,Lutheran Hospital Of Indiana
4.61,2.34,41.70568,-85.93404,IN,16000,6000,66,53,69,Elkhart General Hospital
5.57,2.37,41.04659,-85.10906,IN,21000,7000,83,60,44,Parkview Regional Medical Center
7.10,2.45,39.48518,-87.40893,IN,28000,7000,50,62,33,Union Hospital Inc
3.52,3.05,39.78091,-86.17629,IN,12000,10000,33,70,27,William N Wishard Memorial Hospital
6.98,2.29,41.56352,-85.83039,IN,27000,6000,25,82,13,Iu Health Goshen Hospital
6.06,2.26,39.72432,-86.10055,IN,23000,6000,0,0,0,Franciscan St Francis Health - Beech Grove
6.59,2.35,41.51266,-87.26125,IN,25000,6000,50,78,85,St Mary Medical Center Inc
7.47,2.31,41.46729,-87.05130,IN,29000,6000,50,75,63,Porter Valparaiso Hospital
3.18,2.25,39.79490,-85.76770,IN,10000,6000,0,0,0,Hancock Regional Hospital
4.73,2.17,38.67313,-87.53370,IN,17000,6000,50,72,81,Good Samaritan Hospital
5.13,2.18,38.30195,-85.83409,IN,19000,6000,66,85,85,Floyd Memorial Hospital And Health Services
4.10,2.59,39.86405,-84.88413,IN,14000,7000,100,63,27,Reid Hospital & Health Care Services
4.37,2.33,39.16006,-86.54038,IN,15000,6000,50,56,24,Indiana University Health Bloomington Hospital
7.98,3.38,39.79009,-86.16260,IN,31000,11000,50,51,79,Indiana University Health
6.07,2.42,41.68479,-86.25217,IN,23000,7000,66,60,8,Memorial Hospital Of South Bend
5.12,2.36,40.04526,-86.02297,IN,19000,6000,50,88,82,Riverview Hospital
3.94,2.44,38.95542,-85.89223,IN,13000,7000,0,0,0,Schneck Medical Center
4.63,2.41,38.73589,-85.37996,IN,17000,7000,0,0,0,King'S Daughters' Hospital And Health Servicesthe
5.79,2.46,39.78704,-86.07673,IN,22000,7000,50,82,82,Community Hospital East
5.75,2.23,37.98293,-87.57072,IN,22000,6000,83,66,13,Deaconess Hospital Inc
6.54,2.56,39.91001,-86.19660,IN,25000,7000,66,47,88,St Vincent Hospital & Health Services
6.68,2.26,40.09594,-85.68152,IN,26000,6000,0,0,0,Saint John'S Health System
8.00,2.49,40.19679,-85.41573,IN,32000,7000,66,62,85,Indiana University Health Ball Memorial Hospital
4.82,2.35,39.52494,-85.78113,IN,17000,6000,0,0,0,Major Hospital
5.17,2.26,37.96320,-87.50292,IN,19000,6000,66,67,32,St Mary'S Medical Center Of Evansville Inc
4.17,2.33,39.21585,-85.89683,IN,15000,6000,50,76,95,Columbus Regional Hospital
4.37,2.31,40.12998,-85.69436,IN,15000,6000,50,86,37,Community Hospital Of Anderson And Madison County
5.14,2.33,41.55065,-87.50619,IN,19000,6000,50,75,85,Community Hospital
5.97,2.34,41.39576,-87.36689,IN,23000,6000,50,83,51,Franciscan St Anthony Health - Crown Point
5.84,2.20,39.63776,-86.13260,IN,22000,6000,50,68,76,Community Hospital South
6.38,2.25,39.78047,-86.34084,IN,24000,6000,0,0,0,Iu Health West Hospital
6.63,2.39,39.64935,-86.07960,IN,25000,7000,66,80,90,Franciscan St Francis Health - Indianapolis
4.90,2.30,39.90060,-86.04218,IN,18000,6000,50,77,76,Community Hospital North
3.94,2.64,42.04855,-92.90625,IA,14000,8000,0,0,0,Marshalltown Medical & Surgical Center
5.18,2.30,42.49388,-94.18926,IA,19000,6000,0,0,0,Trinity Regional Medical Center
5.41,2.44,41.60051,-93.61086,IA,20000,7000,0,0,0,Iowa Lutheran Hospital
4.65,2.22,41.66411,-91.52841,IA,17000,6000,50,65,48,Mercy Hospital
4.75,2.23,42.03321,-93.61164,IA,17000,6000,0,0,0,Mary Greeley Medical Center
4.35,2.21,41.54190,-90.55691,IA,15000,6000,66,58,97,Genesis Medical Center-Davenport
5.62,2.32,41.98570,-91.66093,IA,21000,6000,66,75,90,St Lukes Hospital
6.21,2.26,41.26786,-95.83505,IA,24000,6000,0,0,0,Jennie Edmundson Hospital
5.28,2.29,40.81009,-91.17356,IA,19000,6000,0,0,0,Great River Medical Center
5.38,3.07,41.66092,-91.54800,IA,20000,10000,16,38,63,University Of Iowa Hospital & Clinics
5.29,2.33,43.15063,-93.21718,IA,19000,6000,50,82,63,Mercy Medical Center-North Iowa
4.33,2.34,42.46407,-92.34532,IA,15000,6000,0,0,0,Covenant Medical Center
4.50,2.14,42.49227,-90.67404,IA,16000,6000,50,75,95,Mercy Medical Center-Dubuque
4.75,2.12,41.97864,-91.65507,IA,17000,5000,50,80,99,Mercy Medical Center - Cedar Rapids
6.62,2.45,41.58955,-93.63248,IA,25000,7000,66,37,82,Iowa Methodist Medical Center
4.95,2.47,41.59886,-93.62344,IA,18000,7000,83,75,29,Mercy Medical Center-Des Moines
3.28,2.19,42.52665,-92.33957,IA,11000,6000,50,81,6,Allen Memorial Hospital
4.54,2.10,42.49632,-90.68587,IA,16000,5000,0,0,0,The Finley Hospital
6.21,2.26,42.49250,-96.39975,IA,24000,6000,66,71,54,Mercy Medical Center-Sioux City
5.13,2.37,38.83324,-97.61028,KS,19000,7000,50,85,27,Salina Regional Health Center
6.95,2.59,38.87847,-99.29923,KS,27000,7000,50,58,11,Hays Medical Center
4.53,2.18,39.05660,-95.69599,KS,16000,6000,33,51,33,St Francis Health Center Inc
6.47,2.45,38.07731,-97.89183,KS,25000,7000,50,80,90,Hutchinson Regional Medical Center Inc
9.54,2.98,39.05583,-94.60912,KS,38000,9000,66,53,63,University Of Kansas Hospital
5.92,2.18,38.85279,-94.82413,KS,22000,6000,50,58,62,Olathe Medical Center
6.80,2.33,39.05128,-95.69572,KS,26000,6000,66,71,10,Stormont-Vail Healthcare
7.68,2.15,38.99549,-94.69061,KS,30000,6000,66,46,21,Shawnee Mission Medical Center
7.66,2.48,37.70405,-97.31386,KS,30000,7000,66,68,21,Via Christi Hospitals Wichita Inc
9.60,2.54,37.69556,-97.29785,KS,39000,7000,66,52,5,Wesley Medical Center
4.06,2.37,38.97848,-95.24771,KS,14000,7000,0,0,0,Lawrence Memorial Hospital
3.46,2.17,39.20164,-96.60003,KS,11000,6000,0,0,0,Mercy Regional Health Center
9.38,2.24,38.90355,-94.66966,KS,38000,6000,0,0,0,Saint Luke'S South Hospital
5.40,2.34,38.47021,-82.63498,KY,20000,6000,66,60,54,King'S Daughters' Medical Center
4.49,2.17,38.03140,-84.52194,KY,16000,6000,83,67,79,Saint Joseph Hospital
6.28,2.38,37.11784,-84.10910,KY,24000,7000,50,75,63,Saint Joseph Hospital London
3.25,2.21,37.71183,-85.87623,KY,10000,6000,83,78,39,Hardin Memorial Hospital
4.82,2.46,36.99641,-86.43006,KY,17000,7000,66,52,33,The Medical Center At Bowling Green
4.03,2.40,37.01079,-85.90342,KY,14000,7000,0,0,0,T J Samson Community Hospital
3.77,2.19,36.60798,-88.30957,KY,13000,6000,0,0,0,Murray-Calloway County Hospital
6.19,2.34,39.06704,-84.49946,KY,23000,6000,33,58,79,St Elizabeth Medical Center North
3.66,2.52,37.76518,-87.10197,KY,12000,7000,50,66,29,Owensboro Medical Health System
5.27,2.48,38.24927,-85.75081,KY,19000,7000,66,51,8,Jewish Hospital & St Mary'S Healthcare
9.10,2.57,37.47264,-82.52605,KY,36000,7000,75,86,9,Pikeville Medical Center
5.40,2.50,37.64378,-84.77272,KY,20000,7000,0,0,0,Ephraim Mcdowell Regional Medical Center
5.09,2.18,36.86034,-87.49528,KY,19000,6000,50,83,4,Jennie Stuart Medical Center
7.24,3.25,38.03282,-84.50674,KY,28000,10000,33,62,33,University Of Kentucky Hospital
7.08,2.45,38.24806,-85.75125,KY,27000,7000,50,35,39,Norton Hospitals Inc
4.86,2.26,37.33959,-87.48988,KY,18000,6000,50,86,17,Regional Medical Center Of Hopkins County
5.23,2.38,38.01849,-84.51236,KY,19000,7000,50,71,57,Central Baptist Hospital
3.76,2.17,37.07404,-88.62685,KY,13000,6000,50,80,39,Western Baptist Hospital
6.11,2.24,36.96603,-86.43639,KY,23000,6000,50,85,94,Greenview Regional Hospital
5.04,2.14,38.23898,-85.63941,KY,18000,6000,66,57,74,Baptist Hospital East
5.97,2.40,37.08724,-84.61828,KY,22000,7000,66,60,17,Lake Cumberland Regional Hospital
7.75,2.93,38.24802,-85.74464,KY,30000,9000,25,81,8,University Of Louisville Hospital
6.07,2.33,30.20227,-92.01906,LA,23000,6000,50,73,29,Lafayette General Medical Center
6.05,2.13,29.77956,-90.80568,LA,23000,5000,50,73,92,Thibodaux Regional Medical Center
4.50,2.26,29.59851,-90.71397,LA,16000,6000,25,68,69,Terrebonne General Medical Center
11.28,2.48,30.46813,-90.45814,LA,46000,7000,75,71,74,North Oaks Medical Center Llc
5.76,2.25,31.28258,-92.46060,LA,22000,6000,50,65,79,Christus St Frances Cabrini Hospital
7.86,2.68,31.31451,-92.44997,LA,31000,8000,66,40,39,Rapides Regional Medical Center
6.65,2.71,30.21521,-93.22682,LA,26000,8000,50,63,63,Christus St Patrick Hospital
4.99,2.55,30.01875,-90.19452,LA,18000,7000,66,61,62,Ochsner Foundation Hospital
8.03,2.23,30.28456,-89.77038,LA,32000,6000,50,82,37,Slidell Memorial Hospital And Medical Center
8.11,2.41,32.49443,-93.75011,LA,32000,7000,50,68,13,Christus Schumpert Health System
6.67,2.72,30.20458,-93.19774,LA,26000,8000,50,80,6,Lake Charles Memorial Hospital
5.19,2.35,30.40118,-91.11160,LA,19000,6000,83,51,33,Our Lady Of The Lake Regional Medical Center
4.48,2.50,30.45015,-91.15273,LA,16000,7000,33,76,37,Baton Rouge General Medical Center
4.84,2.52,30.15052,-92.03698,LA,17000,7000,50,71,57,Our Lady Of Lourdes Regional Medical Center Inc
6.86,2.30,32.48393,-93.77884,LA,26000,6000,50,63,62,Willis Knighton Medical Center
6.99,2.35,32.49997,-92.11359,LA,27000,6000,66,62,98,St Francis Medical Center
6.01,2.48,32.61700,-93.28566,LA,23000,7000,50,85,85,Minden Medical Center
6.26,2.31,30.01438,-90.18155,LA,24000,6000,66,68,74,East Jefferson General Hospital
7.61,2.29,32.51315,-92.15713,LA,30000,6000,0,0,0,Glenwood Regional Medical Center
6.02,2.15,32.55761,-93.71874,LA,23000,6000,50,88,94,Willis Knighton Bossier Health Center
4.10,2.26,44.81469,-68.77153,ME,14000,6000,0,0,0,St Joseph Hospital
5.49,2.33,43.65159,-70.26482,ME,20000,6000,0,0,0,Mercy Hospital
4.99,2.63,43.65325,-70.27533,ME,18000,8000,16,47,0,Maine Medical Center
5.08,2.33,43.90901,-69.89611,ME,19000,6000,0,0,0,Mid Coast Hospital
4.65,2.47,44.80988,-68.74929,ME,17000,7000,50,58,37,Eastern Maine Medical Center
4.96,2.41,45.25378,-69.44547,ME,18000,7000,50,48,51,Maine General Medical Center
3.04,2.94,39.62183,-77.68219,MD,10000,9000,0,0,0,Meritus Medical Center
3.52,3.36,39.28817,-76.62438,MD,12000,11000,0,0,0,University Of Maryland Medical Center
3.61,3.45,38.93090,-76.92161,MD,12000,11000,0,0,0,Prince Georges Hospital Center
2.46,2.39,39.01578,-77.03591,MD,7000,7000,0,0,0,Holy Cross Hospital
3.14,3.01,39.42366,-77.41386,MD,10000,9000,0,0,0,Frederick Memorial Hospital
2.89,2.77,39.54345,-76.09153,MD,9000,8000,0,0,0,Harford Memorial Hospital
2.80,2.69,39.38813,-76.61068,MD,8000,8000,0,0,0,Saint Joseph Medical Center
3.68,3.52,39.29297,-76.61314,MD,12000,12000,0,0,0,Mercy Medical Center Inc
4.01,3.83,39.29688,-76.59242,MD,14000,13000,0,0,0,Johns Hopkins Hospital The
3.24,3.10,39.27352,-76.67219,MD,10000,10000,0,0,0,Saint Agnes Hospital
3.29,3.15,39.35262,-76.66196,MD,11000,10000,0,0,0,Sinai Hospital Of Baltimore
3.33,3.21,39.35169,-76.47919,MD,11000,10000,0,0,0,Franklin Square Hospital Center
3.67,3.51,38.98482,-77.00139,MD,12000,12000,0,0,0,Washington Adventist Hospital
3.29,3.16,39.15402,-77.05431,MD,11000,10000,0,0,0,Montgomery General Hospital Inc
3.40,3.25,38.36248,-75.59799,MD,11000,10000,0,0,0,Peninsula Regional Medical Center
2.82,2.73,38.99743,-77.11048,MD,9000,8000,0,0,0,Suburban Hospital
2.77,2.68,38.99014,-76.53398,MD,8000,8000,0,0,0,Anne Arundel Medical Center
3.41,3.26,39.32930,-76.61432,MD,11000,10000,0,0,0,Union Memorial Hospital
3.35,3.21,39.64928,-78.73206,MD,11000,10000,0,0,0,Western Maryland Regional Medical Center
3.01,2.88,38.29124,-76.63579,MD,9000,9000,0,0,0,Saint Mary'S Hospital
3.07,2.95,39.29100,-76.54623,MD,10000,9000,0,0,0,Johns Hopkins Bayview Medical Center
4.11,3.92,39.21770,-76.06494,MD,14000,13000,0,0,0,Chester River Hospital Center
3.69,3.56,39.55808,-76.99107,MD,12000,12000,0,0,0,Carroll Hospital Center
3.08,2.95,39.25189,-76.61399,MD,10000,9000,0,0,0,Harbor Hospital
2.83,2.72,38.52905,-76.97068,MD,9000,8000,0,0,0,Civista Medical Center
3.24,3.10,38.76970,-76.07697,MD,10000,10000,0,0,0,Memorial Hospital At Easton
2.58,2.49,38.55963,-76.59455,MD,7000,7000,0,0,0,Calvert Memorial Hospital
3.90,3.72,39.35852,-76.78208,MD,13000,13000,0,0,0,Northwest Hospital Center
3.24,3.10,39.13732,-76.62228,MD,10000,10000,0,0,0,Baltimore Washington  Medical Center
3.24,3.11,39.39017,-76.62216,MD,10000,10000,0,0,0,Greater Baltimore Medical Center
2.71,2.63,39.21273,-76.88526,MD,8000,8000,0,0,0,Howard County General Hospital
2.78,2.68,39.51870,-76.34688,MD,8000,8000,0,0,0,Upper Chesapeake Medical Center
2.87,2.75,38.96851,-76.86203,MD,9000,8000,0,0,0,Doctors'  Community Hospital
3.47,3.31,38.74827,-76.87590,MD,11000,11000,0,0,0,Southern Maryland Hospital Center
3.03,2.90,39.35962,-76.58851,MD,9000,9000,0,0,0,Good Samaritan Hospital
3.18,3.04,39.09796,-77.19799,MD,10000,10000,0,0,0,Shady Grove Adventist Hospital
2.34,2.25,38.33876,-75.21128,MD,6000,6000,0,0,0,Atlantic General Hospital
4.57,2.74,42.37441,-71.13378,MA,16000,8000,66,85,17,Mount Auburn Hospital
4.70,2.55,41.94236,-71.27364,MA,17000,7000,50,66,13,Sturdy Memorial Hospital
4.15,2.69,42.70912,-71.14877,MA,14000,8000,50,71,79,Lawrence General Hospital
4.36,3.01,42.37451,-71.10418,MA,15000,9000,50,87,94,Cambridge Health Alliance
3.86,2.75,41.65298,-70.27484,MA,13000,8000,50,56,95,Cape Cod Hospital
3.91,2.17,42.33185,-72.65422,MA,13000,6000,50,87,88,Cooley Dickinson Hospital Incthe
3.36,2.41,42.20038,-72.62762,MA,11000,7000,0,0,0,Holyoke Medical Center
3.50,2.42,42.81476,-70.89068,MA,12000,7000,0,0,0,Anna Jaques Hospital
3.67,3.39,42.35843,-71.05977,MA,12000,11000,66,51,0,Boston Medical Center Corporation
3.69,2.54,42.56407,-70.87543,MA,12000,7000,50,62,63,Beverly Hospital Corporation
6.04,2.49,42.51078,-70.90712,MA,23000,7000,33,47,69,North Shore Medical Center
3.64,3.05,42.34896,-71.14768,MA,12000,10000,50,68,57,St Elizabeth'S Medical Center
3.84,2.76,51.46599,-1.28140,MA,13000,8000,50,76,20,Berkshire Medical Center Inc
4.17,2.69,42.03597,-71.09792,MA,15000,8000,50,61,57,Signature Healthcare Brockton Hospital
3.57,2.50,41.94445,-70.64511,MA,12000,7000,50,82,24,Jordan Hospital Inc
4.00,2.63,42.64636,-71.34118,MA,14000,8000,50,87,95,Lowell General Hospital
3.83,2.47,42.11449,-72.59502,MA,13000,7000,50,77,76,Mercy Medical Center
11.14,3.64,42.36227,-71.06941,MA,45000,12000,50,43,16,Massachusetts General Hospital
2.98,2.46,41.90456,-71.09562,MA,9000,7000,50,85,24,Morton Hospital
4.53,2.64,41.70928,-71.14519,MA,16000,8000,25,51,88,Southcoast Hospital Group Inc
4.02,2.82,42.12077,-72.60525,MA,14000,9000,33,61,82,Baystate Medical Center
4.18,2.19,42.43082,-71.37554,MA,15000,6000,50,43,57,Emerson Hospital
4.49,3.35,42.33719,-71.10939,MA,16000,11000,33,71,33,Beth Israel Deaconess Medical Center
4.59,2.45,42.13234,-71.52825,MA,16000,7000,50,71,95,Milford Regional Medical Center
4.48,2.33,42.17644,-70.95398,MA,16000,6000,66,70,48,South Shore Hospital
4.75,2.22,42.33149,-71.24568,MA,17000,6000,66,70,99,Newton-Wellesley Hospital
2.93,2.32,42.46581,-71.12210,MA,9000,6000,50,58,24,Winchester Hospital
7.33,2.97,42.33600,-71.10704,MA,29000,9000,66,40,20,Brigham And Women'S Hospital
3.32,2.56,42.09864,-71.06607,MA,11000,7000,50,58,92,Good Samaritan Medical Center
5.12,3.33,42.34951,-71.06331,MA,19000,11000,50,63,85,Tufts Medical Center
3.79,2.64,42.30049,-71.12771,MA,13000,8000,50,96,3,Faulkner Hospital
4.16,2.39,42.18869,-71.20197,MA,14000,7000,50,77,81,Norwood Hospital
3.73,2.47,41.56412,-70.62200,MA,13000,7000,50,68,94,Falmouth Hospital
6.28,3.20,42.27720,-71.75922,MA,24000,10000,50,36,29,Umass Memorial Medical Center Inc
3.59,2.54,42.48585,-71.20686,MA,12000,7000,66,76,16,Lahey Clinic Hospital
4.55,2.31,42.39466,-83.40537,MI,16000,6000,50,60,63,St Mary Mercy Hospital
3.36,2.39,43.20588,-86.20839,MI,11000,7000,50,76,57,Mercy Health Partners Mercy Campus
5.69,2.72,42.28551,-85.58042,MI,21000,8000,66,82,13,Bronson Methodist Hospital
5.52,2.65,42.45741,-83.20513,MI,21000,8000,83,57,48,Providence Hospital And Medical Centers
6.37,3.10,42.29077,-83.21504,MI,24000,10000,33,48,69,Oakwood Hospital And Medical Center
3.58,2.46,42.08955,-86.47781,MI,12000,7000,33,68,88,Lakeland Hospital St Joseph
4.76,2.85,42.41911,-83.18228,MI,17000,9000,83,46,21,Sinai-Grace Hospital
4.82,2.80,42.61425,-83.27602,MI,17000,8000,66,52,79,St Joseph Mercy Oakland
5.97,2.55,45.07773,-83.45146,MI,23000,7000,0,0,0,Alpena Regional Medical Center
4.12,2.72,42.96881,-85.66649,MI,14000,8000,33,66,82,Spectrum Health - Butterworth Campus
6.51,2.39,43.58941,-83.86908,MI,25000,7000,33,55,98,Mclaren Bay Region
5.29,3.14,42.28388,-83.72960,MI,19000,10000,50,61,43,University Of Michigan Health System
4.19,2.40,42.61490,-82.96060,MI,15000,7000,50,66,54,Henry Ford Macomb Hospital
5.01,3.08,42.36762,-83.08461,MI,18000,10000,66,47,8,Henry Ford Hospital
3.10,2.41,46.54758,-87.39560,MI,10000,7000,83,67,48,Marquette General Hospital
3.60,2.60,42.95817,-85.66253,MI,12000,8000,50,53,90,Saint Mary'S Health Care
6.01,2.46,43.42857,-83.95556,MI,23000,7000,83,61,63,Covenant Medical Center Inc
4.19,2.32,42.77487,-86.11378,MI,15000,6000,0,0,0,Holland Community Hospital
4.98,2.41,43.42612,-83.94185,MI,18000,7000,66,63,57,St Mary'S Of Michigan Medical Center
3.85,2.41,44.24532,-85.38950,MI,13000,7000,0,0,0,Mercy Hospital - Cadillac
5.21,2.39,42.38392,-82.91480,MI,19000,7000,50,62,51,Beaumont Hospital Grosse Pointe
7.22,2.33,42.25117,-84.39240,MI,28000,6000,50,85,98,Allegiance Health
2.98,2.26,44.26333,-84.24625,MI,9000,6000,0,0,0,West Branch Regional Medical Center
4.88,2.66,44.76156,-85.64143,MI,18000,8000,50,41,57,Munson Medical Center
5.41,2.30,41.91643,-83.39771,MI,20000,6000,50,68,37,Mercy Memorial Hospital System
5.96,2.48,45.74575,-87.10106,MI,22000,7000,0,0,0,St Francis Hospital
4.87,3.41,42.35230,-83.05676,MI,18000,11000,66,62,63,Harper University Hospital
3.90,2.43,45.37209,-84.97065,MI,13000,7000,50,77,24,Northern Michigan Regional Hospital
5.99,2.47,42.30489,-85.56152,MI,23000,7000,66,47,76,Borgess Medical Center
7.30,2.71,42.51418,-83.19259,MI,28000,8000,66,60,16,William Beaumont Hospital
5.57,2.66,43.01399,-83.73250,MI,21000,8000,50,60,33,Mclaren Flint
5.51,2.44,42.27424,-83.36580,MI,20000,7000,50,70,48,Oakwood Annapolis Hospital
5.03,2.42,42.21065,-83.14861,MI,18000,7000,50,70,95,Henry Ford Wyandotte Hospital
4.78,2.99,42.46176,-83.37629,MI,17000,9000,50,78,24,Botsford Hospital
5.17,2.53,42.26181,-83.66003,MI,19000,7000,66,62,33,St Joseph Mercy Hospital
6.23,2.91,42.41975,-82.91442,MI,24000,9000,66,72,9,St John Hospital And Medical Center
6.14,2.58,42.70417,-84.55488,MI,23000,7000,33,76,21,Mclaren - Greater Lansing
6.39,2.49,42.50514,-83.00422,MI,24000,7000,66,56,85,St John Macomb-Oakland Hospital-Macomb Center
5.60,2.78,42.89254,-83.63621,MI,21000,8000,66,70,13,Genesys Regional Medical Center - Health Park
5.79,2.29,42.98625,-82.42802,MI,22000,6000,50,62,29,Port Huron Hospital
4.23,2.57,43.63618,-84.26187,MI,15000,7000,50,72,69,Midmichigan Medical Center-Midland
4.47,2.55,42.58900,-82.89799,MI,16000,7000,66,61,63,Mount Clemens Regional Medical Center
6.90,2.69,42.73767,-84.51698,MI,27000,8000,83,68,1,Edward W Sparrow Hospital
5.23,2.66,42.85736,-85.71774,MI,19000,8000,50,66,48,Metro Health Hospital
3.65,2.79,46.43131,-84.28107,MI,12000,8000,0,0,0,Chippewa County War Memorial Hospital
4.24,2.76,42.33215,-83.31195,MI,15000,8000,50,82,37,Garden City Hospital
6.53,2.36,42.67850,-83.14771,MI,25000,6000,50,65,79,Crittenton Hospital Medical Center
8.19,2.42,42.61826,-83.09239,MI,32000,7000,83,60,62,William Beaumont Hospital-Troy
5.47,2.51,42.59290,-83.49920,MI,20000,7000,66,48,54,Huron Valley-Sinai Hospital
5.67,2.20,42.53914,-83.40777,MI,21000,6000,50,53,39,Henry Ford West Bloomfield Hospital
6.07,2.51,45.01403,-93.32177,MN,23000,7000,66,68,82,North Memorial Medical Center
4.80,2.51,46.79380,-92.09573,MN,17000,7000,83,75,79,Essentia Health St Mary'S Medical Center
4.70,2.90,44.02052,-92.48292,MN,17000,9000,83,42,32,Mayo Clinic - Saint Marys Hospital
6.54,2.31,45.56696,-93.23046,MN,25000,6000,0,0,0,Cambridge Medical Center
5.38,2.75,45.57390,-94.16942,MN,20000,8000,50,61,37,St Cloud Hospital
7.57,2.43,44.94214,-93.10858,MN,30000,7000,50,86,33,United Hospital
3.58,2.93,44.03521,-91.62181,MN,12000,9000,0,0,0,Winona Health Services
4.29,2.48,46.79634,-92.08793,MN,15000,7000,50,71,29,St Lukes Hospital
2.85,2.32,44.93031,-93.36276,MN,9000,6000,66,72,94,Park Nicollet Methodist Hospital
5.07,2.31,44.84294,-93.79336,MN,19000,6000,0,0,0,Ridgeview Medical Center
7.42,2.86,44.95248,-93.26196,MN,29000,9000,50,70,63,Abbott Northwestern Hospital
6.60,2.47,44.94898,-93.10016,MN,25000,7000,33,66,57,St Joseph'S Hospital
4.62,2.48,46.36166,-94.20573,MN,17000,7000,0,0,0,Essentia Health St Joseph'S Medical Center
4.87,2.30,44.88645,-93.32693,MN,18000,6000,66,62,94,Fairview Southdale Hospital
6.12,3.01,44.96766,-93.23640,MN,23000,9000,66,56,57,University Of Minnesota  Medical Center Fairview
4.83,2.69,44.16396,-94.00412,MN,17000,8000,50,57,76,Mayo Clinic Health System - Mankato
5.07,2.86,44.95570,-93.09429,MN,19000,9000,50,78,17,Regions Hospital
6.51,2.40,45.18355,-93.36789,MN,25000,7000,50,73,95,Mercy Hospital
4.79,2.33,44.74846,-93.27289,MN,17000,6000,50,83,97,Fairview Ridges Hospital
4.69,2.63,45.02892,-93.03418,MN,17000,8000,50,75,24,Healtheast St John'S Hospital
4.63,2.31,44.91542,-92.94757,MN,17000,6000,0,0,0,Healtheast Woodwinds Hospital
6.74,2.95,32.33069,-90.17030,MS,26000,9000,66,51,6,University Of Mississippi Med Center
4.71,2.36,34.24336,-88.71753,MS,17000,6000,66,61,48,North Mississippi Medical Center
7.82,2.28,34.93596,-88.55955,MS,31000,6000,50,72,79,Magnolia Regional Health Center
10.30,2.64,30.36674,-89.11535,MS,42000,8000,50,66,69,Memorial Hospital At Gulfport
5.74,2.34,34.34899,-89.52062,MS,21000,6000,50,68,24,Baptist Memorial Hospital North Ms
8.40,2.26,30.37516,-88.53226,MS,33000,6000,50,70,3,Singing River Hospital
5.37,2.25,32.33616,-90.15652,MS,20000,6000,50,60,44,St Dominic-Jackson Memorial Hospital
3.53,2.34,31.69405,-89.13061,MS,12000,6000,50,72,16,South Central Reg Med Ctr
5.67,2.35,32.36983,-88.69702,MS,21000,6000,50,83,4,Rush Foundation Hospital
4.21,2.32,31.31872,-89.32955,MS,15000,6000,50,57,54,Forrest General Hospital
4.62,2.38,33.41099,-91.03479,MS,16000,7000,33,85,51,Delta Regional Medical Center
8.65,2.27,31.32573,-89.36670,MS,34000,6000,50,56,20,Wesley Medical Center
3.70,2.37,31.24000,-90.45000,MS,12000,7000,50,83,81,Southwest Ms Regional Medical Center
5.71,2.57,33.51824,-90.19832,MS,21000,7000,0,0,0,Greenwood Leflore Hospital
4.84,2.34,33.52568,-88.42742,MS,17000,6000,50,67,54,Baptist Mem Hosp/Golden Triangle Inc
5.86,2.17,32.31643,-90.17922,MS,22000,6000,66,43,85,Mississippi Baptist Medical Center
5.59,2.26,32.37280,-88.69954,MS,21000,6000,50,77,39,Anderson Regional Medical Center
6.44,2.38,34.96927,-89.99709,MS,25000,7000,50,68,11,Baptist Memorial Hospital Desoto
6.00,2.26,37.06032,-94.52747,MO,23000,6000,0,0,0,St John'S Regional Medical Center
5.31,2.65,39.77393,-94.77089,MO,20000,8000,50,58,51,Heartland Regional Medical Center
4.94,2.08,38.57670,-92.17352,MO,18000,5000,50,86,0,St Marys Health Center
6.93,3.00,37.95144,-91.75940,MO,27000,9000,50,88,48,Phelps County Regional Medical Center
8.27,2.46,38.64281,-90.44448,MO,33000,7000,83,57,74,Mercy Hospital St Louis
5.29,2.63,38.63524,-90.26508,MO,19000,8000,50,56,12,Barnes Jewish Hospital
4.74,2.33,37.14560,-93.28037,MO,17000,6000,50,61,85,Cox Medical Center
4.49,2.42,38.56571,-92.18204,MO,16000,7000,50,83,57,Capital Region Medical Center
7.34,2.30,39.24809,-94.64928,MO,29000,6000,0,0,0,St Lukes Northland Hospital
5.88,2.34,37.17999,-93.27409,MO,22000,6000,66,61,24,St John'S Regional Health Center
5.24,2.17,38.94903,-92.31563,MO,19000,6000,66,73,43,Boone Hospital Center
5.42,2.42,38.50661,-90.38025,MO,20000,7000,66,57,13,St Anthony'S Medical Center
5.39,2.37,36.73801,-91.87553,MO,20000,7000,0,0,0,Ozarks Medical Center
7.34,2.33,38.52738,-90.47501,MO,29000,6000,50,65,44,Ssm St Clare Health Center
6.78,2.18,38.93592,-94.60376,MO,26000,6000,50,75,88,St Joseph Medical Center
7.48,2.77,38.63268,-90.31089,MO,29000,8000,83,77,57,Ssm St Marys Health Center
5.98,2.56,36.64970,-93.22138,MO,23000,7000,50,71,79,Skaggs Regional Medical Center
7.98,2.21,39.04749,-94.34105,MO,31000,6000,50,72,39,Centerpoint Medical Center Of Independence Llc
6.89,2.19,39.14957,-94.55148,MO,27000,6000,50,58,63,North Kansas City Hospital
7.58,2.36,38.75097,-90.43255,MO,30000,7000,66,68,43,Ssm Depaul Health Center
7.65,3.19,38.62280,-90.24049,MO,30000,10000,50,46,5,St Louis University Hospital
4.04,2.22,38.63702,-90.44699,MO,14000,6000,66,68,48,Missouri Baptist Medical Center
6.07,2.29,37.31072,-89.53990,MO,23000,6000,50,72,8,Southeast Missouri Hospital
9.64,2.37,36.78510,-90.42779,MO,39000,7000,50,60,39,Poplar Bluff Regional Medical Center
6.80,2.39,37.05238,-94.52777,MO,26000,7000,83,67,85,Freeman Health System - Freeman West
10.13,2.60,39.04761,-94.59037,MO,41000,8000,66,50,17,St Lukes Hospital Of Kansas City
5.59,2.70,38.95171,-92.33407,MO,21000,8000,66,60,63,University Of Missouri Health Care
3.67,2.15,38.67655,-90.46573,MO,12000,6000,50,95,13,Barnes-Jewish West County Hospital
5.23,2.22,39.27591,-94.42572,MO,19000,6000,33,60,33,Liberty Hospital
5.60,2.78,38.65123,-90.50301,MO,21000,8000,66,67,12,St Lukes Hospital
7.19,2.53,37.30401,-89.57190,MO,28000,7000,50,65,11,St Francis Medical Center
6.78,2.27,39.02539,-94.26453,MO,26000,6000,50,70,98,St Mary'S Medical Center
7.63,2.36,38.94062,-94.37842,MO,30000,7000,0,0,0,Saint Luke'S East Lee'S Summit Hospital
3.52,2.35,46.58297,-111.99684,MT,12000,6000,0,0,0,St Peter'S Hospital
4.34,2.49,45.78958,-108.51283,MT,15000,7000,50,86,88,Billings Clinic Hospital
3.25,2.48,47.49139,-111.26255,MT,10000,7000,50,61,57,Benefis Hospitals Inc
4.19,2.21,46.87545,-114.00033,MT,15000,6000,50,77,69,St Patrick Hospital
4.82,2.49,46.84691,-114.04640,MT,17000,7000,0,0,0,Community Medical Center Inc
3.82,2.44,45.79337,-108.51928,MT,13000,7000,50,81,54,St Vincent Healthcare
4.32,2.43,48.21465,-114.32386,MT,15000,7000,50,83,57,Kalispell Regional Medical Center
3.45,2.15,45.66969,-111.01991,MT,11000,6000,50,88,24,Bozeman Deaconess Hospital
5.07,2.37,40.78318,-96.63709,NE,18000,7000,66,70,63,Bryanlgh Medical Center
6.02,2.84,41.25522,-95.97892,NE,23000,9000,50,52,51,The Nebraska Medical Center
5.34,2.33,40.80816,-96.62689,NE,20000,6000,50,66,20,Saint Elizabeth Regional Medical Center
5.23,2.29,40.92425,-98.37053,NE,19000,6000,50,81,33,St Francis Medical Center
8.30,3.05,41.26509,-95.95494,NE,33000,10000,50,67,0,Creighton University Medical Center - Saint Joseph
3.30,2.30,40.59160,-98.38755,NE,11000,6000,0,0,0,Mary Lanning Memorial Hospital
7.84,2.26,41.25797,-96.04164,NE,31000,6000,50,73,33,The Nebraska Methodist Hospital
8.40,2.36,41.23897,-96.03162,NE,33000,6000,50,46,82,Alegent Health Bergan Mercy Medical Center
4.35,2.35,41.12081,-100.77062,NE,15000,6000,0,0,0,Great Plains Regional Medical Center
6.06,2.59,41.45152,-96.49184,NE,23000,8000,0,0,0,Fremont Area Medical Center
7.36,2.45,41.32182,-96.02133,NE,29000,7000,25,71,51,Alegent Health Immanuel Medical Center
4.56,2.58,42.03257,-97.45100,NE,16000,7000,0,0,0,Faith Regional Health Services
9.19,2.48,39.52637,-119.79456,NV,37000,7000,50,66,17,Renown Regional Medical Center
12.24,2.76,36.13459,-115.13576,NV,50000,8000,66,68,9,Sunrise Hospital And Medical Center
8.87,3.05,36.15896,-115.16558,NV,35000,10000,33,60,0,Umc Of Southern Nevada
6.17,2.60,39.53066,-119.82067,NV,23000,8000,66,76,44,Saint Mary'S Regional Medical Center
12.26,2.68,36.03931,-114.98259,NV,50000,8000,75,76,54,Saint Rose Dominican Hospital - De Lima
5.82,2.66,39.20247,-119.78446,NV,22000,8000,50,56,69,Carson Tahoe Regional Medical Center
13.59,2.76,36.21599,-115.25095,NV,56000,8000,66,57,13,Mountainview Hospital
14.86,2.52,36.16586,-115.32436,NV,62000,7000,83,72,27,Summerlin Hospital Medical Center
13.66,2.56,36.00527,-115.11618,NV,57000,7000,50,50,33,Saint Rose Dominican Hospital - Siena Campus
14.56,2.63,36.09056,-115.24058,NV,61000,8000,66,78,12,Spring Valley Hospital Medical Center
9.72,2.36,36.05712,-115.27116,NV,39000,6000,50,78,18,Saint Rose Dominican Hospital - San Martin Campus
13.96,2.38,36.28588,-115.28772,NV,58000,7000,75,66,39,Centennial Hills Hospital Medical Center
4.90,2.32,43.19846,-71.56230,NH,18000,6000,33,63,94,Concord Hospital
5.42,2.96,43.67286,-72.27232,NH,20000,9000,50,38,0,Mary Hitchcock Memorial Hospital
6.89,2.47,43.52835,-71.46291,NH,27000,7000,0,0,0,Lakes Region General Hospital
5.60,2.52,42.75004,-71.48100,NH,21000,7000,0,0,0,St Joseph Hospital
4.71,2.37,43.00792,-71.46807,NH,17000,7000,50,57,21,Elliot Hospital
4.75,2.29,43.29811,-70.96148,NH,17000,6000,0,0,0,Frisbie Memorial Hospital
5.16,2.38,43.21231,-70.87499,NH,19000,7000,50,73,3,Wentworth-Douglass Hospital
4.96,2.55,42.75623,-71.46059,NH,18000,7000,50,81,54,Southern Nh Medical Center
4.67,2.23,42.98369,-70.93511,NH,17000,6000,0,0,0,Exeter Hospital Inc
6.82,2.51,43.06469,-70.78916,NH,26000,7000,50,76,48,Portsmouth Regional Hospital
5.33,2.28,42.99121,-71.47426,NH,20000,6000,33,63,92,Catholic Medical Center
13.64,2.76,40.88346,-74.05564,NJ,56000,8000,50,58,85,Hackensack University Medical Center
20.11,3.68,40.71011,-74.21368,NJ,85000,12000,66,56,11,Newark Beth Israel Medical Center
10.59,2.53,40.35684,-74.66166,NJ,43000,7000,50,56,21,University Medical Center At Princeton
6.84,2.38,39.08752,-74.81657,NJ,26000,7000,50,73,48,Cape Regional Medical Center Inc
9.12,2.56,40.98359,-74.10047,NJ,36000,7000,50,78,21,Valley Hospital
11.62,3.03,39.94152,-75.11680,NJ,48000,9000,66,42,2,Cooper University Hospital
10.40,2.80,40.78883,-74.46620,NJ,42000,8000,66,43,39,Morristown Memorial Hospital
9.68,2.49,40.95858,-74.31000,NJ,39000,7000,50,62,1,Chilton Hospital
17.90,3.12,40.90215,-74.16634,NJ,75000,10000,16,53,94,St Joseph'S Regional Medical Center
14.78,2.54,39.78261,-74.91670,NJ,62000,7000,50,52,74,Virtua West Jersey Hospitals Berlin
20.77,2.36,40.61288,-74.29092,NJ,88000,7000,50,80,44,Robert Wood Johnson University Hospital At Rahway
18.84,2.51,41.05754,-74.76857,NJ,80000,7000,50,77,79,Newton Memorial Hospital
12.24,2.72,39.92695,-75.09537,NJ,50000,8000,50,70,10,Our Lady Of Lourdes Medical Center
14.92,2.55,39.44743,-75.05838,NJ,62000,7000,50,62,1,South Jersey Healthcare Regional Medical Center
14.62,2.36,40.35309,-74.06484,NJ,61000,6000,33,61,69,Riverview Medical Center
16.92,2.91,40.49581,-74.44980,NJ,71000,9000,66,51,1,Robert Wood Johnson University Hospital
14.25,2.43,39.96484,-74.21708,NJ,59000,7000,50,47,88,Community Medical Center
15.98,2.78,40.90400,-73.96847,NJ,67000,8000,66,81,54,Englewood Hospital And Medical Center
14.49,2.35,39.31464,-74.59391,NJ,60000,6000,16,72,82,Shore Medical Center
22.30,2.61,40.56804,-74.59579,NJ,95000,8000,50,67,29,Somerset Medical Center
12.79,2.51,40.89538,-74.46479,NJ,53000,7000,50,63,69,Saint Clare'S Hospital
7.61,2.71,40.71264,-74.35460,NJ,30000,8000,50,52,57,Overlook Hospital
14.32,2.49,40.07832,-74.13009,NJ,60000,7000,50,57,48,Ocean Medical Center
14.15,2.88,39.98588,-74.79393,NJ,59000,9000,66,55,54,Virtua Memorial Hospital Of Burlington County
14.84,2.37,40.04632,-74.88059,NJ,62000,7000,50,48,6,Lourdes Medical Center Of Burlington County
17.23,2.77,39.35775,-74.43449,NJ,72000,8000,66,65,88,Atlanticare Regional Medical Center - City Div
19.70,2.97,40.50214,-74.46015,NJ,83000,9000,50,53,29,Saint Peter'S University Hospital
15.83,2.62,40.21065,-74.03566,NJ,66000,8000,50,58,6,Jersey Shore University Medical Center
15.97,2.94,40.29563,-73.98518,NJ,67000,9000,50,50,85,Monmouth Medical Center
12.66,2.98,40.76190,-74.30335,NJ,52000,9000,83,53,2,Saint Barnabas Medical Center
12.41,2.42,39.84392,-75.14985,NJ,51000,7000,50,70,33,Underwood - Memorial Hospital
13.40,2.80,39.82811,-75.00895,NJ,55000,8000,66,60,69,Kennedy University Hospital - Stratford Div
13.52,2.81,40.55784,-74.34970,NJ,56000,8000,50,71,57,Jfk Medical Ctr - Anthony M. Yelencsics Community
17.60,2.36,40.21575,-74.67273,NJ,74000,7000,50,67,79,Robert Wood Johnson University Hospital Hamilton
10.17,2.41,40.23861,-74.31289,NJ,41000,7000,33,68,13,Centrastate Medical Center
8.54,2.34,39.66213,-74.26392,NJ,34000,6000,50,62,69,Southern Ocean Medical Center
5.47,3.34,35.08838,-106.61590,NM,20000,11000,83,46,11,Unm Hospital
4.82,2.86,35.65960,-105.94578,NM,17000,9000,50,65,29,St Vincent Hospital
6.16,2.72,36.72387,-108.21749,NM,23000,8000,50,71,82,San Juan Regional Medical Center
6.19,2.46,35.08102,-106.63392,NM,23000,7000,33,51,3,Presbyterian Hospital
7.13,2.60,41.92720,-73.99535,NY,28000,8000,50,83,39,Kingston Hospital
3.88,2.69,42.87482,-78.84942,NY,13000,8000,33,45,8,Kaleida Health
4.17,2.44,42.09299,-75.93704,NY,15000,7000,50,73,99,Our Lady Of Lourdes Memorial Hospital Inc
6.49,2.69,42.65345,-73.77543,NY,25000,8000,66,60,63,Albany Medical Center Hospital
6.88,3.90,40.70141,-73.81630,NY,27000,13000,0,78,39,Jamaica Hospital Medical Center
12.14,2.95,41.69441,-73.93432,NY,50000,9000,83,82,54,Vassar Brothers Medical Center
7.63,3.63,40.79041,-73.95386,NY,30000,12000,83,38,5,Mount Sinai Hospital
7.84,2.68,40.72567,-73.24189,NY,31000,8000,50,58,37,Southside Hospital
5.77,2.25,43.09840,-75.27819,NY,22000,6000,50,60,17,Faxton-St Luke'S Healthcare
6.64,2.42,40.87946,-73.41621,NY,25000,7000,50,66,39,Huntington Hospital
9.38,3.69,40.80556,-73.96131,NY,38000,12000,33,56,5,St Luke'S Roosevelt Hospital
7.93,3.30,40.74722,-73.82521,NY,31000,11000,66,63,79,New York Hospital Medical Center Of Queens
7.21,2.27,42.65583,-73.80372,NY,28000,6000,33,47,54,St Peter'S Hospital
12.04,3.78,40.87987,-73.87996,NY,49000,13000,50,38,44,Montefiore Medical Center
6.03,2.63,40.94161,-73.83650,NY,23000,8000,33,63,12,Lawrence Hospital Center
9.18,3.78,40.76487,-73.95398,NY,37000,13000,33,32,74,New York-Presbyterian Hospital
2.86,2.31,42.09049,-78.42780,NY,9000,6000,50,83,37,Olean General Hospital
13.24,3.37,40.77686,-73.70212,NY,55000,11000,33,61,69,North Shore University Hospital
10.09,2.63,40.93376,-72.67383,NY,41000,8000,0,0,0,Peconic Bay Medical Center
11.78,3.20,40.77362,-73.96093,NY,48000,10000,33,46,11,Lenox Hill Hospital
3.77,2.32,43.19244,-77.58590,NY,13000,6000,66,46,17,Rochester General Hospital
10.46,2.59,41.44138,-74.36821,NY,42000,8000,50,62,69,Orange Regional Medical Center
5.65,3.18,42.69590,-74.92278,NY,21000,10000,50,83,76,Mary Imogene Bassett Hospital
4.29,2.57,43.05571,-76.14981,NY,15000,7000,83,37,20,St Joseph'S Hospital Health Center
10.55,3.89,40.68964,-73.99657,NY,43000,13000,0,0,0,Long Island College Hospital
5.45,2.51,42.81963,-73.91653,NY,20000,7000,50,68,21,Ellis Hospital
5.25,3.10,43.96519,-75.91511,NY,19000,10000,50,85,63,Samaritan Medical Center
12.13,2.77,41.11299,-74.13732,NY,50000,8000,66,82,82,Good Samaritan Hospital Of Suffern
4.48,2.40,43.00561,-76.17002,NY,16000,7000,0,0,0,Community-General Hospital Of Greater Syracuse
7.53,3.05,40.58440,-74.08507,NY,29000,10000,66,71,37,Staten Island University Hospital
5.07,2.50,41.19677,-73.72572,NY,19000,7000,50,68,69,Northern Westchester Hospital
2.84,2.31,43.13562,-77.60602,NY,9000,6000,50,43,10,Highland Hospital
9.73,3.08,40.74083,-73.64306,NY,39000,10000,66,50,74,Winthrop-University Hospital
12.53,3.79,40.73265,-73.98162,NY,52000,13000,50,60,39,Beth Israel Medical Center
3.84,2.40,42.60884,-76.18764,NY,13000,7000,50,60,67,Cortland Regional Medical Center Inc
7.88,2.75,40.87062,-73.62249,NY,31000,8000,50,82,85,Glen Cove Hospital
7.77,2.51,40.80462,-73.67023,NY,30000,7000,83,72,94,St Francis Hospital Roslyn
7.28,2.45,40.94000,-73.05510,NY,28000,7000,50,63,63,John T Mather Memorial Hospital  Of Port Jefferson
4.59,2.45,43.30652,-73.64663,NY,16000,7000,50,63,90,Glens Falls Hospital
13.92,4.46,40.63937,-73.99851,NY,58000,16000,50,45,54,Maimonides Medical Center
11.57,3.69,40.75332,-73.70899,NY,47000,12000,50,45,90,Long Island Jewish Medical Center
6.80,2.71,40.65189,-73.63096,NY,26000,8000,50,52,43,South Nassau Communities Hospital
4.49,2.66,43.04139,-76.13803,NY,16000,8000,50,41,1,Crouse Hospital
7.63,3.06,40.74335,-73.97408,NY,30000,10000,33,63,21,Nyu Hospitals Center
3.66,2.33,43.19054,-77.70177,NY,12000,6000,50,45,82,Unity Hospital Of Rochester
4.47,2.49,42.94136,-76.56474,NY,16000,7000,0,0,0,Auburn Community Hospital
6.60,3.55,40.66762,-73.97850,NY,25000,12000,33,55,29,New York Methodist Hospital
6.06,3.19,43.04269,-76.14043,NY,23000,10000,66,41,3,University Hospital S U N Y Health Science Center
5.17,2.48,43.08176,-75.26587,NY,19000,7000,66,62,24,St Elizabeth Medical Center
3.99,2.85,44.70022,-73.47100,NY,14000,9000,50,55,0,Champlain Valley Physicians Hospital Medical Ctr
9.86,2.62,41.29201,-73.89529,NY,40000,8000,50,82,76,Hudson Valley Hospital Center
4.07,2.29,42.14073,-77.04745,NY,14000,6000,0,0,0,Corning Hospital
3.91,2.28,42.84782,-78.81264,NY,13000,6000,50,68,13,Mercy Hospital
4.08,3.02,43.12266,-77.62360,NY,14000,9000,50,55,21,Strong Memorial Hospital
10.83,2.85,40.69327,-73.29412,NY,44000,9000,50,70,74,Good Samaritan Hospital Medical Center
6.58,2.71,41.02614,-73.76978,NY,25000,8000,50,62,44,White Plains Hospital Center
7.28,2.81,40.77481,-73.47968,NY,28000,9000,50,56,20,Plainview Hospital
11.75,3.07,40.88512,-72.38030,NY,48000,10000,50,88,73,Southampton Hospital
10.22,3.65,40.90922,-73.11520,NY,41000,12000,50,60,44,University Hospital ( Stony Brook )
4.35,2.45,42.11422,-75.95851,NY,15000,7000,66,48,92,United Health Services Hospitals Inc
13.68,3.11,40.85738,-73.18681,NY,57000,10000,50,76,88,St Catherine Of Siena Hospital
4.70,2.44,35.43754,-80.60147,NC,17000,7000,66,65,16,Carolinas Medical Center-Northeast
4.49,2.46,35.57658,-82.54922,NC,16000,7000,66,40,81,Memorial Mission Hospital And Asheville Surgery Ce
4.58,2.37,36.48826,-80.61222,NC,16000,7000,0,0,0,Northern Hospital Of Surry County
5.96,2.70,34.75124,-79.46789,NC,22000,8000,0,0,0,Scotland Memorial Hospital
4.31,2.67,35.39772,-77.95250,NC,15000,8000,50,81,8,Wayne Memorial Hospital
4.02,2.29,35.36251,-81.96692,NC,14000,6000,0,0,0,Rutherford Hospital Inc
4.32,2.57,36.07581,-80.29779,NC,15000,7000,50,52,39,Forsyth Memorial Hospital
4.56,2.35,35.68172,-80.47072,NC,16000,6000,50,80,76,Rowan Regional Medical Center
3.89,2.30,35.32080,-82.46812,NC,13000,6000,0,0,0,Margaret R Pardee Memorial Hospital
6.28,2.20,35.46894,-79.18668,NC,24000,6000,50,77,21,Central Carolina Hospital
5.62,2.41,35.30288,-81.53571,NC,21000,7000,50,71,63,Cleveland Regional Medical Center
5.25,2.31,35.38994,-82.48815,NC,19000,6000,0,0,0,Park Ridge Health
4.47,2.51,35.00670,-78.32412,NC,16000,7000,0,0,0,Sampson Regional Medical Center
4.56,2.42,35.29053,-77.58307,NC,16000,7000,50,63,63,Lenoir Memorial Hospital
7.21,2.69,35.03156,-78.93205,NC,28000,8000,50,50,18,Cape Fear Valley Medical Center
6.68,3.15,36.00850,-78.94006,NC,26000,10000,66,43,76,Duke University Hospital
4.96,2.53,35.27341,-81.13688,NC,18000,7000,50,70,69,Gaston Memorial Hospital
5.22,2.22,35.79986,-80.87863,NC,19000,6000,50,62,95,Iredell Memorial Hospital Inc
6.22,2.96,35.60726,-77.40477,NC,24000,9000,50,46,1,Pitt County Memorial Hospital
5.70,2.39,34.76273,-77.38582,NC,21000,7000,50,58,17,Onslow Memorial Hospital
4.59,3.19,36.09062,-80.27161,NC,16000,10000,83,55,57,North Carolina Baptist Hospital
6.75,2.66,34.63723,-79.01213,NC,26000,8000,50,71,63,Southeastern Regional Medical Center
4.20,2.62,36.19878,-81.65223,NC,15000,8000,0,0,0,Watauga Medical Center
5.40,2.42,35.22196,-80.83287,NC,20000,7000,50,63,13,Presbyterian Hospital
4.36,2.33,36.49464,-79.73929,NC,15000,6000,0,0,0,Morehead Memorial Hospital
3.86,3.18,35.90529,-79.04963,NC,13000,10000,66,41,1,University Of North Carolina Hospital
4.04,2.35,34.33747,-78.69425,NC,14000,6000,0,0,0,Columbus Regional Healthcare System
5.93,2.59,35.78523,-78.58836,NC,22000,8000,33,50,79,Wakemed Raleigh Campus
5.74,2.59,35.30715,-78.63474,NC,21000,8000,0,0,0,Betsy Johnson Regional  Hospital
6.24,2.25,35.82915,-78.61922,NC,24000,6000,50,81,79,Duke Health Raleigh Hospital
4.33,2.53,36.09251,-79.78855,NC,15000,7000,66,66,51,Moses H Cone Memorial Hospital The
4.59,2.27,36.26164,-80.83882,NC,16000,6000,0,0,0,Hugh Chatham Memorial Hospital
5.53,2.33,35.21029,-80.82084,NC,21000,6000,50,53,51,Carolinas Med Center-Mercy
4.77,2.48,36.28555,-76.99489,NC,17000,7000,0,0,0,Roanoke Chowan Hospital
4.95,2.59,36.32690,-76.22370,NC,18000,8000,50,76,54,Albemarle Hospital Authority
6.14,2.87,35.20397,-80.83908,NC,23000,9000,66,63,24,Carolinas Medical Center/Behav Health
5.85,2.29,35.81801,-78.70283,NC,22000,6000,50,65,54,Rex Hospital
4.51,2.34,35.20554,-79.45645,NC,16000,6000,66,60,44,Firsthealth Moore Regional Hospital
8.61,2.56,35.73751,-81.33702,NC,34000,7000,50,67,17,Frye Regional Medical Center
6.72,2.39,35.71850,-77.94518,NC,26000,7000,50,68,88,Wilson Medical Center
5.57,2.19,35.54775,-80.85563,NC,21000,6000,50,82,4,Lake Norman Regional Medical Center
4.43,2.50,34.97382,-80.52250,NC,16000,7000,50,68,69,Carolinas Medical Center-Union
4.24,2.49,35.11420,-77.06568,NC,15000,7000,33,73,90,Carolina East Medical Center
4.60,2.49,36.32959,-78.39916,NC,16000,7000,50,88,41,Maria Parham Medical Center
4.77,2.50,34.23786,-77.94764,NC,17000,7000,83,70,57,New Hanover Regional Medical Center
3.89,2.60,34.72615,-76.75452,NC,13000,8000,0,0,0,Carteret General Hospital
5.20,2.43,35.71664,-81.26661,NC,19000,7000,50,72,63,Catawba Valley Medical Center
6.14,2.41,35.81875,-80.82896,NC,23000,7000,0,0,0,Davis Regional Medical Center
6.09,2.43,35.47011,-81.23593,NC,23000,7000,0,0,0,Carolinas Medical Center-Lincoln
5.29,2.63,35.97538,-77.85012,NC,19000,8000,50,65,13,Nash General Hospital
5.47,2.47,36.43295,-77.64729,NC,20000,7000,0,0,0,Halifax Regional Medical Center Inc
4.58,2.48,36.04960,-78.90617,NC,16000,7000,50,51,69,Durham Regional Hospital
5.02,2.41,35.30611,-80.74708,NC,18000,7000,50,75,42,Carolinas Med Ctr-University
5.08,2.40,35.11432,-80.71971,NC,19000,7000,0,0,0,Presbyterian Hospital Matthews
6.46,2.26,35.74046,-78.78127,NC,25000,6000,50,72,13,Wakemed Cary Hospital
3.58,2.26,35.40634,-80.86005,NC,12000,6000,0,0,0,Presbyterian Hospital Huntersville
4.42,2.25,35.52586,-82.94351,NC,16000,6000,0,0,0,Medwest Haywood
3.18,2.23,46.80739,-100.77773,ND,10000,6000,50,72,76,St Alexius Medical Center
4.18,2.35,48.23258,-101.28843,ND,15000,6000,50,72,48,Trinity Hospitals
3.96,2.46,46.88496,-96.78609,ND,14000,7000,66,61,48,Sanford Medical Center Fargo
3.17,2.50,46.80798,-100.78229,ND,10000,7000,50,77,5,Medcenter One
5.06,2.49,47.91045,-97.06742,ND,18000,7000,83,53,1,Altru Hospital
4.18,2.34,46.83250,-96.82805,ND,15000,6000,33,77,20,Essentia Health-Fargo
4.38,2.29,39.08582,-84.34886,OH,15000,6000,50,72,85,Mercy Hospital Anderson
5.19,3.25,39.13707,-84.50392,OH,19000,10000,66,45,21,University Hospital Inc
6.46,2.39,40.03064,-83.03440,OH,25000,7000,83,71,21,Riverside Methodist Hospital
4.73,2.20,40.73578,-84.08630,OH,17000,6000,75,61,13,Lima Memorial Health System
4.51,2.36,40.57098,-83.12972,OH,16000,7000,50,91,48,Marion General Hospital
3.60,2.39,40.11479,-82.94677,OH,12000,7000,50,66,12,Mount Carmel St Ann'S Hospital
5.17,2.40,39.20680,-84.38093,OH,19000,7000,50,76,94,Jewish Hospital Llc
6.63,2.66,39.96098,-82.99077,OH,25000,8000,66,78,21,Grant Medical Center
8.30,2.77,41.08161,-81.50007,OH,33000,8000,66,63,33,Summa Health Systems Hospitals
4.80,2.29,41.44642,-82.70864,OH,17000,6000,50,86,18,Firelands Regional Medical Center
5.56,2.45,41.07747,-81.53042,OH,21000,7000,66,70,63,Akron General Medical Center
3.48,2.43,39.95805,-83.02191,OH,11000,7000,66,42,1,Mount Carmel Health
2.27,2.16,40.82041,-81.93422,OH,6000,6000,0,0,0,Wooster Community Hospital
5.37,2.50,39.97510,-82.01812,OH,20000,7000,50,78,92,Genesis Healthcare System
5.82,2.33,40.39967,-82.44822,OH,22000,6000,0,0,0,Knox Community Hospital
4.02,2.12,41.38265,-81.73127,OH,14000,5000,50,75,94,Parma Community General Hospital
6.97,2.94,41.61788,-83.61632,OH,27000,9000,66,68,6,University Of Toledo Medical Center
9.24,2.45,39.74547,-84.18523,OH,37000,7000,66,45,1,Miami Valley Hospital
10.07,2.47,39.78778,-84.23493,OH,41000,7000,66,56,16,Good Samaritan Hospital
4.27,2.32,38.84439,-82.23902,OH,15000,6000,0,0,0,Holzer Medical Center
8.40,2.22,41.23549,-80.79865,OH,33000,6000,66,56,0,Trumbull Memorial Hospital
6.67,2.98,39.31257,-84.51774,OH,26000,9000,50,90,69,Mercy Hospital Fairfield
5.47,3.16,41.46088,-81.69763,OH,20000,10000,50,60,24,Metro Health Medical Center
5.77,2.35,41.11441,-80.65565,OH,22000,6000,83,48,21,St Elizabeth Health Center
5.76,2.32,40.74115,-84.11804,OH,22000,6000,66,73,6,St Rita'S Medical Center
9.06,2.47,41.67775,-83.59589,OH,36000,7000,33,70,57,Toledo Hospital The
3.08,2.32,40.81219,-81.39625,OH,10000,6000,50,62,43,Mercy Medical Center
8.62,2.25,39.49896,-84.31496,OH,34000,6000,50,63,33,Atrium Medical Center
6.28,2.34,41.45013,-81.82397,OH,24000,6000,66,60,18,Fairview Hospital
6.25,2.28,41.17554,-81.24915,OH,24000,6000,50,76,37,Robinson Memorial Hospital
5.84,2.30,39.69724,-84.19232,OH,22000,6000,66,80,57,Kettering Medical Center
8.51,2.39,41.63639,-83.48640,OH,34000,7000,50,83,56,Mercy St Charles Hospital
4.04,2.37,40.79609,-81.40360,OH,14000,7000,50,63,17,Aultman Hospital
7.29,2.92,39.99445,-83.01872,OH,28000,9000,66,50,2,Ohio State University Hospitals
5.69,2.45,39.92755,-83.81573,OH,21000,7000,50,67,48,Springfield Regional Medical Center
4.30,2.17,41.13762,-81.83820,OH,15000,6000,50,90,85,Medina Hospital
3.66,2.22,41.01785,-83.65165,OH,12000,6000,50,82,69,Blanchard Valley Hospital
6.45,2.16,41.66317,-81.24696,OH,25000,6000,50,73,39,Lake Health
8.26,2.94,41.66810,-83.54275,OH,33000,9000,50,70,5,Mercy St Vincent Medical Center
5.11,2.07,39.13628,-84.60485,OH,19000,5000,50,77,95,Mercy Franciscan Hospital Western Hills
5.64,2.25,40.75264,-82.52803,OH,21000,6000,83,81,92,Medcentral Health System
4.45,2.32,41.43653,-81.94451,OH,16000,6000,50,72,76,St John Medical Center
9.72,2.70,39.13975,-84.52173,OH,39000,8000,66,83,69,Good Samaritan Hospital
6.98,3.14,41.50772,-81.60592,OH,27000,10000,83,46,44,University Hospitals Of Cleveland
6.69,2.17,41.42112,-81.59808,OH,26000,6000,50,82,21,Marymount Hospital
7.00,2.41,41.44829,-81.53736,OH,27000,7000,50,81,21,South Pointe Hospital
4.71,2.21,41.36649,-82.09708,OH,17000,6000,66,75,98,Emh Regional Medical Center
5.52,2.15,39.43061,-81.46454,OH,21000,6000,50,71,99,Marietta Memorial Hospital
7.66,2.96,39.95311,-83.13803,OH,30000,9000,50,48,48,Doctors Hospital
6.84,2.19,41.37028,-81.83189,OH,26000,6000,50,71,74,Southwest General Health Center
4.40,2.42,41.33913,-83.13441,OH,16000,7000,0,0,0,Memorial Hospital
4.17,2.37,39.39463,-82.96979,OH,15000,7000,50,50,24,Adena Regional Medical Center
5.40,2.52,39.12105,-84.51059,OH,20000,7000,83,46,88,Christ Hospital
3.65,2.46,39.61034,-82.93633,OH,12000,7000,0,0,0,Berger Hospital
5.85,2.29,41.43688,-82.23761,OH,22000,6000,50,82,69,Mercy Regional Medical Center
6.89,2.21,40.08748,-84.22920,OH,27000,6000,33,82,54,Upper Valley Medical Center
8.18,2.33,39.25076,-84.34341,OH,32000,6000,50,62,99,Bethesda North Hospital
7.65,2.72,41.50248,-81.62110,OH,30000,8000,33,32,24,Cleveland Clinic
3.93,2.24,40.90093,-80.83181,OH,13000,6000,0,0,0,Salem Community Hospital
3.94,2.47,40.04876,-82.45029,OH,14000,7000,50,76,97,Licking Memorial Hospital
5.92,2.18,41.52013,-81.43291,OH,22000,6000,66,45,37,Hillcrest Hospital
5.80,2.23,39.63778,-84.24864,OH,22000,6000,50,82,24,Kettering Medical Center - Sycamore
4.79,2.20,40.99498,-80.66192,OH,17000,6000,50,70,29,St Elizabeth Boardman Health Center
7.75,2.81,36.14687,-95.96841,OK,30000,8000,83,76,32,Hillcrest Medical Center
6.92,2.23,35.22999,-97.44074,OK,27000,6000,50,73,21,Norman Regional Health System
7.39,2.34,35.60735,-97.59693,OK,29000,6000,66,51,6,Mercy Health Center Inc
4.40,2.15,36.75199,-95.94089,OK,16000,6000,0,0,0,Jane Phillips Medical Center
4.93,2.33,34.52030,-97.97604,OK,18000,6000,0,0,0,Duncan Regional Hospital Inc
5.12,2.27,35.75351,-95.40612,OK,19000,6000,50,70,3,Muskogee Regional Medical Center
9.21,2.69,35.52960,-97.57496,OK,37000,8000,100,76,90,Integris Baptist Medical Center
6.26,2.26,35.52531,-97.58461,OK,24000,6000,75,76,48,Deaconess Hospital
5.02,2.17,34.93621,-95.74888,OK,18000,6000,0,0,0,Mcalester Regional Health Center
4.55,2.27,34.60992,-98.43419,OK,16000,6000,50,62,48,Comanche County Memorial Hospital
3.77,2.20,35.91530,-94.94996,OK,13000,6000,50,68,63,Tahlequah City Hospital
5.18,2.45,36.06135,-95.95154,OK,19000,7000,83,61,44,Saint Francis Hospital Inc
7.37,2.91,35.48138,-97.49624,OK,29000,9000,66,45,1,O U Medical Center
8.01,2.46,35.42168,-97.53306,OK,32000,7000,66,70,24,Integris Southwest Medical Center
4.38,2.27,36.13393,-95.96718,OK,15000,6000,50,51,11,St John Medical Center Inc
6.26,2.30,36.03590,-95.86511,OK,24000,6000,50,60,29,Southcrest Hospital
5.79,2.15,35.60901,-97.59429,OK,22000,6000,75,96,29,Oklahoma Heart Hospital
6.78,2.11,35.38969,-97.42688,OK,26000,5000,50,100,90,Oklahoma Heart Hospital South
5.38,2.84,45.58783,-121.16575,OR,20000,9000,0,0,0,Mid-Columbia Medical Center
4.75,2.45,42.42112,-123.34326,OR,17000,7000,0,0,0,Three Rivers Community Hospital
5.05,3.00,45.50973,-122.77368,OR,18000,9000,33,55,13,Providence St Vincent Medical Center
4.86,2.41,44.60322,-123.25312,OR,18000,7000,33,58,5,Good Samaritan Regional Medical Center
5.59,2.73,42.31769,-122.83333,OR,21000,8000,66,61,90,Rogue Valley Medical Center
3.44,3.13,44.28804,-121.16952,OR,11000,10000,0,0,0,St Charles Medical Center - Redmond
4.01,2.52,44.06773,-121.26817,OR,14000,7000,66,70,37,St Charles Medical Center - Bend
5.69,2.49,44.93267,-123.03418,OR,21000,7000,66,72,24,Salem Hospital
5.07,2.50,44.02542,-116.97678,OR,19000,7000,0,0,0,St Alphonsus Medical Center - Ontario Inc
4.02,2.46,45.52677,-122.61469,OR,14000,7000,66,75,0,Providence Portland Medical Center
5.34,2.72,42.34086,-122.86108,OR,20000,8000,50,61,54,Providence Medford Medical Center
4.62,2.63,44.08146,-123.02694,OR,17000,8000,50,60,24,Sacred Heart Medical Center - Riverbend
6.63,2.15,40.25296,-76.92151,PA,25000,6000,83,85,95,Holy Spirit Hospital
9.21,3.01,40.96789,-76.60506,PA,37000,9000,33,56,13,Geisinger Medical Center
10.84,2.47,42.11102,-80.07912,PA,44000,7000,50,72,57,Saint Vincent Health Center
7.97,3.01,40.25092,-75.27204,PA,31000,9000,50,81,76,Lansdale Hospital
3.35,2.17,40.97877,-76.88593,PA,11000,6000,0,0,0,Evangelical Community Hospital
14.21,2.50,40.07880,-75.21107,PA,59000,7000,50,70,37,Chestnut Hill Hospital
17.34,3.55,40.00504,-75.15155,PA,73000,12000,83,57,33,Temple University Hospital
3.35,2.32,40.68423,-76.18761,PA,11000,6000,0,0,0,Schuylkill Medical Center - South Jackson Street
10.97,2.31,40.43850,-75.34895,PA,45000,6000,0,0,0,St Luke'S Quakertown Hospital
4.05,2.32,40.71251,-80.32136,PA,14000,6000,33,66,48,Heritage Valley Beaver
6.07,2.65,40.33271,-75.95020,PA,23000,8000,50,67,21,Reading Hospital Medical Center
4.79,2.35,41.24548,-77.01438,PA,17000,6000,50,57,37,Williamsport Regional Medical Center
4.22,2.70,39.94604,-76.71884,PA,15000,8000,66,45,8,York Hospital
4.39,2.30,40.61795,-77.56734,PA,15000,6000,0,0,0,Lewistown Hospital
9.21,2.51,40.60811,-75.39260,PA,37000,7000,66,53,57,St Luke'S Hospital Bethlehem
7.57,2.49,40.36358,-75.32621,PA,30000,7000,50,53,43,Grand View Hospital
12.43,3.96,42.13338,-80.08703,PA,51000,14000,66,50,33,Upmc Hamot
4.12,2.32,39.82440,-77.23455,PA,14000,6000,0,0,0,Gettysburg Hospital
6.47,2.23,40.32799,-76.44588,PA,25000,6000,50,58,69,Good Samaritan Hospital
4.41,2.57,40.25661,-76.87572,PA,16000,7000,83,47,0,Pinnacle Health Hospitals
5.30,2.28,40.52204,-78.39824,PA,20000,6000,83,61,39,Altoona Regional Health System
11.48,2.33,40.00955,-75.78622,PA,47000,6000,50,73,63,Brandywine Hospital
5.58,2.53,41.98012,-76.52072,PA,21000,7000,50,65,48,Robert Packer Hospital
4.68,2.25,41.11492,-78.77515,PA,17000,6000,50,76,43,Dubois Regional Medical Center
4.94,2.54,40.37587,-75.97750,PA,18000,7000,50,70,51,St Joseph Medical Center
17.38,2.42,40.11139,-75.09250,PA,73000,7000,50,72,69,Holy Redeemer Hospital And Medical Center
6.13,2.34,40.04740,-76.30540,PA,23000,6000,66,60,82,Lancaster General Hospital
7.31,2.73,40.48928,-79.89596,PA,28000,8000,50,72,63,Upmc St Margaret
7.85,2.16,40.57319,-80.01455,PA,31000,6000,50,57,48,Upmc Passavant
4.80,2.48,40.32674,-78.92197,PA,17000,7000,50,61,3,Conemaugh Valley Memorial Hospital
12.77,3.15,39.95045,-75.19259,PA,53000,10000,50,33,39,Hospital Of Univ Of Pennsylvania
5.44,2.32,41.64205,-80.14579,PA,20000,6000,50,86,92,Meadville Medical Center
12.87,2.71,40.07160,-74.98341,PA,53000,8000,33,67,5,Aria Health
11.82,2.27,40.12344,-75.51493,PA,48000,6000,50,62,12,Phoenixville Hospital
8.90,2.61,40.60000,-75.47000,PA,35000,8000,66,58,54,Lehigh Valley Hospital
7.57,2.54,41.25860,-75.86729,PA,30000,7000,50,60,79,Wilkes-Barre General Hospital
11.98,2.38,40.01883,-75.32115,PA,49000,7000,50,71,85,Main Line Hospital Bryn Mawr Campus
8.42,3.53,40.03678,-75.14351,PA,33000,12000,66,62,4,Albert Einstein Medical Center
4.46,2.12,40.30103,-79.55505,PA,16000,5000,66,80,17,Excela Health Westmoreland Regional Hospital
5.02,2.37,39.93492,-77.64744,PA,18000,7000,50,58,48,Chambersburg Hospital
11.08,2.24,40.04475,-75.50425,PA,45000,6000,50,71,20,Main Line Hospital Paoli
12.14,2.98,39.92871,-75.26873,PA,50000,9000,66,65,17,Mercy Fitzgerald Hospital
12.43,2.51,40.68708,-75.24272,PA,51000,7000,66,68,3,Easton Hospital
11.40,2.97,40.44190,-79.96044,PA,47000,9000,83,55,11,Upmc Presbyterian Shadyside
10.44,3.43,39.94969,-75.15712,PA,42000,11000,66,41,57,Thomas Jefferson University Hospital
4.53,2.12,41.41133,-80.37169,PA,16000,5000,50,56,79,Upmc Horizon
6.65,2.31,39.97024,-75.60259,PA,26000,6000,33,75,18,Chester County Hospital
29.29,2.77,39.85598,-75.36791,PA,126000,8000,66,56,13,Crozer Chester Medical Center
12.26,2.93,39.98905,-75.27707,PA,50000,9000,50,53,24,Main Line Hospital Lankenau
5.95,2.66,40.99225,-75.17466,PA,22000,8000,50,90,63,Pocono Medical Center
7.85,2.32,40.30531,-75.14763,PA,31000,6000,33,83,92,Doylestown Hospital
11.46,2.69,39.91254,-75.43047,PA,47000,8000,50,90,79,Riddle Memorial Hospital
7.40,2.24,40.18739,-76.18224,PA,29000,6000,50,72,6,Ephrata Community Hospital
13.07,2.80,39.94560,-75.15561,PA,54000,8000,50,56,69,Pennsylvania Hosp Of The Univ Of Pa Health Sys
4.85,2.06,40.37782,-80.06589,PA,18000,5000,66,81,21,St Clair Memorial Hospital
12.70,2.45,40.12077,-75.11818,PA,52000,7000,83,51,43,Abington Memorial Hospital
3.62,2.43,39.80858,-76.98306,PA,12000,7000,0,0,0,Hanover Hospital
5.43,2.20,41.41276,-75.65399,PA,20000,6000,50,67,85,Regional Hospital Of Scranton
4.88,2.94,40.26468,-76.67582,PA,18000,9000,66,40,3,Milton S Hershey Medical Center
9.04,2.36,40.20064,-74.92952,PA,36000,6000,33,71,44,St Mary Medical Center
9.25,2.41,40.64463,-75.40842,PA,37000,7000,66,66,8,Lehigh Valley Hospital - Muhlenberg
3.77,2.12,40.31802,-79.93494,PA,13000,5000,50,83,88,Jefferson Regional Medical Center
5.16,2.27,40.42897,-79.74808,PA,19000,6000,50,57,57,Western Pennsylvania Hosp Forbes Regional Campus
5.27,2.21,40.81936,-77.84273,PA,19000,6000,50,91,57,Mount Nittany Medical Center
6.75,2.39,41.25855,-75.81041,PA,26000,7000,66,86,2,Geisinger Wyoming Valley Medical Center
5.58,2.50,41.85574,-71.45945,RI,21000,7000,50,67,76,St Joseph Health Services Of Ri
5.57,2.37,41.49735,-71.30619,RI,21000,7000,0,0,0,Newport Hospital
7.30,3.06,41.81254,-71.40760,RI,28000,10000,33,48,6,Rhode Island Hospital
6.80,2.51,41.85172,-71.39826,RI,26000,7000,66,51,63,Miriam Hospital
5.26,2.31,34.95535,-81.05137,SC,19000,6000,50,75,33,Piedmont Medical Center
4.68,3.23,32.78272,-79.94543,SC,17000,10000,33,76,69,Musc Medical Center
5.73,2.51,34.96733,-81.94021,SC,21000,7000,33,60,54,Spartanburg Regional Medical Center
5.71,2.26,34.69403,-82.98884,SC,21000,6000,0,0,0,Oconee Medical Center
11.03,2.84,34.02839,-81.03539,SC,45000,9000,33,43,21,Palmetto Health Richland
8.02,2.30,34.83965,-82.42147,SC,32000,6000,66,66,11,St Francis-Downtown
4.55,2.18,34.01469,-81.01343,SC,16000,6000,50,85,29,Sisters Of Charity Providence Hospitals
7.58,2.46,34.51119,-82.64683,SC,30000,7000,50,61,94,Anmed Health
10.69,2.34,34.71787,-80.78844,SC,43000,6000,50,83,79,Springs Memorial Hospital
8.41,2.41,34.19543,-79.76256,SC,33000,7000,50,50,79,Mcleod Regional Medical Center-Pee Dee
6.62,2.30,34.18661,-79.32541,SC,25000,6000,0,0,0,Marion Regional Hospital
7.33,2.37,32.80878,-80.04216,SC,29000,7000,50,61,69,Bon Secours-St Francis Xavier Hospital
5.59,2.46,32.33977,-80.68817,SC,21000,7000,25,65,29,Beaufort County Memorial Hospital
6.46,2.49,33.62185,-80.74922,SC,25000,7000,33,70,8,Trmc Of Orangeburg & Calhoun
3.80,2.38,33.92320,-80.34308,SC,13000,7000,50,82,81,Tuomey Healthcare System
8.76,2.92,34.17571,-82.15791,SC,35000,9000,66,65,20,Self Regional Healthcare
7.31,2.24,34.00533,-81.11393,SC,28000,6000,66,63,48,Lexington Medical Center
7.48,2.68,34.81904,-82.41308,SC,29000,8000,50,55,17,Greenville Memorial Hospital
7.90,2.85,32.97605,-80.07302,SC,31000,9000,50,56,48,Trident Medical Center
5.79,2.75,32.22325,-80.71444,SC,22000,8000,0,0,0,Hilton Head Regional Medical Center
9.84,2.78,34.94957,-81.93205,SC,40000,8000,50,47,88,Mary Black Memorial Hospital
6.08,2.19,33.70704,-78.89487,SC,23000,6000,66,50,57,Grand Strand Reg Med Center
8.39,2.38,34.00754,-81.03270,SC,33000,7000,33,66,37,Palmetto Health Baptist
7.17,2.32,32.78211,-79.95018,SC,28000,6000,50,66,29,Roper Hospital
11.89,2.35,34.19543,-79.76256,SC,49000,6000,33,66,13,Carolinas Hospital System
6.28,2.10,33.59553,-79.02412,SC,24000,5000,50,76,39,Waccamaw Community Hospital
3.77,2.36,44.91113,-97.12063,SD,13000,6000,0,0,0,Prairie Lakes Hospital
5.41,2.46,42.87249,-97.40741,SD,20000,7000,0,0,0,Avera Sacred Heart Hospital
5.25,2.44,43.71370,-98.00748,SD,19000,7000,0,0,0,Avera Queen Of Peace
5.22,2.52,45.46141,-98.47929,SD,19000,7000,0,0,0,Avera St Lukes
5.23,2.55,43.53460,-96.71136,SD,19000,7000,66,60,81,Avera Mckennan Hospital & University Health Center
5.61,2.42,43.53562,-96.74305,SD,21000,7000,66,82,57,Sanford Usd Medical Center
5.41,2.92,44.05563,-103.22633,SD,20000,9000,66,42,82,Rapid City Regional Hospital
5.97,2.25,43.49092,-96.78037,SD,22000,6000,0,0,0,Avera Heart Hospital Of South Dakota Llc
3.64,2.34,35.63906,-88.83207,TN,12000,6000,66,53,27,Jackson-Madison County General Hospital
5.26,2.24,35.93917,-85.01865,TN,19000,6000,50,65,44,Cumberland Medical Center
5.26,2.12,35.75588,-83.95808,TN,19000,5000,50,75,48,Blount Memorial Hospital
4.96,2.22,36.58587,-82.25703,TN,18000,6000,50,62,48,Wellmont Bristol Regional Medical Center
4.44,2.43,35.93985,-83.94326,TN,16000,7000,33,62,20,University Of Tn Memorial Hospital
4.73,2.16,36.55401,-82.55483,TN,17000,6000,50,58,33,Wellmont Holston Valley Medical Center
6.54,2.17,36.34603,-82.24972,TN,25000,6000,0,0,0,Sycamore Shoals Hospital
3.82,2.09,36.17561,-82.79033,TN,13000,5000,0,0,0,Laughlin Memorial Hospital Inc
3.58,2.15,35.91595,-86.81799,TN,12000,6000,50,58,39,Williamson Medical Center
3.70,2.00,35.98589,-84.28055,TN,12000,5000,66,62,79,Methodist Medical Center Of Oak Ridge
8.10,2.31,36.58199,-87.27050,TN,32000,6000,50,95,39,Gateway Medical Center
5.18,2.91,36.14316,-86.80048,TN,19000,9000,50,43,43,Vanderbilt University Hospital
5.92,2.39,34.50579,-92.96678,TN,22000,7000,0,0,0,Horizon Medical Center
6.73,2.35,35.12837,-89.86202,TN,26000,6000,50,43,39,Baptist Memorial Hospital
6.42,2.66,35.13640,-90.01928,TN,24000,8000,66,51,37,Methodist Healthcare Memphis Hospitals
5.56,2.32,36.15127,-82.84593,TN,21000,6000,0,0,0,Takoma Regional Hospital
5.04,2.22,35.86074,-86.42434,TN,18000,6000,33,87,16,Middle Tennessee Medical Center Inc
5.16,2.36,35.17733,-86.09081,TN,19000,6000,0,0,0,Southern Tennessee Medical Center
3.99,2.28,36.17121,-85.50938,TN,14000,6000,50,73,98,Cookeville Regional Medical Center
6.18,2.46,36.30767,-82.38497,TN,23000,7000,83,50,21,Johnson City Medical Center
3.53,2.19,35.60668,-87.06635,TN,12000,6000,50,72,74,Maury Regional Hospital
4.12,2.20,35.85418,-83.53731,TN,14000,6000,50,88,33,Leconte Medical Center
4.73,2.19,36.12859,-86.84559,TN,17000,6000,16,75,98,St Thomas Hospital
6.05,2.19,35.04157,-85.26037,TN,23000,6000,33,72,99,Memorial Healthcare System Inc
5.18,2.56,35.05068,-85.28823,TN,19000,7000,50,52,0,Erlanger Medical Center
5.09,2.14,35.99233,-83.92697,TN,19000,6000,50,56,85,Tennova Healthcare
4.13,2.12,35.95747,-83.93660,TN,14000,5000,33,56,44,Fort Sanders Regional Medical Center
5.23,2.30,36.15388,-86.80249,TN,19000,6000,66,66,63,Baptist Hospital
6.82,2.23,35.36202,-86.20943,TN,26000,6000,0,0,0,Harton Regional Medical Center
6.19,2.24,36.17752,-86.60840,TN,23000,6000,50,76,29,Summit Medical Center
7.05,2.54,35.03467,-85.26735,TN,27000,7000,50,56,33,Parkridge Medical Center
7.67,2.44,36.15310,-86.80910,TN,30000,7000,66,68,81,Centennial Medical Center
4.12,2.16,35.91765,-84.10080,TN,14000,6000,33,72,82,Parkwest Medical Center
4.86,2.02,35.24230,-87.33474,TN,18000,5000,0,0,0,Crockett Hospital
11.28,3.03,35.09925,-89.86301,TN,46000,9000,50,62,57,St Francis Hospital
7.98,2.28,35.17731,-84.86873,TN,31000,6000,50,68,37,Skyridge Medical Center
6.19,2.28,35.68445,-88.85461,TN,23000,6000,50,73,57,Regional Hospital Of Jackson
6.31,2.32,36.32443,-86.62304,TN,24000,6000,50,86,8,Hendersonville Medical Center
13.58,2.25,35.20713,-89.80059,TN,56000,6000,50,77,82,Saint Francis Bartlett Medical Center
4.65,2.28,30.04413,-99.15217,TX,17000,6000,50,71,74,Peterson Regional Medical Center
7.95,2.42,33.90296,-98.50035,TX,31000,7000,66,86,48,United Regional Health Care System
8.89,2.40,30.65598,-96.34672,TX,35000,7000,50,57,32,St Joseph Regional Health Center
7.58,3.52,32.81043,-96.83699,TX,30000,12000,33,58,44,Parkland Health And Hospital System
5.28,4.31,29.31233,-94.77317,TX,19000,15000,66,55,21,University Of Texas Medical Branch Gal
5.97,2.75,32.78994,-96.78044,TX,22000,8000,83,58,33,Baylor University Medical Center
6.64,2.15,28.81269,-96.97780,TX,25000,6000,50,71,54,Citizens Medical Center
7.97,2.27,30.08729,-94.13292,TX,31000,6000,66,86,79,Christus Hospital
9.68,3.03,29.74802,-95.36609,TX,39000,9000,50,65,54,St Joseph Medical Center
7.10,2.30,32.50219,-94.73025,TX,28000,6000,50,73,85,Good Shepherd Medical Center
14.82,2.29,33.57524,-101.89272,TX,62000,6000,50,41,48,Covenant Medical Center
5.93,2.16,31.51444,-97.19927,TX,22000,6000,50,50,33,Providence Health Center
7.08,2.66,32.81224,-96.83795,TX,27000,8000,33,63,29,Ut Southwestern University Hospital
10.61,2.44,27.77751,-97.39515,TX,43000,7000,83,57,95,Christus Spohn Hospital Corpus Christi
7.08,2.89,32.76017,-96.82437,TX,27000,9000,50,40,3,Methodist Dallas Medical Center
5.10,2.72,31.07837,-97.36403,TX,19000,8000,50,56,85,Scott & White Memorial Hospital
9.17,2.30,30.30491,-97.74540,TX,37000,6000,16,56,63,Seton Medical Center Austin
8.34,2.42,29.43360,-98.49265,TX,33000,7000,66,61,24,Baptist Medical Center
6.91,2.28,32.74944,-97.11630,TX,27000,6000,66,55,63,Texas Health Arlington Memorial Hospital
9.96,3.39,29.71431,-95.39680,TX,40000,11000,66,46,13,Memorial Hermann Texas Medical Center
5.77,2.35,32.83520,-96.96101,TX,22000,6000,66,63,24,Baylor Medical Center At Irving
11.21,2.24,32.33824,-95.29122,TX,46000,6000,50,55,92,East Texas Medical Center
4.54,2.39,31.48969,-97.15613,TX,16000,7000,50,53,39,Hillcrest Baptist Medical Center
9.86,2.20,32.34280,-95.29201,TX,40000,6000,50,60,98,Mother Frances Hospital
5.40,2.33,29.56876,-97.94776,TX,20000,6000,0,0,0,Guadalupe Regional Medical Center
14.65,2.83,26.26353,-98.18455,TX,61000,9000,66,91,74,South Texas Health System
6.35,2.50,31.84507,-102.37373,TX,24000,7000,33,82,29,Medical Center Hospital
5.23,2.36,31.99616,-102.09950,TX,19000,7000,50,55,37,Midland Memorial Hospital
6.94,2.39,32.73780,-97.33899,TX,27000,7000,66,55,57,Texas Health Harris Methodist Fort Worth
6.30,2.59,32.73070,-97.34379,TX,24000,8000,66,57,74,Baylor All Saints Medical Center At Fw
12.35,2.34,28.80765,-96.99896,TX,51000,6000,50,76,6,Detar Hospital Navarro
5.85,2.28,31.11326,-97.80076,TX,22000,6000,0,0,0,Metroplex Hospital
6.74,2.61,29.81230,-95.43010,TX,26000,8000,66,62,69,Memorial Hermann Hospital System
7.33,2.95,29.70719,-95.40048,TX,29000,9000,66,43,1,St Lukes Episcopal Hospital
5.40,2.36,33.65984,-95.54752,TX,20000,6000,50,76,48,Paris Regional Medical Center
11.12,2.21,32.74765,-97.78477,TX,45000,6000,0,0,0,Weatherford Regional Medical Center
9.55,2.14,31.33632,-94.74205,TX,38000,5000,50,71,63,Memorial Health System Of East Texas- Lufkin
11.96,2.40,30.28473,-95.46714,TX,49000,7000,33,52,48,Conroe Regional Medical Center
6.97,2.40,32.47171,-99.73315,TX,27000,7000,66,86,39,Hendrick Medical Center
5.78,2.15,35.19533,-101.91907,TX,22000,6000,66,60,21,Baptist St Anthonys Health System-Baptist Campus
6.97,2.92,29.42825,-98.49859,TX,27000,9000,50,80,20,Christus Santa Rosa Hospital
6.54,2.77,32.91949,-96.66214,TX,25000,8000,50,76,44,Baylor Medical Center At Garland
4.80,3.28,29.68674,-95.38652,TX,17000,11000,83,78,29,Harris County Hospital District
6.54,2.37,33.71085,-96.58493,TX,25000,7000,50,57,21,Texoma Medical Center
6.96,2.32,31.42009,-100.47013,TX,27000,6000,50,53,82,San Angelo Community Medical Center
7.91,2.34,30.07104,-94.11927,TX,31000,6000,83,63,85,Memorial Hermann Baptist Beaumont Hospital
6.25,2.36,30.69934,-95.55927,TX,24000,6000,0,0,0,Huntsville Memorial Hospital
5.64,2.40,33.12242,-96.12404,TX,21000,7000,50,78,54,Hunt Regional Medical Center
9.64,2.63,29.71020,-95.39956,TX,39000,8000,100,60,13,Methodist Hospitalthe
5.74,2.31,32.39611,-96.86404,TX,21000,6000,0,0,0,Baylor Medical Center At Waxahachie
9.77,2.49,29.50795,-98.57224,TX,39000,7000,66,62,57,Methodist Hospital
14.23,2.32,32.17167,-95.84417,TX,59000,6000,0,0,0,East Texas Medical Center Athens
7.96,2.58,30.28957,-97.72584,TX,31000,7000,66,81,63,St Davids Medical Center
6.50,2.44,32.88076,-96.76226,TX,25000,7000,66,66,3,Texas Health Presbyterian Hospital  Dallas
14.24,2.27,32.40574,-99.76486,TX,59000,6000,75,57,76,Abilene Regional Medical Center
6.97,2.23,31.67746,-98.99374,TX,27000,6000,0,0,0,Brownwood Regional Medical Center
6.43,2.31,29.78143,-95.54541,TX,25000,6000,83,77,92,Memorial Hermann Memorial City Medical Center
14.95,2.37,29.54043,-95.12730,TX,62000,7000,66,51,21,Clear Lake Regional Medical Center
