size,lat,lon,price,name
3.14,34.46784,-93.06667,21793.31,ST JOSEPHS MERCY HEALTH CENTER INC
2.20,36.34295,-92.39442,7947.93,BAXTER REGIONAL MEDICAL CENTER
3.36,35.28275,-93.14901,24933.38,ST MARYS REGIONAL MEDICAL CENTER
2.65,35.37445,-94.41868,14506.38,SPARKS REGIONAL MEDICAL CENTER
3.16,34.18894,-92.01886,22043.48,JEFFERSON REGIONAL MEDICAL CENTER
3.77,34.48600,-93.03521,31019.00,NATIONAL PARK MEDICAL CENTER
3.10,34.74866,-92.35422,21184.62,BAPTIST HEALTH MEDICAL CENTER-LITTLE ROCK
2.96,35.80838,-90.66658,19072.10,NEA BAPTIST MEMORIAL HOSPITAL
3.00,35.76927,-91.63408,19628.64,WHITE RIVER MEDICAL CENTER
4.51,38.32472,-122.29671,41771.00,QUEEN OF THE VALLEY MEDICAL CENTER
3.43,35.11346,-120.59054,26021.31,ARROYO GRANDE COMMUNITY HOSPITAL
5.10,38.57053,-121.45216,50416.68,MERCY GENERAL HOSPITAL
3.24,39.50528,-121.54100,23270.12,OROVILLE HOSPITAL
4.47,35.38736,-119.01690,41219.29,BAKERSFIELD MEMORIAL HOSPITAL
4.59,37.79100,-122.43125,42963.13,CALIFORNIA PACIFIC MEDICAL CTR-PACIFIC CAMPUS HOSP
3.04,34.67486,-118.15771,20242.04,ANTELOPE VALLEY HOSPITAL MED CENTER
4.06,36.32737,-119.29548,35263.56,KAWEAH DELTA MEDICAL CENTER
3.81,34.12834,-118.25777,31541.14,GLENDALE MEM HOSPITAL & HLTH CENTER
4.22,33.78036,-117.86495,37501.56,ST JOSEPH HOSPITAL
4.66,37.96987,-121.28873,43990.95,ST JOSEPHS MED CENTER OF STOCKTON
3.39,36.83532,-119.76562,25347.69,SAINT AGNES MEDICAL CENTER
3.77,34.10130,-117.63651,31019.86,SAN ANTONIO COMMUNITY HOSPITAL
4.63,32.79949,-117.15394,43603.64,SHARP MEMORIAL HOSPITAL
4.15,34.95099,-120.41322,36584.13,MARIAN MEDICAL CENTER
4.60,38.57155,-121.46874,43196.54,SUTTER GENERAL HOSPITAL
2.35,34.64075,-120.43958,10187.54,LOMPOC VALLEY MEDICAL CENTER
4.62,34.02685,-118.48651,43451.33,SANTA MONICA - UCLA MED CTR & ORTHOPAEDIC HOSPITAL
3.65,36.32362,-119.66726,29202.04,ADVENTIST MEDICAL CENTER
5.65,37.36257,-121.84974,58511.46,REGIONAL MEDICAL CENTER OF SAN JOSE
3.78,33.18402,-117.29661,31169.40,TRI-CITY MEDICAL CENTER
4.46,39.13822,-121.59436,41148.21,RIDEOUT MEMORIAL HOSPITAL
4.88,38.25455,-122.63177,47234.18,PETALUMA VALLEY HOSPITAL
3.73,39.22809,-121.04721,30457.57,SIERRA NEVADA MEMORIAL HOSPITAL
6.30,37.32710,-121.93863,68131.87,O'CONNOR HOSPITAL
3.95,34.15804,-118.48755,33675.45,ENCINO HOSPITAL MEDICAL CENTER
3.26,34.28029,-119.25410,23536.45,VENTURA COUNTY MEDICAL CENTER
4.43,33.96860,-118.04831,40692.70,PRESBYTERIAN INTERCOMMUNITY HOSPITAL
4.83,38.44369,-122.70138,46557.94,SANTA ROSA MEMORIAL HOSPITAL
5.64,37.55717,-121.98126,58423.49,WASHINGTON HOSPITAL
5.23,37.48000,-122.25441,52434.30,SEQUOIA HOSPITAL
5.12,32.61972,-117.02278,50764.64,SHARP CHULA VISTA MEDICAL CENTER
2.99,33.62229,-117.92995,19598.38,HOAG MEMORIAL HOSPITAL PRESBYTERIAN
4.11,33.84780,-117.93661,35906.94,AHMC ANAHEIM REGIONAL MEDICAL CENTER
4.03,33.77483,-117.91329,34745.25,GARDEN GROVE HOSPITAL & MEDICAL CENTER
3.92,35.27882,-120.65047,33225.41,FRENCH HOSPITAL MEDICAL CENTER
5.44,34.15601,-118.32834,55544.37,PROVIDENCE SAINT JOSEPH MEDICAL CTR
5.24,33.83862,-116.54557,52570.58,DESERT REGIONAL MEDICAL CENTER
5.68,38.72562,-120.79096,58941.62,MARSHALL MEDICAL CENTER (1-RH)
4.66,34.06675,-118.44613,44080.18,RONALD REAGAN UCLA MEDICAL CENTER
5.27,34.03721,-117.20474,52993.36,REDLANDS COMMUNITY HOSPITAL
4.08,40.58654,-122.39168,35591.35,MERCY MEDICAL CENTER REDDING
3.93,34.09049,-118.14410,33391.14,ALHAMBRA HOSPITAL MEDICAL CENTER
5.24,37.69502,-121.88095,52520.44,VALLEYCARE MEDICAL CENTER
3.47,34.03009,-118.47833,26583.28,SAINT JOHN'S HEALTH CENTER
5.12,34.50107,-117.17285,50765.54,ST MARY MEDICAL CENTER
4.89,37.85593,-122.25730,47441.71,ALTA BATES SUMMIT MEDICAL CENTER - ALTA BATES CAMP
5.35,37.36934,-122.08047,54118.17,EL CAMINO HOSPITAL
4.05,38.76514,-121.24979,35142.33,SUTTER ROSEVILLE MEDICAL CENTER
4.32,37.74409,-121.43469,38978.64,SUTTER TRACY COMMUNITY HOSPITAL
3.40,32.88461,-117.22244,25478.90,SCRIPPS MEMORIAL HOSPITAL LA JOLLA
4.04,34.05076,-117.26395,34913.67,LOMA LINDA UNIVERSITY MEDICAL CENTER
3.51,33.87236,-117.56809,27113.42,CORONA REGIONAL MEDICAL CENTER
3.96,37.97780,-120.37150,33747.88,SONORA REGIONAL MEDICAL CENTER
8.12,38.12186,-121.28665,94797.76,LODI MEMORIAL HOSPITAL
3.24,32.95813,-115.55388,23198.09,PIONEERS MEMORIAL HEALTHCARE DISTRICT
2.87,34.01501,-118.10064,17803.82,BEVERLY HOSPITAL
4.75,37.94748,-122.53677,45396.12,MARIN GENERAL HOSPITAL
6.71,38.26174,-122.04662,74165.62,NORTHBAY MEDICAL CENTER
4.98,37.25153,-121.94684,48725.74,GOOD SAMARITAN HOSPITAL
3.24,33.75117,-116.96028,23202.62,HEMET VALLEY MEDICAL CENTER
4.85,33.93530,-118.13030,46808.63,DOWNEY REGIONAL MEDICAL CENTER
3.53,41.77451,-124.19400,27441.91,SUTTER COAST HOSPITAL
3.26,32.89810,-117.24217,23491.69,SCRIPPS GREEN HOSPITAL
3.86,34.13364,-118.15275,32277.00,HUNTINGTON MEMORIAL HOSPITAL
7.00,37.43436,-122.18013,78394.80,STANFORD HOSPITAL
6.28,37.76421,-122.45716,67804.34,UCSF MEDICAL CENTER
3.94,35.38338,-119.01969,33526.12,SAN JOAQUIN COMMUNITY HOSPITAL
8.31,37.66540,-120.99743,97526.08,DOCTORS MEDICAL CENTER
4.77,34.05336,-118.26558,45642.00,GOOD SAMARITAN HOSPITAL
5.41,34.20285,-118.62962,55072.41,WEST HILLS HOSPITAL & MEDICAL CENTER
4.71,37.69824,-122.08730,44771.20,EDEN MEDICAL CENTER
4.95,34.06389,-118.27347,48290.58,SAINT VINCENT MEDICAL CENTER
4.49,34.20777,-118.88305,41606.36,LOS ROBLES HOSPITAL & MEDICAL CENTER
5.84,33.80441,-118.06665,61379.69,LOS ALAMITOS MEDICAL CENTER
4.34,33.71466,-117.93322,39388.14,FOUNTAIN VALLEY REGIONAL HOSPITAL & MEDICAL CENTER
3.70,33.84753,-118.03841,29945.42,LA PALMA INTERCOMMUNITY HOSPITAL
3.15,34.02561,-117.68583,21888.61,CHINO VALLEY MEDICAL CENTER
4.94,38.46387,-121.41645,48119.29,METHODIST HOSPITAL OF SACRAMENTO
2.99,34.13289,-117.87121,19504.79,FOOTHILL PRESBYTERIAN HOSPITAL
6.30,38.55484,-121.45628,68028.11,UNIVERSITY OF CALIFORNIA DAVIS MEDICAL CENTER
3.79,33.60883,-117.70881,31294.26,SADDLEBACK MEMORIAL MEDICAL CENTER
6.75,34.07664,-118.37955,74651.95,CEDARS-SINAI MEDICAL CENTER
4.33,33.70167,-117.95566,39207.00,ORANGE COAST MEMORIAL MEDICAL CENTER
3.51,33.71818,-117.16690,27122.45,MENIFEE VALLEY MEDICAL CENTER
5.32,37.03560,-121.57109,53760.92,SAINT LOUISE REGIONAL HOSPITAL
3.15,34.47174,-117.29791,21939.08,DESERT VALLEY HOSPITAL
6.22,34.06760,-118.12291,66866.63,GARFIELD MEDICAL CENTER
4.06,33.95076,-118.34828,35221.89,CENTINELA HOSPITAL MEDICAL CENTER
7.28,34.05723,-118.36025,82418.00,OLYMPIA MEDICAL CENTER
3.85,32.77629,-117.05730,32199.65,ALVARADO HOSPITAL MEDICAL CENTER
5.37,34.17067,-118.53200,54429.10,PROVIDENCE TARZANA MEDICAL CENTER
3.96,40.58532,-122.38702,33707.06,SHASTA REGIONAL MEDICAL CENTER
3.52,40.18134,-105.12769,27376.32,LONGMONT UNITED HOSPITAL
3.14,40.57315,-105.05741,21792.58,POUDRE VALLEY HOSPITAL
3.09,38.23421,-104.62292,20929.86,CENTURA HEALTH-ST MARY CORWIN MEDICAL CENTER
3.26,39.71712,-105.12874,23458.17,CENTURA HEALTH-ST ANTHONY HOSPITAL
3.59,38.28184,-104.61256,28361.70,PARKVIEW MEDICAL CENTER INC
3.59,39.74234,-104.84156,28316.87,UNIVERSITY OF COLORADO HOSPITAL ANSCHUTZ INPATIENT
3.63,40.02615,-105.28391,28883.27,BOULDER COMMUNITY HOSPITAL
2.72,40.41320,-105.05139,15622.95,MCKEE MEDICAL CENTER
3.13,38.86559,-104.82182,21525.20,CENTURA HEALTH-PENROSE ST FRANCIS HEALTH SERVICES
4.42,39.73231,-104.93396,40490.77,ROSE MEDICAL CENTER
3.71,39.65399,-104.98116,30135.46,SWEDISH MEDICAL CENTER
3.76,39.67005,-104.97490,30848.82,CENTURA HEALTH-PORTER ADVENTIST HOSPITAL
2.79,38.74540,-108.04700,16624.83,DELTA COUNTY MEMORIAL HOSPITAL
3.42,39.84960,-105.01825,25779.60,CENTURA HEALTH-ST ANTHONY NORTH HOSPITAL
3.74,39.52910,-104.87121,30576.29,SKY RIDGE MEDICAL CENTER
3.39,41.77507,-72.69941,25339.02,ST FRANCIS HOSPITAL & MEDICAL CENTER
3.49,41.55959,-73.05941,26839.20,WATERBURY HOSPITAL
3.45,41.05562,-73.55390,26345.72,STAMFORD HOSPITAL
2.75,41.33722,-72.10380,15962.00,LAWRENCE & MEMORIAL HOSPITAL
3.61,41.18881,-73.16645,28658.69,BRIDGEPORT HOSPITAL
2.46,41.79153,-73.13382,11814.79,CHARLOTTE HUNGERFORD HOSPITAL
2.44,41.55241,-73.03554,11438.00,SAINT MARYS HOSPITAL
2.97,41.54874,-72.80148,19300.29,MIDSTATE MEDICAL CENTER
3.33,41.03431,-73.63020,24579.52,GREENWICH HOSPITAL ASSOCIATION
2.57,41.71622,-72.22399,13370.82,WINDHAM COMM MEM HOSP & HATCH HOSP
2.87,41.54301,-72.08799,17826.77,WILLIAM W BACKUS HOSPITAL
2.93,41.75412,-72.67927,18681.56,HARTFORD HOSPITAL
2.75,41.78185,-72.52591,15975.24,MANCHESTER MEMORIAL HOSPITAL
3.66,41.20049,-73.20281,29350.04,ST VINCENT'S MEDICAL CENTER
3.14,41.40474,-73.44739,21720.41,DANBURY HOSPITAL
2.82,41.66107,-72.78671,16982.41,HOSPITAL OF CENTRAL CONNECTICUT, THE
3.18,41.73545,-72.79489,22378.67,JOHN DEMPSEY HOSPITAL
2.92,39.74954,-75.56662,18505.75,ST FRANCIS HOSPITAL
2.82,39.15135,-75.52309,17021.19,BAYHEALTH - KENT GENERAL HOSPITAL
2.90,38.77159,-75.14210,18155.71,BEEBE MEDICAL CENTER
4.29,38.91221,-77.07588,38550.77,GEORGETOWN UNIVERSITY HOSPITAL
2.94,38.93576,-77.10909,18756.20,SIBLEY MEMORIAL HOSPITAL
2.93,38.94397,-76.99040,18619.79,PROVIDENCE HOSPITAL
3.60,38.92944,-77.01473,28503.58,WASHINGTON HOSPITAL CENTER
3.70,30.34913,-81.66391,29964.14,SHANDS JACKSONVILLE MEDICAL CENTER
3.77,26.50479,-80.06979,30933.35,BETHESDA MEMORIAL HOSPITAL
3.96,28.52517,-81.37729,33786.21,ORLANDO HEALTH
4.21,25.68309,-80.34038,37358.55,BAPTIST HOSPITAL OF MIAMI INC
5.82,25.78846,-80.21644,61085.64,UNIVERSITY OF MIAMI HOSPITAL
2.72,29.20117,-81.05828,15636.13,HALIFAX HEALTH MEDICAL CENTER
3.16,26.15053,-81.79919,22038.53,NAPLES COMMUNITY HOSPITAL
3.73,25.79143,-80.21250,30330.35,JACKSON MEMORIAL HOSPITAL
2.93,28.83363,-82.33561,18588.67,CITRUS MEMORIAL HOSPITAL
2.93,30.47650,-87.21219,18600.00,SACRED HEART HOSPITAL
2.74,30.15963,-85.64818,15861.79,BAY MEDICAL CENTER
4.98,25.86166,-80.21398,48754.67,NORTH SHORE MEDICAL CENTER
4.97,25.81317,-80.13996,48601.69,MOUNT SINAI MEDICAL CENTER
4.02,26.01867,-80.17981,34649.59,MEMORIAL REGIONAL HOSPITAL
3.16,30.30835,-81.68919,22017.05,ST VINCENT'S MEDICAL CENTER
3.94,27.19837,-80.24306,33492.95,MARTIN MEMORIAL MEDICAL CENTER
2.96,29.04263,-81.31635,19150.21,FLORIDA HOSPITAL DELAND
3.54,28.26092,-82.18802,27630.82,FLORIDA HOSPITAL ZEPHYRHILLS
3.38,26.94042,-82.04094,25187.57,CHARLOTTE REGIONAL MEDICAL CENTER
3.46,28.55140,-81.72120,26431.05,SOUTH LAKE HOSPITAL
3.31,28.13321,-82.75839,24159.53,HELEN ELLIS MEMORIAL HOSPITAL
3.21,29.17594,-82.13898,22759.25,MUNROE REGIONAL MEDICAL CENTER
3.33,28.25431,-82.71447,24459.50,MORTON PLANT NORTH BAY HOSPITAL
4.11,27.78088,-82.65126,35912.91,ST ANTHONY'S HOSPITAL
2.96,29.24333,-81.10760,19073.71,FLORIDA HOSPITAL MEMORIAL MEDICAL CENTER
3.36,27.09043,-82.44499,25021.23,VENICE REGIONAL MEDICAL CENTER
4.17,28.53906,-82.44193,36770.78,BROOKSVILLE REGIONAL HOSPITAL
4.03,26.18711,-80.11941,34828.96,HOLY CROSS HOSPITAL INC
3.42,26.98905,-82.09559,25825.81,PEACE RIVER REGIONAL MEDICAL CENTER
5.29,26.59805,-80.09271,53297.88,JFK MEDICAL CENTER
3.86,28.80659,-81.86906,32231.00,LEESBURG REGIONAL MEDICAL CENTER
3.86,30.31525,-81.66398,32254.61,BAPTIST MEDICAL CENTER
3.27,28.33522,-80.72319,23624.38,WUESTHOFF MEDICAL CENTER  ROCKLEDGE
3.23,30.43066,-87.23191,22995.20,BAPTIST HOSPITAL
3.26,30.19345,-82.63268,23473.45,SHANDS LAKE SHORE REGIONAL MEDICAL CENTER
2.45,27.65832,-80.39307,11657.67,INDIAN RIVER MEDICAL CENTER
3.43,29.64155,-82.34844,25971.77,SHANDS HOSPITAL AT THE UNIVERSITY OF FLORIDA
3.26,30.27449,-81.40071,23419.93,BAPTIST MEDICAL CENTER  BEACHES
3.63,27.91798,-81.84402,28854.33,BARTOW REGIONAL MEDICAL CENTER
4.04,27.75214,-82.73951,34932.92,PALMS OF PASADENA HOSPITAL
3.31,28.01563,-82.13900,24216.18,SOUTH FLORIDA BAPTIST HOSPITAL
3.26,30.65118,-81.44923,23509.27,BAPTIST MEDICAL CENTER - NASSAU
2.88,30.26389,-81.44283,17958.73,MAYO CLINIC
4.28,25.70328,-80.29391,38426.91,SOUTH MIAMI HOSPITAL, INC
3.91,28.06172,-81.95304,33039.68,LAKELAND REGIONAL MEDICAL CENTER
3.15,28.81611,-81.28351,21824.83,CENTRAL FLORIDA REGIONAL HOSPITAL
3.88,27.30187,-82.45428,32654.96,DOCTORS HOSPITAL OF SARASOTA
2.85,27.22739,-81.85108,17407.00,DESOTO MEMORIAL HOSPITAL
3.26,28.36005,-80.62309,23497.84,CAPE CANAVERAL HOSPITAL
5.39,27.80541,-82.72694,54811.15,ST PETERSBURG GENERAL HOSPITAL
4.35,25.70558,-80.29311,39454.80,LARKIN COMMUNITY HOSPITAL
5.59,26.26259,-80.20292,57730.29,NORTHWEST MEDICAL CENTER
3.24,27.93758,-82.48933,23173.25,MEMORIAL HOSPITAL OF TAMPA
4.80,25.73195,-80.38580,46092.69,KENDALL REGIONAL MEDICAL CENTER
3.89,27.48213,-82.62126,32712.48,BLAKE MEDICAL CENTER
4.47,26.12354,-80.25951,41305.20,WESTSIDE REGIONAL MEDICAL CENTER
2.93,29.64481,-81.69431,18619.67,PUTNAM COMMUNITY MEDICAL CENTER
4.50,27.93259,-82.28759,41708.65,BRANDON REGIONAL HOSPITAL
5.01,27.43392,-80.34350,49210.40,LAWNWOOD REGIONAL MEDICAL CENTER & HEART INSTITUTE
4.19,27.25983,-80.82855,37079.53,RAULERSON HOSPITAL
3.51,26.92138,-80.09708,27169.24,JUPITER MEDICAL CENTER
3.88,28.00237,-82.57309,32587.54,TOWN & COUNTRY HOSPITAL
4.13,28.36128,-82.68883,36265.05,REGIONAL MEDICAL CENTER BAYONET POINT
4.57,26.43709,-80.12728,42676.21,DELRAY MEDICAL CENTER
4.41,27.71350,-82.36512,40431.94,SOUTH BAY HOSPITAL
4.37,27.28861,-80.29431,39749.74,ST LUCIE MEDICAL CENTER
4.53,28.53585,-82.53404,42067.51,OAK HILL HOSPITAL
3.26,28.03957,-82.70875,23463.82,MEASE COUNTRYSIDE HOSPITAL
4.28,26.94996,-82.32651,38509.07,ENGLEWOOD COMMUNITY HOSPITAL
4.06,26.35614,-80.19956,35197.27,WEST BOCA MEDICAL CENTER
4.30,26.68337,-80.25269,38799.29,PALMS WEST HOSPITAL
4.61,26.01394,-80.30980,43340.28,MEMORIAL HOSPITAL WEST
3.69,26.21388,-81.73257,29731.14,PHYSICIANS REGIONAL MEDICAL CENTER - PINE RIDGE
3.91,26.70181,-80.05055,32983.77,GOOD SAMARITAN MEDICAL CENTER
3.12,26.08155,-80.36449,21371.70,CLEVELAND CLINIC HOSPITAL
3.08,30.37837,-86.30696,20830.56,SACRED HEART HOSPITAL ON THE EMERALD COAST
2.77,34.78963,-84.98398,16339.75,HAMILTON MEDICAL CENTER
2.92,31.22516,-82.34898,18568.22,SATILLA REGIONAL MEDICAL CENTER
3.05,31.59023,-84.15756,20455.22,PHOEBE PUTNEY MEMORIAL HOSPITAL
3.62,34.24569,-84.49068,28824.00,NORTHSIDE HOSPITAL CHEROKEE
3.15,33.79230,-84.32107,21914.19,EMORY UNIVERSITY HOSPITAL
3.13,33.03204,-85.05781,21614.93,WEST GEORGIA MEDICAL CENTER
3.29,32.02825,-81.09977,24002.20,CANDLER HOSPITAL
3.28,33.47096,-81.98176,23812.29,UNIVERSITY HOSPITAL
3.18,34.30335,-83.81737,22278.00,NORTHEAST GEORGIA MEDICAL CENTER, INC
3.83,34.19990,-84.79378,31859.73,CARTERSVILLE MEDICAL CENTER
3.10,33.47091,-81.98988,21114.07,MEDICAL COLLEGE OF GA HOSPITALS AND CLINICS
3.20,33.96770,-84.55011,22662.68,WELLSTAR KENNESTONE HOSPITAL
3.09,33.91929,-84.85224,21018.93,WELLSTAR PAULDING HOSPITAL
3.31,31.98515,-81.15475,24251.96,ST JOSEPH'S HOSPITAL - SAVANNAH
2.99,32.06513,-84.25260,19567.18,PHOEBE SUMTER MEDICAL CENTER
3.17,34.26000,-85.17000,22190.43,FLOYD MEDICAL CENTER
2.77,32.61642,-83.63065,16347.56,HOUSTON MEDICAL CENTER
3.06,33.96117,-83.39832,20597.48,ATHENS REGIONAL MEDICAL CENTER
2.50,33.78956,-84.28077,12384.53,DEKALB MEDICAL CENTER
2.83,33.76810,-84.38616,17212.90,EMORY UNIVERSITY HOSPITAL MIDTOWN
2.80,33.90877,-84.35180,16800.42,SAINT JOSEPH'S HOSPITAL OF ATLANTA, INC
2.87,33.68072,-84.00200,17699.73,ROCKDALE MEDICAL CENTER
3.13,31.47069,-83.50473,21542.71,TIFT REGIONAL MEDICAL CENTER
2.82,32.83041,-83.63476,17022.31,MEDICAL CENTER OF CENTRAL GEORGIA
2.98,30.86250,-83.28630,19322.50,SOUTH GEORGIA MEDICAL CENTER
2.76,32.20903,-82.37585,16109.00,MEADOWS REGIONAL MEDICAL CENTER
2.57,32.16413,-81.90041,13319.38,EVANS MEMORIAL HOSPITAL
3.17,33.85638,-84.60446,22174.68,WELLSTAR COBB HOSPITAL
3.02,33.90903,-84.35410,19963.79,NORTHSIDE HOSPITAL
3.02,32.84705,-83.61823,19910.78,COLISEUM MEDICAL CENTER
2.86,33.57843,-84.38897,17689.36,SOUTHERN REGIONAL MEDICAL CENTER
5.02,33.48259,-82.09038,49320.58,DOCTORS HOSPITAL
3.23,33.51144,-84.22200,22998.27,HENRY MEDICAL CENTER, INC
2.94,33.45252,-84.50697,18749.33,PIEDMONT FAYETTE HOSPITAL
3.28,21.30780,-157.85505,23712.68,THE QUEENS MEDICAL CENTER
2.62,19.71761,-155.11327,14143.00,HILO MEDICAL CENTER
3.00,21.38095,-157.75759,19660.59,CASTLE MEDICAL CENTER
3.10,43.61218,-116.19234,21130.34,ST LUKES REGIONAL MEDICAL CENTER
2.80,43.46987,-111.99208,16812.47,EASTERN IDAHO REGIONAL MEDICAL CENTER
3.25,42.06550,-87.68428,23295.98,EVANSTON HOSPITAL
2.60,40.75318,-89.59321,13807.21,PROCTOR HOSPITAL
2.73,39.93563,-91.39833,15667.36,BLESSING HOSPITAL
4.08,41.72930,-88.26976,35502.50,COPLEY MEMORIAL HOSPITAL
2.41,39.12680,-88.55059,10954.16,ST ANTHONYS MEMORIAL HOSPITAL
2.82,38.52908,-89.11604,16966.15,ST MARYS HOSPITAL
3.39,41.80160,-89.69714,25357.27,CGH MEDICAL CENTER
2.86,38.32292,-88.91026,17592.93,GOOD SAMARITAN REGIONAL HLTH CENTER
3.55,42.05624,-87.74012,27753.53,SKOKIE HOSPITAL
3.01,38.90787,-90.17207,19842.25,SAINT ANTHONY'S HEALTH CENTER
3.30,39.80726,-89.64496,24124.91,ST JOHNS HOSPITAL
3.32,41.83195,-87.79266,24357.00,MACNEAL  HOSPITAL
3.23,41.66900,-87.81414,23016.94,PALOS COMMUNITY HOSPITAL
2.86,40.98818,-90.36374,17563.18,ST MARY MEDICAL CENTER
3.45,40.70200,-89.59222,26216.19,SAINT FRANCIS MEDICAL CENTER
4.46,42.37840,-87.83329,41109.54,VISTA MEDICAL CENTER EAST
4.48,41.78829,-87.60485,41330.15,THE UNIVERSITY OF CHICAGO MEDICAL CENTER
2.98,40.11739,-88.22714,19380.43,PROVENA COVENANT MEDICAL CENTER- URBANA
4.33,41.97532,-87.69958,39221.87,SWEDISH COVENANT HOSPITAL
3.18,42.31832,-88.27920,22285.86,CENTEGRA HEALTH SYSTEM - MC HENRY HOSPITAL
3.46,41.80555,-87.92059,26466.03,HINSDALE HOSPITAL
3.70,40.49639,-88.99106,29898.58,BROMENN HEALTHCARE
2.80,41.84639,-87.62345,16701.59,MERCY HOSPITAL AND MEDICAL CENTER
2.65,42.29592,-89.63773,14606.50,FHN MEMORIAL HOSPITAL
2.41,37.72790,-89.22058,11021.87,MEMORIAL HOSPITAL OF CARBONDALE
4.00,41.78566,-88.32886,34394.42,PROVENA MERCY MEDICAL CENTER
2.73,42.27597,-88.40019,15686.40,CENTEGRA HEALTH SYSTEM - WOODSTOCK HOSPITAL
3.48,41.72094,-87.69220,26712.48,LITTLE COMPANY OF MARY HOSPITAL
3.84,41.90414,-87.68254,31940.90,ST MARY & ELIZABETH MED CTR-DIVISION CAMPUS
3.19,41.12572,-87.88526,22474.00,RIVERSIDE MEDICAL CENTER
3.27,38.51081,-89.99014,23585.27,ST ELIZABETH HOSPITAL
2.80,39.48849,-88.27581,16701.62,SARAH BUSH LINCOLN HEALTH CENTER
3.73,41.86362,-87.93567,30417.94,ELMHURST MEMORIAL HOSPITAL
3.91,42.27447,-87.95764,33048.41,ADVOCATE CONDELL MEDICAL CENTER
3.01,41.72031,-87.73249,19799.72,ADVOCATE CHRIST HOSPITAL & MEDICAL CENTER
3.99,41.88566,-88.34311,34192.35,DELNOR COMMUNITY HOSPITAL
3.76,42.03576,-88.32575,30833.00,PROVENA - SAINT JOSEPH HOSPITAL
3.30,42.03837,-87.84820,24125.39,ADVOCATE LUTHERAN GENERAL HOSPITAL
3.43,41.93418,-87.63579,25922.22,SAINT JOSEPH HOSPITAL
3.26,42.26584,-89.07428,23491.78,SWEDISH AMERICAN HOSPITAL
3.17,42.26634,-89.00900,22221.22,SAINT ANTHONY MEDICAL CENTER
3.23,42.29844,-89.09897,23116.35,ROCKFORD MEMORIAL HOSPITAL
3.17,41.56720,-87.69566,22177.50,ADVOCATE SOUTH SUBURBAN HOSPITAL
3.29,41.94560,-87.76897,23906.42,OUR LADY OF THE RESURRECTION MED CTR
2.41,41.49581,-90.41871,11066.53,GENESIS MEDICAL CENTER ILLINI CAMPUS
2.35,41.48200,-90.57158,10168.38,TRINITY ROCK ISLAND
3.75,41.96185,-88.72130,30723.40,KISHWAUKEE COMMUNITY HOSPITAL
3.27,41.81791,-88.00907,23684.47,ADVOCATE GOOD SAMARITAN HOSPITAL
3.28,41.61055,-86.72511,23818.93,INDIANA UNIVERSITY HEALTH LA PORTE HOSPITAL
2.66,40.44665,-86.12707,14619.65,HOWARD REGIONAL HEALTH SYSTEM
2.88,41.63466,-87.44901,17853.86,ST CATHERINE HOSPITAL INC
2.65,40.56435,-85.66576,14476.80,MARION GENERAL HOSPITAL
2.86,41.70639,-86.89936,17581.54,FRANCISCAN ST ANTHONY HEALTH - MICHIGAN CITY
2.94,41.70568,-85.93404,18805.31,ELKHART GENERAL HOSPITAL
2.89,39.94340,-85.36306,18079.64,HENRY COUNTY MEMORIAL HOSPITAL
2.79,41.51266,-87.26125,16658.47,ST MARY MEDICAL CENTER INC
3.58,41.46729,-87.05130,28190.80,PORTER VALPARAISO HOSPITAL
3.64,39.79009,-86.16260,29011.31,INDIANA UNIVERSITY HEALTH
2.73,39.78704,-86.07673,15659.89,COMMUNITY HOSPITAL EAST
2.85,37.98293,-87.57072,17453.51,DEACONESS HOSPITAL INC
3.37,39.91001,-86.19660,25032.42,ST VINCENT HOSPITAL & HEALTH SERVICES
2.91,39.11138,-84.88343,18328.23,DEARBORN COUNTY HOSPITAL
3.81,40.09594,-85.68152,31630.47,SAINT JOHN'S HEALTH SYSTEM
3.14,40.19679,-85.41573,21746.47,INDIANA UNIVERSITY HEALTH BALL MEMORIAL HOSPITAL
2.80,37.96320,-87.50292,16677.22,ST MARY'S MEDICAL CENTER OF EVANSVILLE INC
2.40,39.21585,-85.89683,10819.42,COLUMBUS REGIONAL HOSPITAL
2.28,38.39499,-86.94089,9170.53,MEMORIAL HOSPITAL AND HEALTH CARE CENTER
3.97,41.24786,-85.82927,33900.92,KOSCIUSKO COMMUNITY HOSPITAL
2.92,39.64935,-86.07960,18514.31,FRANCISCAN ST FRANCIS HEALTH - INDIANAPOLIS
2.86,39.90060,-86.04218,17558.09,COMMUNITY HOSPITAL NORTH
3.33,40.40296,-86.80885,24580.08,INDIANA UNIVERSITY HEALTH ARNETT HOSPITAL
2.32,42.04855,-92.90625,9751.12,MARSHALLTOWN MEDICAL & SURGICAL CENTER
2.70,42.49388,-94.18926,15268.08,TRINITY REGIONAL MEDICAL CENTER
2.59,41.66411,-91.52841,13720.50,MERCY HOSPITAL
2.58,41.54190,-90.55691,13463.93,GENESIS MEDICAL CENTER-DAVENPORT
3.13,41.98570,-91.66093,21614.55,ST LUKES HOSPITAL
3.26,41.66092,-91.54800,23496.10,UNIVERSITY OF IOWA HOSPITAL & CLINICS
2.80,43.15063,-93.21718,16737.42,MERCY MEDICAL CENTER-NORTH IOWA
2.58,41.97864,-91.65507,13464.65,MERCY MEDICAL CENTER - CEDAR RAPIDS
3.05,41.59886,-93.62344,20394.05,MERCY MEDICAL CENTER-DES MOINES
2.33,42.49632,-90.68587,9792.33,THE FINLEY HOSPITAL
2.30,40.62419,-91.38232,9378.27,FORT MADISON COMMUNITY HOSPITAL
2.75,42.51846,-96.40581,16001.60,ST LUKES REGIONAL MEDICAL CENTER
2.24,41.74325,-92.73450,8560.36,GRINNELL REGIONAL MEDICAL CENTER
3.00,42.49250,-96.39975,19670.21,MERCY MEDICAL CENTER-SIOUX CITY
3.26,39.28218,-94.90368,23481.69,SAINT JOHN HOSPITAL
2.79,38.83324,-97.61028,16645.00,SALINA REGIONAL HEALTH CENTER
2.59,39.05660,-95.69599,13596.06,ST FRANCIS HEALTH CENTER INC
2.70,38.85279,-94.82413,15267.00,OLATHE MEDICAL CENTER
4.28,37.69556,-97.29785,38521.80,WESLEY MEDICAL CENTER
2.40,38.97848,-95.24771,10804.77,LAWRENCE MEMORIAL HOSPITAL
3.24,39.12677,-94.78643,23189.21,PROVIDENCE MEDICAL CENTER
3.86,38.91047,-94.65205,32318.89,MENORAH MEDICAL CENTER
3.62,38.90355,-94.66966,28808.36,SAINT LUKE'S SOUTH HOSPITAL
2.43,39.07816,-84.46695,11315.64,ST ELIZABETH FT THOMAS
2.67,38.47021,-82.63498,14770.86,KING'S DAUGHTERS' MEDICAL CENTER
2.91,37.11784,-84.10910,18289.38,SAINT JOSEPH HOSPITAL LONDON
2.74,36.60798,-88.30957,15895.71,MURRAY-CALLOWAY COUNTY HOSPITAL
3.24,37.27729,-83.22802,23141.00,HAZARD ARH REGIONAL MEDICAL CENTER
2.81,39.06704,-84.49946,16908.85,ST ELIZABETH MEDICAL CENTER NORTH
2.71,37.76518,-87.10197,15493.94,OWENSBORO MEDICAL HEALTH SYSTEM
3.99,37.47264,-82.52605,34206.78,PIKEVILLE MEDICAL CENTER
2.40,37.36583,-85.33917,10802.92,TAYLOR REGIONAL HOSPITAL
2.68,37.33959,-87.48988,15028.93,REGIONAL MEDICAL CENTER OF HOPKINS COUNTY
2.78,38.01849,-84.51236,16420.25,CENTRAL BAPTIST HOSPITAL
3.33,38.16020,-84.90519,24582.73,FRANKFORT REGIONAL MEDICAL CENTER
3.02,37.08724,-84.61828,20033.27,LAKE CUMBERLAND REGIONAL HOSPITAL
2.47,38.39635,-85.37324,11873.55,BAPTIST HOSPITAL NORTHEAST
2.62,30.20227,-92.01906,14130.64,LAFAYETTE GENERAL MEDICAL CENTER
3.18,29.59851,-90.71397,22368.36,TERREBONNE GENERAL MEDICAL CENTER
4.42,30.46813,-90.45814,40446.42,NORTH OAKS MEDICAL CENTER, LLC
2.95,30.54354,-92.07608,18971.20,OPELOUSAS GENERAL HEALTH SYSTEM
3.37,31.28258,-92.46060,25134.83,CHRISTUS ST FRANCES CABRINI HOSPITAL
4.25,31.31451,-92.44997,37941.33,RAPIDES REGIONAL MEDICAL CENTER
3.76,30.28456,-89.77038,30874.79,SLIDELL MEMORIAL HOSPITAL AND MEDICAL CENTER
3.78,30.20458,-93.19774,31086.40,LAKE CHARLES MEMORIAL HOSPITAL
2.84,30.40118,-91.11160,17285.90,OUR LADY OF THE LAKE REGIONAL MEDICAL CENTER
2.48,30.45015,-91.15273,12109.03,BATON ROUGE GENERAL MEDICAL CENTER
2.93,32.51544,-92.63343,18683.07,NORTHERN LOUISIANA MEDICAL CENTER
3.13,32.48393,-93.77884,21570.51,WILLIS KNIGHTON MEDICAL CENTER
2.76,30.01438,-90.18155,16216.00,EAST JEFFERSON GENERAL HOSPITAL
2.96,30.68494,-92.26601,19150.00,MERCY REGIONAL MEDICAL CENTER
3.81,30.28681,-89.74295,31571.25,OCHSNER MEDICAL CENTER - NORTHSHORE, LLC
2.42,43.65159,-70.26482,11236.15,MERCY HOSPITAL
2.86,43.65325,-70.27533,17648.28,MAINE MEDICAL CENTER
2.58,43.47840,-70.49221,13559.73,SOUTHERN MAINE MEDICAL CENTER
2.48,44.10107,-70.21432,12069.75,CENTRAL MAINE MEDICAL CENTER
3.05,44.10276,-70.20093,20377.64,ST MARYS REGIONAL MEDICAL CENTER
2.38,44.14436,-69.08577,10615.86,PENOBSCOT BAY MEDICAL CENTER
2.16,39.62183,-77.68219,7360.40,MERITUS MEDICAL CENTER
2.36,39.28817,-76.62438,10309.96,UNIVERSITY OF MARYLAND MEDICAL CENTER
2.14,39.01578,-77.03591,7014.28,HOLY CROSS HOSPITAL
2.23,39.42366,-77.41386,8324.15,FREDERICK MEMORIAL HOSPITAL
2.21,39.38813,-76.61068,8146.08,SAINT JOSEPH MEDICAL CENTER
2.67,39.29688,-76.59242,14820.36,JOHNS HOPKINS HOSPITAL, THE
2.21,39.27352,-76.67219,8052.86,SAINT AGNES HOSPITAL
2.33,39.35262,-76.66196,9892.90,SINAI HOSPITAL OF BALTIMORE
2.43,39.35169,-76.47919,11326.40,FRANKLIN SQUARE HOSPITAL CENTER
2.02,39.41339,-79.40103,5274.25,GARRETT COUNTY MEMORIAL HOSPITAL
2.13,39.15402,-77.05431,6931.64,MONTGOMERY GENERAL HOSPITAL INC
2.25,38.36248,-75.59799,8742.69,PENINSULA REGIONAL MEDICAL CENTER
2.21,38.99014,-76.53398,8160.35,ANNE ARUNDEL MEDICAL CENTER
2.58,39.32930,-76.61432,13544.00,UNION MEMORIAL HOSPITAL
2.13,38.29124,-76.63579,6848.31,SAINT MARY'S HOSPITAL
2.07,39.60859,-75.83201,6096.00,UNION HOSPITAL OF CECIL COUNTY
2.28,39.55808,-76.99107,9112.27,CARROLL HOSPITAL CENTER
2.05,38.52905,-76.97068,5757.92,CIVISTA MEDICAL CENTER
2.23,38.76970,-76.07697,8344.80,MEMORIAL HOSPITAL AT EASTON
2.50,39.29994,-76.62138,12382.06,MARYLAND GENERAL  HOSPITAL
2.20,38.55963,-76.59455,7958.60,CALVERT MEMORIAL HOSPITAL
2.34,39.35852,-76.78208,10051.28,NORTHWEST HOSPITAL CENTER
2.25,39.13732,-76.62228,8711.98,BALTIMORE WASHINGTON  MEDICAL CENTER
2.35,39.21273,-76.88526,10130.86,HOWARD COUNTY GENERAL HOSPITAL
2.15,39.51870,-76.34688,7250.28,UPPER CHESAPEAKE MEDICAL CENTER
2.15,38.74827,-76.87590,7279.37,SOUTHERN MARYLAND HOSPITAL CENTER
2.11,39.35962,-76.58851,6689.19,GOOD SAMARITAN HOSPITAL
2.13,39.09796,-77.19799,6928.32,SHADY GROVE ADVENTIST HOSPITAL
2.00,38.72818,-76.99214,5007.64,FORT WASHINGTON HOSPITAL
2.10,38.33876,-75.21128,6412.52,ATLANTIC GENERAL HOSPITAL
2.60,42.37441,-71.13378,13807.27,MOUNT AUBURN HOSPITAL
2.59,42.70912,-71.14877,13658.53,LAWRENCE GENERAL HOSPITAL
2.49,42.27872,-71.06625,12230.22,CARNEY HOSPITAL
2.61,41.69217,-71.16474,13961.75,SAINT ANNE'S HOSPITAL
2.23,42.20038,-72.62762,8415.42,HOLYOKE MEDICAL CENTER
2.41,42.81476,-70.89068,10974.60,ANNA JAQUES HOSPITAL
2.66,42.16849,-72.34130,14619.75,WING MEMORIAL HOSPITAL AND MEDICAL CENTER
2.24,42.56407,-70.87543,8511.21,BEVERLY HOSPITAL CORPORATION
3.05,42.51078,-70.90712,20447.80,NORTH SHORE MEDICAL CENTER
2.42,42.34896,-71.14768,11125.50,ST ELIZABETH'S MEDICAL CENTER
2.63,42.70589,-73.10840,14251.25,NORTH ADAMS REGIONAL HOSPITAL
2.51,42.03597,-71.09792,12446.54,SIGNATURE HEALTHCARE BROCKTON HOSPITAL
2.29,41.94445,-70.64511,9331.27,JORDAN HOSPITAL INC
2.43,42.64636,-71.34118,11282.50,LOWELL GENERAL HOSPITAL
2.40,42.46049,-71.06203,10867.58,HALLMARK HEALTH SYSTEM
3.84,42.36227,-71.06941,31957.42,MASSACHUSETTS GENERAL HOSPITAL
2.23,41.90456,-71.09562,8330.27,MORTON HOSPITAL
2.57,41.70928,-71.14519,13370.40,SOUTHCOAST HOSPITAL GROUP, INC
2.64,42.12077,-72.60525,14417.30,BAYSTATE MEDICAL CENTER
2.43,42.72846,-71.16830,11299.92,HOLY FAMILY HOSPITAL
2.40,42.64529,-71.30052,10824.08,SAINTS  MEDICAL CENTER INC
2.97,42.43082,-71.37554,19273.32,EMERSON HOSPITAL
2.78,42.17644,-70.95398,16411.77,SOUTH SHORE HOSPITAL
3.77,42.33600,-71.10704,30926.04,BRIGHAM AND WOMEN'S HOSPITAL
2.36,42.09864,-71.06607,10318.22,GOOD SAMARITAN MEDICAL CENTER
3.03,42.34951,-71.06331,20104.88,TUFTS MEDICAL CENTER
2.30,42.18869,-71.20197,9432.08,NORWOOD HOSPITAL
2.49,41.56412,-70.62200,12206.33,FALMOUTH HOSPITAL
2.36,42.76256,-71.04507,10360.54,MERRIMACK VALLEY HOSPITAL
2.63,42.28385,-71.41896,14319.30,METROWEST MEDICAL CENTER
2.71,43.20588,-86.20839,15485.78,MERCY HEALTH PARTNERS, MERCY CAMPUS
2.86,42.45741,-83.20513,17565.91,PROVIDENCE HOSPITAL AND MEDICAL CENTERS
2.78,42.29077,-83.21504,16380.00,OAKWOOD HOSPITAL AND MEDICAL CENTER
2.52,41.93815,-84.98935,12700.53,COMMUNITY HEALTH CENTER OF BRANCH COUNTY
2.59,42.61425,-83.27602,13619.14,ST JOSEPH MERCY OAKLAND
2.53,42.96881,-85.66649,12848.45,SPECTRUM HEALTH - BUTTERWORTH CAMPUS
2.54,42.64303,-85.30706,12898.80,PENNOCK HOSPITAL
2.71,43.58941,-83.86908,15390.97,MCLAREN BAY REGION
2.49,42.61490,-82.96060,12246.03,HENRY FORD MACOMB HOSPITAL
3.04,42.36762,-83.08461,20216.09,HENRY FORD HOSPITAL
2.90,43.42857,-83.95556,18212.40,COVENANT MEDICAL CENTER, INC
2.70,42.77487,-86.11378,15318.92,HOLLAND COMMUNITY HOSPITAL
2.58,42.33111,-85.17817,13532.55,BRONSON BATTLE CREEK HOSPITAL
2.77,43.42612,-83.94185,16296.45,ST MARY'S OF MICHIGAN MEDICAL CENTER
2.57,43.59935,-84.76097,13349.95,CENTRAL MICHIGAN COMMUNITY HOSPITAL
3.43,42.25117,-84.39240,26002.08,ALLEGIANCE HEALTH
2.24,41.79423,-85.40861,8514.36,STURGIS HOSPITAL
2.94,43.02135,-83.70308,18790.53,HURLEY MEDICAL CENTER
2.42,42.21065,-83.14861,11216.59,HENRY FORD WYANDOTTE HOSPITAL
3.11,42.70417,-84.55488,21224.50,MCLAREN - GREATER LANSING
2.73,42.11695,-83.21365,15677.33,OAKWOOD SOUTHSHORE MEDICAL CENTER
2.91,42.89254,-83.63621,18386.72,GENESYS REGIONAL MEDICAL CENTER - HEALTH PARK
3.04,42.98625,-82.42802,20268.64,PORT HURON HOSPITAL
2.98,42.67850,-83.14771,19410.13,CRITTENTON HOSPITAL MEDICAL CENTER
2.84,42.61826,-83.09239,17259.02,WILLIAM BEAUMONT HOSPITAL-TROY
3.17,42.35295,-83.05447,22233.89,DETROIT RECEIVING HOSPITAL & UNIV HEALTH CENTER
2.81,42.59290,-83.49920,16955.35,HURON VALLEY-SINAI HOSPITAL
3.10,42.35178,-83.05779,21205.94,KARMANOS CANCER CENTER
3.13,42.53914,-83.40777,21643.94,HENRY FORD WEST BLOOMFIELD HOSPITAL
2.72,46.79380,-92.09573,15626.15,ESSENTIA HEALTH ST MARY'S MEDICAL CENTER
2.93,45.57390,-94.16942,18646.78,ST CLOUD HOSPITAL
2.21,47.41117,-92.93183,8054.60,UNIVERSITY MEDICAL CENTER-MESABI/ MESABA CLINICS
2.30,44.03521,-91.62181,9389.15,WINONA HEALTH SERVICES
2.28,46.79634,-92.08793,9055.05,ST LUKES HOSPITAL
3.34,44.95248,-93.26196,24671.44,ABBOTT NORTHWESTERN HOSPITAL
3.23,44.02354,-92.46588,23073.74,MAYO CLINIC METHODIST HOSPITAL
2.52,46.36166,-94.20573,12659.09,ESSENTIA HEALTH ST JOSEPH'S MEDICAL CENTER
2.63,45.19325,-93.87136,14245.86,BUFFALO HOSPITAL
2.89,44.88645,-93.32693,18120.15,FAIRVIEW SOUTHDALE HOSPITAL
2.55,44.77252,-93.50323,13093.05,ST FRANCIS REGIONAL MEDICAL CENTER
3.24,44.95570,-93.09429,23251.34,REGIONS HOSPITAL
3.12,45.18355,-93.36789,21477.21,MERCY HOSPITAL
3.12,45.10789,-93.25685,21474.65,UNITY HOSPITAL
3.05,44.74846,-93.27289,20345.18,FAIRVIEW RIDGES HOSPITAL
2.52,34.24336,-88.71753,12577.85,NORTH MISSISSIPPI MEDICAL CENTER
2.53,34.34899,-89.52062,12787.61,BAPTIST MEMORIAL HOSPITAL NORTH MS
2.56,31.57544,-90.45670,13268.00,KING'S DAUGHTERS MEDICAL CENTER-BROOKHAVEN
2.98,33.74750,-90.71908,19324.00,BOLIVAR MEDICAL CENTER
3.15,33.51824,-90.19832,21922.53,GREENWOOD LEFLORE HOSPITAL
2.65,33.52568,-88.42742,14571.36,BAPTIST MEM HOSP/GOLDEN TRIANGLE INC
2.99,32.31643,-90.17922,19464.20,MISSISSIPPI BAPTIST MEDICAL CENTER
2.67,32.37280,-88.69954,14818.00,ANDERSON REGIONAL MEDICAL CENTER
4.34,31.56044,-91.40317,39300.25,NATCHEZ COMMUNITY HOSPITAL/SWING BED
3.97,30.44411,-89.09321,33972.79,GARDEN PARK MEDICAL CENTER
3.22,37.06032,-94.52747,22885.69,ST JOHN'S REGIONAL MEDICAL CENTER
2.87,37.95144,-91.75940,17777.23,PHELPS COUNTY REGIONAL MEDICAL CENTER
2.37,38.16498,-90.38082,10404.79,JEFFERSON REGIONAL MEDICAL CENTER
2.84,39.71116,-91.45071,17322.92,HANNIBAL REGIONAL HOSPITAL
4.27,39.00717,-94.55925,38261.54,RESEARCH MEDICAL CENTER
3.00,38.63524,-90.26508,19732.96,BARNES JEWISH HOSPITAL
3.03,37.17999,-93.27409,20095.67,ST JOHN'S REGIONAL HEALTH CENTER
2.77,38.94903,-92.31563,16296.26,BOONE HOSPITAL CENTER
2.65,38.50661,-90.38025,14512.75,ST ANTHONY'S MEDICAL CENTER
2.95,38.63268,-90.31089,18935.92,SSM ST MARYS HEALTH CENTER
2.81,36.64970,-93.22138,16927.46,SKAGGS REGIONAL MEDICAL CENTER
4.66,39.04749,-94.34105,44064.29,CENTERPOINT MEDICAL CENTER OF INDEPENDENCE, LLC
3.17,38.75097,-90.43255,22108.68,SSM DEPAUL HEALTH CENTER
3.62,38.62280,-90.24049,28735.85,ST LOUIS UNIVERSITY HOSPITAL
3.31,37.31072,-89.53990,24292.65,SOUTHEAST MISSOURI HOSPITAL
2.88,37.79962,-90.44045,17905.45,MINERAL AREA REGIONAL MEDICAL CENTER
3.47,36.78510,-90.42779,26565.43,POPLAR BLUFF REGIONAL MEDICAL CENTER
3.05,37.05238,-94.52777,20365.40,FREEMAN HEALTH SYSTEM - FREEMAN WEST
3.72,39.04761,-94.59037,30257.56,ST LUKES HOSPITAL OF KANSAS CITY
2.94,38.95171,-92.33407,18776.91,UNIVERSITY OF MISSOURI HEALTH CARE
2.77,38.67655,-90.46573,16315.46,BARNES-JEWISH WEST COUNTY HOSPITAL
2.45,37.78031,-90.43967,11601.31,PARKLAND HEALTH CENTER
2.79,39.27591,-94.42572,16615.47,LIBERTY HOSPITAL
3.08,38.77576,-90.23906,20818.48,CHRISTIAN HOSPITAL NORTHEAST
2.99,38.12027,-92.68146,19505.41,LAKE REGIONAL HEALTH SYSTEM
4.08,38.90359,-94.33308,35516.46,LEE'S SUMMIT MEDICAL CENTER
3.43,38.94062,-94.37842,26029.12,SAINT LUKE'S EAST LEE'S SUMMIT HOSPITAL
2.82,46.58297,-111.99684,17045.38,ST PETER'S HOSPITAL
2.94,40.70646,-99.08136,18801.18,GOOD SAMARITAN HOSPITAL
2.97,41.25522,-95.97892,19227.33,THE NEBRASKA MEDICAL CENTER
2.76,40.80816,-96.62689,16217.96,SAINT ELIZABETH REGIONAL MEDICAL CENTER
2.51,40.92425,-98.37053,12456.32,ST FRANCIS MEDICAL CENTER
5.21,41.26509,-95.95494,52030.82,CREIGHTON UNIVERSITY MEDICAL CENTER - SAINT JOSEPH
2.77,41.25797,-96.04164,16311.56,THE NEBRASKA METHODIST HOSPITAL
2.65,41.88690,-103.66400,14477.17,REGIONAL WEST MEDICAL CENTER
2.45,41.12081,-100.77062,11572.36,GREAT PLAINS REGIONAL MEDICAL CENTER
3.14,41.45152,-96.49184,21679.12,FREMONT AREA MEDICAL CENTER
2.59,42.03257,-97.45100,13654.87,FAITH REGIONAL HEALTH SERVICES
4.29,36.13459,-115.13576,38532.60,SUNRISE HOSPITAL AND MEDICAL CENTER
2.92,39.53066,-119.82067,18508.31,SAINT MARY'S REGIONAL MEDICAL CENTER
3.88,36.03931,-114.98259,32579.45,SAINT ROSE DOMINICAN HOSPITAL - DE LIMA
3.28,39.20247,-119.78446,23856.97,CARSON TAHOE REGIONAL MEDICAL CENTER
4.43,36.16380,-115.16574,40726.50,VALLEY HOSPITAL MEDICAL CENTER
5.23,36.21599,-115.25095,52445.53,MOUNTAINVIEW HOSPITAL
5.26,36.16586,-115.32436,52794.00,SUMMERLIN HOSPITAL MEDICAL CENTER
4.15,36.00527,-115.11618,36513.56,SAINT ROSE DOMINICAN HOSPITAL - SIENA CAMPUS
2.91,43.19846,-71.56230,18388.72,CONCORD HOSPITAL
3.08,43.67286,-72.27232,20897.58,MARY HITCHCOCK MEMORIAL HOSPITAL
2.46,42.75004,-71.48100,11823.08,ST JOSEPH HOSPITAL
2.60,43.00792,-71.46807,13860.41,ELLIOT HOSPITAL
3.01,43.21231,-70.87499,19766.85,WENTWORTH-DOUGLASS HOSPITAL
2.86,42.94925,-72.28978,17585.59,CHESHIRE MEDICAL CENTER
2.61,42.75623,-71.46059,13962.91,SOUTHERN NH MEDICAL CENTER
2.91,42.98369,-70.93511,18424.13,EXETER HOSPITAL INC
3.21,43.06469,-70.78916,22798.83,PORTSMOUTH REGIONAL HOSPITAL
6.18,40.88346,-74.05564,66335.19,HACKENSACK UNIVERSITY MEDICAL CENTER
5.61,40.71011,-74.21368,57954.64,NEWARK BETH ISRAEL MEDICAL CENTER
4.75,40.79576,-73.99575,45327.71,PALISADES MEDICAL CTR-NY PRESBYTERIAN HEALTHCARE S
3.19,40.53142,-74.86080,22448.89,HUNTERDON MEDICAL CENTER
3.65,40.88275,-74.01021,29148.81,HOLY NAME MEDICAL CENTER
4.11,40.35684,-74.66166,36021.26,UNIVERSITY MEDICAL CENTER AT PRINCETON
2.84,39.08752,-74.81657,17397.34,CAPE REGIONAL MEDICAL CENTER INC
3.82,40.98359,-74.10047,31753.94,VALLEY HOSPITAL
4.31,39.94152,-75.11680,38841.95,COOPER UNIVERSITY HOSPITAL
3.91,40.78883,-74.46620,33022.91,MORRISTOWN MEMORIAL HOSPITAL
4.71,39.78261,-74.91670,44719.38,VIRTUA WEST JERSEY HOSPITALS BERLIN
6.58,40.61288,-74.29092,72196.78,ROBERT WOOD JOHNSON UNIVERSITY HOSPITAL AT RAHWAY
12.00,40.66805,-74.11334,151705.53,BAYONNE HOSPITAL CENTER
4.96,39.44743,-75.05838,48386.32,SOUTH JERSEY HEALTHCARE REGIONAL MEDICAL CENTER
4.75,40.35309,-74.06484,45377.90,RIVERVIEW MEDICAL CENTER
5.25,40.51891,-74.28183,52655.26,RARITAN BAY MEDICAL CENTER
6.19,40.90400,-73.96847,66452.79,ENGLEWOOD HOSPITAL AND MEDICAL CENTER
4.83,40.89538,-74.46479,46457.69,SAINT CLARE'S HOSPITAL
3.60,40.71264,-74.35460,28460.00,OVERLOOK HOSPITAL
4.41,40.07832,-74.13009,40325.42,OCEAN MEDICAL CENTER
3.98,40.81058,-74.20459,33995.88,MOUNTAINSIDE HOSPITAL
5.39,40.04632,-74.88059,54808.32,LOURDES MEDICAL CENTER OF BURLINGTON COUNTY
5.99,39.35775,-74.43449,63578.64,ATLANTICARE REGIONAL MEDICAL CENTER - CITY DIV
5.52,40.76190,-74.30335,56575.47,SAINT BARNABAS MEDICAL CENTER
5.58,40.07503,-74.21832,57591.82,KIMBALL MEDICAL CENTER
8.07,40.23629,-74.75256,94084.93,CAPITAL HEALTH SYSTEM-FULD CAMPUS
4.97,40.55784,-74.34970,48594.14,JFK MEDICAL CTR - ANTHONY M. YELENCSICS COMMUNITY
5.29,40.21575,-74.67273,53243.25,ROBERT WOOD JOHNSON UNIVERSITY HOSPITAL HAMILTON
2.74,35.65960,-105.94578,15887.11,ST VINCENT HOSPITAL
2.88,36.72387,-108.21749,17941.00,SAN JUAN REGIONAL MEDICAL CENTER
2.36,36.37076,-105.57950,10218.67,HOLY CROSS HOSPITAL A DIV OF TAOS HEALTH SYSTEMS
3.24,32.32310,-106.72900,23173.50,MOUNTAIN VIEW REGIONAL MEDICAL CENTER
3.22,41.92720,-73.99535,22860.50,KINGSTON HOSPITAL
2.53,42.87482,-78.84942,12823.06,KALEIDA HEALTH
2.53,42.09299,-75.93704,12710.42,OUR LADY OF LOURDES MEMORIAL HOSPITAL, INC
3.39,42.65345,-73.77543,25454.70,ALBANY MEDICAL CENTER HOSPITAL
3.98,41.69441,-73.93432,33987.34,VASSAR BROTHERS MEDICAL CENTER
3.22,40.79041,-73.95386,22931.25,MOUNT SINAI HOSPITAL
4.16,40.63588,-74.10556,36666.77,RICHMOND UNIVERSITY MEDICAL CENTER
2.59,43.09840,-75.27819,13730.16,FAXTON-ST LUKE'S HEALTHCARE
4.56,40.80556,-73.96131,42588.33,ST LUKE'S ROOSEVELT HOSPITAL
2.40,42.95425,-74.21527,10946.00,ST MARY'S HOSPITAL AT AMSTERDAM
3.13,40.74722,-73.82521,21549.68,NEW YORK HOSPITAL MEDICAL CENTER OF QUEENS
3.16,40.68983,-73.97794,22003.44,BROOKLYN HOSPITAL CENTER AT DOWNTOWN CAMPUS
2.80,42.65583,-73.80372,16715.45,ST PETER'S HOSPITAL
2.50,43.09378,-79.05038,12334.73,NIAGARA FALLS MEMORIAL MEDICAL CENTER
3.70,41.71846,-73.92710,29902.67,ST FRANCIS HOSPITAL
2.45,42.10076,-76.82800,11647.77,ARNOT OGDEN MEDICAL CENTER
2.36,42.24595,-73.77855,10262.88,COLUMBIA MEMORIAL HOSPITAL
2.31,42.09049,-78.42780,9567.16,OLEAN GENERAL HOSPITAL
3.78,41.09642,-73.92501,31063.05,NYACK HOSPITAL
4.17,40.77686,-73.70212,36913.58,NORTH SHORE UNIVERSITY HOSPITAL
4.15,40.93376,-72.67383,36545.67,PECONIC BAY MEDICAL CENTER
2.80,43.19244,-77.58590,16685.14,ROCHESTER GENERAL HOSPITAL
4.04,41.44138,-74.36821,34978.66,ORANGE REGIONAL MEDICAL CENTER
2.62,43.05571,-76.14981,14170.33,ST JOSEPH'S HOSPITAL HEALTH CENTER
5.79,40.78000,-72.97763,60612.71,BROOKHAVEN MEMORIAL HOSPITAL MEDICAL CENTER
3.01,42.81963,-73.91653,19860.37,ELLIS HOSPITAL
3.34,41.19677,-73.72572,24697.42,NORTHERN WESTCHESTER HOSPITAL
2.21,43.17738,-78.67123,8029.53,EASTERN NIAGARA HOSPITAL
2.33,43.13562,-77.60602,9785.83,HIGHLAND HOSPITAL
4.44,40.73265,-73.98162,40835.21,BETH ISRAEL MEDICAL CENTER
2.63,42.60884,-76.18764,14195.50,CORTLAND REGIONAL MEDICAL CENTER, INC
2.40,42.73354,-73.67249,10871.00,SAMARITAN HOSPITAL
3.76,40.80462,-73.67023,30899.76,ST FRANCIS HOSPITAL, ROSLYN
2.57,40.91276,-73.78720,13383.43,SOUND SHORE MEDICAL CENTER OF WESTSCHESTER
2.61,43.30652,-73.64663,14005.24,GLENS FALLS HOSPITAL
3.13,40.75543,-73.81532,21646.50,FLUSHING HOSPITAL MEDICAL CENTER
4.32,40.75332,-73.70899,39063.85,LONG ISLAND JEWISH MEDICAL CENTER
4.09,40.65189,-73.63096,35597.50,SOUTH NASSAU COMMUNITIES HOSPITAL
4.54,40.65957,-73.93378,42210.31,KINGSBROOK JEWISH MEDICAL CENTER
3.59,40.96967,-73.88447,28381.68,ST JOHN'S RIVERSIDE HOSPITAL
4.43,40.74335,-73.97408,40696.74,NYU HOSPITALS CENTER
2.63,43.22952,-75.44361,14204.93,ROME MEMORIAL HOSPITAL, INC
3.23,40.70419,-73.91754,23097.73,WYCKOFF HEIGHTS MEDICAL CENTER
2.94,43.08561,-73.79712,18846.12,SARATOGA HOSPITAL
4.11,40.59411,-73.65106,35959.85,LONG BEACH MEDICAL CENTER
2.57,43.19054,-77.70177,13374.54,UNITY HOSPITAL OF ROCHESTER
3.16,42.74285,-73.67673,22035.20,SETON HEALTH SYSTEM-ST MARY'S CAMPUS
5.87,41.08773,-73.80395,61784.17,WESTCHESTER MEDICAL CENTER
2.54,42.94136,-76.56474,12930.77,AUBURN COMMUNITY HOSPITAL
3.44,40.66762,-73.97850,26063.86,NEW YORK METHODIST HOSPITAL
2.24,42.08997,-79.23058,8553.47,WOMAN'S CHRISTIAN ASSOCIATION
3.01,43.04269,-76.14043,19809.83,UNIVERSITY HOSPITAL S U N Y HEALTH SCIENCE CENTER
3.96,41.10880,-73.86355,33817.61,PHELPS MEMORIAL HOSPITAL ASSN
3.16,41.50307,-74.01517,22025.35,ST LUKE'S CORNWALL HOSPITAL
3.54,41.38421,-73.66323,27579.67,PUTNAM HOSPITAL CENTER
2.45,42.84782,-78.81264,11615.20,MERCY HOSPITAL
4.39,40.69327,-73.29412,40062.16,GOOD SAMARITAN HOSPITAL MEDICAL CENTER
2.84,40.64666,-74.02049,17354.95,LUTHERAN MEDICAL CENTER
2.09,42.47286,-76.53849,6312.57,CAYUGA MEDICAL CENTER AT ITHACA
2.96,40.83778,-73.85417,19112.45,NEW YORK WESTCHESTER SQUARE MEDICAL CENTER
3.29,40.72593,-73.47844,23980.56,ST JOSEPH HOSPITAL
3.12,40.65508,-73.94521,21373.50,UNIVERSITY HOSPITAL OF BROOKLYN ( DOWNSTATE )
2.68,42.11422,-75.95851,14955.86,UNITED HEALTH SERVICES HOSPITALS, INC
4.46,40.85738,-73.18681,41061.97,ST CATHERINE OF SIENA HOSPITAL
2.78,35.57658,-82.54922,16419.08,MEMORIAL MISSION HOSPITAL AND ASHEVILLE SURGERY CE
2.78,35.95000,-80.00000,16407.54,HIGH POINT REGIONAL HOSPITAL
2.90,34.75124,-79.46789,18184.32,SCOTLAND MEMORIAL HOSPITAL
2.82,36.07581,-80.29779,17020.09,FORSYTH MEMORIAL HOSPITAL
2.73,35.68172,-80.47072,15774.24,ROWAN REGIONAL MEDICAL CENTER
2.51,35.32080,-82.46812,12430.57,MARGARET R PARDEE MEMORIAL HOSPITAL
2.88,35.30288,-81.53571,17871.05,CLEVELAND REGIONAL MEDICAL CENTER
2.61,35.29053,-77.58307,13956.85,LENOIR MEMORIAL HOSPITAL
3.05,36.00850,-78.94006,20392.85,DUKE UNIVERSITY HOSPITAL
3.25,35.79986,-80.87863,23316.59,IREDELL MEMORIAL HOSPITAL INC
3.11,35.60726,-77.40477,21277.25,PITT COUNTY MEMORIAL HOSPITAL
2.79,34.76273,-77.38582,16653.46,ONSLOW MEMORIAL HOSPITAL
2.66,36.09062,-80.27161,14762.87,NORTH CAROLINA BAPTIST HOSPITAL
3.06,35.22196,-80.83287,20515.72,PRESBYTERIAN HOSPITAL
2.52,35.90529,-79.04963,12669.32,UNIVERSITY OF NORTH CAROLINA HOSPITAL
2.48,34.33747,-78.69425,12099.39,COLUMBUS REGIONAL HEALTHCARE SYSTEM
3.10,35.78523,-78.58836,21079.95,WAKEMED, RALEIGH CAMPUS
2.40,36.06347,-79.50208,10828.91,ALAMANCE REGIONAL MEDICAL CENTER
2.45,36.09251,-79.78855,11650.57,MOSES H CONE MEMORIAL HOSPITAL, THE
2.96,35.21029,-80.82084,19051.49,CAROLINAS MED CENTER-MERCY
2.65,36.28555,-76.99489,14490.15,ROANOKE CHOWAN HOSPITAL
2.71,36.32690,-76.22370,15369.44,ALBEMARLE HOSPITAL AUTHORITY
2.84,35.36457,-80.19450,17294.81,STANLY REGIONAL MEDICAL CENTER
2.47,34.96500,-77.96165,11963.64,DUPLIN GENERAL HOSPITAL
3.68,35.71850,-77.94518,29638.25,WILSON MEDICAL CENTER
2.82,34.97382,-80.52250,17071.04,CAROLINAS MEDICAL CENTER-UNION
2.39,36.32959,-78.39916,10783.82,MARIA PARHAM MEDICAL CENTER
2.43,34.72615,-76.75452,11322.56,CARTERET GENERAL HOSPITAL
2.86,36.04960,-78.90617,17644.27,DURHAM REGIONAL HOSPITAL
2.69,35.11432,-80.71971,15089.36,PRESBYTERIAN HOSPITAL MATTHEWS
2.78,35.40634,-80.86005,16520.67,PRESBYTERIAN HOSPITAL HUNTERSVILLE
2.37,35.52586,-82.94351,10494.85,MEDWEST HAYWOOD
2.24,46.80739,-100.77773,8582.39,ST ALEXIUS MEDICAL CENTER
2.47,46.88496,-96.78609,11949.10,SANFORD MEDICAL CENTER FARGO
2.36,47.91045,-97.06742,10340.25,ALTRU HOSPITAL
2.37,46.83250,-96.82805,10502.15,ESSENTIA HEALTH-FARGO
2.59,39.08582,-84.34886,13676.00,MERCY HOSPITAL ANDERSON
2.74,39.13707,-84.50392,15888.93,UNIVERSITY HOSPITAL, INC
3.07,40.03064,-83.03440,20683.80,RIVERSIDE METHODIST HOSPITAL
2.89,38.75320,-82.97800,17997.19,SOUTHERN OHIO MEDICAL CENTER
2.98,40.73578,-84.08630,19317.10,LIMA MEMORIAL HEALTH SYSTEM
2.27,40.51393,-81.45644,9015.14,UNION HOSPITAL
3.29,39.96098,-82.99077,23979.25,GRANT MEDICAL CENTER
2.37,41.44642,-82.70864,10462.55,FIRELANDS REGIONAL MEDICAL CENTER
3.00,41.07747,-81.53042,19666.23,AKRON GENERAL MEDICAL CENTER
2.07,40.82041,-81.93422,6056.62,WOOSTER COMMUNITY HOSPITAL
2.48,40.39967,-82.44822,12037.67,KNOX COMMUNITY HOSPITAL
2.49,41.38265,-81.73127,12200.53,PARMA COMMUNITY GENERAL HOSPITAL
2.21,40.08892,-84.63511,8064.33,WAYNE HOSPITAL
3.78,41.61788,-83.61632,31057.40,UNIVERSITY OF TOLEDO MEDICAL CENTER
3.85,39.74547,-84.18523,32112.70,MIAMI VALLEY HOSPITAL
3.95,39.78778,-84.23493,33592.33,GOOD SAMARITAN HOSPITAL
2.99,38.84439,-82.23902,19479.08,HOLZER MEDICAL CENTER
2.91,39.31257,-84.51774,18373.38,MERCY HOSPITAL FAIRFIELD
2.32,40.81219,-81.39625,9752.67,MERCY MEDICAL CENTER
2.67,39.71750,-82.57772,14791.52,FAIRFIELD MEDICAL CENTER
2.83,41.17554,-81.24915,17212.44,ROBINSON MEMORIAL HOSPITAL
3.57,41.63639,-83.48640,28018.72,MERCY ST CHARLES HOSPITAL
3.03,41.59825,-81.54884,20120.08,EUCLID HOSPITAL
3.59,39.99445,-83.01872,28317.19,OHIO STATE UNIVERSITY HOSPITALS
2.56,41.55725,-83.68141,13240.03,ST LUKE'S HOSPITAL
2.93,41.66317,-81.24696,18677.68,LAKE HEALTH
3.04,41.66810,-83.54275,20254.31,MERCY ST VINCENT MEDICAL CENTER
2.51,40.75264,-82.52803,12495.88,MEDCENTRAL HEALTH SYSTEM
2.58,41.43653,-81.94451,13469.39,ST JOHN MEDICAL CENTER
3.13,41.42112,-81.59808,21524.11,MARYMOUNT HOSPITAL
2.53,41.36649,-82.09708,12792.77,EMH REGIONAL MEDICAL CENTER
2.78,39.43061,-81.46454,16518.50,MARIETTA MEMORIAL HOSPITAL
3.08,41.37028,-81.83189,20914.41,SOUTHWEST GENERAL HEALTH CENTER
2.78,41.43688,-82.23761,16431.44,MERCY REGIONAL MEDICAL CENTER
3.31,41.50248,-81.62110,24194.42,CLEVELAND CLINIC
2.40,40.90093,-80.83181,10948.54,SALEM COMMUNITY HOSPITAL
2.99,41.52013,-81.43291,19468.58,HILLCREST HOSPITAL
3.99,41.69195,-83.62455,34226.94,MERCY ST ANNE HOSPITAL
2.51,40.99498,-80.66192,12488.72,ST ELIZABETH BOARDMAN HEALTH CENTER
2.97,36.72564,-97.06859,19168.93,PONCA CITY MEDICAL CENTER
2.33,36.75199,-95.94089,9811.93,JANE PHILLIPS MEDICAL CENTER
2.91,35.75351,-95.40612,18403.00,MUSKOGEE REGIONAL MEDICAL CENTER
3.29,36.39385,-97.87094,23887.86,ST MARY'S REGIONAL MEDICAL CENTER
4.21,35.52531,-97.58461,37374.74,DEACONESS HOSPITAL
2.72,35.47800,-97.52352,15620.57,ST ANTHONY HOSPITAL
3.11,34.18908,-97.14128,21309.68,MERCY MEMORIAL HEALTH CENTER
2.39,36.65318,-95.15577,10692.25,CRAIG GENERAL HOSPITAL
2.42,35.91530,-94.94996,11185.60,TAHLEQUAH CITY HOSPITAL
4.06,35.46721,-97.39370,35226.24,MIDWEST REGIONAL MEDICAL CENTER
2.70,36.58133,-94.75864,15323.94,INTEGRIS GROVE HOSPITAL
2.80,36.13393,-95.96718,16812.92,ST JOHN MEDICAL CENTER, INC
3.15,42.42112,-123.34326,21892.56,THREE RIVERS COMMUNITY HOSPITAL
2.67,45.53028,-122.69692,14866.58,LEGACY GOOD SAMARITAN MEDICAL CENTER
2.94,42.31769,-122.83333,18760.74,ROGUE VALLEY MEDICAL CENTER
2.72,44.06773,-121.26817,15506.47,ST CHARLES MEDICAL CENTER - BEND
2.57,44.93267,-123.03418,13321.92,SALEM HOSPITAL
2.73,45.51288,-122.55630,15729.55,ADVENTIST MEDICAL CENTER
2.77,45.52677,-122.61469,16249.05,PROVIDENCE PORTLAND MEDICAL CENTER
3.28,45.19897,-123.16482,23810.00,WILLAMETTE VALLEY MEDICAL CENTER
2.81,42.34086,-122.86108,16958.28,PROVIDENCE MEDFORD MEDICAL CENTER
3.06,41.40075,-75.64594,20515.08,COMMUNITY MEDICAL CENTER
4.48,40.96789,-76.60506,41340.96,GEISINGER MEDICAL CENTER
3.46,42.11102,-80.07912,26477.10,SAINT VINCENT HEALTH CENTER
2.34,40.97877,-76.88593,9926.05,EVANGELICAL COMMUNITY HOSPITAL
5.23,40.07880,-75.21107,52374.50,CHESTNUT HILL HOSPITAL
3.26,40.43609,-79.98537,23563.38,UPMC MERCY
2.59,40.69101,-76.18682,13712.84,SCHUYLKILL MEDICAL CENTER - EAST NORWEGIAN STREET
2.51,40.71251,-80.32136,12502.50,HERITAGE VALLEY BEAVER
2.63,40.18302,-80.24767,14230.68,WASHINGTON HOSPITAL, THE
2.62,41.24548,-77.01438,14082.68,WILLIAMSPORT REGIONAL MEDICAL CENTER
3.08,40.45705,-80.00363,20860.67,ALLEGHENY GENERAL HOSPITAL
3.77,40.36358,-75.32621,30963.47,GRAND VIEW HOSPITAL
3.78,42.13338,-80.08703,31094.74,UPMC HAMOT
2.53,40.52204,-78.39824,12733.78,ALTOONA REGIONAL HEALTH SYSTEM
2.45,41.11492,-78.77515,11547.33,DUBOIS REGIONAL MEDICAL CENTER
2.56,41.36116,-79.70065,13170.26,UPMC NORTHWEST
2.87,40.04740,-76.30540,17797.27,LANCASTER GENERAL HOSPITAL
3.17,40.48928,-79.89596,22168.12,UPMC ST MARGARET
5.61,40.12453,-75.33533,57897.05,MONTGOMERY HOSPITAL
3.92,39.95045,-75.19259,33241.52,HOSPITAL OF UNIV OF PENNSYLVANIA
2.68,41.64205,-80.14579,14913.53,MEADVILLE MEDICAL CENTER
3.86,40.07160,-74.98341,32296.69,ARIA HEALTH
3.38,41.41107,-75.65091,25260.11,MOSES TAYLOR HOSPITAL
4.85,40.24397,-75.61364,46774.38,POTTSTOWN MEMORIAL MEDICAL CENTER
3.71,40.60000,-75.47000,30074.60,LEHIGH VALLEY HOSPITAL
2.69,40.30103,-79.55505,15096.12,EXCELA HEALTH WESTMORELAND REGIONAL HOSPITAL
2.57,39.93492,-77.64744,13418.45,CHAMBERSBURG HOSPITAL
4.18,40.04475,-75.50425,37002.59,MAIN LINE HOSPITAL PAOLI
5.52,39.92871,-75.26873,56625.82,MERCY FITZGERALD HOSPITAL
4.67,40.68708,-75.24272,44108.38,EASTON HOSPITAL
2.38,40.60755,-79.15657,10567.89,INDIANA REGIONAL MEDICAL CENTER
4.37,39.94969,-75.15712,39752.07,THOMAS JEFFERSON UNIVERSITY HOSPITAL
2.96,41.41133,-80.37169,19111.31,UPMC HORIZON
2.90,39.97024,-75.60259,18216.61,CHESTER COUNTY HOSPITAL
8.01,39.85598,-75.36791,93245.35,CROZER CHESTER MEDICAL CENTER
2.48,40.83130,-75.72794,12064.38,GNADEN HUETTEN MEMORIAL HOSPITAL
3.21,40.99225,-75.17466,22754.58,POCONO MEDICAL CENTER
2.87,40.18739,-76.18224,17762.62,EPHRATA COMMUNITY HOSPITAL
2.87,40.37782,-80.06589,17824.94,ST CLAIR MEMORIAL HOSPITAL
4.87,40.12077,-75.11818,47164.81,ABINGTON MEMORIAL HOSPITAL
2.54,39.80858,-76.98306,12870.12,HANOVER HOSPITAL
4.11,40.20064,-74.92952,36026.15,ST MARY MEDICAL CENTER
2.28,40.31802,-79.93494,9167.17,JEFFERSON REGIONAL MEDICAL CENTER
2.60,40.42897,-79.74808,13798.35,WESTERN PENNSYLVANIA HOSP FORBES REGIONAL CAMPUS
2.82,40.81936,-77.84273,16976.52,MOUNT NITTANY MEDICAL CENTER
3.02,41.25855,-75.81041,19928.71,GEISINGER WYOMING VALLEY MEDICAL CENTER
2.73,41.85574,-71.45945,15757.46,ST JOSEPH HEALTH SERVICES OF RI
3.62,41.81254,-71.40760,28807.76,RHODE ISLAND HOSPITAL
3.59,41.81096,-71.41208,28381.75,WOMEN AND INFANTS HOSPITAL OF RHODE ISLAND
3.51,42.00497,-71.49561,27158.67,LANDMARK MEDICAL CENTER,  INC
3.25,41.85172,-71.39826,23379.24,MIRIAM HOSPITAL
3.29,34.96733,-81.94021,23915.55,SPARTANBURG REGIONAL MEDICAL CENTER
2.80,34.69403,-82.98884,16805.32,OCONEE MEDICAL CENTER
3.86,34.02839,-81.03539,32270.83,PALMETTO HEALTH RICHLAND
4.96,34.71787,-80.78844,48486.57,SPRINGS MEMORIAL HOSPITAL
3.22,34.24654,-80.60702,22899.73,KERSHAW HEALTH
3.61,34.19543,-79.76256,28662.47,MCLEOD REGIONAL MEDICAL CENTER-PEE DEE
2.85,34.18661,-79.32541,17541.33,MARION REGIONAL HOSPITAL
2.88,34.05671,-78.89903,17934.55,LORIS COMMUNITY HOSPITAL
2.90,33.62185,-80.74922,18150.43,TRMC OF ORANGEBURG & CALHOUN
3.23,34.17571,-82.15791,22998.89,SELF REGIONAL HEALTHCARE
3.09,34.81904,-82.41308,20958.43,GREENVILLE MEMORIAL HOSPITAL
3.87,32.97605,-80.07302,32383.55,TRIDENT MEDICAL CENTER
3.17,32.22325,-80.71444,22138.93,HILTON HEAD REGIONAL MEDICAL CENTER
3.51,33.70704,-78.89487,27209.50,GRAND STRAND REG MED CENTER
4.40,34.00754,-81.03270,40177.46,PALMETTO HEALTH BAPTIST
3.50,32.78211,-79.95018,26953.63,ROPER HOSPITAL
2.76,33.59553,-79.02412,16093.22,WACCAMAW COMMUNITY HOSPITAL
2.72,42.87249,-97.40741,15518.36,AVERA SACRED HEART HOSPITAL
2.96,45.46141,-98.47929,19075.16,AVERA ST LUKES
3.36,43.53460,-96.71136,25016.77,AVERA MCKENNAN HOSPITAL & UNIVERSITY HEALTH CENTER
3.40,43.53562,-96.74305,25504.88,SANFORD USD MEDICAL CENTER
2.60,35.63906,-88.83207,13806.97,JACKSON-MADISON COUNTY GENERAL HOSPITAL
3.81,36.24440,-86.75204,31574.00,SKYLINE MEDICAL CENTER
2.14,35.46872,-86.08400,7052.25,UNITED REGIONAL MEDICAL CENTER
2.67,35.93917,-85.01865,14772.78,CUMBERLAND MEDICAL CENTER
2.59,36.58587,-82.25703,13677.14,WELLMONT BRISTOL REGIONAL MEDICAL CENTER
2.86,36.55401,-82.55483,17670.83,WELLMONT HOLSTON VALLEY MEDICAL CENTER
2.46,36.17561,-82.79033,11808.23,LAUGHLIN MEMORIAL HOSPITAL, INC
2.65,35.98589,-84.28055,14558.05,METHODIST MEDICAL CENTER OF OAK RIDGE
3.24,36.58199,-87.27050,23249.48,GATEWAY MEDICAL CENTER
3.20,35.12837,-89.86202,22672.68,BAPTIST MEMORIAL HOSPITAL
2.80,35.86074,-86.42434,16685.26,MIDDLE TENNESSEE MEDICAL CENTER INC
2.65,36.10641,-83.51924,14601.60,TENNOVA HEALTHCARE-JEFFERSON MEMORIAL HOSPITAL
2.56,36.17121,-85.50938,13160.19,COOKEVILLE REGIONAL MEDICAL CENTER
2.82,36.30767,-82.38497,17006.97,JOHNSON CITY MEDICAL CENTER
2.73,35.44041,-84.60773,15643.45,ATHENS REGIONAL MEDICAL CENTER
2.76,36.12859,-86.84559,16088.75,ST THOMAS HOSPITAL
3.05,35.05068,-85.28823,20426.69,ERLANGER MEDICAL CENTER
2.93,35.99233,-83.92697,18615.79,TENNOVA HEALTHCARE
2.76,35.95747,-83.93660,16186.54,FORT SANDERS REGIONAL MEDICAL CENTER
3.02,36.15388,-86.80249,20002.26,BAPTIST HOSPITAL
3.48,35.03467,-85.26735,26785.16,PARKRIDGE MEDICAL CENTER
2.73,35.91765,-84.10080,15741.38,PARKWEST MEDICAL CENTER
3.40,35.24230,-87.33474,25578.64,CROCKETT HOSPITAL
2.77,36.55057,-82.51465,16274.07,INDIAN PATH MEDICAL CENTER
4.66,35.09925,-89.86301,43963.37,ST FRANCIS HOSPITAL
3.31,35.17731,-84.86873,24223.89,SKYRIDGE MEDICAL CENTER
2.90,35.68445,-88.85461,18238.23,REGIONAL HOSPITAL OF JACKSON
3.07,36.32443,-86.62304,20644.25,HENDERSONVILLE MEDICAL CENTER
4.64,35.20713,-89.80059,43751.00,SAINT FRANCIS BARTLETT MEDICAL CENTER
4.98,31.77031,-106.50085,48731.42,PROVIDENCE MEMORIAL HOSPITAL
2.73,30.04413,-99.15217,15678.08,PETERSON REGIONAL MEDICAL CENTER
3.20,33.90296,-98.50035,22677.16,UNITED REGIONAL HEALTH CARE SYSTEM
3.19,30.65598,-96.34672,22426.60,ST JOSEPH REGIONAL HEALTH CENTER
3.29,32.78994,-96.78044,23933.64,BAYLOR UNIVERSITY MEDICAL CENTER
3.12,28.81269,-96.97780,21426.79,CITIZENS MEDICAL CENTER
3.46,27.53249,-99.47808,26490.36,LAREDO MEDICAL CENTER
3.92,26.17446,-97.67014,33105.92,VHS HARLINGEN HOSPITAL COMPANY LLC
2.93,32.50219,-94.73025,18692.50,GOOD SHEPHERD MEDICAL CENTER
5.56,33.57524,-101.89272,57160.75,COVENANT MEDICAL CENTER
2.81,31.51444,-97.19927,16949.75,PROVIDENCE HEALTH CENTER
3.65,32.81224,-96.83795,29252.11,UT SOUTHWESTERN UNIVERSITY HOSPITAL
3.59,32.76017,-96.82437,28299.33,METHODIST DALLAS MEDICAL CENTER
2.63,31.07837,-97.36403,14284.86,SCOTT & WHITE MEMORIAL HOSPITAL
3.73,29.43360,-98.49265,30384.88,BAPTIST MEDICAL CENTER
3.37,32.74944,-97.11630,25094.81,TEXAS HEALTH ARLINGTON MEMORIAL HOSPITAL
3.14,29.71431,-95.39680,21792.08,MEMORIAL HERMANN TEXAS MEDICAL CENTER
2.90,32.83520,-96.96101,18175.62,BAYLOR MEDICAL CENTER AT IRVING
5.00,29.66575,-95.18131,49032.18,BAYSHORE MEDICAL CENTER
2.71,29.56876,-97.94776,15387.86,GUADALUPE REGIONAL MEDICAL CENTER
4.37,31.76998,-106.49897,39790.44,LAS PALMAS MEDICAL CENTER
4.60,26.26353,-98.18455,43089.95,SOUTH TEXAS HEALTH SYSTEM
3.69,29.42561,-98.48946,29765.67,NIX HEALTH CARE SYSTEM
3.12,31.99616,-102.09950,21444.97,MIDLAND MEMORIAL HOSPITAL
3.03,32.73780,-97.33899,20069.80,TEXAS HEALTH HARRIS METHODIST FORT WORTH
3.69,28.80765,-96.99896,29846.05,DETAR HOSPITAL NAVARRO
3.07,26.19665,-98.31409,20678.25,MISSION REGIONAL MEDICAL CENTER
3.17,29.81230,-95.43010,22107.73,MEMORIAL HERMANN HOSPITAL SYSTEM
3.50,29.70719,-95.40048,26974.72,ST LUKES EPISCOPAL HOSPITAL
3.36,35.19934,-101.92186,24964.94,NORTHWEST TEXAS HOSPITAL
4.21,30.28473,-95.46714,37455.56,CONROE REGIONAL MEDICAL CENTER
3.49,35.19533,-101.91907,26925.23,BAPTIST ST ANTHONYS HEALTH SYSTEM-BAPTIST CAMPUS
3.25,33.71085,-96.58493,23285.67,TEXOMA MEDICAL CENTER
3.21,31.42009,-100.47013,22707.18,SAN ANGELO COMMUNITY MEDICAL CENTER
2.91,33.12242,-96.12404,18337.29,HUNT REGIONAL MEDICAL CENTER
3.59,29.50795,-98.57224,28306.66,METHODIST HOSPITAL
3.96,32.17167,-95.84417,33715.48,EAST TEXAS MEDICAL CENTER ATHENS
3.21,31.32794,-94.75614,22789.09,WOODLAND HEIGHTS MEDICAL CENTER
3.37,29.93570,-93.98900,25106.71,THE MEDICAL CENTER OF SOUTHEAST TEXAS
5.59,32.40574,-99.76486,57741.07,ABILENE REGIONAL MEDICAL CENTER
3.43,32.93228,-97.09436,25993.89,BAYLOR REGIONAL MEDICAL CENTER AT GRAPEVINE
3.11,31.46574,-100.43466,21252.18,SHANNON MEDICAL CENTER
2.28,29.11258,-97.28295,9094.18,CUERO COMMUNITY HOSPITAL
3.22,29.78143,-95.54541,22889.53,MEMORIAL HERMANN MEMORIAL CITY MEDICAL CENTER
3.76,33.17345,-97.11382,30809.94,DENTON REGIONAL MEDICAL CENTER
4.15,30.01994,-95.44379,36524.09,HOUSTON NORTHWEST MEDICAL CENTER
4.67,33.02168,-96.76621,44168.64,MEDICAL CENTER OF PLANO
4.50,31.65212,-94.65488,41699.08,NACOGDOCHES MEDICAL CENTER
5.05,25.97780,-97.51442,49747.57,VALLEY REGIONAL MEDICAL CENTER
4.85,33.04634,-97.00473,46759.09,MEDICAL CENTER OF LEWISVILLE
2.97,30.08682,-95.62403,19258.94,TOMBALL REGIONAL MEDICAL CENTER
4.06,32.73563,-97.34483,35181.46,PLAZA MEDICAL CENTER OF FORT WORTH
3.93,32.67614,-97.32079,33378.92,HUGULEY HEALTH SYSTEM
3.70,29.99677,-95.27641,29988.94,MEMORIAL HERMANN NORTHEAST
3.22,33.58838,-101.89214,22853.62,UNIVERSITY MEDICAL CENTER
3.56,29.35295,-98.54601,27917.65,SOUTHWEST GENERAL HOSPITAL
3.92,30.22723,-97.77447,33225.53,ST DAVID'S SOUTH AUSTIN MEDICAL CENTER
3.92,29.92772,-95.59016,33137.09,CYPRESS FAIRBANKS MEDICAL CENTER
3.43,32.64448,-96.87635,25926.79,METHODIST CHARLTON MEDICAL CENTER
3.19,32.65818,-97.42078,22455.33,TEXAS HEALTH HARRIS METHODIST HOSPITAL SOUTHWEST F
4.04,27.69288,-97.34476,34939.95,CORPUS CHRISTI MEDICAL CENTER,THE
4.30,30.41163,-97.70649,38697.09,NORTH AUSTIN MEDICAL CENTER
3.55,29.58896,-95.63112,27796.93,METHODIST SUGAR LAND HOSPITAL
4.19,29.96603,-95.55127,37071.18,METHODIST WILLOWBROOK HOSPITAL
3.13,29.78747,-95.78578,21566.64,MEMORIAL HERMANN KATY HOSPITAL
3.47,30.20579,-95.45830,26636.23,ST LUKE'S THE WOODLANDS HOSPITAL
3.30,33.01358,-96.78823,24035.75,BAYLOR REGIONAL MEDICAL CENTER AT PLANO
2.55,40.24999,-111.66524,13082.81,UTAH VALLEY REGIONAL MEDICAL CENTER
2.55,40.77848,-111.88062,13046.36,LDS HOSPITAL
2.40,37.09986,-113.55271,10851.00,DIXIE REGIONAL MEDICAL CENTER
2.45,44.47966,-73.19412,11560.03,FLETCHER ALLEN HOSPITAL OF VERMONT
2.53,43.59828,-72.95512,12793.67,RUTLAND REGIONAL MEDICAL CENTER
2.37,38.40552,-78.85730,10499.36,ROCKINGHAM MEMORIAL HOSPITAL
2.28,39.19345,-78.19599,9130.40,WINCHESTER MEDICAL CENTER INC
2.63,36.86268,-76.30355,14318.15,SENTARA NORFOLK GENERAL HOSPITAL
3.02,38.02573,-78.51526,19987.00,UNIVERSITY OF VIRGINIA MEDICAL CENTER
3.25,36.89933,-76.28157,23393.75,BON SECOURS - DEPAUL MEDICAL CENTER
2.90,36.83716,-76.34786,18274.56,BON SECOURS MARYVIEW MEDICAL CENTER
2.36,38.09436,-78.98659,10227.76,AUGUSTA HEALTH
2.78,37.41368,-79.16870,16470.59,CENTRA  HEALTH, INC
2.65,38.71322,-77.80895,14507.70,THE FAUQUIER HOSPITAL, INC
2.57,37.25129,-79.94125,13348.35,CARILION ROANOKE MEMORIAL CENTER
3.39,37.54330,-77.42932,25346.23,MEDICAL COLLEGE OF VIRGINIA HOSPITALS
2.61,38.82218,-77.10533,14007.95,INOVA ALEXANDRIA HOSPITAL
2.58,37.14463,-76.51197,13447.33,MARY IMMACULATE HOSPITAL
2.68,37.09020,-80.50370,14997.91,CARILION NEW RIVER VALLEY MEDICAL CENTER
2.51,39.07405,-77.47754,12449.79,INOVA LOUDOUN HOSPITAL
2.66,36.77378,-76.57856,14663.06,SENTARA OBICI HOSPITAL
2.80,36.85098,-76.18989,16759.69,SENTARA LEIGH HOSPITAL
2.82,37.06523,-76.48417,17096.67,RIVERSIDE REGIONAL MEDICAL CENTER
3.66,37.09990,-81.79024,29318.25,CLINCH VALLEY MEDICAL CENTER
2.70,38.85764,-77.22772,15349.83,INOVA FAIRFAX HOSPITAL
2.75,37.33700,-76.74046,15937.04,SENTARA WILLIAMSBURG REGIONAL MEDICAL CENTER
4.56,37.18253,-77.35957,42627.68,SOUTHSIDE REGIONAL MEDICAL CENTER
3.16,37.62931,-77.38804,22020.12,BON SECOURS - MEMORIAL REGIONAL MEDICAL
2.47,38.02176,-78.44530,11901.89,MARTHA JEFFERSON HOSPITAL
2.71,36.69555,-79.86374,15489.82,MEMORIAL HOSPITAL OF MARTINSVILLE & HENRY COUNTY
2.66,37.05580,-76.39048,14695.91,SENTARA CAREPLEX HOSPITAL
2.76,38.88483,-77.37995,16092.82,INOVA FAIR OAKS HOSPITAL
3.07,38.63463,-77.28361,20692.80,SENTARA POTOMAC HOSPITAL
2.64,38.74009,-77.07732,14393.06,INOVA MOUNT VERNON HOSPITAL
2.88,37.79106,-79.88263,17912.33,LEWISGALE HOSPITAL ALLEGHANY
3.96,37.46807,-77.66143,33760.31,BON SECOURS - ST FRANCIS MEDICAL CENTER
2.94,47.71468,-122.33762,18811.44,NORTHWEST HOSPITAL
4.34,47.33947,-122.26677,39382.92,AUBURN REGIONAL MEDICAL CENTER
3.15,46.71265,-122.98504,21859.50,PROVIDENCE CENTRALIA HOSPITAL
3.17,47.58295,-122.62506,22168.00,HARRISON MEDICAL CENTER
2.74,46.13039,-122.94110,15908.64,PEACHEALTH ST JOHN MEDICAL CENTER
3.09,45.62460,-122.58145,21062.31,PEACEHEALTH SOUTHWEST MEDICAL CENTER
2.85,47.64936,-117.41194,17543.90,PROVIDENCE SACRED HEART MEDICAL CENTER
2.93,46.28132,-119.28218,18670.08,KADLEC REGIONAL MEDICAL CENTER
2.47,48.11504,-123.41519,11923.48,OLYMPIC MEDICAL CENTER
3.96,47.17742,-122.28943,33823.22,MULTICARE GOOD SAMARITAN HOSPITAL
3.07,47.44243,-122.21392,20681.07,VALLEY MEDICAL CENTER
3.89,47.25980,-122.45243,32712.91,TACOMA GENERAL ALLENMORE HOSPITAL
3.73,47.29252,-122.32729,30389.48,ST FRANCIS COMMUNITY HOSPITAL
3.32,47.36373,-122.61353,24389.29,ST ANTHONY HOSPITAL
2.66,39.65498,-79.95814,14715.62,WEST VIRGINIA UNIVERSITY HOSPITALS
2.51,37.77324,-80.46826,12544.06,GREENBRIER VALLEY MEDICAL CENTER
2.63,39.32836,-80.23964,14191.09,UNITED HOSPITAL CENTER
2.45,38.43236,-82.40067,11593.73,ST MARY'S MEDICAL CENTER
2.77,38.34739,-81.62600,16249.36,CHARLESTON AREA MEDICAL CENTER
2.70,39.66383,-79.94681,15340.06,MONONGALIA COUNTY GENERAL HOSPITAL
2.50,39.48229,-80.16519,12354.46,FAIRMONT GENERAL HOSPITAL
2.77,37.84674,-81.99565,16234.00,LOGAN REGIONAL MEDICAL CENTER
2.46,39.27035,-81.56026,11813.27,CAMDEN CLARK MEDICAL CENTER
2.35,37.78754,-81.20183,10189.58,RALEIGH GENERAL HOSPITAL
2.32,44.24830,-88.40268,9687.17,ST ELIZABETH HSPTL
2.54,42.60783,-89.63494,12966.41,THE MONROE CLINIC
2.54,44.18700,-88.45431,12891.08,THEDA CLARK MED CTR
2.72,43.06195,-87.87861,15580.70,COLUMBIA ST MARYS HSPTL  MILW (COL & MILW CAMPUS)
2.76,42.67269,-88.28138,16106.38,AURORA MEMORIAL HSPTL BURLINGTON
2.64,42.68685,-89.03244,14410.75,MERCY HLTH SYS CORP
2.87,44.81192,-91.51352,17737.62,MAYO CLINIC HEALTH SYSTEM EAU CLAIRE HOSPITAL
3.09,43.77733,-88.42866,21060.17,ST AGNES HSPTL
2.65,42.73444,-87.82788,14512.76,WHEATON FRANCISCAN HEALTHCARE- ALL SAINTS
3.03,43.07633,-89.43133,20076.42,UNIVERSITY OF WI  HOSPITALS & CLINICS AUTHORITY
3.64,42.54868,-89.00822,29110.50,BELOIT MEM HSPTL
2.43,43.07393,-87.97612,11368.58,WHEATON FRANCISCAN, INC- ST JOSEPH
3.45,42.98958,-87.95079,26331.27,AURORA ST LUKES MEDICAL CENTER
3.16,43.00120,-88.02675,22070.83,AURORA WEST ALLIS MEDICAL CENTER
2.09,44.27860,-88.39550,6300.50,APPLETON MED CTR
2.79,43.04008,-88.02523,16580.19,FROEDTERT MEM LUTHERAN HSPTL
2.58,43.32426,-87.92776,13450.55,AURORA MEDICAL CENTER
2.72,42.82063,-108.72688,15607.77,LANDER REGIONAL HOSPITAL
3.09,42.84802,-106.30851,20929.11,WYOMING MEDICAL CENTER
3.49,41.14037,-104.81660,26827.90,CHEYENNE REGIONAL MEDICAL CENTER
4.33,30.56899,-97.65104,39200.57,SETON MEDICAL CENTER WILLIAMSON
3.03,32.88575,-96.46443,20127.29,TEXAS HEALTH PRESBYTERIAN HOSPITAL ROCKWALL
3.42,29.61578,-98.47479,25820.68,METHODIST STONE OAK HOSPITAL
2.18,34.36605,-86.42127,7693.20,MARSHALL MEDICAL CENTER NORTH
2.84,33.59616,-86.66750,17293.43,ST VINCENT'S EAST
3.79,33.25607,-86.81035,31211.45,SHELBY BAPTIST MEDICAL CENTER
2.73,34.74649,-87.69895,15756.00,HELEN KELLER MEMORIAL HOSPITAL
2.32,32.63806,-85.40413,9763.27,EAST ALABAMA MEDICAL CENTER AND SNF
3.04,33.50619,-86.80210,20285.52,UNIVERSITY OF ALABAMA HOSPITAL
2.68,34.20768,-86.87489,15021.42,CULLMAN REGIONAL MEDICAL CENTER
3.46,33.66767,-85.83420,26461.19,STRINGFELLOW MEMORIAL HOSPITAL
2.76,33.65640,-85.82284,16138.45,NORTHEAST ALABAMA REGIONAL MED CENTER
4.17,30.42700,-87.68386,36859.83,SOUTH BALDWIN REGIONAL MEDICAL CENTER
2.33,34.59052,-86.97262,9841.79,DECATUR GENERAL HOSPITAL
3.30,33.20521,-87.52546,24075.25,D C H REGIONAL MEDICAL CENTER
4.23,33.49854,-86.84633,37780.93,BAPTIST MEDICAL CENTER-PRINCETON
3.59,32.43020,-87.05515,28344.86,VAUGHAN REG MED CENTER PARKWAY CAMPUS
5.97,33.46420,-86.77409,63265.15,BROOKWOOD MEDICAL CENTER
2.47,30.68546,-88.13170,11916.15,SPRINGHILL MEDICAL CENTER
3.17,32.38797,-86.17576,22172.88,BAPTIST MEDICAL CENTER EAST
3.17,34.49384,-87.72713,22218.93,RUSSELLVILLE HOSPITAL
3.67,60.94901,-149.17033,29477.93,PROVIDENCE ALASKA MEDICAL CENTER
3.60,33.46514,-112.05797,28409.14,BANNER GOOD SAMARITAN MEDICAL CENTER
3.01,32.25294,-110.88135,19863.23,TUCSON MEDICAL CENTER
2.75,34.56017,-112.48217,16032.66,YAVAPAI REGIONAL MEDICAL CENTER
3.00,32.88123,-111.71067,19622.93,CASA GRANDE REGIONAL MEDICAL CENTER
3.87,35.20923,-111.64486,32383.56,FLAGSTAFF MEDICAL CENTER
3.99,33.48073,-112.07948,34205.33,ST JOSEPH'S HOSPITAL AND MEDICAL CENTER
4.35,34.25095,-111.31972,39422.94,PAYSON REGIONAL MEDICAL CENTER
4.04,33.29750,-111.87461,34877.91,CHANDLER REGIONAL MEDICAL CENTER
3.87,33.48885,-111.92387,32452.28,SCOTTSDALE HEALTHCARE-OSBORN MEDICAL CENTER
2.58,31.55116,-110.27248,13554.75,SIERRA VISTA REGIONAL HEALTH CENTER INC
3.14,35.22024,-114.03585,21768.06,KINGMAN REGIONAL MEDICAL CENTER
3.81,33.60432,-112.28378,31593.02,BANNER BOSWELL MEDICAL CENTER
3.76,33.39097,-111.87638,30796.62,BANNER DESERT MEDICAL CENTER
3.89,34.47988,-114.33938,32747.80,HAVASU REGIONAL MEDICAL CENTER
3.44,33.41128,-111.68916,26129.72,BANNER BAYWOOD MEDICAL CENTER
3.81,33.60949,-112.18129,31568.61,BANNER THUNDERBIRD MEDICAL CENTER
3.49,33.66596,-112.11618,26887.05,JOHN C LINCOLN DEER VALLEY HOSPITAL
3.95,33.65965,-112.37283,33617.84,BANNER DEL E WEBB MEDICAL CENTER
5.21,35.11068,-114.55505,52155.69,WESTERN ARIZONA REGIONAL MEDICAL CTR
2.72,34.58822,-112.33095,15498.09,YAVAPAI REGIONAL MEDICAL CENTER-EAST
3.59,33.28686,-111.75246,28373.17,MERCY GILBERT MEDICAL CENTER
3.23,33.67102,-111.92184,22981.28,SCOTTSDALE HEALTHCARE-THOMPSON PEAK HOSPITAL
2.88,36.18181,-94.54005,17851.45,SILOAM SPRINGS MEMORIAL HOSPITAL
2.59,36.10940,-94.16036,13714.45,WASHINGTON REGIONAL MED CTR AT NORTH HILLS
3.12,34.75031,-92.33897,21380.28,ST VINCENT INFIRMARY MEDICAL CENTER
2.78,36.31007,-94.18471,16523.13,MERCY MEDICAL CENTER
2.78,35.25046,-91.70056,16493.27,WHITE COUNTY MEDICAL CENTER
2.52,36.23579,-93.10717,12642.83,NORTH ARKANSAS REGIONAL MEDICAL CENTER
2.22,35.83746,-90.70386,8175.63,ST BERNARDS MEDICAL CTR
