size_charge,size_pay,lat,lon,charge,pay,name
4.44,2.13,36.18082,-94.13644,24356.86,5382.71,NW ARKANSAS HOSPITALS, LLC
4.13,2.11,34.46784,-93.06667,21793.31,5264.31,ST JOSEPHS MERCY HEALTH CENTER INC
2.44,2.08,36.34295,-92.39442,7947.93,5041.75,BAXTER REGIONAL MEDICAL CENTER
2.97,2.09,35.08546,-92.45774,12278.68,5106.82,CONWAY REGIONAL MEDICAL CENTER
3.54,2.08,34.77770,-92.12539,16966.12,5025.79,BAPTIST HEALTH MEDICAL CENTER NORTH LITTLE ROCK
2.73,2.29,36.05214,-90.49908,10345.05,6756.80,ARKANSAS METHODIST MEDICAL CENTER
4.51,2.13,35.28275,-93.14901,24933.38,5424.00,ST MARYS REGIONAL MEDICAL CENTER
3.43,2.29,35.14320,-90.18837,16063.83,6735.83,CRITTENDEN MEMORIAL HOSPITAL
3.24,2.12,35.37445,-94.41868,14506.38,5332.35,SPARKS REGIONAL MEDICAL CENTER
4.62,2.12,35.35395,-94.35262,25833.62,5342.17,ST EDWARD MERCY MEDICAL CENTER
4.16,2.17,34.18894,-92.01886,22043.48,5752.90,JEFFERSON REGIONAL MEDICAL CENTER
5.26,2.15,34.48600,-93.03521,31019.00,5616.36,NATIONAL PARK MEDICAL CENTER
2.93,2.09,34.57290,-92.58508,11960.85,5091.15,SALINE MEMORIAL HOSPITAL
4.06,2.12,34.74866,-92.35422,21184.62,5361.32,BAPTIST HEALTH MEDICAL CENTER-LITTLE ROCK
3.80,2.23,35.80838,-90.66658,19072.10,6263.38,NEA BAPTIST MEMORIAL HOSPITAL
3.87,2.16,35.76927,-91.63408,19628.64,5656.18,WHITE RIVER MEDICAL CENTER
5.23,2.33,37.59283,-122.38249,30831.56,7017.78,PENINSULA MEDICAL CENTER
6.57,2.45,38.32472,-122.29671,41771.00,8035.74,QUEEN OF THE VALLEY MEDICAL CENTER
4.65,2.24,35.11346,-120.59054,26021.31,6288.46,ARROYO GRANDE COMMUNITY HOSPITAL
7.63,2.57,38.57053,-121.45216,50416.68,9055.84,MERCY GENERAL HOSPITAL
4.43,2.79,34.06505,-118.23913,24257.56,10840.62,PACIFIC ALLIANCE MEDICAL CENTER
8.56,2.47,33.97659,-117.38184,58051.92,8199.35,RIVERSIDE COMMUNITY HOSPITAL
4.39,2.78,32.75426,-117.16592,23932.97,10730.95,UNIVERSITY OF CALIFORNIA SAN DIEGO MEDICAL CENTER
6.47,2.29,32.77495,-117.01467,40915.67,6757.43,GROSSMONT HOSPITAL
4.31,2.34,39.50528,-121.54100,23270.12,7145.00,OROVILLE HOSPITAL
6.50,2.34,35.38736,-119.01690,41219.29,7140.50,BAKERSFIELD MEMORIAL HOSPITAL
6.33,2.24,39.74221,-121.85000,39827.46,6301.61,ENLOE MEDICAL CENTER
6.66,2.80,37.82206,-122.26275,42522.39,10929.78,ALTA BATES SUMMIT MEDICAL CENTER
6.15,2.45,32.78037,-115.56848,38338.38,7999.75,EL CENTRO REGIONAL MEDICAL CENTER
6.72,2.73,37.79100,-122.43125,42963.13,10294.77,CALIFORNIA PACIFIC MEDICAL CTR-PACIFIC CAMPUS HOSP
3.94,2.42,34.67486,-118.15771,20242.04,7789.04,ANTELOPE VALLEY HOSPITAL MED CENTER
5.78,2.36,36.32737,-119.29548,35263.56,7295.56,KAWEAH DELTA MEDICAL CENTER
5.32,2.57,34.12834,-118.25777,31541.14,8990.19,GLENDALE MEM HOSPITAL & HLTH CENTER
4.71,2.56,36.73000,-119.78000,26536.27,8962.40,COMMUNITY REGIONAL MEDICAL CENTER
5.80,2.75,34.09643,-118.29103,35478.33,10470.00,HOLLYWOOD PRESBYTERIAN MEDICAL CENTER
6.05,2.32,33.78036,-117.86495,37501.56,6980.67,ST JOSEPH HOSPITAL
5.48,2.48,32.75143,-117.16083,32841.38,8261.79,SCRIPPS MERCY HOSPITAL
5.89,2.44,34.21674,-119.15631,36219.59,7928.12,ST JOHNS REGIONAL MEDICAL CENTER
6.84,2.41,37.96987,-121.28873,43990.95,7751.05,ST JOSEPHS MED CENTER OF STOCKTON
4.56,2.34,36.83532,-119.76562,25347.69,7155.38,SAINT AGNES MEDICAL CENTER
5.26,2.26,34.10130,-117.63651,31019.86,6480.14,SAN ANTONIO COMMUNITY HOSPITAL
6.79,2.74,32.79949,-117.15394,43603.64,10451.18,SHARP MEMORIAL HOSPITAL
5.94,2.34,34.95099,-120.41322,36584.13,7115.90,MARIAN MEDICAL CENTER
6.74,2.47,38.57155,-121.46874,43196.54,8219.24,SUTTER GENERAL HOSPITAL
2.71,2.36,34.64075,-120.43958,10187.54,7266.00,LOMPOC VALLEY MEDICAL CENTER
6.78,2.38,34.02685,-118.48651,43451.33,7456.60,SANTA MONICA - UCLA MED CTR & ORTHOPAEDIC HOSPITAL
6.16,2.26,33.12535,-117.07336,38374.05,6452.90,PALOMAR MEDICAL CENTER
7.11,2.41,34.22014,-118.53410,46210.81,7692.96,NORTHRIDGE HOSPITAL MEDICAL CENTER
5.04,2.35,36.32362,-119.66726,29202.04,7236.00,ADVENTIST MEDICAL CENTER
11.98,2.59,37.96125,-121.30103,86034.00,9211.79,DAMERON HOSPITAL
5.61,2.25,34.20495,-118.21589,33918.69,6405.23,VERDUGO HILLS HOSPITAL
8.62,2.78,37.36257,-121.84974,58511.46,10741.92,REGIONAL MEDICAL CENTER OF SAN JOSE
5.28,2.27,33.18402,-117.29661,31169.40,6538.40,TRI-CITY MEDICAL CENTER
4.92,2.41,34.13495,-117.27603,28250.88,7724.82,ST BERNARDINE MEDICAL CENTER
9.86,2.51,34.10081,-118.10588,68661.38,8542.23,SAN GABRIEL VALLEY MEDICAL CENTER
6.49,2.51,39.13822,-121.59436,41148.21,8555.70,RIDEOUT MEMORIAL HOSPITAL
7.24,2.41,38.25455,-122.63177,47234.18,7715.71,PETALUMA VALLEY HOSPITAL
5.46,2.41,36.57886,-121.91316,32708.00,7707.82,COMMUNITY HOSPITAL OF THE MONTEREY PENINSULA
5.19,2.38,39.22809,-121.04721,30457.57,7440.00,SIERRA NEVADA MEMORIAL HOSPITAL
9.79,2.61,37.32710,-121.93863,68131.87,9385.96,O'CONNOR HOSPITAL
5.58,2.20,34.15804,-118.48755,33675.45,5958.82,ENCINO HOSPITAL MEDICAL CENTER
4.34,2.68,34.28029,-119.25410,23536.45,9915.45,VENTURA COUNTY MEDICAL CENTER
5.22,2.20,33.89465,-117.92716,30689.03,5955.22,ST JUDE MEDICAL CENTER
6.44,2.26,33.96860,-118.04831,40692.70,6513.61,PRESBYTERIAN INTERCOMMUNITY HOSPITAL
7.16,2.43,38.44369,-122.70138,46557.94,7864.64,SANTA ROSA MEMORIAL HOSPITAL
7.73,2.31,37.51164,-120.83800,51293.55,6906.15,EMANUEL MEDICAL CENTER INC
10.48,2.42,37.91341,-122.04163,73760.85,7779.79,JOHN MUIR MEDICAL CENTER - WALNUT CREEK CAMPUS
10.35,2.71,36.92821,-121.79360,72739.88,10172.76,WATSONVILLE COMMUNITY HOSPITAL
8.60,2.57,37.55717,-121.98126,58423.49,8993.20,WASHINGTON HOSPITAL
7.87,2.38,37.48000,-122.25441,52434.30,7481.00,SEQUOIA HOSPITAL
7.67,2.38,32.61972,-117.02278,50764.64,7434.57,SHARP CHULA VISTA MEDICAL CENTER
3.86,2.23,33.62229,-117.92995,19598.38,6228.69,HOAG MEMORIAL HOSPITAL PRESBYTERIAN
7.70,2.27,39.75720,-121.57018,50990.39,6526.28,FEATHER RIVER HOSPITAL
5.85,2.30,33.84780,-117.93661,35906.94,6785.88,AHMC ANAHEIM REGIONAL MEDICAL CENTER
9.92,3.23,37.75676,-122.40461,69207.64,14390.36,SAN FRANCISCO GENERAL HOSPITAL
5.71,2.65,33.77483,-117.91329,34745.25,9684.08,GARDEN GROVE HOSPITAL & MEDICAL CENTER
7.64,2.53,34.07709,-117.75063,50509.59,8655.94,POMONA VALLEY HOSPITAL MEDICAL CENTER
5.53,2.22,35.27882,-120.65047,33225.41,6189.53,FRENCH HOSPITAL MEDICAL CENTER
8.25,2.34,34.15601,-118.32834,55544.37,7159.00,PROVIDENCE SAINT JOSEPH MEDICAL CTR
6.09,2.33,34.13973,-118.03534,37861.17,7071.78,METHODIST HOSPITAL OF SOUTHERN CA
6.03,2.57,34.14987,-118.23117,37345.54,9037.42,GLENDALE ADVENTIST MEDICAL CENTER
7.28,2.48,36.98999,-121.98357,47571.62,8311.58,DOMINICAN HOSPITAL
7.89,2.35,33.83862,-116.54557,52570.58,7233.50,DESERT REGIONAL MEDICAL CENTER
8.67,2.32,38.72562,-120.79096,58941.62,6941.69,MARSHALL MEDICAL CENTER (1-RH)
6.85,3.05,34.06675,-118.44613,44080.18,12979.79,RONALD REAGAN UCLA MEDICAL CENTER
7.94,2.52,34.03721,-117.20474,52993.36,8577.18,REDLANDS COMMUNITY HOSPITAL
9.54,2.36,34.27915,-118.46006,66066.52,7322.30,PROVIDENCE HOLY CROSS MEDICAL CENTER
5.82,2.42,40.58654,-122.39168,35591.35,7825.65,MERCY MEDICAL CENTER REDDING
5.55,2.57,34.09049,-118.14410,33391.14,9015.07,ALHAMBRA HOSPITAL MEDICAL CENTER
7.88,2.42,37.69502,-121.88095,52520.44,7829.61,VALLEYCARE MEDICAL CENTER
9.36,2.50,37.67947,-122.47447,64646.81,8479.62,SETON MEDICAL CENTER
4.72,2.21,34.03009,-118.47833,26583.28,6101.07,SAINT JOHN'S HEALTH CENTER
5.09,2.21,35.37279,-119.02817,29680.67,6116.05,MERCY HOSPITAL
7.67,2.44,34.50107,-117.17285,50765.54,7955.15,ST MARY MEDICAL CENTER
7.26,2.70,37.85593,-122.25730,47441.71,10082.75,ALTA BATES SUMMIT MEDICAL CENTER - ALTA BATES CAMP
8.08,2.38,37.36934,-122.08047,54118.17,7475.11,EL CAMINO HOSPITAL
5.76,2.30,38.76514,-121.24979,35142.33,6845.18,SUTTER ROSEVILLE MEDICAL CENTER
6.23,2.30,37.74409,-121.43469,38978.64,6825.00,SUTTER TRACY COMMUNITY HOSPITAL
4.58,2.19,32.88461,-117.22244,25478.90,5893.76,SCRIPPS MEMORIAL HOSPITAL LA JOLLA
5.73,2.90,34.05076,-117.26395,34913.67,11707.15,LOMA LINDA UNIVERSITY MEDICAL CENTER
4.78,2.37,33.87236,-117.56809,27113.42,7394.00,CORONA REGIONAL MEDICAL CENTER
5.76,2.61,36.65910,-121.64630,35174.54,9327.17,SALINAS VALLEY MEMORIAL HOSPITAL
5.59,2.47,37.97780,-120.37150,33747.88,8177.88,SONORA REGIONAL MEDICAL CENTER
13.05,2.33,38.12186,-121.28665,94797.76,7092.09,LODI MEMORIAL HOSPITAL
4.30,2.41,32.95813,-115.55388,23198.09,7737.09,PIONEERS MEMORIAL HEALTHCARE DISTRICT
8.10,2.80,33.78798,-117.89026,54277.72,10941.94,UNIVERSITY OF CALIFORNIA IRVINE MED CENTER
3.64,2.47,34.01501,-118.10064,17803.82,8164.00,BEVERLY HOSPITAL
7.45,2.25,33.81131,-118.34364,48937.50,6402.18,TORRANCE MEMORIAL MEDICAL CENTER
7.64,2.30,33.83891,-118.35677,50566.45,6784.75,PROVIDENCE LITTLE COMPANY OF MARY MED CTR TORRANCE
7.01,2.41,37.94748,-122.53677,45396.12,7708.81,MARIN GENERAL HOSPITAL
10.53,2.60,38.26174,-122.04662,74165.62,9274.62,NORTHBAY MEDICAL CENTER
7.42,2.55,37.25153,-121.94684,48725.74,8841.32,GOOD SAMARITAN HOSPITAL
4.82,2.51,34.08802,-117.89341,27453.00,8551.00,CITRUS VALLEY MEDICAL CENTER-IC CAMPUS
4.30,2.27,33.75117,-116.96028,23202.62,6532.15,HEMET VALLEY MEDICAL CENTER
7.19,2.41,33.93530,-118.13030,46808.63,7714.95,DOWNEY REGIONAL MEDICAL CENTER
5.19,2.30,34.27459,-119.25812,30461.44,6800.11,COMMUNITY MEMORIAL HOSPITAL SAN BUENAVENTURA
4.23,2.32,34.42951,-119.72333,22642.64,6975.36,SANTA BARBARA COTTAGE HOSPITAL
5.06,2.29,38.67039,-121.14552,29431.09,6704.82,MERCY HOSPITAL OF FOLSOM
4.82,2.62,41.77451,-124.19400,27441.91,9456.73,SUTTER COAST HOSPITAL
4.34,2.42,32.89810,-117.24217,23491.69,7822.92,SCRIPPS GREEN HOSPITAL
5.41,2.34,34.13364,-118.15275,32277.00,7165.05,HUNTINGTON MEMORIAL HOSPITAL
11.04,3.21,37.43436,-122.18013,78394.80,14273.91,STANFORD HOSPITAL
6.80,2.50,37.34027,-120.46817,43637.15,8440.20,MERCY MEDICAL CENTER
9.75,3.57,37.76421,-122.45716,67804.34,17201.24,UCSF MEDICAL CENTER
5.56,2.35,35.38338,-119.01969,33526.12,7233.69,SAN JOAQUIN COMMUNITY HOSPITAL
9.21,2.62,37.77449,-122.45429,63415.25,9429.06,ST MARY'S MEDICAL CENTER
13.38,2.47,37.66540,-120.99743,97526.08,8176.50,DOCTORS MEDICAL CENTER
7.04,2.55,34.05336,-118.26558,45642.00,8833.13,GOOD SAMARITAN HOSPITAL
8.20,2.23,34.20285,-118.62962,55072.41,6205.29,WEST HILLS HOSPITAL & MEDICAL CENTER
5.49,2.47,33.80861,-118.18661,32921.31,8206.67,LONG BEACH MEMORIAL MEDICAL CENTER
6.94,2.53,37.69824,-122.08730,44771.20,8696.97,EDEN MEDICAL CENTER
9.63,2.45,37.98396,-122.03464,66819.75,8071.09,JOHN MUIR MEDICAL CENTER - CONCORD CAMPUS
5.57,2.30,38.94514,-121.10174,33609.95,6792.30,SUTTER AUBURN FAITH HOSPITAL
7.37,2.67,34.06389,-118.27347,48290.58,9812.42,SAINT VINCENT MEDICAL CENTER
4.84,2.21,33.03634,-117.28487,27580.92,6050.33,SCRIPPS MEMORIAL HOSPITAL - ENCINITAS
6.27,2.45,38.66956,-121.31378,39330.00,8023.09,MERCY SAN JUAN MEDICAL CENTER
6.53,2.52,37.98224,-121.80362,41433.80,8630.10,SUTTER DELTA MEDICAL CENTER
4.05,2.27,33.70376,-117.98776,21161.91,6550.73,HUNTINGTON BEACH HOSPITAL
6.55,2.35,34.20777,-118.88305,41606.36,7181.28,LOS ROBLES HOSPITAL & MEDICAL CENTER
8.97,2.26,33.80441,-118.06665,61379.69,6504.15,LOS ALAMITOS MEDICAL CENTER
7.24,2.37,37.66867,-120.97339,47261.76,7377.42,MEMORIAL  MEDICAL CENTER
5.29,2.25,33.56100,-117.66530,31319.26,6364.06,MISSION HOSPITAL REGIONAL MED CENTER
6.28,2.45,33.71466,-117.93322,39388.14,8057.29,FOUNTAIN VALLEY REGIONAL HOSPITAL & MEDICAL CENTER
7.10,2.22,33.76335,-116.40628,46100.94,6145.61,EISENHOWER MEDICAL CENTER
5.13,2.44,33.84753,-118.03841,29945.42,7993.83,LA PALMA INTERCOMMUNITY HOSPITAL
4.14,2.34,34.02561,-117.68583,21888.61,7154.72,CHINO VALLEY MEDICAL CENTER
7.35,2.72,38.46387,-121.41645,48119.29,10272.53,METHODIST HOSPITAL OF SACRAMENTO
3.85,2.29,34.13289,-117.87121,19504.79,6731.71,FOOTHILL PRESBYTERIAN HOSPITAL
9.78,2.91,38.55484,-121.45628,68028.11,11771.79,UNIVERSITY OF CALIFORNIA DAVIS MEDICAL CENTER
5.29,2.18,33.60883,-117.70881,31294.26,5824.52,SADDLEBACK MEMORIAL MEDICAL CENTER
8.29,2.25,34.39755,-118.55330,55806.65,6367.03,HENRY MAYO NEWHALL MEMORIAL HOSPITAL
10.59,2.64,34.07664,-118.37955,74651.95,9614.99,CEDARS-SINAI MEDICAL CENTER
13.14,2.46,35.55536,-120.72067,95540.44,8092.52,TWIN CITIES COMMUNITY HOSPITAL
5.20,2.18,32.99711,-117.05783,30538.56,5803.06,POMERADO HOSPITAL
4.43,2.62,34.01936,-118.18661,24282.19,9431.94,LOS ANGELES COMMUNITY HOSPITAL
6.26,2.35,33.70167,-117.95566,39207.00,7220.71,ORANGE COAST MEMORIAL MEDICAL CENTER
4.78,2.18,33.71818,-117.16690,27122.45,5804.73,MENIFEE VALLEY MEDICAL CENTER
8.04,2.53,37.03560,-121.57109,53760.92,8674.92,SAINT LOUISE REGIONAL HOSPITAL
10.54,2.37,37.77577,-121.95824,74274.73,7418.45,SAN RAMON REGIONAL MEDICAL CTR
14.35,3.31,34.06193,-118.20157,105478.36,15056.07,KECK HOSPITAL OF USC
4.55,2.28,33.55876,-117.18329,25254.67,6645.67,SOUTHWEST HEALTHCARE SYSTEM
4.15,2.26,34.47174,-117.29791,21939.08,6471.17,DESERT VALLEY HOSPITAL
9.64,2.70,34.06760,-118.12291,66866.63,10054.37,GARFIELD MEDICAL CENTER
5.77,2.44,33.95076,-118.34828,35221.89,7955.37,CENTINELA HOSPITAL MEDICAL CENTER
6.52,2.22,33.98219,-118.43930,41375.50,6117.00,MARINA DEL REY HOSPITAL
11.54,2.31,34.05723,-118.36025,82418.00,6923.50,OLYMPIA MEDICAL CENTER
5.40,2.26,32.77629,-117.05730,32199.65,6484.05,ALVARADO HOSPITAL MEDICAL CENTER
8.12,2.27,34.17067,-118.53200,54429.10,6547.45,PROVIDENCE TARZANA MEDICAL CENTER
5.59,2.35,40.58532,-122.38702,33707.06,7204.00,SHASTA REGIONAL MEDICAL CENTER
3.41,2.26,40.41481,-104.70890,15876.83,6483.70,NORTH COLORADO MEDICAL CENTER
4.81,2.18,40.18134,-105.12769,27376.32,5804.55,LONGMONT UNITED HOSPITAL
4.86,2.15,39.76893,-105.09006,27796.17,5623.86,EXEMPLA LUTHERAN MEDICAL CENTER
4.13,2.19,40.57315,-105.05741,21792.58,5936.42,POUDRE VALLEY HOSPITAL
4.02,2.17,38.23421,-104.62292,20929.86,5761.71,CENTURA HEALTH-ST MARY CORWIN MEDICAL CENTER
4.33,2.18,39.71712,-105.12874,23458.17,5860.33,CENTURA HEALTH-ST ANTHONY HOSPITAL
4.93,2.16,38.28184,-104.61256,28361.70,5648.20,PARKVIEW MEDICAL CENTER INC
4.33,2.21,38.83903,-104.80024,23389.74,6092.67,MEMORIAL HOSPITAL CENTRAL
4.08,2.28,39.09046,-108.56190,21347.64,6659.48,ST MARYS HOSPITAL AND MEDICAL CENTER
4.93,2.66,39.74234,-104.84156,28316.87,9786.63,UNIVERSITY OF COLORADO HOSPITAL ANSCHUTZ INPATIENT
5.00,2.22,40.02615,-105.28391,28883.27,6182.91,BOULDER COMMUNITY HOSPITAL
3.38,2.09,40.41320,-105.05139,15622.95,5076.89,MCKEE MEDICAL CENTER
4.10,2.12,38.86559,-104.82182,21525.20,5362.31,CENTURA HEALTH-PENROSE ST FRANCIS HEALTH SERVICES
6.41,2.30,39.73231,-104.93396,40490.77,6819.87,ROSE MEDICAL CENTER
5.15,2.17,39.65399,-104.98116,30135.46,5752.00,SWEDISH MEDICAL CENTER
2.95,2.24,37.98501,-103.54383,12117.15,6352.00,ARKANSAS VALLEY REGIONAL MEDICAL CENTER
5.24,2.35,39.67005,-104.97490,30848.82,7199.59,CENTURA HEALTH-PORTER ADVENTIST HOSPITAL
5.39,2.57,39.86430,-104.98481,32121.18,8997.00,NORTH SUBURBAN MEDICAL CENTER
3.50,2.14,38.74540,-108.04700,16624.83,5508.00,DELTA COUNTY MEMORIAL HOSPITAL
6.33,2.50,39.68859,-104.83205,39828.96,8489.46,MEDICAL CENTER OF AURORA, THE
4.62,2.21,39.84960,-105.01825,25779.60,6038.67,CENTURA HEALTH-ST ANTHONY NORTH HOSPITAL
5.20,2.18,39.52910,-104.87121,30576.29,5855.14,SKY RIDGE MEDICAL CENTER
6.32,2.13,39.57629,-104.98610,39703.56,5428.78,CENTURA HEALTH-LITTLETON ADVENTIST HOSPITAL
5.80,2.59,39.54881,-104.77119,35488.27,9168.45,PARKER ADVENTIST HOSPITAL
3.52,2.04,40.45184,-105.19608,16782.73,4660.09,MEDICAL CENTER OF THE ROCKIES
5.07,2.52,41.30978,-72.93806,29497.10,8608.52,HOSPITAL OF ST RAPHAEL
4.56,2.53,41.77507,-72.69941,25339.02,8711.14,ST FRANCIS HOSPITAL & MEDICAL CENTER
2.70,2.19,41.90922,-71.91467,10108.05,5919.47,DAY KIMBALL HOSPITAL
4.75,2.37,41.55959,-73.05941,26839.20,7364.73,WATERBURY HOSPITAL
4.69,2.37,41.05562,-73.55390,26345.72,7360.84,STAMFORD HOSPITAL
3.42,2.25,41.33722,-72.10380,15962.00,6439.12,LAWRENCE & MEMORIAL HOSPITAL
4.97,2.58,41.18881,-73.16645,28658.69,9080.85,BRIDGEPORT HOSPITAL
2.91,2.23,41.79153,-73.13382,11814.79,6259.48,CHARLOTTE HUNGERFORD HOSPITAL
2.87,2.42,41.55241,-73.03554,11438.00,7805.67,SAINT MARYS HOSPITAL
3.83,2.26,41.54874,-72.80148,19300.29,6475.50,MIDSTATE MEDICAL CENTER
4.47,2.35,41.03431,-73.63020,24579.52,7183.96,GREENWICH HOSPITAL ASSOCIATION
4.40,2.27,41.55473,-72.64872,24035.54,6574.02,MIDDLESEX HOSPITAL
3.10,2.52,41.71622,-72.22399,13370.82,8586.45,WINDHAM COMM MEM HOSP & HATCH HOSP
5.37,2.97,41.30400,-72.93502,31905.68,12334.16,YALE-NEW HAVEN HOSPITAL
3.65,2.25,41.54301,-72.08799,17826.77,6420.36,WILLIAM W BACKUS HOSPITAL
3.75,2.50,41.75412,-72.67927,18681.56,8470.24,HARTFORD HOSPITAL
3.42,2.20,41.78185,-72.52591,15975.24,5959.65,MANCHESTER MEMORIAL HOSPITAL
5.05,2.63,41.20049,-73.20281,29350.04,9537.68,ST VINCENT'S MEDICAL CENTER
3.70,2.21,41.67540,-72.93617,18288.75,6037.62,BRISTOL HOSPITAL
4.12,2.41,41.40474,-73.44739,21720.41,7709.44,DANBURY HOSPITAL
4.66,2.37,41.33493,-73.08978,26116.56,7383.12,GRIFFIN HOSPITAL
4.14,2.39,41.11147,-73.42010,21837.83,7533.93,NORWALK HOSPITAL ASSOCIATION
3.54,2.30,41.66107,-72.78671,16982.41,6840.70,HOSPITAL OF CENTRAL CONNECTICUT, THE
4.20,2.66,41.73545,-72.79489,22378.67,9723.92,JOHN DEMPSEY HOSPITAL
3.16,2.33,39.69005,-75.68408,13863.69,7073.40,CHRISTIANA CARE HEALTH SERVICES, INC.
3.73,2.31,39.74954,-75.56662,18505.75,6875.40,ST FRANCIS HOSPITAL
3.55,2.17,39.15135,-75.52309,17021.19,5782.46,BAYHEALTH - KENT GENERAL HOSPITAL
3.69,2.17,38.77159,-75.14210,18155.71,5785.06,BEEBE MEDICAL CENTER
6.18,2.77,38.91221,-77.07588,38550.77,10653.00,GEORGETOWN UNIVERSITY HOSPITAL
3.76,2.22,38.93576,-77.10909,18756.20,6192.07,SIBLEY MEMORIAL HOSPITAL
3.74,2.42,38.94397,-76.99040,18619.79,7761.05,PROVIDENCE HOSPITAL
4.95,2.50,38.92944,-77.01473,28503.58,8481.88,WASHINGTON HOSPITAL CENTER
5.13,2.53,30.34913,-81.66391,29964.14,8662.00,SHANDS JACKSONVILLE MEDICAL CENTER
5.25,2.21,26.50479,-80.06979,30933.35,6040.84,BETHESDA MEMORIAL HOSPITAL
5.60,2.27,28.52517,-81.37729,33786.21,6535.62,ORLANDO HEALTH
5.05,2.20,28.57345,-81.36990,29336.72,5957.48,FLORIDA HOSPITAL
6.03,2.29,25.68309,-80.34038,37358.55,6761.49,BAPTIST HOSPITAL OF MIAMI INC
8.93,2.41,25.78846,-80.21644,61085.64,7708.45,UNIVERSITY OF MIAMI HOSPITAL
3.97,2.14,26.62849,-81.87423,20497.62,5533.37,LEE MEMORIAL HOSPITAL
3.38,2.29,29.20117,-81.05828,15636.13,6706.87,HALIFAX HEALTH MEDICAL CENTER
4.16,2.14,26.15053,-81.79919,22038.53,5501.84,NAPLES COMMUNITY HOSPITAL
4.70,2.13,28.08771,-80.61362,26483.11,5397.76,HOLMES REGIONAL MEDICAL CENTER
5.17,3.01,25.79143,-80.21250,30330.35,12594.09,JACKSON MEMORIAL HOSPITAL
3.74,2.05,28.83363,-82.33561,18588.67,4732.61,CITRUS MEMORIAL HOSPITAL
3.74,2.18,30.47650,-87.21219,18600.00,5861.93,SACRED HEART HOSPITAL
3.41,2.10,30.15963,-85.64818,15861.79,5207.93,BAY MEDICAL CENTER
4.28,2.10,28.63051,-80.82437,23020.84,5188.28,PARRISH MEDICAL CENTER
7.42,2.35,25.86166,-80.21398,48754.67,7223.92,NORTH SHORE MEDICAL CENTER
4.60,2.17,28.54917,-81.52746,25633.14,5720.00,HEALTH CENTRAL
4.67,2.25,27.76332,-82.64325,26227.00,6415.61,BAYFRONT MEDICAL CENTER INC
7.40,2.39,25.81317,-80.13996,48601.69,7587.06,MOUNT SINAI MEDICAL CENTER
4.54,2.16,27.49789,-82.56220,25173.21,5632.74,MANATEE MEMORIAL HOSPITAL
5.70,2.26,26.01867,-80.17981,34649.59,6454.41,MEMORIAL REGIONAL HOSPITAL
5.19,2.43,26.10282,-80.14245,30455.00,7903.09,BROWARD HEALTH BROWARD GENERAL MEDICAL CENTER
4.16,2.13,30.30835,-81.68919,22017.05,5460.40,ST VINCENT'S MEDICAL CENTER
4.09,2.13,28.01404,-82.78368,21457.95,5443.10,MEASE HOSPITAL DUNEDIN
5.56,2.14,27.19837,-80.24306,33492.95,5526.36,MARTIN MEMORIAL MEDICAL CENTER
3.81,2.14,29.04263,-81.31635,19150.21,5500.00,FLORIDA HOSPITAL DELAND
4.84,2.09,28.26092,-82.18802,27630.82,5110.00,FLORIDA HOSPITAL ZEPHYRHILLS
4.54,2.07,26.94042,-82.04094,25187.57,4892.70,CHARLOTTE REGIONAL MEDICAL CENTER
4.03,2.10,27.46707,-81.43358,20973.15,5159.23,HIGHLANDS REGIONAL MEDICAL CENTER
4.36,2.35,25.86856,-80.31222,23684.33,7236.00,PALM SPRINGS GENERAL HOSPITAL
4.70,2.10,28.55140,-81.72120,26431.05,5135.25,SOUTH LAKE HOSPITAL
4.56,2.11,28.02768,-81.72466,25312.12,5259.65,WINTER HAVEN HOSPITAL
4.42,2.07,28.13321,-82.75839,24159.53,4931.20,HELEN ELLIS MEMORIAL HOSPITAL
4.22,2.13,28.82358,-81.71133,22530.03,5402.34,FLORIDA HOSPITAL WATERMAN
6.50,2.28,25.74067,-80.21244,41181.36,6659.64,MERCY HOSPITAL INC
4.25,2.11,29.17594,-82.13898,22759.25,5231.26,MUNROE REGIONAL MEDICAL CENTER
4.46,2.05,28.25431,-82.71447,24459.50,4759.71,MORTON PLANT NORTH BAY HOSPITAL
5.85,2.17,27.78088,-82.65126,35912.91,5769.82,ST ANTHONY'S HOSPITAL
3.80,2.10,29.24333,-81.10760,19073.71,5135.11,FLORIDA HOSPITAL MEMORIAL MEDICAL CENTER
4.52,2.08,27.09043,-82.44499,25021.23,4971.14,VENICE REGIONAL MEDICAL CENTER
5.96,2.15,28.53906,-82.44193,36770.78,5603.78,BROOKSVILLE REGIONAL HOSPITAL
3.47,2.07,28.91403,-81.28480,16409.06,4959.12,FLORIDA HOSPITAL FISH MEMORIAL
5.72,2.12,26.18711,-80.11941,34828.96,5342.23,HOLY CROSS HOSPITAL INC
4.51,2.20,27.98242,-82.49025,24878.07,6025.03,ST JOSEPH'S HOSPITAL
4.40,2.41,25.77941,-80.29397,24025.83,7743.22,METROPOLITAN HOSPITAL OF MIAMI
4.62,2.12,26.98905,-82.09559,25825.81,5341.76,PEACE RIVER REGIONAL MEDICAL CENTER
7.98,2.19,26.59805,-80.09271,53297.88,5892.39,JFK MEDICAL CENTER
5.41,2.14,28.80659,-81.86906,32231.00,5467.17,LEESBURG REGIONAL MEDICAL CENTER
3.80,2.10,27.31827,-82.53140,19123.70,5198.37,SARASOTA MEMORIAL HOSPITAL
5.41,2.17,30.31525,-81.66398,32254.61,5776.53,BAPTIST MEDICAL CENTER
4.87,2.21,29.86371,-81.31749,27888.21,6072.63,FLAGLER HOSPITAL
4.35,2.10,28.33522,-80.72319,23624.38,5207.54,WUESTHOFF MEDICAL CENTER  ROCKLEDGE
4.28,2.09,30.43066,-87.23191,22995.20,5123.73,BAPTIST HOSPITAL
4.34,2.11,30.19345,-82.63268,23473.45,5227.00,SHANDS LAKE SHORE REGIONAL MEDICAL CENTER
2.89,2.13,27.65832,-80.39307,11657.67,5392.87,INDIAN RIVER MEDICAL CENTER
4.43,2.12,27.50001,-81.43962,24270.63,5352.26,FLORIDA HOSPITAL HEARTLAND MEDICAL CENTER
4.64,2.68,29.64155,-82.34844,25971.77,9886.30,SHANDS HOSPITAL AT THE UNIVERSITY OF FLORIDA
4.33,2.06,30.27449,-81.40071,23419.93,4859.67,BAPTIST MEDICAL CENTER  BEACHES
4.04,2.22,29.47897,-81.18915,21065.72,6128.96,FLORIDA HOSPITAL FLAGLER
4.99,2.09,27.91798,-81.84402,28854.33,5068.83,BARTOW REGIONAL MEDICAL CENTER
7.21,2.10,30.73540,-86.56171,46967.45,5202.52,NORTH OKALOOSA MEDICAL CENTER
5.06,2.13,30.63421,-87.06708,29419.08,5407.08,SANTA ROSA MEDICAL CENTER
6.18,2.30,25.47971,-80.43038,38575.44,6824.75,HOMESTEAD HOSPITAL
5.74,2.07,27.75214,-82.73951,34932.92,4918.92,PALMS OF PASADENA HOSPITAL
4.32,2.12,27.95192,-82.80379,23352.93,5300.91,MORTON PLANT HOSPITAL
6.97,2.44,27.93740,-82.45927,45064.19,7981.15,TAMPA GENERAL HOSPITAL
6.41,2.15,25.96994,-80.14533,40440.67,5568.85,AVENTURA HOSPITAL AND MEDICAL CENTER
4.43,2.20,28.01563,-82.13900,24216.18,5973.36,SOUTH FLORIDA BAPTIST HOSPITAL
4.53,2.23,30.45726,-84.26175,25099.30,6264.70,TALLAHASSEE MEMORIAL HEALTHCARE
6.50,2.14,28.18120,-81.64018,41228.67,5494.05,HEART OF FLORIDA REGIONAL MEDICAL CENTER
4.34,2.08,30.65118,-81.44923,23509.27,5026.27,BAPTIST MEDICAL CENTER - NASSAU
3.66,2.48,30.26389,-81.44283,17958.73,8258.73,MAYO CLINIC
5.67,2.23,30.18340,-82.68783,34420.80,6259.40,LAKE CITY MEDICAL CENTER
6.16,2.28,25.70328,-80.29391,38426.91,6638.87,SOUTH MIAMI HOSPITAL, INC
5.50,2.16,28.06172,-81.95304,33039.68,5631.18,LAKELAND REGIONAL MEDICAL CENTER
4.13,2.14,28.81611,-81.28351,21824.83,5522.57,CENTRAL FLORIDA REGIONAL HOSPITAL
5.46,2.06,27.30187,-82.45428,32654.96,4881.33,DOCTORS HOSPITAL OF SARASOTA
7.48,2.36,26.12647,-80.20519,49223.27,7321.73,PLANTATION GENERAL HOSPITAL
3.90,2.11,26.35875,-80.10203,19884.81,5232.37,BOCA RATON REGIONAL HOSPITAL
4.19,2.22,28.07111,-82.42342,22276.10,6175.87,FLORIDA HOSPITAL TAMPA
3.59,2.27,27.22739,-81.85108,17407.00,6593.07,DESOTO MEMORIAL HOSPITAL
5.47,2.12,26.83035,-80.08655,32728.30,5302.04,PALM BEACH GARDENS MEDICAL CENTER
4.34,2.08,28.36005,-80.62309,23497.84,4997.11,CAPE CANAVERAL HOSPITAL
7.95,2.12,30.28793,-81.60103,53032.30,5309.07,MEMORIAL HOSPITAL JACKSONVILLE
8.16,2.20,27.80541,-82.72694,54811.15,5972.38,ST PETERSBURG GENERAL HOSPITAL
6.29,2.42,25.70558,-80.29311,39454.80,7826.60,LARKIN COMMUNITY HOSPITAL
8.74,2.38,25.74360,-80.25465,59491.84,7469.16,CORAL GABLES HOSPITAL
6.64,2.38,25.88563,-80.32635,42377.20,7472.45,PALMETTO GENERAL HOSPITAL
8.52,2.18,26.26259,-80.20292,57730.29,5855.88,NORTHWEST MEDICAL CENTER
6.40,2.08,28.19342,-82.46987,40403.14,5042.73,MEDICAL CENTER OF TRINITY
6.25,2.13,29.66085,-82.41172,39125.45,5403.32,NORTH FLORIDA REGIONAL MEDICAL CENTER
4.30,2.07,27.93758,-82.48933,23173.25,4920.25,MEMORIAL HOSPITAL OF TAMPA
7.10,2.34,25.73195,-80.38580,46092.69,7160.44,KENDALL REGIONAL MEDICAL CENTER
5.90,2.06,29.17550,-82.13680,36320.73,4810.88,OCALA REGIONAL MEDICAL CENTER
5.46,2.06,27.48213,-82.62126,32712.48,4861.93,BLAKE MEDICAL CENTER
5.27,2.12,27.84359,-80.48849,31132.91,5308.48,SEBASTIAN RIVER MEDICAL CENTER
4.83,2.13,26.52735,-81.83337,27553.11,5381.18,GULF COAST MEDICAL CENTER LEE MEM HEALTH SYSTEM
8.81,2.14,30.45448,-86.63362,60064.90,5508.90,FORT WALTON BEACH MEDICAL CENTER
8.63,2.13,30.16550,-81.73775,58642.88,5380.38,ORANGE PARK MEDICAL CENTER
6.51,2.11,26.12354,-80.25951,41305.20,5227.40,WESTSIDE REGIONAL MEDICAL CENTER
5.91,2.06,30.51624,-87.21856,36329.07,4885.07,WEST FLORIDA HOSPITAL
3.74,2.14,29.64481,-81.69431,18619.67,5512.58,PUTNAM COMMUNITY MEDICAL CENTER
5.97,2.05,26.98884,-82.09877,36870.48,4747.57,FAWCETT MEMORIAL HOSPITAL
7.21,2.12,27.82545,-82.70122,46993.38,5368.08,NORTHSIDE HOSPITAL
7.69,2.11,27.78151,-82.66458,50928.77,5295.46,EDWARD WHITE HOSPITAL
8.34,2.24,30.18657,-85.66513,56270.32,6298.63,GULF COAST MEDICAL CENTER
6.56,2.16,27.93259,-82.28759,41708.65,5630.26,BRANDON REGIONAL HOSPITAL
4.14,2.10,26.63958,-81.94164,21873.98,5200.69,CAPE CORAL HOSPITAL
7.48,2.24,27.43392,-80.34350,49210.40,6299.20,LAWNWOOD REGIONAL MEDICAL CENTER & HEART INSTITUTE
7.70,2.13,27.91458,-82.80382,51011.03,5460.03,LARGO MEDICAL CENTER
3.94,2.07,28.95195,-82.62421,20208.18,4892.88,SEVEN RIVERS REGIONAL MEDICAL CENTER
6.00,2.20,27.25983,-80.82855,37079.53,5974.13,RAULERSON HOSPITAL
4.79,2.41,26.92138,-80.09708,27169.24,7681.76,JUPITER MEDICAL CENTER
6.16,2.14,30.47616,-84.23140,38439.65,5523.26,CAPITAL REGIONAL MEDICAL CENTER
5.45,2.14,28.00237,-82.57309,32587.54,5476.00,TOWN & COUNTRY HOSPITAL
5.90,2.18,28.36128,-82.68883,36265.05,5792.19,REGIONAL MEDICAL CENTER BAYONET POINT
6.68,2.12,26.43709,-80.12728,42676.21,5320.74,DELRAY MEDICAL CENTER
6.41,2.06,27.71350,-82.36512,40431.94,4845.53,SOUTH BAY HOSPITAL
6.32,2.15,27.28861,-80.29431,39749.74,5616.07,ST LUCIE MEDICAL CENTER
6.61,2.07,28.53585,-82.53404,42067.51,4892.87,OAK HILL HOSPITAL
4.33,2.08,28.03957,-82.70875,23463.82,5040.74,MEASE COUNTRYSIDE HOSPITAL
4.69,2.38,30.35772,-87.16046,26345.27,7472.13,GULF BREEZE HOSPITAL
6.17,2.05,26.94996,-82.32651,38509.07,4806.67,ENGLEWOOD COMMUNITY HOSPITAL
5.77,2.16,26.35614,-80.19956,35197.27,5660.00,WEST BOCA MEDICAL CENTER
6.21,2.26,26.68337,-80.25269,38799.29,6516.29,PALMS WEST HOSPITAL
6.76,2.19,26.01394,-80.30980,43340.28,5918.44,MEMORIAL HOSPITAL WEST
4.14,2.56,25.74731,-80.31765,21873.31,8910.09,WESTCHESTER GENERAL HOSPITAL
5.10,2.11,26.21388,-81.73257,29731.14,5279.14,PHYSICIANS REGIONAL MEDICAL CENTER - PINE RIDGE
5.50,2.14,26.70181,-80.05055,32983.77,5505.32,GOOD SAMARITAN MEDICAL CENTER
4.08,2.17,26.08155,-80.36449,21371.70,5735.00,CLEVELAND CLINIC HOSPITAL
4.27,2.07,28.94952,-81.95843,22904.52,4932.01,VILLAGES REGIONAL HOSPITAL, THE
4.01,2.27,30.37837,-86.30696,20830.56,6550.06,SACRED HEART HOSPITAL ON THE EMERALD COAST
4.90,2.23,25.72132,-80.27116,28112.25,6275.58,DOCTORS HOSPITAL INC
6.02,2.09,28.24311,-81.30279,37272.92,5074.00,ST CLOUD REGIONAL MEDICAL CENTER
3.46,2.22,34.78963,-84.98398,16339.75,6142.44,HAMILTON MEDICAL CENTER
3.74,2.10,31.22516,-82.34898,18568.22,5176.61,SATILLA REGIONAL MEDICAL CENTER
3.88,2.09,34.17863,-84.13992,19747.07,5119.00,NORTHSIDE HOSPITAL FORSYTH
3.97,2.22,31.59023,-84.15756,20455.22,6120.89,PHOEBE PUTNEY MEMORIAL HOSPITAL
4.99,2.29,34.24569,-84.49068,28824.00,6699.14,NORTHSIDE HOSPITAL CHEROKEE
4.14,2.60,33.79230,-84.32107,21914.19,9231.67,EMORY UNIVERSITY HOSPITAL
4.11,2.13,33.03204,-85.05781,21614.93,5439.73,WEST GEORGIA MEDICAL CENTER
4.40,2.16,32.02825,-81.09977,24002.20,5673.32,CANDLER HOSPITAL
3.41,2.50,31.17425,-81.48459,15936.00,8448.00,SOUTHEAST GEORGIA HEALTH SYSTEM- BRUNSWICK CAMPUS
4.38,2.20,33.47096,-81.98176,23812.29,6034.60,UNIVERSITY HOSPITAL
4.19,2.15,34.30335,-83.81737,22278.00,5624.71,NORTHEAST GEORGIA MEDICAL CENTER, INC
5.36,2.13,34.19990,-84.79378,31859.73,5433.36,CARTERSVILLE MEDICAL CENTER
4.05,2.53,33.47091,-81.98988,21114.07,8671.47,MEDICAL COLLEGE OF GA HOSPITALS AND CLINICS
4.24,2.15,33.96770,-84.55011,22662.68,5576.57,WELLSTAR KENNESTONE HOSPITAL
3.88,2.27,32.03185,-81.09158,19722.80,6594.20,MEMORIAL HEALTH UNIV MED CEN, INC
3.86,2.26,30.82614,-83.97393,19608.19,6466.81,JOHN D ARCHBOLD MEMORIAL HOSPITAL
4.04,2.13,33.91929,-84.85224,21018.93,5417.07,WELLSTAR PAULDING HOSPITAL
4.43,2.08,31.98515,-81.15475,24251.96,5024.92,ST JOSEPH'S HOSPITAL - SAVANNAH
3.86,2.17,32.06513,-84.25260,19567.18,5768.64,PHOEBE SUMTER MEDICAL CENTER
4.18,2.26,34.26000,-85.17000,22190.43,6502.09,FLOYD MEDICAL CENTER
4.49,2.36,32.46602,-84.98695,24768.36,7307.00,MEDICAL CENTER, THE
3.46,2.13,32.61642,-83.63065,16347.56,5407.19,HOUSTON MEDICAL CENTER
3.98,2.18,33.96117,-83.39832,20597.48,5847.38,ATHENS REGIONAL MEDICAL CENTER
4.08,2.19,32.41483,-81.76990,21407.08,5929.67,EAST GEORGIA REGIONAL MEDICAL CENTER
2.98,2.23,33.78956,-84.28077,12384.53,6243.12,DEKALB MEDICAL CENTER
3.57,2.26,33.76810,-84.38616,17212.90,6469.38,EMORY UNIVERSITY HOSPITAL MIDTOWN
3.52,2.09,33.90877,-84.35180,16800.42,5083.71,SAINT JOSEPH'S HOSPITAL OF ATLANTA, INC
4.41,2.14,33.81003,-84.39568,24058.44,5512.04,PIEDMONT HOSPITAL
3.84,2.16,33.96351,-84.01769,19407.58,5689.89,GWINNETT MEDICAL CENTER
2.90,2.05,31.50971,-82.86341,11748.91,4758.45,COFFEE REGIONAL MEDICAL CENTER
3.63,2.22,33.68072,-84.00200,17699.73,6151.36,ROCKDALE MEDICAL CENTER
4.10,2.14,31.47069,-83.50473,21542.71,5467.94,TIFT REGIONAL MEDICAL CENTER
3.55,2.25,32.83041,-83.63476,17022.31,6412.47,MEDICAL CENTER OF CENTRAL GEORGIA
3.83,2.17,30.86250,-83.28630,19322.50,5724.35,SOUTH GEORGIA MEDICAL CENTER
4.19,2.27,32.54026,-82.95741,22311.45,6573.75,FAIRVIEW PARK HOSPITAL
3.44,2.10,32.20903,-82.37585,16109.00,5212.87,MEADOWS REGIONAL MEDICAL CENTER
3.35,2.08,32.50679,-84.95933,15377.40,5050.57,ST FRANCIS HOSPITAL, INC
3.09,2.06,32.16413,-81.90041,13319.38,4841.69,EVANS MEMORIAL HOSPITAL
4.18,2.21,33.85638,-84.60446,22174.68,6115.68,WELLSTAR COBB HOSPITAL
3.91,2.14,33.90903,-84.35410,19963.79,5467.71,NORTHSIDE HOSPITAL
4.23,2.12,31.53017,-84.17516,22598.00,5302.67,PHOEBE NORTH
3.90,2.15,32.84705,-83.61823,19910.78,5549.04,COLISEUM MEDICAL CENTER
3.63,2.24,33.57843,-84.38897,17689.36,6361.14,SOUTHERN REGIONAL MEDICAL CENTER
4.69,2.09,34.25704,-85.16467,26379.04,5125.88,REDMOND REGIONAL MEDICAL CENTER
7.49,2.25,33.48259,-82.09038,49320.58,6380.33,DOCTORS HOSPITAL
3.46,2.18,33.73938,-84.73111,16307.83,5790.67,WELLSTAR DOUGLAS HOSPITAL
4.51,2.20,32.48040,-84.98468,24930.07,5962.73,DOCTORS HOSPITAL
4.28,2.16,33.51144,-84.22200,22998.27,5683.20,HENRY MEDICAL CENTER, INC
5.10,2.11,33.87683,-84.02136,29758.00,5231.56,EMORY EASTSIDE MEDICAL CENTER
3.76,2.07,33.45252,-84.50697,18749.33,4960.67,PIEDMONT FAYETTE HOSPITAL
4.30,2.15,33.39118,-84.81563,23223.64,5584.09,PIEDMONT NEWNAN HOSPITAL, INC
4.36,2.48,21.30780,-157.85505,23712.68,8316.96,THE QUEENS MEDICAL CENTER
3.20,2.60,19.71761,-155.11327,14143.00,9280.00,HILO MEDICAL CENTER
3.87,2.38,21.38095,-157.75759,19660.59,7487.00,CASTLE MEDICAL CENTER
3.92,2.36,21.38328,-157.93828,20061.17,7292.28,PALI MOMI MEDICAL CENTER
3.21,2.17,42.59072,-114.49627,14248.27,5750.45,ST LUKES MAGIC VALLEY RMC
3.62,2.28,46.41668,-117.02441,17612.41,6689.00,ST JOSEPH REGIONAL MEDICAL CENTER
4.05,2.21,43.61218,-116.19234,21130.34,6075.72,ST LUKES REGIONAL MEDICAL CENTER
3.64,2.15,43.61359,-116.25484,17780.14,5598.62,ST ALPHONSUS REGIONAL MEDICAL CENTER
3.52,2.16,43.46987,-111.99208,16812.47,5654.21,EASTERN IDAHO REGIONAL MEDICAL CENTER
3.35,2.19,47.69645,-116.79476,15423.19,5932.62,KOOTENAI MEDICAL CENTER
3.88,2.10,38.90068,-90.16026,19738.77,5138.69,ALTON MEMORIAL HOSPITAL
5.49,2.14,41.52896,-88.13550,32965.80,5543.56,PROVENA ST JOSEPH MEDICAL CENTER
9.42,3.35,41.91082,-87.84451,65110.54,15381.46,LOYOLA GOTTLIEB MEMORIAL HOSPITAL
4.31,2.30,42.06550,-87.68428,23295.98,6833.15,EVANSTON HOSPITAL
3.09,2.12,37.80207,-89.02660,13269.80,5348.95,HERRIN HOSPITAL
4.61,2.17,41.84429,-89.48014,25756.88,5767.82,KATHERINE SHAW BETHEA HOSPITAL
3.15,2.05,40.75318,-89.59321,13807.21,4802.29,PROCTOR HOSPITAL
3.38,2.21,39.93563,-91.39833,15667.36,6052.18,BLESSING HOSPITAL
3.20,2.18,41.11319,-88.83500,14167.12,5845.31,ST MARYS HOSPITAL
5.80,2.36,41.72930,-88.26976,35502.50,7307.15,COPLEY MEMORIAL HOSPITAL
5.10,2.20,42.07012,-88.33180,29733.66,5989.59,SHERMAN HOSPITAL
2.81,2.08,39.12680,-88.55059,10954.16,5000.58,ST ANTHONYS MEMORIAL HOSPITAL
3.54,2.13,38.52908,-89.11604,16966.15,5425.20,ST MARYS HOSPITAL
4.57,2.11,41.80160,-89.69714,25357.27,5283.27,CGH MEDICAL CENTER
3.62,2.25,38.32292,-88.91026,17592.93,6375.27,GOOD SAMARITAN REGIONAL HLTH CENTER
4.86,2.29,42.05624,-87.74012,27753.53,6691.67,SKOKIE HOSPITAL
3.89,2.06,38.90787,-90.17207,19842.25,4817.42,SAINT ANTHONY'S HEALTH CENTER
4.41,2.23,39.80726,-89.64496,24124.91,6273.33,ST JOHNS HOSPITAL
4.44,2.35,41.83195,-87.79266,24357.00,7256.23,MACNEAL  HOSPITAL
3.80,2.19,39.74629,-90.25907,19091.38,5944.00,PASSAVANT AREA HOSPITAL
4.28,2.12,41.66900,-87.81414,23016.94,5309.64,PALOS COMMUNITY HOSPITAL
3.61,2.28,40.98818,-90.36374,17563.18,6679.09,ST MARY MEDICAL CENTER
4.78,2.20,41.79660,-87.88627,27130.80,5977.27,ADVENTIST LA GRANGE MEMORIAL HOSPITAL
4.67,2.22,40.70200,-89.59222,26216.19,6141.67,SAINT FRANCIS MEDICAL CENTER
4.95,2.57,42.02578,-87.68371,28465.13,9056.40,RHC ST FRANCIS HOSPITAL
4.20,2.42,41.96698,-87.64941,22341.74,7775.83,LOUIS A WEISS MEMORIAL HOSPITAL
6.49,2.25,42.37840,-87.83329,41109.54,6427.08,VISTA MEDICAL CENTER EAST
6.52,2.71,41.78829,-87.60485,41330.15,10181.08,THE UNIVERSITY OF CHICAGO MEDICAL CENTER
4.30,2.28,40.11696,-88.21506,23144.46,6638.79,CARLE FOUNDATION HOSPITAL
3.84,2.17,40.11739,-88.22714,19380.43,5737.10,PROVENA COVENANT MEDICAL CENTER- URBANA
6.26,2.33,41.97532,-87.69958,39221.87,7055.26,SWEDISH COVENANT HOSPITAL
4.19,2.13,42.31832,-88.27920,22285.86,5405.48,CENTEGRA HEALTH SYSTEM - MC HENRY HOSPITAL
4.80,2.24,41.98743,-87.81440,27301.66,6302.51,RESURRECTION MEDICAL CENTER
4.21,2.23,41.65880,-87.67729,22444.94,6231.19,METROSOUTH MEDICAL CENTER
4.95,2.61,41.87497,-87.66927,28490.09,9365.09,RUSH UNIVERSITY MEDICAL CENTER
4.70,2.27,41.80555,-87.92059,26466.03,6591.56,HINSDALE HOSPITAL
5.12,2.27,40.49639,-88.99106,29898.58,6570.05,BROMENN HEALTHCARE
4.83,2.12,42.25244,-87.86528,27520.75,5335.10,LAKE FOREST HOSPITAL
3.42,2.12,39.86644,-88.96090,15989.47,5377.24,DECATUR MEMORIAL HOSPITAL
3.53,2.23,39.80893,-89.65530,16886.20,6219.66,MEMORIAL MEDICAL CENTER
3.51,2.52,41.84639,-87.62345,16701.59,8573.95,MERCY HOSPITAL AND MEDICAL CENTER
3.25,2.14,42.29592,-89.63773,14606.50,5471.62,FHN MEMORIAL HOSPITAL
2.81,2.14,37.72790,-89.22058,11021.87,5538.07,MEMORIAL HOSPITAL OF CARBONDALE
4.55,2.32,41.52283,-87.71111,25201.72,6960.28,FRANCISCAN ST JAMES HEALTH
5.67,2.20,41.78566,-88.32886,34394.42,6031.21,PROVENA MERCY MEDICAL CENTER
3.38,2.15,42.27597,-88.40019,15686.40,5581.27,CENTEGRA HEALTH SYSTEM - WOODSTOCK HOSPITAL
4.73,2.24,41.72094,-87.69220,26712.48,6361.20,LITTLE COMPANY OF MARY HOSPITAL
5.37,2.54,41.90414,-87.68254,31940.90,8759.21,ST MARY & ELIZABETH MED CTR-DIVISION CAMPUS
4.90,2.35,41.74948,-87.56909,28085.80,7199.60,SOUTH SHORE HOSPITAL
4.50,2.56,41.93641,-87.65295,24830.36,8927.82,ADVOCATE ILLINOIS MASONIC MEDICAL CENTER
4.91,2.11,37.74480,-88.99329,28183.43,5216.57,HEARTLAND REGIONAL MEDICAL CENTER
4.21,2.14,38.55020,-90.02146,22428.23,5472.54,MEMORIAL HOSPITAL
4.21,2.24,41.12572,-87.88526,22474.00,6289.57,RIVERSIDE MEDICAL CENTER
4.35,2.11,38.51081,-89.99014,23585.27,5278.00,ST ELIZABETH HOSPITAL
3.51,2.13,39.48849,-88.27581,16701.62,5448.00,SARAH BUSH LINCOLN HEALTH CENTER
4.86,2.22,41.60726,-87.66060,27747.50,6176.50,INGALLS MEMORIAL HOSPITAL
3.31,2.31,41.97310,-87.67090,15061.17,6902.58,METHODIST HOSPITAL OF CHICAGO
5.18,2.13,41.86362,-87.93567,30417.94,5387.21,ELMHURST MEMORIAL HOSPITAL
5.50,2.19,42.27447,-87.95764,33048.41,5884.16,ADVOCATE CONDELL MEDICAL CENTER
3.89,2.41,41.72031,-87.73249,19799.72,7727.35,ADVOCATE CHRIST HOSPITAL & MEDICAL CENTER
3.45,2.31,40.70065,-89.59505,16220.71,6888.54,METHODIST MEDICAL CENTER OF ILLINOIS
2.75,2.12,37.73083,-88.52299,10459.15,5311.23,HARRISBURG MEDICAL CENTER
5.64,2.10,41.88566,-88.34311,34192.35,5202.57,DELNOR COMMUNITY HOSPITAL
3.40,2.19,41.54446,-87.98379,15781.14,5874.46,SILVER CROSS HOSPITAL  AND MEDICAL CENTERS
5.23,2.13,42.03576,-88.32575,30833.00,5453.12,PROVENA - SAINT JOSEPH HOSPITAL
4.41,2.41,42.03837,-87.84820,24125.39,7682.00,ADVOCATE LUTHERAN GENERAL HOSPITAL
4.63,2.44,41.93418,-87.63579,25922.22,7934.11,SAINT JOSEPH HOSPITAL
4.34,2.23,42.26584,-89.07428,23491.78,6254.52,SWEDISH AMERICAN HOSPITAL
4.03,2.15,41.76076,-88.15016,20988.98,5576.61,EDWARD HOSPITAL
4.18,2.21,42.26634,-89.00900,22221.22,6042.69,SAINT ANTHONY MEDICAL CENTER
4.29,2.26,42.29844,-89.09897,23116.35,6496.32,ROCKFORD MEMORIAL HOSPITAL
4.72,2.12,41.87269,-88.15684,26654.71,5338.13,CENTRAL DUPAGE HOSPITAL
4.18,2.18,41.56720,-87.69566,22177.50,5848.11,ADVOCATE SOUTH SUBURBAN HOSPITAL
4.39,2.19,41.94560,-87.76897,23906.42,5912.21,OUR LADY OF THE RESURRECTION MED CTR
4.42,2.16,42.06732,-87.99368,24201.60,5627.82,NORTHWEST COMMUNITY HOSPITAL
4.64,2.13,42.00413,-88.01745,25953.04,5401.57,ALEXIAN BROTHERS MEDICAL CENTER
2.82,2.11,41.49581,-90.41871,11066.53,5235.33,GENESIS MEDICAL CENTER ILLINI CAMPUS
4.29,2.65,41.86110,-87.83404,23138.29,9678.62,LOYOLA UNIVERSITY MEDICAL CENTER
2.71,2.12,41.48200,-90.57158,10168.38,5333.52,TRINITY ROCK ISLAND
5.31,2.46,41.89477,-87.62131,31426.76,8124.92,NORTHWESTERN MEMORIAL HOSPITAL
5.22,2.12,41.96185,-88.72130,30723.40,5369.93,KISHWAUKEE COMMUNITY HOSPITAL
4.36,2.17,41.81791,-88.00907,23684.47,5708.79,ADVOCATE GOOD SAMARITAN HOSPITAL
4.61,2.17,42.05260,-88.14173,25751.91,5718.06,ST ALEXIUS MEDICAL CENTER
3.96,2.13,42.19586,-88.17286,20372.40,5404.90,ADVOCATE GOOD SHEPHERD HOSPITAL
4.04,2.13,41.68062,-88.08319,21047.69,5389.23,ADVENTIST BOLINGBROOK HOSPITAL
3.87,2.24,41.59920,-87.35764,19701.11,6313.20,METHODIST HOSPITALS INC
3.54,2.25,41.61514,-87.52413,16943.83,6435.08,FRANCISCAN ST MARGARET HEALTH - HAMMOND
4.38,2.05,41.61055,-86.72511,23818.93,4770.80,INDIANA UNIVERSITY HEALTH LA PORTE HOSPITAL
3.25,2.08,40.44665,-86.12707,14619.65,5020.18,HOWARD REGIONAL HEALTH SYSTEM
3.65,2.25,41.63466,-87.44901,17853.86,6437.24,ST CATHERINE HOSPITAL INC
3.00,2.13,38.28244,-85.74923,12548.36,5432.04,CLARK MEMORIAL HOSPITAL
3.24,2.14,40.56435,-85.66576,14476.80,5474.00,MARION GENERAL HOSPITAL
3.66,2.22,41.70877,-86.17026,17944.17,6192.90,SAINT JOSEPH REGIONAL MEDICAL CENTER
3.62,2.14,41.70639,-86.89936,17581.54,5534.12,FRANCISCAN ST ANTHONY HEALTH - MICHIGAN CITY
4.36,2.14,41.03874,-85.24876,23667.12,5492.29,LUTHERAN HOSPITAL OF INDIANA
3.77,2.13,41.70568,-85.93404,18805.31,5394.15,ELKHART GENERAL HOSPITAL
3.63,2.16,41.04659,-85.10906,17699.75,5645.12,PARKVIEW REGIONAL MEDICAL CENTER
4.30,2.18,39.48518,-87.40893,23175.15,5833.62,UNION HOSPITAL INC
3.68,2.20,39.94340,-85.36306,18079.64,6010.00,HENRY COUNTY MEMORIAL HOSPITAL
3.22,2.10,39.72432,-86.10055,14345.65,5190.00,FRANCISCAN ST FRANCIS HEALTH - BEECH GROVE
3.50,2.15,41.51266,-87.26125,16658.47,5577.40,ST MARY MEDICAL CENTER INC
4.91,2.15,41.46729,-87.05130,28190.80,5570.73,PORTER VALPARAISO HOSPITAL
3.21,2.10,39.79490,-85.76770,14282.62,5136.85,HANCOCK REGIONAL HOSPITAL
3.12,2.07,38.67313,-87.53370,13508.81,4940.24,GOOD SAMARITAN HOSPITAL
3.36,2.07,38.30195,-85.83409,15469.21,4928.38,FLOYD MEMORIAL HOSPITAL AND HEALTH SERVICES
5.13,2.11,39.41951,-87.40898,30016.17,5260.00,TERRE HAUTE REGIONAL HOSPITAL
3.11,2.26,39.86405,-84.88413,13460.92,6499.16,REID HOSPITAL & HEALTH CARE SERVICES
3.38,2.15,39.16006,-86.54038,15664.79,5552.79,INDIANA UNIVERSITY HEALTH BLOOMINGTON HOSPITAL
5.01,2.64,39.79009,-86.16260,29011.31,9576.76,INDIANA UNIVERSITY HEALTH
4.33,2.27,41.68479,-86.25217,23460.44,6540.21,MEMORIAL HOSPITAL OF SOUTH BEND
3.38,2.21,39.78704,-86.07673,15659.89,6099.00,COMMUNITY HOSPITAL EAST
4.20,2.09,40.73751,-85.17118,22345.54,5125.62,BLUFFTON REGIONAL MEDICAL CENTER
3.60,2.08,37.98293,-87.57072,17453.51,4985.57,DEACONESS HOSPITAL INC
4.53,2.26,39.91001,-86.19660,25032.42,6467.98,ST VINCENT HOSPITAL & HEALTH SERVICES
3.71,2.12,39.11138,-84.88343,18328.23,5312.92,DEARBORN COUNTY HOSPITAL
5.33,2.20,40.09594,-85.68152,31630.47,6014.88,SAINT JOHN'S HEALTH SYSTEM
4.12,2.22,40.19679,-85.41573,21746.47,6193.36,INDIANA UNIVERSITY HEALTH BALL MEMORIAL HOSPITAL
3.31,2.14,41.49222,-87.52429,15051.69,5484.92,FRANCISCAN ST MARGARET HEALTH - DYER
3.51,2.09,37.96320,-87.50292,16677.22,5099.22,ST MARY'S MEDICAL CENTER OF EVANSVILLE INC
3.89,2.19,40.39424,-86.83516,19801.45,5882.97,FRANCISCAN ST ELIZABETH HEALTH - LAFAYETTE EAST
2.79,2.12,39.21585,-85.89683,10819.42,5350.58,COLUMBUS REGIONAL HOSPITAL
3.12,2.21,40.12998,-85.69436,13557.29,6089.07,COMMUNITY HOSPITAL OF ANDERSON AND MADISON COUNTY
2.59,2.06,38.39499,-86.94089,9170.53,4871.60,MEMORIAL HOSPITAL AND HEALTH CARE CENTER
3.89,2.14,41.55065,-87.50619,19858.38,5487.79,COMMUNITY HOSPITAL
3.83,2.16,41.39576,-87.36689,19337.61,5678.42,FRANCISCAN ST ANTHONY HEALTH - CROWN POINT
3.95,2.10,39.63776,-86.13260,20279.89,5187.74,COMMUNITY HOSPITAL SOUTH
5.61,2.12,41.24786,-85.82927,33900.92,5351.00,KOSCIUSKO COMMUNITY HOSPITAL
4.35,2.17,39.78047,-86.34084,23590.93,5750.03,IU HEALTH WEST HOSPITAL
3.73,2.20,39.64935,-86.07960,18514.31,5975.77,FRANCISCAN ST FRANCIS HEALTH - INDIANAPOLIS
3.61,2.13,39.90060,-86.04218,17558.09,5395.97,COMMUNITY HOSPITAL NORTH
4.47,2.13,40.40296,-86.80885,24580.08,5446.18,INDIANA UNIVERSITY HEALTH ARNETT HOSPITAL
2.66,2.12,42.04855,-92.90625,9751.12,5343.65,MARSHALLTOWN MEDICAL & SURGICAL CENTER
3.33,2.23,42.49388,-94.18926,15268.08,6242.50,TRINITY REGIONAL MEDICAL CENTER
3.14,2.09,41.66411,-91.52841,13720.50,5093.69,MERCY HOSPITAL
3.55,2.10,42.03321,-93.61164,17039.23,5135.94,MARY GREELEY MEDICAL CENTER
3.11,2.09,41.54190,-90.55691,13463.93,5128.45,GENESIS MEDICAL CENTER-DAVENPORT
4.11,2.15,41.98570,-91.66093,21614.55,5549.41,ST LUKES HOSPITAL
2.97,2.12,40.81009,-91.17356,12319.50,5317.10,GREAT RIVER MEDICAL CENTER
4.34,2.76,41.66092,-91.54800,23496.10,10538.23,UNIVERSITY OF IOWA HOSPITAL & CLINICS
3.51,2.14,43.15063,-93.21718,16737.42,5475.29,MERCY MEDICAL CENTER-NORTH IOWA
2.90,2.19,42.46407,-92.34532,11703.05,5875.21,COVENANT MEDICAL CENTER
3.33,2.05,42.49227,-90.67404,15249.27,4731.61,MERCY MEDICAL CENTER-DUBUQUE
3.11,2.06,41.97864,-91.65507,13464.65,4879.59,MERCY MEDICAL CENTER - CEDAR RAPIDS
4.25,2.22,41.58955,-93.63248,22772.58,6195.39,IOWA METHODIST MEDICAL CENTER
3.96,2.19,41.59886,-93.62344,20394.05,5918.83,MERCY MEDICAL CENTER-DES MOINES
2.98,2.12,42.52665,-92.33957,12375.95,5360.46,ALLEN MEMORIAL HOSPITAL
2.66,2.05,42.49632,-90.68587,9792.33,4741.22,THE FINLEY HOSPITAL
2.61,2.12,40.62419,-91.38232,9378.27,5357.18,FORT MADISON COMMUNITY HOSPITAL
3.42,2.28,42.51846,-96.40581,16001.60,6679.80,ST LUKES REGIONAL MEDICAL CENTER
2.51,2.18,41.74325,-92.73450,8560.36,5803.00,GRINNELL REGIONAL MEDICAL CENTER
3.87,2.12,42.49250,-96.39975,19670.21,5342.68,MERCY MEDICAL CENTER-SIOUX CITY
4.34,2.09,39.28218,-94.90368,23481.69,5130.54,SAINT JOHN HOSPITAL
3.50,2.15,38.83324,-97.61028,16645.00,5579.46,SALINA REGIONAL HEALTH CENTER
3.13,2.09,39.05660,-95.69599,13596.06,5125.33,ST FRANCIS HEALTH CENTER INC
4.45,2.22,38.07731,-97.89183,24382.20,6190.47,HUTCHINSON REGIONAL MEDICAL CENTER INC
5.17,2.32,39.05583,-94.60912,30318.59,7003.59,UNIVERSITY OF KANSAS HOSPITAL
3.33,2.10,38.85279,-94.82413,15267.00,5179.73,OLATHE MEDICAL CENTER
4.32,2.15,39.05128,-95.69572,23345.90,5587.28,STORMONT-VAIL HEALTHCARE
4.64,2.09,38.99549,-94.69061,25944.64,5056.83,SHAWNEE MISSION MEDICAL CENTER
4.19,2.17,37.70405,-97.31386,22251.89,5723.31,VIA CHRISTI HOSPITALS WICHITA INC
6.17,2.24,37.69556,-97.29785,38521.80,6332.30,WESLEY MEDICAL CENTER
2.79,2.13,38.97848,-95.24771,10804.77,5404.52,LAWRENCE MEMORIAL HOSPITAL
3.63,2.07,39.20164,-96.60003,17686.50,4967.25,MERCY REGIONAL HEALTH CENTER
4.30,2.13,39.12677,-94.78643,23189.21,5391.95,PROVIDENCE MEDICAL CENTER
5.42,2.07,38.91047,-94.65205,32318.89,4933.00,MENORAH MEDICAL CENTER
4.99,2.09,38.90355,-94.66966,28808.36,5058.00,SAINT LUKE'S SOUTH HOSPITAL
2.85,2.11,39.07816,-84.46695,11315.64,5225.00,ST ELIZABETH FT THOMAS
2.62,2.14,37.72943,-82.76716,9453.40,5500.53,HIGHLANDS REGIONAL MEDICAL CENTER
3.27,2.14,38.47021,-82.63498,14770.86,5501.16,KING'S DAUGHTERS' MEDICAL CENTER
3.29,2.09,38.03140,-84.52194,14909.68,5060.79,SAINT JOSEPH HOSPITAL
3.70,2.22,37.11784,-84.10910,18289.38,6167.14,SAINT JOSEPH HOSPITAL LONDON
3.06,2.06,37.71183,-85.87623,13071.00,4833.56,HARDIN MEMORIAL HOSPITAL
4.26,2.17,36.99641,-86.43006,22847.93,5713.20,THE MEDICAL CENTER AT BOWLING GREEN
2.45,2.04,36.76316,-83.70793,8061.17,4678.75,PINEVILLE COMMUNITY HOSPITAL
3.41,2.08,36.60798,-88.30957,15895.71,5040.71,MURRAY-CALLOWAY COUNTY HOSPITAL
4.29,2.15,37.27729,-83.22802,23141.00,5624.17,HAZARD ARH REGIONAL MEDICAL CENTER
3.53,2.22,39.06704,-84.49946,16908.85,6145.62,ST ELIZABETH MEDICAL CENTER NORTH
3.04,2.14,38.50697,-82.69222,12850.06,5501.22,OUR LADY OF BELLEFONTE HOSPITAL
3.36,2.24,37.76518,-87.10197,15493.94,6352.94,OWENSBORO MEDICAL HEALTH SYSTEM
3.20,2.23,38.24927,-85.75081,14211.69,6228.80,JEWISH HOSPITAL & ST MARY'S HEALTHCARE
5.65,2.29,37.47264,-82.52605,34206.78,6711.96,PIKEVILLE MEDICAL CENTER
3.72,2.16,39.01660,-84.63078,18420.36,5670.18,ST ELIZABETH FLORENCE
3.01,2.16,37.64378,-84.77272,12651.81,5645.96,EPHRAIM MCDOWELL REGIONAL MEDICAL CENTER
3.31,2.15,36.80963,-83.31313,15062.00,5618.25,HARLAN APPALACHIAN REGIONAL HEALTHCARE HOSPITAL
4.12,2.17,37.85504,-87.58345,21698.32,5718.53,METHODIST HOSPITAL
3.74,2.54,38.03282,-84.50674,18598.28,8781.78,UNIVERSITY OF KENTUCKY HOSPITAL
2.79,2.11,37.36583,-85.33917,10802.92,5290.08,TAYLOR REGIONAL HOSPITAL
3.68,2.22,38.24806,-85.75125,18137.96,6185.87,NORTON HOSPITALS, INC
3.30,2.16,37.33959,-87.48988,15028.93,5672.47,REGIONAL MEDICAL CENTER OF HOPKINS COUNTY
3.36,2.06,37.06431,-88.67523,15463.45,4827.00,LOURDES HOSPITAL
3.47,2.13,38.01849,-84.51236,16420.25,5389.95,CENTRAL BAPTIST HOSPITAL
3.46,2.07,37.07404,-88.62685,16308.11,4937.00,WESTERN BAPTIST HOSPITAL
4.01,2.09,36.75751,-88.65129,20786.17,5068.50,JACKSON PURCHASE MEDICAL CENTER
4.12,2.11,36.96603,-86.43639,21701.92,5229.33,GREENVIEW REGIONAL HOSPITAL
4.47,2.16,38.16020,-84.90519,24582.73,5645.64,FRANKFORT REGIONAL MEDICAL CENTER
3.03,2.07,38.23898,-85.63941,12751.49,4890.74,BAPTIST HOSPITAL EAST
3.92,2.19,37.08724,-84.61828,20033.27,5901.93,LAKE CUMBERLAND REGIONAL HOSPITAL
2.92,2.10,38.39635,-85.37324,11873.55,5192.27,BAPTIST HOSPITAL NORTHEAST
3.19,2.17,30.20227,-92.01906,14130.64,5718.79,LAFAYETTE GENERAL MEDICAL CENTER
4.08,2.06,29.77956,-90.80568,21361.44,4845.11,THIBODAUX REGIONAL MEDICAL CENTER
4.20,2.12,29.59851,-90.71397,22368.36,5354.64,TERREBONNE GENERAL MEDICAL CENTER
6.41,2.25,30.46813,-90.45814,40446.42,6423.67,NORTH OAKS MEDICAL CENTER, LLC
3.79,2.21,30.54354,-92.07608,18971.20,6104.15,OPELOUSAS GENERAL HEALTH SYSTEM
4.54,2.10,31.28258,-92.46060,25134.83,5203.39,CHRISTUS ST FRANCES CABRINI HOSPITAL
6.10,2.24,31.31451,-92.44997,37941.33,6353.87,RAPIDES REGIONAL MEDICAL CENTER
3.72,2.04,30.21521,-93.22682,18464.25,4703.00,CHRISTUS ST PATRICK HOSPITAL
3.64,2.26,30.01875,-90.19452,17807.74,6466.65,OCHSNER FOUNDATION HOSPITAL
3.63,2.16,29.89089,-90.09395,17688.20,5689.55,WEST JEFFERSON MEDICAL CENTER
5.24,2.12,30.28456,-89.77038,30874.79,5357.32,SLIDELL MEMORIAL HOSPITAL AND MEDICAL CENTER
3.89,2.18,32.49443,-93.75011,19839.54,5852.58,CHRISTUS SCHUMPERT HEALTH SYSTEM
4.90,2.14,30.46834,-90.11383,28112.86,5480.52,ST TAMMANY PARISH HOSPITAL
4.47,2.25,29.92596,-90.09191,24561.71,6412.75,TOURO INFIRMARY
5.27,2.28,30.20458,-93.19774,31086.40,6628.15,LAKE CHARLES MEMORIAL HOSPITAL
3.58,2.26,30.40118,-91.11160,17285.90,6448.04,OUR LADY OF THE LAKE REGIONAL MEDICAL CENTER
2.95,2.21,30.45015,-91.15273,12109.03,6057.67,BATON ROUGE GENERAL MEDICAL CENTER
3.75,2.15,32.51544,-92.63343,18683.07,5598.21,NORTHERN LOUISIANA MEDICAL CENTER
2.70,2.13,33.01101,-93.44337,10051.55,5403.36,SPRINGHILL MEDICAL CENTER
2.97,2.11,30.15052,-92.03698,12317.93,5249.91,OUR LADY OF LOURDES REGIONAL MEDICAL CENTER, INC
4.10,2.12,32.48393,-93.77884,21570.51,5338.08,WILLIS KNIGHTON MEDICAL CENTER
3.44,2.14,32.49997,-92.11359,16116.00,5505.78,ST FRANCIS MEDICAL CENTER
2.39,2.20,32.15824,-91.70520,7568.27,5972.53,FRANKLIN MEDICAL CENTER
3.45,2.12,30.01438,-90.18155,16216.00,5339.61,EAST JEFFERSON GENERAL HOSPITAL
4.23,2.15,32.51315,-92.15713,22592.76,5570.14,GLENWOOD REGIONAL MEDICAL CENTER
3.81,2.33,30.68494,-92.26601,19150.00,7083.19,MERCY REGIONAL MEDICAL CENTER
5.32,2.15,30.28681,-89.74295,31571.25,5560.00,OCHSNER MEDICAL CENTER - NORTHSHORE, LLC
4.57,2.22,30.19775,-92.07724,25408.15,6124.23,THE REGIONAL MEDICAL CENTER OF ACADIANA
3.63,2.13,32.55761,-93.71874,17702.35,5438.26,WILLIS KNIGHTON BOSSIER HEALTH CENTER
2.84,2.15,43.65159,-70.26482,11236.15,5595.77,MERCY HOSPITAL
3.62,2.34,43.65325,-70.27533,17648.28,7101.77,MAINE MEDICAL CENTER
3.12,2.17,43.47840,-70.49221,13559.73,5718.73,SOUTHERN MAINE MEDICAL CENTER
2.81,2.15,43.90901,-69.89611,11025.82,5603.65,MID COAST HOSPITAL
2.94,2.21,44.10107,-70.21432,12069.75,6067.92,CENTRAL MAINE MEDICAL CENTER
2.99,2.22,44.80988,-68.74929,12474.22,6158.56,EASTERN MAINE MEDICAL CENTER
3.96,2.23,44.10276,-70.20093,20377.64,6228.00,ST MARYS REGIONAL MEDICAL CENTER
3.25,2.20,45.25378,-69.44547,14591.60,5979.84,MAINE GENERAL MEDICAL CENTER
2.76,2.30,44.14436,-69.08577,10615.86,6804.00,PENOBSCOT BAY MEDICAL CENTER
2.37,2.32,39.62183,-77.68219,7360.40,6973.60,MERITUS MEDICAL CENTER
2.73,2.65,39.28817,-76.62438,10309.96,9691.26,UNIVERSITY OF MARYLAND MEDICAL CENTER
2.32,2.28,39.01578,-77.03591,7014.28,6614.31,HOLY CROSS HOSPITAL
2.48,2.42,39.42366,-77.41386,8324.15,7824.72,FREDERICK MEMORIAL HOSPITAL
2.46,2.41,39.38813,-76.61068,8146.08,7684.29,SAINT JOSEPH MEDICAL CENTER
2.93,2.84,39.29297,-76.61314,11962.29,11244.76,MERCY MEDICAL CENTER INC
3.28,3.18,39.29688,-76.59242,14820.36,14052.83,JOHNS HOPKINS HOSPITAL, THE
2.45,2.39,39.27352,-76.67219,8052.86,7569.58,SAINT AGNES HOSPITAL
2.68,2.61,39.35262,-76.66196,9892.90,9379.93,SINAI HOSPITAL OF BALTIMORE
2.85,2.77,39.35169,-76.47919,11326.40,10691.30,FRANKLIN SQUARE HOSPITAL CENTER
2.44,2.38,38.98482,-77.00139,7952.27,7491.93,WASHINGTON ADVENTIST HOSPITAL
2.11,2.07,39.41339,-79.40103,5274.25,4957.83,GARRETT COUNTY MEMORIAL HOSPITAL
2.31,2.26,39.15402,-77.05431,6931.64,6515.59,MONTGOMERY GENERAL HOSPITAL INC
2.54,2.47,38.36248,-75.59799,8742.69,8241.16,PENINSULA REGIONAL MEDICAL CENTER
2.34,2.29,38.99743,-77.11048,7153.70,6762.07,SUBURBAN HOSPITAL
2.46,2.40,38.99014,-76.53398,8160.35,7670.77,ANNE ARUNDEL MEDICAL CENTER
3.12,3.04,39.32930,-76.61432,13544.00,12910.40,UNION MEMORIAL HOSPITAL
2.54,2.48,39.64928,-78.73206,8804.27,8319.27,WESTERN MARYLAND REGIONAL MEDICAL CENTER
2.30,2.25,38.29124,-76.63579,6848.31,6437.28,SAINT MARY'S HOSPITAL
2.47,2.41,39.29100,-76.54623,8209.53,7716.95,JOHNS HOPKINS BAYVIEW MEDICAL CENTER
2.67,2.62,39.21770,-76.06494,9863.13,9395.53,CHESTER RIVER HOSPITAL CENTER
2.21,2.17,39.60859,-75.83201,6096.00,5730.21,UNION HOSPITAL OF CECIL COUNTY
2.58,2.53,39.55808,-76.99107,9112.27,8678.03,CARROLL HOSPITAL CENTER
2.76,2.68,39.25189,-76.61399,10581.53,9946.69,HARBOR HOSPITAL
2.17,2.13,38.52905,-76.97068,5757.92,5453.81,CIVISTA MEDICAL CENTER
2.49,2.43,38.76970,-76.07697,8344.80,7844.32,MEMORIAL HOSPITAL AT EASTON
2.98,2.89,39.29994,-76.62138,12382.06,11639.19,MARYLAND GENERAL  HOSPITAL
2.44,2.38,38.55963,-76.59455,7958.60,7481.27,CALVERT MEMORIAL HOSPITAL
2.70,2.63,39.35852,-76.78208,10051.28,9493.25,NORTHWEST HOSPITAL CENTER
2.53,2.47,39.13732,-76.62228,8711.98,8189.34,BALTIMORE WASHINGTON  MEDICAL CENTER
2.46,2.40,39.39017,-76.62216,8147.84,7658.98,GREATER BALTIMORE MEDICAL CENTER
2.71,2.64,39.21273,-76.88526,10130.86,9576.45,HOWARD COUNTY GENERAL HOSPITAL
2.35,2.31,39.51870,-76.34688,7250.28,6867.41,UPPER CHESAPEAKE MEDICAL CENTER
2.63,2.56,38.96851,-76.86203,9485.42,8963.38,DOCTORS'  COMMUNITY HOSPITAL
2.36,2.30,38.74827,-76.87590,7279.37,6842.56,SOUTHERN MARYLAND HOSPITAL CENTER
2.26,2.21,39.08690,-76.88163,6475.29,6086.79,LAUREL REGIONAL MEDICAL CENTER
2.28,2.24,39.35962,-76.58851,6689.19,6287.90,GOOD SAMARITAN HOSPITAL
2.31,2.27,39.09796,-77.19799,6928.32,6540.47,SHADY GROVE ADVENTIST HOSPITAL
2.08,2.04,38.72818,-76.99214,5007.64,4707.09,FORT WASHINGTON HOSPITAL
2.25,2.20,38.33876,-75.21128,6412.52,6027.81,ATLANTIC GENERAL HOSPITAL
3.61,2.34,42.54113,-71.76120,17522.60,7168.27,HEALTHALLIANCE HOSPITALS, INC
3.15,2.31,42.37441,-71.13378,13807.27,6904.73,MOUNT AUBURN HOSPITAL
3.14,2.34,42.70912,-71.14877,13658.53,7178.87,LAWRENCE GENERAL HOSPITAL
3.28,2.56,42.37451,-71.10418,14846.53,8952.47,CAMBRIDGE HEALTH ALLIANCE
3.05,2.40,41.65298,-70.27484,12972.95,7608.61,CAPE COD HOSPITAL
2.78,2.16,42.33185,-72.65422,10750.23,5632.41,COOLEY DICKINSON HOSPITAL INC,THE
2.96,2.59,42.27872,-71.06625,12230.22,9214.96,CARNEY HOSPITAL
3.17,2.24,41.69217,-71.16474,13961.75,6337.15,SAINT ANNE'S HOSPITAL
2.50,2.22,42.20038,-72.62762,8415.42,6122.75,HOLYOKE MEDICAL CENTER
2.81,2.20,42.81476,-70.89068,10974.60,6009.27,ANNA JAQUES HOSPITAL
3.25,2.14,42.16849,-72.34130,14619.75,5501.67,WING MEMORIAL HOSPITAL AND MEDICAL CENTER
3.54,2.85,42.35843,-71.05977,16983.46,11336.00,BOSTON MEDICAL CENTER CORPORATION
2.51,2.26,42.56407,-70.87543,8511.21,6485.11,BEVERLY HOSPITAL CORPORATION
3.97,2.30,42.51078,-70.90712,20447.80,6812.86,NORTH SHORE MEDICAL CENTER
2.83,2.63,42.34896,-71.14768,11125.50,9504.25,ST ELIZABETH'S MEDICAL CENTER
2.85,2.35,51.46599,-1.28140,11315.70,7250.14,BERKSHIRE MEDICAL CENTER INC
3.21,2.21,42.70589,-73.10840,14251.25,6073.06,NORTH ADAMS REGIONAL HOSPITAL
2.99,2.38,42.03597,-71.09792,12446.54,7492.73,SIGNATURE HEALTHCARE BROCKTON HOSPITAL
2.61,2.23,41.94445,-70.64511,9331.27,6228.27,JORDAN HOSPITAL INC
2.85,2.33,42.64636,-71.34118,11282.50,7062.00,LOWELL GENERAL HOSPITAL
2.95,2.13,42.11807,-72.75921,12169.93,5399.53,NOBLE HOSPITAL
3.42,2.28,42.11449,-72.59502,15994.91,6678.38,MERCY MEDICAL CENTER
2.95,2.24,42.25105,-71.01411,12104.56,6282.06,QUINCY MEDICAL CENTER
2.80,2.30,42.46049,-71.06203,10867.58,6820.93,HALLMARK HEALTH SYSTEM
5.37,2.67,42.36227,-71.06941,31957.42,9851.23,MASSACHUSETTS GENERAL HOSPITAL
2.49,2.25,41.90456,-71.09562,8330.27,6403.80,MORTON HOSPITAL
3.10,2.27,41.70928,-71.14519,13370.40,6536.17,SOUTHCOAST HOSPITAL GROUP, INC
3.23,2.45,42.12077,-72.60525,14417.30,8065.09,BAYSTATE MEDICAL CENTER
2.85,2.26,42.72846,-71.16830,11299.92,6497.75,HOLY FAMILY HOSPITAL
2.79,2.24,42.64529,-71.30052,10824.08,6332.58,SAINTS  MEDICAL CENTER INC
3.82,2.15,42.43082,-71.37554,19273.32,5546.23,EMERSON HOSPITAL
3.27,2.70,42.33719,-71.10939,14761.24,10110.60,BETH ISRAEL DEACONESS MEDICAL CENTER
2.79,2.22,42.13234,-71.52825,10851.84,6149.84,MILFORD REGIONAL MEDICAL CENTER
3.47,2.20,42.17644,-70.95398,16411.77,6001.08,SOUTH SHORE HOSPITAL
3.71,2.23,42.33149,-71.24568,18371.31,6206.31,NEWTON-WELLESLEY HOSPITAL
2.68,2.18,42.46581,-71.12210,9957.64,5855.00,WINCHESTER HOSPITAL
5.25,2.58,42.33600,-71.10704,30926.04,9100.13,BRIGHAM AND WOMEN'S HOSPITAL
2.73,2.32,42.09864,-71.06607,10318.22,6954.41,GOOD SAMARITAN MEDICAL CENTER
3.92,2.73,42.34951,-71.06331,20104.88,10296.62,TUFTS MEDICAL CENTER
2.62,2.19,42.18869,-71.20197,9432.08,5916.92,NORWOOD HOSPITAL
2.96,2.23,41.56412,-70.62200,12206.33,6270.90,FALMOUTH HOSPITAL
4.44,2.64,42.27720,-71.75922,24362.92,9584.55,UMASS MEMORIAL MEDICAL CENTER INC
2.71,2.36,42.48585,-71.20686,10197.69,7265.14,LAHEY CLINIC HOSPITAL
2.73,2.17,42.76256,-71.04507,10360.54,5754.25,MERRIMACK VALLEY HOSPITAL
3.22,2.29,42.28385,-71.41896,14319.30,6770.00,METROWEST MEDICAL CENTER
2.91,2.34,42.26633,-71.79760,11773.67,7178.22,ST VINCENT HOSPITAL
2.95,2.13,42.39466,-83.40537,12154.17,5411.26,ST MARY MERCY HOSPITAL
3.36,2.24,43.20588,-86.20839,15485.78,6297.35,MERCY HEALTH PARTNERS, MERCY CAMPUS
3.58,2.40,42.28551,-85.58042,17257.09,7622.55,BRONSON METHODIST HOSPITAL
3.61,2.32,42.45741,-83.20513,17565.91,6950.32,PROVIDENCE HOSPITAL AND MEDICAL CENTERS
3.47,2.28,42.29077,-83.21504,16380.00,6640.16,OAKWOOD HOSPITAL AND MEDICAL CENTER
2.85,2.18,42.08955,-86.47781,11327.48,5847.59,LAKELAND HOSPITAL, ST JOSEPH
3.02,2.18,41.93815,-84.98935,12700.53,5805.00,COMMUNITY HEALTH CENTER OF BRANCH COUNTY
3.73,2.49,42.41911,-83.18228,18535.35,8349.45,SINAI-GRACE HOSPITAL
3.13,2.36,42.61425,-83.27602,13619.14,7273.96,ST JOSEPH MERCY OAKLAND
3.27,2.63,43.39166,-84.66140,14727.82,9495.45,MIDMICHIGAN MEDICAL CENTER-GRATIOT
2.95,2.11,42.95582,-82.43222,12126.73,5220.27,ST JOSEPH MERCY PORT HURON
3.04,2.34,42.96881,-85.66649,12848.45,7150.42,SPECTRUM HEALTH - BUTTERWORTH CAMPUS
3.04,2.13,42.64303,-85.30706,12898.80,5448.40,PENNOCK HOSPITAL
3.35,2.12,43.58941,-83.86908,15390.97,5317.24,MCLAREN BAY REGION
4.86,2.78,42.28388,-83.72960,27798.16,10762.91,UNIVERSITY OF MICHIGAN HEALTH SYSTEM
2.96,2.17,42.61490,-82.96060,12246.03,5741.62,HENRY FORD MACOMB HOSPITAL
3.94,2.57,42.36762,-83.08461,20216.09,9041.78,HENRY FORD HOSPITAL
3.47,2.18,44.66805,-84.70733,16357.18,5800.55,MERCY HOSPITAL - GRAYLING
3.41,2.44,42.95817,-85.66253,15925.65,7919.78,SAINT MARY'S HEALTH CARE
3.24,2.23,42.61504,-83.93929,14469.18,6277.55,SAINT JOSEPH MERCY LIVINGSTON HOSPITAL
3.69,2.20,43.42857,-83.95556,18212.40,5955.77,COVENANT MEDICAL CENTER, INC
3.34,2.16,42.77487,-86.11378,15318.92,5647.68,HOLLAND COMMUNITY HOSPITAL
3.12,2.16,42.33111,-85.17817,13532.55,5706.24,BRONSON BATTLE CREEK HOSPITAL
3.46,2.17,43.42612,-83.94185,16296.45,5770.19,ST MARY'S OF MICHIGAN MEDICAL CENTER
3.10,2.13,43.59935,-84.76097,13349.95,5439.24,CENTRAL MICHIGAN COMMUNITY HOSPITAL
2.89,2.05,44.24532,-85.38950,11612.69,4798.00,MERCY HOSPITAL - CADILLAC
3.88,2.19,42.38392,-82.91480,19732.90,5935.71,BEAUMONT HOSPITAL, GROSSE POINTE
4.64,2.15,42.25117,-84.39240,26002.08,5557.23,ALLEGIANCE HEALTH
2.51,2.23,41.79423,-85.40861,8514.36,6272.14,STURGIS HOSPITAL
3.05,2.25,44.76156,-85.64143,12915.61,6443.47,MUNSON MEDICAL CENTER
3.07,2.18,41.91643,-83.39771,13092.22,5803.61,MERCY MEMORIAL HOSPITAL SYSTEM
3.54,2.70,42.35230,-83.05676,16956.12,10085.96,HARPER UNIVERSITY HOSPITAL
2.84,2.22,45.37209,-84.97065,11214.38,6181.00,NORTHERN MICHIGAN REGIONAL HOSPITAL
3.78,2.27,42.30489,-85.56152,18935.63,6531.50,BORGESS MEDICAL CENTER
3.62,2.33,42.51418,-83.19259,17603.29,7075.52,WILLIAM BEAUMONT HOSPITAL
3.76,2.57,43.02135,-83.70308,18790.53,9019.87,HURLEY MEDICAL CENTER
3.33,2.30,43.01399,-83.73250,15233.27,6813.65,MCLAREN FLINT
3.12,2.20,42.27424,-83.36580,13547.10,5998.76,OAKWOOD ANNAPOLIS HOSPITAL
2.84,2.18,42.21065,-83.14861,11216.59,5857.57,HENRY FORD WYANDOTTE HOSPITAL
3.16,2.43,42.46176,-83.37629,13877.75,7844.12,BOTSFORD HOSPITAL
3.54,2.23,42.26181,-83.66003,16942.93,6243.75,ST JOSEPH MERCY HOSPITAL
3.53,2.37,42.41975,-82.91442,16909.32,7415.15,ST JOHN HOSPITAL AND MEDICAL CENTER
4.06,2.28,42.70417,-84.55488,21224.50,6673.31,MCLAREN - GREATER LANSING
3.38,2.24,42.11695,-83.21365,15677.33,6310.43,OAKWOOD SOUTHSHORE MEDICAL CENTER
2.89,2.19,43.82092,-84.76857,11638.00,5894.08,MIDMICHIGAN MEDICAL CENTER-CLARE
3.64,2.12,43.06290,-83.32082,17780.93,5349.29,LAPEER REGIONAL MEDICAL CENTER
3.37,2.22,42.50514,-83.00422,15605.66,6190.07,ST JOHN MACOMB-OAKLAND HOSPITAL-MACOMB CENTER
3.71,2.34,42.89254,-83.63621,18386.72,7132.88,GENESYS REGIONAL MEDICAL CENTER - HEALTH PARK
3.94,2.15,42.98625,-82.42802,20268.64,5558.68,PORT HURON HOSPITAL
3.28,2.23,43.63618,-84.26187,14845.89,6226.94,MIDMICHIGAN MEDICAL CENTER-MIDLAND
2.76,2.23,42.58900,-82.89799,10606.71,6250.33,MOUNT CLEMENS REGIONAL MEDICAL CENTER
4.18,2.33,42.73767,-84.51698,22213.25,7028.60,EDWARD W SPARROW HOSPITAL
3.19,2.27,42.85736,-85.71774,14094.57,6552.64,METRO HEALTH HOSPITAL
2.92,2.08,42.78564,-82.48337,11851.38,5044.38,ST JOHN RIVER DISTRICT HOSPITAL
3.84,2.16,42.67850,-83.14771,19410.13,5681.00,CRITTENTON HOSPITAL MEDICAL CENTER
3.58,2.18,42.61826,-83.09239,17259.02,5819.20,WILLIAM BEAUMONT HOSPITAL-TROY
4.18,2.58,42.35295,-83.05447,22233.89,9089.32,DETROIT RECEIVING HOSPITAL & UNIV HEALTH CENTER
3.54,2.23,42.59290,-83.49920,16955.35,6230.41,HURON VALLEY-SINAI HOSPITAL
4.06,2.43,42.35178,-83.05779,21205.94,7860.12,KARMANOS CANCER CENTER
4.11,2.09,42.53914,-83.40777,21643.94,5106.50,HENRY FORD WEST BLOOMFIELD HOSPITAL
4.52,2.27,45.01403,-93.32177,24947.72,6529.84,NORTH MEMORIAL MEDICAL CENTER
3.38,2.30,46.79380,-92.09573,15626.15,6811.50,ESSENTIA HEALTH ST MARY'S MEDICAL CENTER
3.49,2.54,44.02052,-92.48292,16594.76,8738.52,MAYO CLINIC - SAINT MARYS HOSPITAL
3.75,2.35,45.57390,-94.16942,18646.78,7254.34,ST CLOUD HOSPITAL
4.40,2.22,44.94214,-93.10858,23983.26,6148.06,UNITED HOSPITAL
2.45,2.25,47.41117,-92.93183,8054.60,6370.00,UNIVERSITY MEDICAL CENTER-MESABI/ MESABA CLINICS
2.61,2.29,44.03521,-91.62181,9389.15,6717.00,WINONA HEALTH SERVICES
2.57,2.22,46.79634,-92.08793,9055.05,6178.10,ST LUKES HOSPITAL
3.58,2.20,45.33639,-92.99722,17325.00,6006.54,FAIRVIEW LAKES  HEALTH SERVICES
2.66,2.18,44.93031,-93.36276,9752.46,5864.15,PARK NICOLLET METHODIST HOSPITAL
4.48,2.31,44.95248,-93.26196,24671.44,6925.38,ABBOTT NORTHWESTERN HOSPITAL
4.29,2.89,44.02354,-92.46588,23073.74,11659.37,MAYO CLINIC METHODIST HOSPITAL
3.91,2.23,44.94898,-93.10016,19963.81,6264.65,ST JOSEPH'S HOSPITAL
2.54,2.21,47.22110,-93.55229,8747.07,6113.07,GRAND ITASCA CLINIC AND HOSPITAL
3.01,2.21,46.36166,-94.20573,12659.09,6078.57,ESSENTIA HEALTH ST JOSEPH'S MEDICAL CENTER
3.21,2.14,45.19325,-93.87136,14245.86,5462.50,BUFFALO HOSPITAL
3.68,2.18,44.88645,-93.32693,18120.15,5808.73,FAIRVIEW SOUTHDALE HOSPITAL
4.64,2.64,44.96766,-93.23640,25960.92,9561.47,UNIVERSITY OF MINNESOTA  MEDICAL CENTER, FAIRVIEW
3.26,2.29,44.16396,-94.00412,14699.58,6723.23,MAYO CLINIC HEALTH SYSTEM - MANKATO
3.90,2.35,46.81480,-95.84535,19882.09,7195.73,ESSENTIA HEALTH ST MARYS
3.07,2.16,44.77252,-93.50323,13093.05,5662.55,ST FRANCIS REGIONAL MEDICAL CENTER
4.31,2.42,44.95570,-93.09429,23251.34,7780.24,REGIONS HOSPITAL
4.09,2.18,45.18355,-93.36789,21477.21,5868.05,MERCY HOSPITAL
4.09,2.22,45.10789,-93.25685,21474.65,6189.57,UNITY HOSPITAL
3.95,2.35,44.74846,-93.27289,20345.18,7220.57,FAIRVIEW RIDGES HOSPITAL
3.97,2.26,45.02892,-93.03418,20474.65,6464.32,HEALTHEAST ST JOHN'S HOSPITAL
3.65,2.22,44.91542,-92.94757,17867.46,6164.14,HEALTHEAST WOODWINDS HOSPITAL
3.83,2.42,32.33069,-90.17030,19368.53,7763.18,UNIVERSITY OF MISSISSIPPI MED CENTER
3.00,2.17,34.24336,-88.71753,12577.85,5777.78,NORTH MISSISSIPPI MEDICAL CENTER
3.78,2.12,34.93596,-88.55955,18959.82,5368.45,MAGNOLIA REGIONAL HEALTH CENTER
6.45,2.16,30.36674,-89.11535,40783.21,5664.71,MEMORIAL HOSPITAL AT GULFPORT
5.77,2.20,32.35265,-90.87788,35186.92,5960.15,RIVER REGION HEALTH SYSTEM
3.03,2.14,34.34899,-89.52062,12787.61,5499.22,BAPTIST MEMORIAL HOSPITAL NORTH MS
3.97,2.12,30.37516,-88.53226,20494.56,5364.15,SINGING RIVER HOSPITAL
3.66,2.11,32.33616,-90.15652,17910.88,5263.88,ST DOMINIC-JACKSON MEMORIAL HOSPITAL
3.09,2.08,31.57544,-90.45670,13268.00,5025.93,KING'S DAUGHTERS MEDICAL CENTER-BROOKHAVEN
3.30,2.09,31.69405,-89.13061,15013.90,5124.24,SOUTH CENTRAL REG MED CTR
2.46,2.13,33.06583,-89.59815,8135.00,5388.55,MONTFORT JONES MEMORIAL HOSPITAL
2.95,2.16,31.31872,-89.32955,12162.59,5649.55,FORREST GENERAL HOSPITAL
2.97,2.19,33.41099,-91.03479,12262.21,5909.71,DELTA REGIONAL MEDICAL CENTER
8.52,2.33,31.56671,-91.38800,57735.17,7076.67,NATCHEZ REGIONAL MEDICAL CENTER
3.83,2.05,33.74750,-90.71908,19324.00,4770.31,BOLIVAR MEDICAL CENTER
4.15,2.26,33.51824,-90.19832,21922.53,6497.00,GREENWOOD LEFLORE HOSPITAL
3.25,2.15,33.52568,-88.42742,14571.36,5591.64,BAPTIST MEM HOSP/GOLDEN TRIANGLE INC
3.85,2.08,32.31643,-90.17922,19464.20,5015.18,MISSISSIPPI BAPTIST MEDICAL CENTER
3.28,2.09,32.37280,-88.69954,14818.00,5115.35,ANDERSON REGIONAL MEDICAL CENTER
6.27,2.11,31.56044,-91.40317,39300.25,5232.00,NATCHEZ COMMUNITY HOSPITAL/SWING BED
5.62,2.13,30.44411,-89.09321,33972.79,5407.86,GARDEN PARK MEDICAL CENTER
3.71,2.17,34.96927,-89.99709,18349.79,5778.21,BAPTIST MEMORIAL HOSPITAL DESOTO
4.26,2.12,37.06032,-94.52747,22885.69,5308.50,ST JOHN'S REGIONAL MEDICAL CENTER
3.98,2.13,38.78060,-90.48379,20555.24,5456.94,SSM ST JOSEPH HEALTH CENTER
3.91,2.30,39.77393,-94.77089,20031.33,6836.21,HEARTLAND REGIONAL MEDICAL CENTER
3.42,2.07,38.57670,-92.17352,15980.26,4897.37,ST MARYS HEALTH CENTER
3.64,2.30,37.95144,-91.75940,17777.23,6781.00,PHELPS COUNTY REGIONAL MEDICAL CENTER
4.80,2.15,38.64281,-90.44448,27268.89,5597.50,MERCY HOSPITAL ST LOUIS
2.74,2.06,38.16498,-90.38082,10404.79,4886.89,JEFFERSON REGIONAL MEDICAL CENTER
3.58,2.21,39.71116,-91.45071,17322.92,6092.17,HANNIBAL REGIONAL HOSPITAL
6.14,2.19,39.00717,-94.55925,38261.54,5942.75,RESEARCH MEDICAL CENTER
3.88,2.32,38.63524,-90.26508,19732.96,6948.12,BARNES JEWISH HOSPITAL
3.38,2.14,37.14560,-93.28037,15653.43,5512.26,COX MEDICAL CENTER
3.11,2.19,38.56571,-92.18204,13454.59,5908.88,CAPITAL REGION MEDICAL CENTER
3.92,2.12,37.17999,-93.27409,20095.67,5346.15,ST JOHN'S REGIONAL HEALTH CENTER
3.46,2.04,38.94903,-92.31563,16296.26,4647.12,BOONE HOSPITAL CENTER
3.24,2.10,38.50661,-90.38025,14512.75,5163.96,ST ANTHONY'S MEDICAL CENTER
3.57,2.07,38.52738,-90.47501,17207.71,4903.24,SSM ST CLARE HEALTH CENTER
4.14,2.13,38.93592,-94.60376,21903.50,5446.32,ST JOSEPH MEDICAL CENTER
3.78,2.32,38.63268,-90.31089,18935.92,7011.92,SSM ST MARYS HEALTH CENTER
3.54,2.09,36.64970,-93.22138,16927.46,5117.15,SKAGGS REGIONAL MEDICAL CENTER
6.85,2.14,39.04749,-94.34105,44064.29,5474.29,CENTERPOINT MEDICAL CENTER OF INDEPENDENCE, LLC
4.95,2.12,39.14957,-94.55148,28529.37,5356.63,NORTH KANSAS CITY HOSPITAL
4.17,2.16,38.75097,-90.43255,22108.68,5682.79,SSM DEPAUL HEALTH CENTER
4.98,2.55,38.62280,-90.24049,28735.85,8884.08,ST LOUIS UNIVERSITY HOSPITAL
3.13,2.08,38.63702,-90.44699,13620.87,4994.82,MISSOURI BAPTIST MEDICAL CENTER
4.44,2.11,37.31072,-89.53990,24292.65,5282.24,SOUTHEAST MISSOURI HOSPITAL
3.66,2.12,37.79962,-90.44045,17905.45,5300.36,MINERAL AREA REGIONAL MEDICAL CENTER
4.71,2.20,36.78510,-90.42779,26565.43,5960.14,POPLAR BLUFF REGIONAL MEDICAL CENTER
3.96,2.16,37.05238,-94.52777,20365.40,5632.25,FREEMAN HEALTH SYSTEM - FREEMAN WEST
5.16,2.26,39.04761,-94.59037,30257.56,6479.22,ST LUKES HOSPITAL OF KANSAS CITY
3.76,2.32,38.95171,-92.33407,18776.91,6986.17,UNIVERSITY OF MISSOURI HEALTH CARE
3.46,2.29,38.67655,-90.46573,16315.46,6738.38,BARNES-JEWISH WEST COUNTY HOSPITAL
2.88,2.09,37.78031,-90.43967,11601.31,5077.69,PARKLAND HEALTH CENTER
5.21,2.11,38.58103,-90.45144,30596.33,5233.25,DES PERES HOSPITAL
3.50,2.08,39.27591,-94.42572,16615.47,5033.56,LIBERTY HOSPITAL
3.49,2.09,38.65123,-90.50301,16548.28,5103.58,ST LUKES HOSPITAL
4.01,2.13,38.77576,-90.23906,20818.48,5404.30,CHRISTIAN HOSPITAL NORTHEAST
4.35,2.14,37.30401,-89.57190,23578.96,5465.07,ST FRANCIS MEDICAL CENTER
3.85,2.26,38.12027,-92.68146,19505.41,6487.55,LAKE REGIONAL HEALTH SYSTEM
5.81,2.09,38.90359,-94.33308,35516.46,5058.00,LEE'S SUMMIT MEDICAL CENTER
4.29,2.12,39.02539,-94.26453,23135.18,5349.45,ST MARY'S MEDICAL CENTER
3.52,2.10,38.80334,-90.77619,16835.87,5169.22,SSM ST JOSEPH HOSPITAL WEST
4.65,2.11,38.94062,-94.37842,26029.12,5293.41,SAINT LUKE'S EAST LEE'S SUMMIT HOSPITAL
3.55,2.32,46.58297,-111.99684,17045.38,6950.12,ST PETER'S HOSPITAL
2.95,2.18,45.78958,-108.51283,12147.95,5794.64,BILLINGS CLINIC HOSPITAL
3.31,2.19,47.49139,-111.26255,15102.19,5937.44,BENEFIS HOSPITALS INC
3.25,2.14,46.87545,-114.00033,14554.82,5518.00,ST PATRICK HOSPITAL
3.03,2.18,45.79337,-108.51928,12791.50,5805.67,ST VINCENT HEALTHCARE
3.13,2.16,48.21465,-114.32386,13646.75,5633.83,KALISPELL REGIONAL MEDICAL CENTER
2.65,2.07,45.66969,-111.01991,9682.07,4968.27,BOZEMAN DEACONESS HOSPITAL
3.46,2.17,40.78318,-96.63709,16335.00,5728.69,BRYANLGH MEDICAL CENTER
3.76,2.33,40.70646,-99.08136,18801.18,7017.47,GOOD SAMARITAN HOSPITAL
3.82,2.39,41.25522,-95.97892,19227.33,7517.72,THE NEBRASKA MEDICAL CENTER
3.45,2.18,40.80816,-96.62689,16217.96,5837.15,SAINT ELIZABETH REGIONAL MEDICAL CENTER
2.99,2.18,40.92425,-98.37053,12456.32,5858.47,ST FRANCIS MEDICAL CENTER
7.82,2.65,41.26509,-95.95494,52030.82,9711.09,CREIGHTON UNIVERSITY MEDICAL CENTER - SAINT JOSEPH
3.46,2.11,41.25797,-96.04164,16311.56,5278.05,THE NEBRASKA METHODIST HOSPITAL
4.47,2.14,41.23897,-96.03162,24540.58,5529.81,ALEGENT HEALTH BERGAN MERCY MEDICAL CENTER
3.24,2.28,41.88690,-103.66400,14477.17,6641.63,REGIONAL WEST MEDICAL CENTER
2.88,2.19,41.12081,-100.77062,11572.36,5949.44,GREAT PLAINS REGIONAL MEDICAL CENTER
4.12,2.17,41.45152,-96.49184,21679.12,5708.38,FREMONT AREA MEDICAL CENTER
3.14,2.28,42.03257,-97.45100,13654.87,6626.33,FAITH REGIONAL HEALTH SERVICES
5.22,2.27,39.52637,-119.79456,30705.82,6601.22,RENOWN REGIONAL MEDICAL CENTER
6.17,2.38,36.13459,-115.13576,38532.60,7475.83,SUNRISE HOSPITAL AND MEDICAL CENTER
3.73,2.14,39.53066,-119.82067,18508.31,5515.81,SAINT MARY'S REGIONAL MEDICAL CENTER
5.45,2.21,36.03931,-114.98259,32579.45,6108.00,SAINT ROSE DOMINICAN HOSPITAL - DE LIMA
4.38,2.32,39.20247,-119.78446,23856.97,7002.44,CARSON TAHOE REGIONAL MEDICAL CENTER
6.44,2.36,36.16380,-115.16574,40726.50,7308.14,VALLEY HOSPITAL MEDICAL CENTER
7.87,2.21,36.21599,-115.25095,52445.53,6104.16,MOUNTAINVIEW HOSPITAL
7.92,2.34,36.16586,-115.32436,52794.00,7123.14,SUMMERLIN HOSPITAL MEDICAL CENTER
5.93,2.19,36.00527,-115.11618,36513.56,5894.04,SAINT ROSE DOMINICAN HOSPITAL - SIENA CAMPUS
5.55,2.24,36.05712,-115.27116,33407.00,6330.43,SAINT ROSE DOMINICAN HOSPITAL - SAN MARTIN CAMPUS
3.71,2.21,43.19846,-71.56230,18388.72,6104.28,CONCORD HOSPITAL
4.02,2.55,43.67286,-72.27232,20897.58,8880.76,MARY HITCHCOCK MEMORIAL HOSPITAL
2.91,2.17,42.75004,-71.48100,11823.08,5756.92,ST JOSEPH HOSPITAL
3.16,2.18,43.00792,-71.46807,13860.41,5869.74,ELLIOT HOSPITAL
2.85,2.18,43.29811,-70.96148,11340.67,5847.33,FRISBIE MEMORIAL HOSPITAL
3.88,2.22,43.21231,-70.87499,19766.85,6176.81,WENTWORTH-DOUGLASS HOSPITAL
3.62,2.33,42.94925,-72.28978,17585.59,7028.35,CHESHIRE MEDICAL CENTER
3.17,2.17,42.75623,-71.46059,13962.91,5738.58,SOUTHERN NH MEDICAL CENTER
3.72,2.13,42.98369,-70.93511,18424.13,5409.13,EXETER HOSPITAL INC
4.25,2.15,43.06469,-70.78916,22798.83,5587.08,PORTSMOUTH REGIONAL HOSPITAL
3.92,2.14,42.99121,-71.47426,20068.81,5509.38,CATHOLIC MEDICAL CENTER
9.57,2.40,40.88346,-74.05564,66335.19,7604.39,HACKENSACK UNIVERSITY MEDICAL CENTER
8.55,2.80,40.71011,-74.21368,57954.64,10918.21,NEWARK BETH ISRAEL MEDICAL CENTER
7.00,2.42,40.79576,-73.99575,45327.71,7828.10,PALISADES MEDICAL CTR-NY PRESBYTERIAN HEALTHCARE S
4.21,2.25,40.53142,-74.86080,22448.89,6404.47,HUNTERDON MEDICAL CENTER
5.83,2.36,40.84945,-74.13768,35733.94,7273.44,ST MARY'S HOSPITAL, PASSAIC
5.03,2.28,40.88275,-74.01021,29148.81,6658.78,HOLY NAME MEDICAL CENTER
7.54,2.32,40.78556,-74.17598,49736.83,6970.93,CLARA MAASS MEDICAL CENTER
5.87,2.27,40.35684,-74.66166,36021.26,6576.30,UNIVERSITY MEDICAL CENTER AT PRINCETON
3.59,2.17,39.08752,-74.81657,17397.34,5780.92,CAPE REGIONAL MEDICAL CENTER INC
5.35,2.27,40.98359,-74.10047,31753.94,6550.36,VALLEY HOSPITAL
6.21,2.55,39.94152,-75.11680,38841.95,8892.43,COOPER UNIVERSITY HOSPITAL
5.50,2.38,40.78883,-74.46620,33022.91,7459.09,MORRISTOWN MEMORIAL HOSPITAL
5.45,2.22,40.95858,-74.31000,32561.63,6190.63,CHILTON HOSPITAL
7.33,2.51,40.90215,-74.16634,48015.03,8505.16,ST JOSEPH'S REGIONAL MEDICAL CENTER
6.93,2.26,39.78261,-74.91670,44719.38,6501.80,VIRTUA WEST JERSEY HOSPITALS BERLIN
10.29,2.15,40.61288,-74.29092,72196.78,5618.00,ROBERT WOOD JOHNSON UNIVERSITY HOSPITAL AT RAHWAY
20.00,2.27,40.66805,-74.11334,151705.53,6537.59,BAYONNE HOSPITAL CENTER
5.72,2.40,40.66005,-74.21417,34802.75,7604.33,TRINITAS REGIONAL MEDICAL CENTER
8.42,2.32,41.05754,-74.76857,56910.68,6936.16,NEWTON MEMORIAL HOSPITAL
7.38,2.35,39.92695,-75.09537,48413.54,7262.04,OUR LADY OF LOURDES MEDICAL CENTER
7.38,2.27,39.44743,-75.05838,48386.32,6537.82,SOUTH JERSEY HEALTHCARE REGIONAL MEDICAL CENTER
7.01,2.18,40.35309,-74.06484,45377.90,5832.93,RIVERVIEW MEDICAL CENTER
9.67,2.55,40.49581,-74.44980,67134.08,8818.26,ROBERT WOOD JOHNSON UNIVERSITY HOSPITAL
7.90,2.39,40.51891,-74.28183,52655.26,7541.19,RARITAN BAY MEDICAL CENTER
5.79,2.15,39.96484,-74.21708,35370.05,5613.25,COMMUNITY MEDICAL CENTER
9.59,2.39,40.90400,-73.96847,66452.79,7547.26,ENGLEWOOD HOSPITAL AND MEDICAL CENTER
8.14,2.27,39.31464,-74.59391,54617.70,6562.03,SHORE MEDICAL CENTER
14.10,2.44,40.56804,-74.59579,103385.97,7936.26,SOMERSET MEDICAL CENTER
7.14,2.23,40.89538,-74.46479,46457.69,6203.55,SAINT CLARE'S HOSPITAL
4.94,2.34,40.71264,-74.35460,28460.00,7115.20,OVERLOOK HOSPITAL
6.39,2.21,40.07832,-74.13009,40325.42,6055.79,OCEAN MEDICAL CENTER
5.62,2.43,40.81058,-74.20459,33995.88,7864.81,MOUNTAINSIDE HOSPITAL
6.72,2.29,39.98588,-74.79393,43002.59,6733.59,VIRTUA MEMORIAL HOSPITAL OF BURLINGTON COUNTY
5.71,2.32,40.70180,-75.17825,34730.09,6995.68,ST LUKE'S WARREN HOSPITAL
8.16,2.18,40.04632,-74.88059,54808.32,5812.79,LOURDES MEDICAL CENTER OF BURLINGTON COUNTY
9.23,2.36,39.35775,-74.43449,63578.64,7333.10,ATLANTICARE REGIONAL MEDICAL CENTER - CITY DIV
6.80,2.15,39.58815,-75.18044,43613.92,5563.46,SOUTH JERSEY HEALTHCARE-ELMER HOSPITAL
9.00,2.43,40.50214,-74.46015,61650.77,7873.80,SAINT PETER'S UNIVERSITY HOSPITAL
6.99,2.28,40.21065,-74.03566,45182.33,6679.28,JERSEY SHORE UNIVERSITY MEDICAL CENTER
9.06,2.45,40.29563,-73.98518,62127.15,8044.95,MONMOUTH MEDICAL CENTER
8.38,2.49,40.76190,-74.30335,56575.47,8370.61,SAINT BARNABAS MEDICAL CENTER
5.74,2.19,39.84392,-75.14985,34967.44,5935.50,UNDERWOOD - MEMORIAL HOSPITAL
8.50,2.20,40.07503,-74.21832,57591.82,6026.14,KIMBALL MEDICAL CENTER
7.04,2.37,39.82811,-75.00895,45625.50,7369.25,KENNEDY UNIVERSITY HOSPITAL - STRATFORD DIV
5.95,2.21,39.59285,-75.44416,36721.11,6075.11,MEMORIAL HOSPITAL OF SALEM COUNTY
12.96,2.38,40.23629,-74.75256,94084.93,7474.43,CAPITAL HEALTH SYSTEM-FULD CAMPUS
7.40,2.30,40.55784,-74.34970,48594.14,6833.39,JFK MEDICAL CTR - ANTHONY M. YELENCSICS COMMUNITY
7.97,2.16,40.21575,-74.67273,53243.25,5674.96,ROBERT WOOD JOHNSON UNIVERSITY HOSPITAL HAMILTON
5.69,2.19,40.23861,-74.31289,34573.66,5935.23,CENTRASTATE MEDICAL CENTER
5.93,2.16,40.40516,-74.19203,36516.17,5672.00,BAYSHORE COMMUNITY HOSPITAL
5.41,2.14,39.66213,-74.26392,32239.00,5462.32,SOUTHERN OCEAN MEDICAL CENTER
3.41,2.43,35.65960,-105.94578,15887.11,7840.50,ST VINCENT HOSPITAL
5.70,2.39,35.62295,-105.21066,34606.45,7581.64,ALTA VISTA REGIONAL HOSPITAL
3.66,2.36,36.72387,-108.21749,17941.00,7328.06,SAN JUAN REGIONAL MEDICAL CENTER
2.72,2.46,36.37076,-105.57950,10218.67,8138.00,HOLY CROSS HOSPITAL A DIV OF TAOS HEALTH SYSTEMS
3.12,2.17,32.79562,-108.26130,13561.13,5744.27,GILA REGIONAL MEDICAL CENTER
4.45,2.20,32.29186,-106.73470,24449.06,5985.72,MEMORIAL MEDICAL CENTER INC
4.12,2.25,35.08102,-106.63392,21698.80,6441.57,PRESBYTERIAN HOSPITAL
2.54,2.16,35.52808,-108.74258,8786.27,5644.91,REHOBOTH MCKINLEY CHRISTIAN HEALTH SER
4.68,2.14,32.44263,-104.25776,26264.31,5534.23,CARLSBAD MEDICAL CENTER
4.30,2.14,32.32310,-106.72900,23173.50,5471.60,MOUNTAIN VIEW REGIONAL MEDICAL CENTER
2.72,2.07,42.67460,-73.74858,10241.52,4925.38,ALBANY MEMORIAL HOSPITAL
4.26,2.35,41.92720,-73.99535,22860.50,7211.31,KINGSTON HOSPITAL
3.03,2.36,42.87482,-78.84942,12823.06,7339.65,KALEIDA HEALTH
3.02,2.12,42.09299,-75.93704,12710.42,5346.90,OUR LADY OF LOURDES MEMORIAL HOSPITAL, INC
4.58,2.42,42.65345,-73.77543,25454.70,7801.35,ALBANY MEDICAL CENTER HOSPITAL
3.41,2.55,40.61384,-73.94851,15867.07,8849.21,NEW YORK COMMUNITY HOSPITAL OF BROOKLYN, INC.
5.62,2.27,41.69441,-73.93432,33987.34,6537.38,VASSAR BROTHERS MEDICAL CENTER
4.27,2.83,40.79041,-73.95386,22931.25,11163.42,MOUNT SINAI HOSPITAL
5.95,2.65,40.63588,-74.10556,36666.77,9652.92,RICHMOND UNIVERSITY MEDICAL CENTER
3.41,2.29,42.54123,-75.52577,15899.00,6715.00,CHENANGO MEMORIAL HOSPITAL, INC
5.45,2.40,40.72567,-73.24189,32593.50,7671.90,SOUTHSIDE HOSPITAL
3.15,2.12,43.09840,-75.27819,13730.16,5316.60,FAXTON-ST LUKE'S HEALTHCARE
4.95,2.22,40.87946,-73.41621,28483.50,6132.41,HUNTINGTON HOSPITAL
6.67,2.84,40.80556,-73.96131,42588.33,11200.76,ST LUKE'S ROOSEVELT HOSPITAL
2.80,2.09,42.95425,-74.21527,10946.00,5092.91,ST MARY'S HOSPITAL AT AMSTERDAM
4.10,2.58,40.74722,-73.82521,21549.68,9130.42,NEW YORK HOSPITAL MEDICAL CENTER OF QUEENS
4.16,2.91,40.68983,-73.97794,22003.44,11836.25,BROOKLYN HOSPITAL CENTER AT DOWNTOWN CAMPUS
3.51,2.11,42.65583,-73.80372,16715.45,5240.13,ST PETER'S HOSPITAL
7.17,2.95,40.87987,-73.87996,46676.51,12126.14,MONTEFIORE MEDICAL CENTER
4.63,2.23,40.94161,-73.83650,25857.50,6262.72,LAWRENCE HOSPITAL CENTER
2.97,2.34,43.09378,-79.05038,12334.73,7146.18,NIAGARA FALLS MEMORIAL MEDICAL CENTER
5.12,2.41,41.71846,-73.92710,29902.67,7685.58,ST FRANCIS HOSPITAL
2.89,2.20,42.92866,-78.84819,11669.17,5978.00,SISTERS OF CHARITY HOSPITAL
2.89,2.17,42.10076,-76.82800,11647.77,5727.32,ARNOT OGDEN MEDICAL CENTER
2.72,2.15,42.24595,-73.77855,10262.88,5608.76,COLUMBIA MEMORIAL HOSPITAL
5.76,2.88,40.76487,-73.95398,35141.73,11551.05,NEW YORK-PRESBYTERIAN HOSPITAL
2.64,2.09,42.09049,-78.42780,9567.16,5067.05,OLEAN GENERAL HOSPITAL
5.26,2.36,41.09642,-73.92501,31063.05,7282.27,NYACK HOSPITAL
5.98,2.56,40.77686,-73.70212,36913.58,8974.10,NORTH SHORE UNIVERSITY HOSPITAL
5.93,2.32,40.93376,-72.67383,36545.67,6975.93,PECONIC BAY MEDICAL CENTER
8.56,2.58,40.77362,-73.96093,58044.53,9072.88,LENOX HILL HOSPITAL
3.51,2.20,43.19244,-77.58590,16685.14,5980.76,ROCHESTER GENERAL HOSPITAL
5.74,2.26,41.44138,-74.36821,34978.66,6484.09,ORANGE REGIONAL MEDICAL CENTER
3.73,3.00,40.85407,-73.84688,18503.45,12560.36,JACOBI MEDICAL CENTER
2.49,2.49,42.69590,-74.92278,8357.78,8346.67,MARY IMOGENE BASSETT HOSPITAL
3.20,2.27,43.05571,-76.14981,14170.33,6561.31,ST JOSEPH'S HOSPITAL HEALTH CENTER
8.87,2.29,40.78000,-72.97763,60612.71,6708.84,BROOKHAVEN MEMORIAL HOSPITAL MEDICAL CENTER
3.89,2.15,42.81963,-73.91653,19860.37,5588.07,ELLIS HOSPITAL
2.89,2.50,43.96519,-75.91511,11653.88,8432.71,SAMARITAN MEDICAL CENTER
5.83,2.36,41.11299,-74.13732,35678.23,7302.27,GOOD SAMARITAN HOSPITAL OF SUFFERN
4.29,2.54,40.58440,-74.08507,23078.31,8741.18,STATEN ISLAND UNIVERSITY HOSPITAL
4.48,2.40,41.19677,-73.72572,24697.42,7668.42,NORTHERN WESTCHESTER HOSPITAL
2.45,2.17,43.17738,-78.67123,8029.53,5741.79,EASTERN NIAGARA HOSPITAL
2.66,2.23,43.13562,-77.60602,9785.83,6243.43,HIGHLAND HOSPITAL
4.61,2.48,40.74083,-73.64306,25756.31,8277.69,WINTHROP-UNIVERSITY HOSPITAL
6.46,2.81,40.73265,-73.98162,40835.21,10973.94,BETH ISRAEL MEDICAL CENTER
3.20,2.18,42.60884,-76.18764,14195.50,5832.00,CORTLAND REGIONAL MEDICAL CENTER, INC
2.72,2.33,44.33768,-75.47425,10269.13,7046.00,EDWARD JOHN  NOBLE HOSPITAL OF GOUVERNEUR
2.80,2.09,42.73354,-73.67249,10871.00,5075.35,SAMARITAN HOSPITAL
5.24,2.23,40.80462,-73.67023,30899.76,6200.12,ST FRANCIS HOSPITAL, ROSLYN
3.10,2.58,40.91276,-73.78720,13383.43,9099.50,SOUND SHORE MEDICAL CENTER OF WESTSCHESTER
4.31,2.20,40.94000,-73.05510,23276.92,6015.29,JOHN T MATHER MEMORIAL HOSPITAL  OF PORT JEFFERSON
2.64,2.38,43.15418,-79.03254,9587.50,7469.17,MOUNT ST MARY'S HOSPITAL AND  HEALTH CENTER
3.18,2.13,43.30652,-73.64663,14005.24,5420.32,GLENS FALLS HOSPITAL
4.11,2.79,40.75543,-73.81532,21646.50,10805.00,FLUSHING HOSPITAL MEDICAL CENTER
6.66,2.88,40.63937,-73.99851,42465.42,11598.39,MAIMONIDES MEDICAL CENTER
6.24,2.79,40.75332,-73.70899,39063.85,10858.77,LONG ISLAND JEWISH MEDICAL CENTER
5.82,2.34,40.65189,-73.63096,35597.50,7147.46,SOUTH NASSAU COMMUNITIES HOSPITAL
6.62,2.64,40.65957,-73.93378,42210.31,9593.69,KINGSBROOK JEWISH MEDICAL CENTER
3.41,2.32,43.04139,-76.13803,15934.24,6996.44,CROUSE HOSPITAL
4.93,2.53,40.96967,-73.88447,28381.68,8710.56,ST JOHN'S RIVERSIDE HOSPITAL
6.44,2.65,40.74335,-73.97408,40696.74,9689.87,NYU HOSPITALS CENTER
3.20,2.11,43.22952,-75.44361,14204.93,5276.00,ROME MEMORIAL HOSPITAL, INC
4.29,2.74,40.70419,-73.91754,23097.73,10387.00,WYCKOFF HEIGHTS MEDICAL CENTER
3.77,2.07,43.08561,-73.79712,18846.12,4934.50,SARATOGA HOSPITAL
5.86,2.47,40.59411,-73.65106,35959.85,8240.69,LONG BEACH MEDICAL CENTER
3.10,2.18,43.19054,-77.70177,13374.54,5818.69,UNITY HOSPITAL OF ROCHESTER
4.16,2.11,42.74285,-73.67673,22035.20,5258.53,SETON HEALTH SYSTEM-ST MARY'S CAMPUS
9.02,3.31,41.08773,-73.80395,61784.17,15059.50,WESTCHESTER MEDICAL CENTER
3.05,2.19,42.94136,-76.56474,12930.77,5902.08,AUBURN COMMUNITY HOSPITAL
4.65,2.75,40.66762,-73.97850,26063.86,10514.70,NEW YORK METHODIST HOSPITAL
2.51,2.07,42.08997,-79.23058,8553.47,4926.33,WOMAN'S CHRISTIAN ASSOCIATION
3.89,2.55,43.04269,-76.14043,19809.83,8896.50,UNIVERSITY HOSPITAL S U N Y HEALTH SCIENCE CENTER
3.26,2.17,43.08176,-75.26587,14630.77,5788.55,ST ELIZABETH MEDICAL CENTER
3.33,2.41,44.70022,-73.47100,15233.21,7719.79,CHAMPLAIN VALLEY PHYSICIANS HOSPITAL MEDICAL CTR
5.28,2.26,40.68896,-73.63259,31228.94,6518.25,MERCY MEDICAL CENTER
5.60,2.43,41.10880,-73.86355,33817.61,7892.33,PHELPS MEMORIAL HOSPITAL ASSN
4.16,2.25,41.50307,-74.01517,22025.35,6386.00,ST LUKE'S CORNWALL HOSPITAL
5.16,2.45,41.29201,-73.89529,30206.71,8033.14,HUDSON VALLEY HOSPITAL CENTER
4.84,2.24,41.38421,-73.66323,27579.67,6343.40,PUTNAM HOSPITAL CENTER
2.60,2.12,42.14073,-77.04745,9252.28,5317.76,CORNING HOSPITAL
2.89,2.22,42.84782,-78.81264,11615.20,6149.65,MERCY HOSPITAL
3.10,2.62,43.12266,-77.62360,13343.16,9410.16,STRONG MEMORIAL HOSPITAL
6.36,2.41,40.69327,-73.29412,40062.16,7730.26,GOOD SAMARITAN HOSPITAL MEDICAL CENTER
4.37,2.38,41.02614,-73.76978,23773.52,7463.91,WHITE PLAINS HOSPITAL CENTER
3.59,2.84,40.64666,-74.02049,17354.95,11205.85,LUTHERAN MEDICAL CENTER
2.24,2.12,42.47286,-76.53849,6312.57,5378.79,CAYUGA MEDICAL CENTER AT ITHACA
3.80,2.43,40.83778,-73.85417,19112.45,7881.55,NEW YORK WESTCHESTER SQUARE MEDICAL CENTER
4.68,2.32,40.77481,-73.47968,26262.14,6937.43,PLAINVIEW HOSPITAL
4.40,2.22,40.72593,-73.47844,23980.56,6177.38,ST JOSEPH HOSPITAL
4.08,3.06,40.65508,-73.94521,21373.50,13055.36,UNIVERSITY HOSPITAL OF BROOKLYN ( DOWNSTATE )
4.77,2.48,40.72931,-73.85219,27001.89,8322.44,FOREST HILLS HOSPITAL
5.00,2.31,40.68104,-73.68633,28943.65,6919.06,FRANKLIN HOSPITAL
5.39,2.69,40.90922,-73.11520,32147.00,9973.24,UNIVERSITY HOSPITAL ( STONY BROOK )
3.29,2.20,42.11422,-75.95851,14955.86,6017.38,UNITED HEALTH SERVICES HOSPITALS, INC
6.48,2.21,40.85738,-73.18681,41061.97,6070.00,ST CATHERINE OF SIENA HOSPITAL
3.04,2.19,35.43754,-80.60147,12891.66,5934.32,CAROLINAS MEDICAL CENTER-NORTHEAST
3.47,2.29,35.57658,-82.54922,16419.08,6762.89,MEMORIAL MISSION HOSPITAL AND ASHEVILLE SURGERY CE
3.16,2.20,36.48826,-80.61222,13850.82,6015.55,NORTHERN HOSPITAL OF SURRY COUNTY
3.47,2.17,35.95000,-80.00000,16407.54,5756.31,HIGH POINT REGIONAL HOSPITAL
3.69,2.19,34.75124,-79.46789,18184.32,5917.74,SCOTLAND MEMORIAL HOSPITAL
3.60,2.29,35.39772,-77.95250,17486.63,6711.52,WAYNE MEMORIAL HOSPITAL
3.55,2.29,36.07581,-80.29779,17020.09,6711.97,FORSYTH MEMORIAL HOSPITAL
3.39,2.17,35.68172,-80.47072,15774.24,5746.86,ROWAN REGIONAL MEDICAL CENTER
3.02,2.13,35.38602,-83.20290,12706.13,5422.33,MEDWEST HARRIS
2.99,2.15,35.32080,-82.46812,12430.57,5557.17,MARGARET R PARDEE MEMORIAL HOSPITAL
3.65,2.15,35.30288,-81.53571,17871.05,5624.43,CLEVELAND REGIONAL MEDICAL CENTER
3.22,2.25,35.00670,-78.32412,14351.55,6364.45,SAMPSON REGIONAL MEDICAL CENTER
3.17,2.19,35.29053,-77.58307,13956.85,5922.15,LENOIR MEMORIAL HOSPITAL
4.06,2.27,35.03156,-78.93205,21231.31,6592.25,CAPE FEAR VALLEY MEDICAL CENTER
3.96,2.58,36.00850,-78.94006,20392.85,9066.35,DUKE UNIVERSITY HOSPITAL
3.41,2.21,35.27341,-81.13688,15866.72,6045.86,GASTON MEMORIAL HOSPITAL
4.32,2.11,35.79986,-80.87863,23316.59,5285.94,IREDELL MEMORIAL HOSPITAL INC
4.07,2.45,35.60726,-77.40477,21277.25,8075.40,PITT COUNTY MEMORIAL HOSPITAL
3.50,2.22,34.76273,-77.38582,16653.46,6131.92,ONSLOW MEMORIAL HOSPITAL
3.27,2.62,36.09062,-80.27161,14762.87,9441.41,NORTH CAROLINA BAPTIST HOSPITAL
4.48,2.34,34.63723,-79.01213,24672.81,7128.48,SOUTHEASTERN REGIONAL MEDICAL CENTER
3.40,2.31,36.19878,-81.65223,15798.67,6903.39,WATAUGA MEDICAL CENTER
3.97,2.20,35.22196,-80.83287,20515.72,6013.96,PRESBYTERIAN HOSPITAL
2.78,2.14,36.49464,-79.73929,10710.50,5496.00,MOREHEAD MEMORIAL HOSPITAL
3.02,2.65,35.90529,-79.04963,12669.32,9641.82,UNIVERSITY OF NORTH CAROLINA HOSPITAL
3.08,2.12,36.15893,-81.15703,13233.14,5315.50,WILKES REGIONAL MEDICAL CENTER
2.95,2.23,34.33747,-78.69425,12099.39,6233.43,COLUMBUS REGIONAL HEALTHCARE SYSTEM
4.04,2.29,35.78523,-78.58836,21079.95,6751.15,WAKEMED, RALEIGH CAMPUS
2.79,2.16,36.06347,-79.50208,10828.91,5689.18,ALAMANCE REGIONAL MEDICAL CENTER
4.09,2.32,35.30715,-78.63474,21480.87,6959.53,BETSY JOHNSON REGIONAL  HOSPITAL
4.03,2.19,35.82915,-78.61922,21004.00,5931.36,DUKE HEALTH RALEIGH HOSPITAL
3.30,2.16,35.72399,-81.65874,14972.80,5657.87,GRACE HOSPITAL INC
4.00,2.24,35.50624,-78.32511,20736.00,6298.17,JOHNSTON MEMORIAL HOSPITAL
2.89,2.26,36.09251,-79.78855,11650.57,6463.92,MOSES H CONE MEMORIAL HOSPITAL, THE
3.07,2.16,36.26164,-80.83882,13125.19,5641.19,HUGH CHATHAM MEMORIAL HOSPITAL
3.80,2.16,35.21029,-80.82084,19051.49,5629.43,CAROLINAS MED CENTER-MERCY
3.24,2.19,36.28555,-76.99489,14490.15,5914.23,ROANOKE CHOWAN HOSPITAL
3.35,2.28,36.32690,-76.22370,15369.44,6666.56,ALBEMARLE HOSPITAL AUTHORITY
4.36,2.48,35.20397,-80.83908,23673.27,8282.80,CAROLINAS MEDICAL CENTER/BEHAV HEALTH
3.49,2.13,35.81801,-78.70283,16573.30,5459.70,REX HOSPITAL
3.21,2.17,35.20554,-79.45645,14250.63,5737.60,FIRSTHEALTH MOORE REGIONAL HOSPITAL
4.61,2.14,35.73751,-81.33702,25683.85,5480.08,FRYE REGIONAL MEDICAL CENTER
3.58,2.21,35.36457,-80.19450,17294.81,6058.38,STANLY REGIONAL MEDICAL CENTER
2.93,2.23,34.96500,-77.96165,11963.64,6237.64,DUPLIN GENERAL HOSPITAL
5.09,2.23,35.71850,-77.94518,29638.25,6256.50,WILSON MEDICAL CENTER
3.55,2.23,34.97382,-80.52250,17071.04,6230.13,CAROLINAS MEDICAL CENTER-UNION
2.74,2.23,35.11420,-77.06568,10390.17,6250.71,CAROLINA EAST MEDICAL CENTER
2.79,2.13,36.32959,-78.39916,10783.82,5433.82,MARIA PARHAM MEDICAL CENTER
3.27,2.33,34.23786,-77.94764,14720.76,7087.70,NEW HANOVER REGIONAL MEDICAL CENTER
2.85,2.26,34.72615,-76.75452,11322.56,6495.00,CARTERET GENERAL HOSPITAL
3.41,2.33,35.97538,-77.85012,15865.15,7093.48,NASH GENERAL HOSPITAL
3.62,2.23,36.04960,-78.90617,17644.27,6256.34,DURHAM REGIONAL HOSPITAL
3.65,2.17,35.30611,-80.74708,17883.36,5753.73,CAROLINAS MED CTR-UNIVERSITY
3.31,2.09,35.11432,-80.71971,15089.36,5089.18,PRESBYTERIAN HOSPITAL MATTHEWS
4.66,2.13,35.74046,-78.78127,26160.33,5421.58,WAKEMED, CARY HOSPITAL
3.49,2.12,35.40634,-80.86005,16520.67,5298.67,PRESBYTERIAN HOSPITAL HUNTERSVILLE
2.75,2.13,35.52586,-82.94351,10494.85,5450.60,MEDWEST HAYWOOD
2.52,2.17,46.80739,-100.77773,8582.39,5765.26,ST ALEXIUS MEDICAL CENTER
2.93,2.22,46.88496,-96.78609,11949.10,6134.49,SANFORD MEDICAL CENTER FARGO
2.73,2.23,47.91045,-97.06742,10340.25,6206.57,ALTRU HOSPITAL
2.75,2.15,46.83250,-96.82805,10502.15,5564.23,ESSENTIA HEALTH-FARGO
3.14,2.10,39.08582,-84.34886,13676.00,5191.88,MERCY HOSPITAL ANDERSON
3.41,2.65,39.13707,-84.50392,15888.93,9678.50,UNIVERSITY HOSPITAL, INC
3.99,2.19,40.03064,-83.03440,20683.80,5937.83,RIVERSIDE METHODIST HOSPITAL
3.67,2.23,38.75320,-82.97800,17997.19,6276.19,SOUTHERN OHIO MEDICAL CENTER
3.83,2.09,40.73578,-84.08630,19317.10,5116.95,LIMA MEMORIAL HEALTH SYSTEM
2.57,2.09,40.51393,-81.45644,9015.14,5061.93,UNION HOSPITAL
3.32,2.15,40.57098,-83.12972,15127.44,5554.36,MARION GENERAL HOSPITAL
2.96,2.19,40.11479,-82.94677,12188.62,5941.88,MOUNT CARMEL ST ANN'S HOSPITAL
2.71,2.13,40.28688,-84.17022,10191.27,5425.82,WILSON MEMORIAL HOSPITAL
4.40,2.34,39.96098,-82.99077,23979.25,7152.67,GRANT MEDICAL CENTER
4.62,2.25,41.08161,-81.50007,25816.53,6368.13,SUMMA HEALTH SYSTEMS HOSPITALS
2.75,2.10,41.44642,-82.70864,10462.55,5164.64,FIRELANDS REGIONAL MEDICAL CENTER
3.87,2.22,41.07747,-81.53042,19666.23,6139.93,AKRON GENERAL MEDICAL CENTER
3.07,2.20,39.95805,-83.02191,13147.40,5996.37,MOUNT CARMEL HEALTH
2.21,2.08,40.82041,-81.93422,6056.62,4980.62,WOOSTER COMMUNITY HOSPITAL
2.98,2.20,39.97510,-82.01812,12353.00,6022.09,GENESIS HEALTHCARE SYSTEM
2.94,2.15,40.39967,-82.44822,12037.67,5602.50,KNOX COMMUNITY HOSPITAL
2.96,2.06,41.38265,-81.73127,12200.53,4824.40,PARMA COMMUNITY GENERAL HOSPITAL
2.45,2.16,40.08892,-84.63511,8064.33,5676.33,WAYNE HOSPITAL
5.26,2.58,41.61788,-83.61632,31057.40,9083.95,UNIVERSITY OF TOLEDO MEDICAL CENTER
5.39,2.30,39.74547,-84.18523,32112.70,6780.58,MIAMI VALLEY HOSPITAL
5.57,2.25,39.78778,-84.23493,33592.33,6440.48,GOOD SAMARITAN HOSPITAL
3.85,2.22,38.84439,-82.23902,19479.08,6169.25,HOLZER MEDICAL CENTER
3.93,2.09,41.23549,-80.79865,20159.69,5128.25,TRUMBULL MEMORIAL HOSPITAL
3.71,2.13,39.31257,-84.51774,18373.38,5392.54,MERCY HOSPITAL FAIRFIELD
3.08,2.15,41.11441,-80.65565,13217.25,5587.06,ST ELIZABETH HEALTH CENTER
4.11,2.11,40.74115,-84.11804,21628.06,5256.15,ST RITA'S MEDICAL CENTER
4.53,2.22,41.67775,-83.59589,25045.31,6138.57,TOLEDO HOSPITAL THE
2.66,2.12,40.81219,-81.39625,9752.67,5352.67,MERCY MEDICAL CENTER
3.27,2.15,39.71750,-82.57772,14791.52,5545.71,FAIRFIELD MEDICAL CENTER
3.97,2.14,41.70838,-83.69216,20510.80,5509.80,FLOWER HOSPITAL
4.43,2.10,39.49896,-84.31496,24260.89,5213.50,ATRIUM MEDICAL CENTER
4.44,2.18,41.45013,-81.82397,24322.42,5837.74,FAIRVIEW HOSPITAL
3.57,2.06,41.17554,-81.24915,17212.44,4835.50,ROBINSON MEMORIAL HOSPITAL
4.43,2.21,39.69724,-84.19232,24273.57,6060.26,KETTERING MEDICAL CENTER
4.89,2.18,41.63639,-83.48640,28018.72,5821.96,MERCY ST CHARLES HOSPITAL
3.93,2.14,41.59825,-81.54884,20120.08,5519.54,EUCLID HOSPITAL
2.69,2.15,40.79609,-81.40360,9973.05,5595.11,AULTMAN HOSPITAL
4.93,2.46,39.99445,-83.01872,28317.19,8102.85,OHIO STATE UNIVERSITY HOSPITALS
3.67,2.24,39.92755,-83.81573,18003.59,6294.33,SPRINGFIELD REGIONAL MEDICAL CENTER
3.09,2.10,41.55725,-83.68141,13240.03,5134.97,ST LUKE'S HOSPITAL
3.75,2.05,41.66317,-81.24696,18677.68,4746.53,LAKE HEALTH
3.94,2.45,41.66810,-83.54275,20254.31,8031.46,MERCY ST VINCENT MEDICAL CENTER
2.99,2.09,40.75264,-82.52803,12495.88,5089.41,MEDCENTRAL HEALTH SYSTEM
3.11,2.14,41.43653,-81.94451,13469.39,5503.39,ST JOHN MEDICAL CENTER
4.30,2.15,39.41551,-84.57263,23166.19,5618.38,FORT HAMILTON HUGHES MEMORIAL HOSPITAL
4.92,2.32,39.76950,-84.20285,28262.14,6941.95,GRANDVIEW HOSPITAL & MEDICAL CENTER
3.33,2.24,39.13975,-84.52173,15262.16,6283.63,GOOD SAMARITAN HOSPITAL
3.55,2.50,41.50772,-81.60592,17051.77,8470.97,UNIVERSITY HOSPITALS OF CLEVELAND
3.92,2.24,41.13385,-80.65678,20043.56,6336.19,NORTHSIDE MEDICAL CENTER
4.10,2.07,41.42112,-81.59808,21524.11,4966.33,MARYMOUNT HOSPITAL
4.30,2.16,41.44829,-81.53736,23204.77,5652.15,SOUTH POINTE HOSPITAL
3.03,2.09,41.36649,-82.09708,12792.77,5101.14,EMH REGIONAL MEDICAL CENTER
3.49,2.08,39.43061,-81.46454,16518.50,4989.29,MARIETTA MEMORIAL HOSPITAL
4.02,2.07,41.37028,-81.83189,20914.41,4943.33,SOUTHWEST GENERAL HEALTH CENTER
3.30,2.17,39.39463,-82.96979,14960.57,5744.79,ADENA REGIONAL MEDICAL CENTER
3.52,2.14,41.23046,-80.77749,16785.83,5515.50,ST JOSEPH HEALTH CENTER
3.88,2.29,39.12105,-84.51059,19771.76,6703.85,CHRIST HOSPITAL
3.48,2.10,41.43688,-82.23761,16431.44,5204.33,MERCY REGIONAL MEDICAL CENTER
4.82,2.12,40.08748,-84.22920,27456.16,5332.36,UPPER VALLEY MEDICAL CENTER
4.13,2.15,39.25076,-84.34341,21788.23,5580.90,BETHESDA NORTH HOSPITAL
4.42,2.36,41.50248,-81.62110,24194.42,7315.20,CLEVELAND CLINIC
2.81,2.07,40.90093,-80.83181,10948.54,4911.08,SALEM COMMUNITY HOSPITAL
4.08,2.18,41.50892,-81.18887,21398.43,5844.57,UH GEAUGA MEDICAL CENTER
2.71,2.10,40.35601,-80.62502,10157.80,5171.70,TRINITY MEDICAL CTR EAST&TRINITY MEDICAL CTR WEST
3.22,2.19,40.04876,-82.45029,14383.29,5952.57,LICKING MEMORIAL HOSPITAL
3.85,2.07,41.52013,-81.43291,19468.58,4923.30,HILLCREST HOSPITAL
5.65,2.10,41.69195,-83.62455,34226.94,5188.59,MERCY ST ANNE HOSPITAL
2.99,2.03,40.99498,-80.66192,12488.72,4630.22,ST ELIZABETH BOARDMAN HEALTH CENTER
3.94,2.00,41.45231,-81.49517,20230.58,4356.67,UNIVERSITY HOSPITALS AHUJA MEDICAL CENTER
3.81,2.13,36.72564,-97.06859,19168.93,5422.21,PONCA CITY MEDICAL CENTER
4.61,2.10,35.22999,-97.44074,25721.72,5205.08,NORMAN REGIONAL HEALTH SYSTEM
3.52,2.09,35.60735,-97.59693,16840.20,5132.12,MERCY HEALTH CENTER, INC
2.67,2.05,36.75199,-95.94089,9811.93,4779.86,JANE PHILLIPS MEDICAL CENTER
2.89,2.09,34.52030,-97.97604,11657.46,5082.00,DUNCAN REGIONAL HOSPITAL, INC
3.72,2.13,35.75351,-95.40612,18403.00,5398.62,MUSKOGEE REGIONAL MEDICAL CENTER
4.39,2.11,36.39385,-97.87094,23887.86,5231.29,ST MARY'S REGIONAL MEDICAL CENTER
4.92,2.29,35.52960,-97.57496,28248.23,6740.81,INTEGRIS BAPTIST MEDICAL CENTER
6.03,2.10,35.52531,-97.58461,37374.74,5187.26,DEACONESS HOSPITAL
3.38,2.32,35.47800,-97.52352,15620.57,6967.00,ST ANTHONY HOSPITAL
4.07,2.23,34.18908,-97.14128,21309.68,6245.42,MERCY MEMORIAL HEALTH CENTER
2.83,2.10,36.11501,-97.07438,11133.64,5198.82,STILLWATER MEDICAL CENTER
3.12,2.20,35.04924,-97.96130,13515.33,5999.50,GRADY MEMORIAL HOSPITAL
3.35,2.12,34.60992,-98.43419,15392.18,5322.09,COMANCHE COUNTY MEMORIAL HOSPITAL
2.77,2.10,36.65318,-95.15577,10692.25,5199.75,CRAIG GENERAL HOSPITAL
2.83,2.09,35.91530,-94.94996,11185.60,5055.07,TAHLEQUAH CITY HOSPITAL
3.61,2.18,36.06135,-95.95154,17503.76,5824.86,SAINT FRANCIS HOSPITAL, INC
5.75,2.47,35.48138,-97.49624,35039.68,8167.42,O U MEDICAL CENTER
5.77,2.08,35.46721,-97.39370,35226.24,5031.86,MIDWEST REGIONAL MEDICAL CENTER
5.30,2.19,35.42168,-97.53306,31336.18,5918.21,INTEGRIS SOUTHWEST MEDICAL CENTER
3.34,2.10,36.58133,-94.75864,15323.94,5160.76,INTEGRIS GROVE HOSPITAL
3.52,2.14,36.13393,-95.96718,16812.92,5522.19,ST JOHN MEDICAL CENTER, INC
2.77,2.15,35.36359,-96.93791,10629.43,5604.57,UNITY HEALTH CENTER
4.14,2.16,42.42112,-123.34326,21892.56,5695.25,THREE RIVERS COMMUNITY HOSPITAL
3.46,2.37,45.50973,-122.77368,16302.70,7390.32,PROVIDENCE ST VINCENT MEDICAL CENTER
4.08,2.85,45.49956,-122.68802,21385.11,11274.58,OHSU HOSPITAL AND CLINICS
3.28,2.41,45.53028,-122.69692,14866.58,7751.00,LEGACY GOOD SAMARITAN MEDICAL CENTER
3.76,2.19,42.31769,-122.83333,18760.74,5872.48,ROGUE VALLEY MEDICAL CENTER
3.33,2.19,44.05330,-123.00351,15214.09,5928.00,MCKENZIE-WILLAMETTE MEDICAL CENTER
3.36,2.19,44.06773,-121.26817,15506.47,5917.47,ST CHARLES MEDICAL CENTER - BEND
3.10,2.20,44.93267,-123.03418,13321.92,5955.00,SALEM HOSPITAL
3.39,2.23,45.51288,-122.55630,15729.55,6266.36,ADVENTIST MEDICAL CENTER
3.45,2.24,45.52677,-122.61469,16249.05,6305.35,PROVIDENCE PORTLAND MEDICAL CENTER
4.38,2.21,45.19897,-123.16482,23810.00,6035.29,WILLAMETTE VALLEY MEDICAL CENTER
3.54,2.15,42.34086,-122.86108,16958.28,5588.06,PROVIDENCE MEDFORD MEDICAL CENTER
3.77,2.20,45.37908,-122.74083,18806.91,5987.82,LEGACY MERIDIAN PARK MEDICAL CENTER
3.88,2.46,43.38402,-124.23280,19727.20,8120.00,BAY AREA HOSPITAL
3.63,2.32,44.08146,-123.02694,17675.00,6995.19,SACRED HEART MEDICAL CENTER - RIVERBEND
3.97,2.14,41.40075,-75.64594,20515.08,5484.83,COMMUNITY MEDICAL CENTER
3.40,2.34,40.35127,-79.84949,15781.17,7144.44,UPMC MCKEESPORT
3.94,2.10,40.25296,-76.92151,20265.10,5164.86,HOLY SPIRIT HOSPITAL
6.52,2.65,40.96789,-76.60506,41340.96,9680.88,GEISINGER MEDICAL CENTER
4.70,2.22,42.11102,-80.07912,26477.10,6119.40,SAINT VINCENT HEALTH CENTER
5.13,2.13,40.25092,-75.27204,30006.19,5430.38,LANSDALE HOSPITAL
2.68,2.06,40.97877,-76.88593,9926.05,4828.33,EVANGELICAL COMMUNITY HOSPITAL
7.87,2.21,40.07880,-75.21107,52374.50,6102.04,CHESTNUT HILL HOSPITAL
12.42,2.90,40.00504,-75.15155,89683.54,11753.46,TEMPLE UNIVERSITY HOSPITAL
4.35,2.49,40.43609,-79.98537,23563.38,8336.44,UPMC MERCY
2.99,2.20,40.68423,-76.18761,12437.17,6024.14,SCHUYLKILL MEDICAL CENTER - SOUTH JACKSON STREET
3.14,2.06,40.69101,-76.18682,13712.84,4839.00,SCHUYLKILL MEDICAL CENTER - EAST NORWEGIAN STREET
3.39,2.11,40.65191,-79.72877,15715.87,5289.93,ALLE KISKI MEDICAL CENTER
3.00,2.16,40.71251,-80.32136,12502.50,5646.09,HERITAGE VALLEY BEAVER
3.21,2.22,40.18302,-80.24767,14230.68,6143.37,WASHINGTON HOSPITAL, THE
4.66,2.33,40.33271,-75.95020,26133.78,7094.81,READING HOSPITAL MEDICAL CENTER
3.19,2.15,41.24548,-77.01438,14082.68,5618.64,WILLIAMSPORT REGIONAL MEDICAL CENTER
3.00,2.34,39.94604,-76.71884,12564.48,7141.37,YORK HOSPITAL
5.86,2.26,40.60811,-75.39260,35917.34,6458.43,ST LUKE'S HOSPITAL BETHLEHEM
4.02,2.39,40.45705,-80.00363,20860.67,7536.47,ALLEGHENY GENERAL HOSPITAL
5.25,2.14,40.36358,-75.32621,30963.47,5495.59,GRAND VIEW HOSPITAL
4.35,2.07,40.18359,-77.22459,23564.38,4949.25,CARLISLE REGIONAL MEDICAL CENTER
5.27,2.19,42.13338,-80.08703,31094.74,5907.13,UPMC HAMOT
2.79,2.13,39.82440,-77.23455,10834.71,5448.41,GETTYSBURG HOSPITAL
3.74,2.13,40.32799,-76.44588,18595.00,5410.11,GOOD SAMARITAN HOSPITAL
3.72,2.32,40.25661,-76.87572,18468.05,7004.40,PINNACLE HEALTH HOSPITALS
3.02,2.09,40.52204,-78.39824,12733.78,5096.00,ALTOONA REGIONAL HEALTH SYSTEM
3.53,2.24,41.98012,-76.52072,16855.41,6341.88,ROBERT PACKER HOSPITAL
9.48,2.16,40.06986,-75.08748,65586.64,5693.95,JEANES HOSPITAL
2.88,2.14,41.11492,-78.77515,11547.33,5495.25,DUBOIS REGIONAL MEDICAL CENTER
3.08,2.07,41.36116,-79.70065,13170.26,4964.35,UPMC NORTHWEST
6.40,2.18,40.11139,-75.09250,40402.82,5853.06,HOLY REDEEMER HOSPITAL AND MEDICAL CENTER
3.64,2.18,40.04740,-76.30540,17797.27,5794.85,LANCASTER GENERAL HOSPITAL
2.83,2.23,39.96260,-76.72774,11168.00,6244.40,MEMORIAL HOSPITAL YORK
4.18,2.32,40.48928,-79.89596,22168.12,6980.19,UPMC ST MARGARET
4.31,2.04,40.57319,-80.01455,23241.14,4707.22,UPMC PASSAVANT
8.54,2.28,40.12453,-75.33533,57897.05,6613.84,MONTGOMERY HOSPITAL
2.83,2.19,40.32674,-78.92197,11160.59,5930.97,CONEMAUGH VALLEY MEMORIAL HOSPITAL
5.53,2.67,39.95045,-75.19259,33241.52,9872.00,HOSPITAL OF UNIV OF PENNSYLVANIA
3.29,2.16,41.64205,-80.14579,14913.53,5684.00,MEADVILLE MEDICAL CENTER
5.41,2.34,40.07160,-74.98341,32296.69,7171.12,ARIA HEALTH
2.35,2.10,41.96144,-78.65938,7190.15,5181.77,BRADFORD REGIONAL MEDICAL CENTER
4.55,2.18,41.41107,-75.65091,25260.11,5852.26,MOSES TAYLOR HOSPITAL
7.18,2.11,40.24397,-75.61364,46774.38,5228.12,POTTSTOWN MEMORIAL MEDICAL CENTER
9.33,2.16,40.12344,-75.51493,64385.14,5630.21,PHOENIXVILLE HOSPITAL
5.14,2.30,40.60000,-75.47000,30074.60,6789.88,LEHIGH VALLEY HOSPITAL
4.66,2.14,41.25860,-75.86729,26097.20,5538.86,WILKES-BARRE GENERAL HOSPITAL
6.81,2.19,40.01883,-75.32115,43733.15,5886.48,MAIN LINE HOSPITAL BRYN MAWR CAMPUS
6.93,2.97,40.03678,-75.14351,44726.78,12315.07,ALBERT EINSTEIN MEDICAL CENTER
3.31,2.08,40.30103,-79.55505,15096.12,4980.00,EXCELA HEALTH WESTMORELAND REGIONAL HOSPITAL
3.34,2.05,40.20313,-79.92616,15320.91,4757.00,MONONGAHELA VALLEY HOSPITAL
3.11,2.22,39.93492,-77.64744,13418.45,6162.12,CHAMBERSBURG HOSPITAL
5.99,2.52,40.04475,-75.50425,37002.59,8575.93,MAIN LINE HOSPITAL PAOLI
2.78,2.02,41.42576,-78.57763,10723.00,4537.45,ELK REGIONAL HEALTH CENTER
8.39,2.55,39.92871,-75.26873,56625.82,8864.27,MERCY FITZGERALD HOSPITAL
6.86,2.20,40.68708,-75.24272,44108.38,6025.42,EASTON HOSPITAL
6.08,2.53,40.44190,-79.96044,37720.20,8660.31,UPMC PRESBYTERIAN SHADYSIDE
3.14,2.07,40.86656,-79.88351,13650.79,4901.86,BUTLER MEMORIAL HOSPITAL
2.76,2.08,40.60755,-79.15657,10567.89,5040.21,INDIANA REGIONAL MEDICAL CENTER
6.32,2.51,39.94969,-75.15712,39752.07,8533.04,THOMAS JEFFERSON UNIVERSITY HOSPITAL
3.80,2.13,41.41133,-80.37169,19111.31,5427.77,UPMC HORIZON
3.69,2.14,39.97024,-75.60259,18216.61,5483.00,CHESTER COUNTY HOSPITAL
12.86,2.39,39.85598,-75.36791,93245.35,7574.04,CROZER CHESTER MEDICAL CENTER
4.64,2.12,40.94875,-75.96386,25960.85,5377.62,HAZLETON GENERAL HOSPITAL
2.94,2.11,40.83130,-75.72794,12064.38,5237.23,GNADEN HUETTEN MEMORIAL HOSPITAL
6.12,2.27,39.98905,-75.27707,38058.74,6537.02,MAIN LINE HOSPITAL LANKENAU
4.25,2.25,40.99225,-75.17466,22754.58,6405.69,POCONO MEDICAL CENTER
4.40,2.14,40.30531,-75.14763,24001.00,5493.61,DOYLESTOWN HOSPITAL
5.42,2.13,40.05931,-75.04140,32332.62,5415.75,NAZARETH HOSPITAL
2.84,2.16,41.23235,-80.49626,11216.14,5705.32,SHARON REGIONAL HEALTH SYSTEM
7.49,2.14,39.91254,-75.43047,49276.32,5495.64,RIDDLE MEMORIAL HOSPITAL
3.64,2.13,40.18739,-76.18224,17762.62,5399.08,EPHRATA COMMUNITY HOSPITAL
