size_charge,size_pay,lat,lon,charge,pay,Air,BloodInf,UrinaryInf,Falls,Mismatch,Objects,Sores,Sugar,name
9.00,2.25,36.18082,-94.13644,41469.15,6450.63,0.0,0.327,0.245,0.818,0.0,0.0,0.164,0.0,NW ARKANSAS HOSPITALS LLC
6.19,2.20,34.46784,-93.06667,26916.19,6197.44,0.0,0.343,0.942,0.171,0.0,0.0,0.171,0.0,ST JOSEPHS MERCY HEALTH CENTER INC
4.12,2.13,36.34295,-92.39442,16140.69,5829.27,0.0,0.0,0.484,0.194,0.0,0.097,0.194,0.0,BAXTER REGIONAL MEDICAL CENTER
4.04,2.20,35.08546,-92.45774,15745.65,6212.81,0.0,0.62,1.24,0.155,0.0,0.0,0.0,0.0,CONWAY REGIONAL MEDICAL CENTER
5.16,2.26,34.77770,-92.12539,21530.57,6503.07,0.0,0.625,0.803,0.0,0.0,0.0,0.357,0.089,BAPTIST HEALTH MEDICAL CENTER NORTH LITTLE ROCK
4.27,2.26,36.05214,-90.49908,16945.16,6490.95,0.0,0.0,0.51,0.255,0.0,0.0,0.0,0.0,ARKANSAS METHODIST MEDICAL CENTER
8.66,2.22,35.28275,-93.14901,39692.56,6281.95,0.0,0.429,1.287,0.0,0.0,0.0,0.0,0.215,ST MARYS REGIONAL MEDICAL CENTER
7.08,2.53,35.14320,-90.18837,31527.15,7930.19,0.0,0.303,0.303,0.0,0.0,0.0,0.0,0.0,CRITTENDEN MEMORIAL HOSPITAL
5.89,2.25,35.37445,-94.41868,25351.09,6481.94,0.0,0.277,1.248,0.486,0.0,0.0,0.139,0.069,SPARKS REGIONAL MEDICAL CENTER
5.57,2.13,35.35395,-94.35262,23659.60,5836.32,0.0,0.604,0.302,0.906,0.0,0.0,0.101,0.0,ST EDWARD MERCY MEDICAL CENTER
5.98,2.35,34.18894,-92.01886,25822.90,6974.05,0.0,0.453,0.567,0.0,0.0,0.0,0.113,0.0,JEFFERSON REGIONAL MEDICAL CENTER
10.96,2.28,34.48600,-93.03521,51619.48,6637.21,0.0,0.423,0.846,0.423,0.212,0.0,0.212,0.0,NATIONAL PARK MEDICAL CENTER
6.24,2.17,34.57290,-92.58508,27153.10,6032.86,0.0,0.442,0.221,0.0,0.0,0.0,0.0,0.0,SALINE MEMORIAL HOSPITAL
9.63,2.49,33.22053,-92.67102,44753.36,7707.12,0.0,0.379,0.947,0.0,0.0,0.189,0.0,0.0,MEDICAL CENTER SOUTH ARKANSAS
5.45,2.22,34.74866,-92.35422,23035.38,6326.00,0.0,0.656,0.656,0.231,0.0,0.039,0.347,0.077,BAPTIST HEALTH MEDICAL CENTER-LITTLE ROCK
5.18,2.13,35.80838,-90.66658,21649.80,5835.05,0.0,0.134,0.939,0.402,0.0,0.0,0.134,0.134,NEA BAPTIST MEMORIAL HOSPITAL
4.96,2.30,35.76927,-91.63408,20494.33,6701.59,0.0,0.87,0.497,0.249,0.0,0.0,0.373,0.0,WHITE RIVER MEDICAL CENTER
4.58,2.09,34.73868,-92.39307,18529.43,5615.44,0.0,0.101,0.101,0.101,0.0,0.0,0.0,0.0,ARKANSAS HEART HOSPITAL
5.45,2.10,34.81290,-92.20814,23076.47,5657.14,0.0,0.0,0.432,0.0,0.0,0.0,0.0,0.0,ST VINCENT MEDICAL CENTER/NORTH
18.12,3.40,37.63362,-122.08802,88770.98,12444.32,0.0,1.826,0.609,0.812,0.0,0.0,0.203,0.0,ST ROSE HOSPITAL
9.70,2.68,40.78366,-124.14246,45112.96,8689.00,0.0,0.179,0.716,0.0,0.0,0.179,0.179,0.0,ST JOSEPH HOSPITAL
15.49,2.75,38.32472,-122.29671,75129.22,9061.78,0.0,0.306,1.073,0.613,0.0,0.0,0.0,0.0,QUEEN OF THE VALLEY MEDICAL CENTER
11.04,2.97,38.54384,-122.47401,52053.62,10188.66,0.0,0.206,0.618,1.648,0.0,0.0,0.0,0.0,ST HELENA HOSPITAL
11.22,2.93,38.57053,-121.45216,53011.51,9977.61,0.0,0.499,0.666,0.416,0.0,0.0,0.166,0.083,MERCY GENERAL HOSPITAL
12.53,3.14,33.97659,-117.38184,59761.36,11080.07,0.0,0.54,0.432,0.324,0.0,0.0,0.0,0.216,RIVERSIDE COMMUNITY HOSPITAL
10.78,2.90,32.68425,-117.08161,50703.00,9807.30,0.0,0.267,0.0,0.0,0.0,0.0,0.0,0.0,PARADISE VALLEY HOSPITAL
10.46,3.44,32.75426,-117.16592,49028.46,12614.62,0.0,0.475,0.158,0.079,0.0,0.238,0.0,0.0,UNIVERSITY OF CALIFORNIA SAN DIEGO MEDICAL CENTER
13.63,2.55,32.77495,-117.01467,65508.61,8031.48,0.0,0.131,0.327,0.523,0.0,0.065,0.0,0.0,GROSSMONT HOSPITAL
9.95,2.78,35.38736,-119.01690,46417.98,9183.54,0.0,0.381,0.507,0.0,0.0,0.0,0.0,0.0,BAKERSFIELD MEMORIAL HOSPITAL
11.48,4.02,37.31288,-121.93329,54359.48,15621.52,0.0,0.196,0.589,0.786,0.0,0.0,0.589,0.0,SANTA CLARA VALLEY MEDICAL CENTER
13.49,2.46,39.74221,-121.85000,64777.14,7521.20,0.0,0.144,0.433,0.0,0.0,0.072,0.072,0.0,ENLOE MEDICAL CENTER
10.04,4.12,34.30238,-118.36957,46859.40,16160.00,0.0,0.725,0.0,0.0,0.0,0.0,0.0,0.0,LAC/OLIVE VIEW-UCLA MEDICAL CENTER
11.20,3.15,37.82206,-122.26275,52908.44,11140.41,0.0,0.897,0.489,0.489,0.0,0.0,0.163,0.0,ALTA BATES SUMMIT MEDICAL CENTER
15.97,3.27,37.79100,-122.43125,77614.18,11752.21,0.0,0.689,0.536,0.842,0.0,0.0,0.153,0.0,CALIFORNIA PACIFIC MEDICAL CTR-PACIFIC CAMPUS HOSP
7.02,2.72,34.67486,-118.15771,31222.73,8902.94,0.0,0.369,0.462,0.092,0.0,0.185,0.0,0.0,ANTELOPE VALLEY HOSPITAL MED CENTER
8.27,2.65,36.32737,-119.29548,37683.51,8533.36,0.0,0.4,0.599,0.4,0.0,0.0,0.2,0.067,KAWEAH DELTA MEDICAL CENTER
7.82,3.04,34.12834,-118.25777,35331.15,10575.85,0.0,0.231,0.463,0.116,0.0,0.0,0.116,0.0,GLENDALE MEM HOSPITAL & HLTH CENTER
8.76,3.15,36.73000,-119.78000,40234.82,11120.31,0.0,0.42,0.18,0.12,0.0,0.0,0.48,0.0,COMMUNITY REGIONAL MEDICAL CENTER
16.39,3.35,34.09643,-118.29103,79806.51,12137.15,0.0,0.695,0.139,0.834,0.0,0.0,0.0,0.0,HOLLYWOOD PRESBYTERIAN MEDICAL CENTER
10.87,2.53,33.78036,-117.86495,51196.62,7888.10,0.0,0.106,0.53,0.212,0.0,0.106,0.212,0.0,ST JOSEPH HOSPITAL
10.09,4.13,37.33569,-121.99595,47149.25,16187.75,0.0,0.112,0.56,1.456,0.0,0.0,0.112,0.112,KAISER FOUNDATION HOSPITAL-SANTA CLARA
3.51,2.82,37.78248,-122.44290,12975.55,9415.00,0.0,0.0,0.349,1.221,0.0,0.0,0.523,0.0,KAISER FOUNDATION HOSPITAL - SAN FRANCISCO
11.50,2.84,32.75143,-117.16083,54440.24,9540.82,0.052,0.105,0.472,0.21,0.0,0.0,0.052,0.0,SCRIPPS MERCY HOSPITAL
12.72,2.97,37.95337,-122.33672,60792.50,10174.43,0.0,0.0,0.203,1.829,0.0,0.0,0.406,0.203,DOCTORS MEDICAL CENTER-SAN PABLO
10.61,2.73,34.21674,-119.15631,49808.93,8930.64,0.0,0.601,0.601,0.241,0.0,0.12,0.0,0.0,ST JOHNS REGIONAL MEDICAL CENTER
13.39,2.78,37.96987,-121.28873,64226.20,9214.50,0.0,0.222,0.296,0.518,0.0,0.148,0.0,0.0,ST JOSEPHS MED CENTER OF STOCKTON
7.69,3.09,34.13101,-117.32181,34697.68,10802.93,0.0,1.585,0.396,0.0,0.0,0.0,0.0,0.0,COMMUNITY HOSPITAL OF SAN BERNARDINO
7.64,2.60,36.83532,-119.76562,34413.50,8249.01,0.0,0.275,0.826,0.138,0.0,0.0,0.184,0.0,SAINT AGNES MEDICAL CENTER
10.23,2.53,34.10130,-117.63651,47864.82,7921.88,0.0,0.539,0.673,0.135,0.0,0.0,0.135,0.0,SAN ANTONIO COMMUNITY HOSPITAL
16.84,3.04,32.79949,-117.15394,82118.06,10567.37,0.0,0.288,0.672,0.48,0.0,0.096,0.0,0.0,SHARP MEMORIAL HOSPITAL
15.44,3.33,34.04932,-118.21746,74884.64,12068.42,0.0,0.339,0.904,0.0,0.0,0.0,0.113,0.0,WHITE MEMORIAL MEDICAL CENTER
11.97,3.38,33.92963,-118.20332,56856.04,12313.83,0.0,0.684,0.171,0.342,0.0,0.0,0.0,0.0,SAINT FRANCIS MEDICAL CENTER
12.95,2.95,38.57155,-121.46874,61980.31,10101.94,0.0,0.129,0.579,0.643,0.0,0.0,0.0,0.0,SUTTER GENERAL HOSPITAL
11.04,2.63,34.02685,-118.48651,52045.21,8429.29,0.0,0.45,0.36,0.629,0.0,0.0,0.0,0.0,SANTA MONICA - UCLA MED CTR & ORTHOPAEDIC HOSPITAL
10.49,2.47,33.12535,-117.07336,49182.16,7619.95,0.0,0.56,0.56,0.224,0.0,0.0,0.224,0.112,PALOMAR MEDICAL CENTER
14.00,2.75,34.22014,-118.53410,67388.69,9033.60,0.0,1.27,0.098,0.586,0.0,0.195,0.098,0.0,NORTHRIDGE HOSPITAL MEDICAL CENTER
8.40,2.59,36.32362,-119.66726,38351.54,8236.32,0.0,0.129,0.516,0.0,0.0,0.0,0.0,0.0,ADVENTIST MEDICAL CENTER
17.72,2.65,37.96125,-121.30103,86721.12,8517.24,0.0,0.265,0.0,0.531,0.0,0.265,0.796,0.265,DAMERON HOSPITAL
25.96,3.43,37.36257,-121.84974,129466.02,12602.96,0.0,0.248,0.124,0.372,0.0,0.0,0.372,0.0,REGIONAL MEDICAL CENTER OF SAN JOSE
9.76,2.99,34.19494,-118.46319,45420.06,10317.61,0.0,0.295,0.59,0.295,0.0,0.0,0.0,0.0,VALLEY PRESBYTERIAN HOSPITAL
8.40,2.57,33.18402,-117.29661,38346.72,8098.50,0.0,0.196,0.294,2.551,0.0,0.196,0.196,0.0,TRI-CITY MEDICAL CENTER
9.80,2.76,34.13495,-117.27603,45626.21,9081.52,0.0,0.42,0.42,0.0,0.0,0.14,0.14,0.0,ST BERNARDINE MEDICAL CENTER
14.54,2.74,39.13822,-121.59436,70217.44,8989.70,0.0,0.727,0.83,0.311,0.0,0.104,0.0,0.104,RIDEOUT MEMORIAL HOSPITAL
10.52,2.82,36.57886,-121.91316,49382.70,9389.77,0.0,0.488,0.781,0.098,0.0,0.098,0.098,0.0,COMMUNITY HOSPITAL OF THE MONTEREY PENINSULA
21.85,3.11,37.32710,-121.93863,108131.21,10918.90,0.0,0.121,0.364,0.486,0.0,0.0,0.121,0.0,O'CONNOR HOSPITAL
9.95,2.38,33.89465,-117.92716,46399.27,7143.58,0.0,0.103,0.309,0.516,0.0,0.0,0.206,0.0,ST JUDE MEDICAL CENTER
13.39,2.63,33.96860,-118.04831,64226.90,8413.52,0.074,0.298,0.521,0.298,0.0,0.0,0.744,0.074,PRESBYTERIAN INTERCOMMUNITY HOSPITAL
15.26,2.86,38.44369,-122.70138,73946.69,9608.77,0.0,0.0,0.389,0.389,0.0,0.0,0.0,0.0,SANTA ROSA MEMORIAL HOSPITAL
14.65,2.58,37.51164,-120.83800,70781.07,8177.04,0.0,0.147,0.587,0.0,0.0,0.0,0.0,0.0,EMANUEL MEDICAL CENTER INC
23.46,2.72,37.91341,-122.04163,116502.13,8905.53,0.0,0.082,0.245,0.735,0.0,0.0,0.082,0.082,JOHN MUIR MEDICAL CENTER - WALNUT CREEK CAMPUS
8.57,3.05,33.77991,-118.18602,39258.78,10603.56,0.0,0.0,0.523,0.0,0.0,0.174,0.0,0.0,ST MARY MEDICAL CENTER
21.96,3.24,36.92821,-121.79360,108694.42,11592.33,0.0,0.317,0.0,0.0,0.0,0.0,0.0,0.0,WATSONVILLE COMMUNITY HOSPITAL
18.69,3.06,37.55717,-121.98126,91761.56,10679.00,0.0,0.196,0.785,0.589,0.0,0.098,0.0,0.098,WASHINGTON HOSPITAL
21.10,2.74,37.48000,-122.25441,104246.37,9007.05,0.0,0.0,0.74,0.74,0.0,0.0,0.0,0.0,SEQUOIA HOSPITAL
9.06,2.53,34.58305,-118.14490,41799.47,7886.00,0.0,0.0,0.231,0.0,0.0,0.0,0.0,0.231,PALMDALE REGIONAL MEDICAL CENTER
13.61,2.77,32.61972,-117.02278,65408.82,9145.83,0.0,0.355,1.421,0.355,0.0,0.0,0.0,0.0,SHARP CHULA VISTA MEDICAL CENTER
8.24,2.38,33.62229,-117.92995,37539.50,7113.53,0.0,0.544,0.302,0.363,0.0,0.0,0.06,0.0,HOAG MEMORIAL HOSPITAL PRESBYTERIAN
14.67,2.44,39.75720,-121.57018,70882.47,7435.63,0.0,0.199,0.596,0.794,0.0,0.0,0.0,0.397,FEATHER RIVER HOSPITAL
11.98,2.53,33.84780,-117.93661,56957.23,7907.47,0.0,0.632,0.474,0.0,0.0,0.0,0.0,0.158,AHMC ANAHEIM REGIONAL MEDICAL CENTER
18.13,4.37,37.75676,-122.40461,88825.53,17440.81,0.0,0.0,0.626,0.209,0.0,0.209,0.417,0.209,SAN FRANCISCO GENERAL HOSPITAL
15.71,3.30,34.07709,-117.75063,76275.66,11920.06,0.0,0.211,0.211,0.106,0.0,0.106,0.0,0.0,POMONA VALLEY HOSPITAL MEDICAL CENTER
11.30,2.40,35.27882,-120.65047,53413.96,7245.42,0.0,0.0,0.467,0.467,0.0,0.0,0.0,0.0,FRENCH HOSPITAL MEDICAL CENTER
15.06,2.57,34.15601,-118.32834,72891.21,8137.23,0.0,0.58,0.248,0.166,0.0,0.0,0.0,0.0,PROVIDENCE SAINT JOSEPH MEDICAL CTR
9.66,2.72,34.13973,-118.03534,44898.17,8873.02,0.0,0.262,1.397,0.175,0.0,0.087,0.087,0.087,METHODIST HOSPITAL OF SOUTHERN CA
11.82,3.02,34.14987,-118.23117,56091.70,10431.44,0.0,0.23,1.075,0.0,0.0,0.0,0.154,0.0,GLENDALE ADVENTIST MEDICAL CENTER
15.39,3.00,36.98999,-121.98357,74631.60,10349.51,0.0,0.241,0.723,0.844,0.0,0.0,0.121,0.0,DOMINICAN HOSPITAL
16.43,2.67,33.83862,-116.54557,80009.73,8639.21,0.0,0.507,0.71,0.0,0.0,0.0,0.0,0.0,DESERT REGIONAL MEDICAL CENTER
16.39,2.75,38.72562,-120.79096,79807.96,9065.96,0.0,0.0,0.57,2.281,0.0,0.0,0.0,0.0,MARSHALL MEDICAL CENTER (1-RH)
16.10,4.20,34.06675,-118.44613,78323.43,16577.23,0.079,0.707,0.786,0.472,0.0,0.157,0.707,0.236,RONALD REAGAN UCLA MEDICAL CENTER
9.53,2.43,34.03721,-117.20474,44243.73,7372.18,0.0,0.282,0.0,0.0,0.0,0.0,0.0,0.0,REDLANDS COMMUNITY HOSPITAL
14.90,2.73,34.27915,-118.46006,72070.84,8936.36,0.0,0.514,0.0,0.0,0.0,0.0,0.0,0.128,PROVIDENCE HOLY CROSS MEDICAL CENTER
13.34,2.78,40.58654,-122.39168,63988.83,9210.62,0.0,0.238,0.713,0.079,0.0,0.0,0.079,0.0,MERCY MEDICAL CENTER REDDING
18.88,2.77,37.69502,-121.88095,92747.90,9158.00,0.0,1.221,0.814,0.407,0.0,0.0,0.0,0.0,VALLEYCARE MEDICAL CENTER
22.37,3.29,37.67947,-122.47447,110847.37,11868.89,0.0,0.253,0.38,0.127,0.0,0.0,0.127,0.127,SETON MEDICAL CENTER
9.70,2.41,34.03009,-118.47833,45087.53,7264.19,0.0,0.165,0.248,0.0,0.0,0.0,0.165,0.0,SAINT JOHN'S HEALTH CENTER
10.27,3.32,38.46964,-122.70746,48084.42,12002.52,0.0,1.573,0.629,0.629,0.0,0.0,0.0,0.0,SUTTER MEDICAL CENTER OF SANTA ROSA
11.31,2.59,34.50107,-117.17285,53434.78,8205.57,0.0,0.245,0.368,0.0,0.0,0.0,0.0,0.0,ST MARY MEDICAL CENTER
17.11,3.54,37.85593,-122.25730,83560.64,13126.45,0.0,0.134,0.937,0.669,0.0,0.0,0.134,0.134,ALTA BATES SUMMIT MEDICAL CENTER - ALTA BATES CAMP
18.82,3.01,37.36934,-122.08047,92391.19,10407.00,0.0,0.83,0.554,1.015,0.0,0.277,0.185,0.0,EL CAMINO HOSPITAL
9.94,2.51,38.76514,-121.24979,46363.03,7828.74,0.0,0.208,0.415,0.83,0.0,0.0,0.0,0.0,SUTTER ROSEVILLE MEDICAL CENTER
12.06,2.63,32.88461,-117.22244,57350.62,8432.06,0.0,0.344,0.458,1.146,0.0,0.0,0.229,0.0,SCRIPPS MEMORIAL HOSPITAL LA JOLLA
9.56,3.29,34.05076,-117.26395,44374.60,11832.78,0.0,1.539,0.513,0.366,0.0,0.0,0.147,0.147,LOMA LINDA UNIVERSITY MEDICAL CENTER
9.69,2.62,33.87236,-117.56809,45076.33,8393.75,0.0,0.496,0.248,0.248,0.0,0.0,0.0,0.0,CORONA REGIONAL MEDICAL CENTER
11.75,3.22,36.65910,-121.64630,55727.84,11462.68,0.0,0.227,0.453,0.113,0.0,0.113,0.0,0.0,SALINAS VALLEY MEMORIAL HOSPITAL
10.82,2.81,37.97780,-120.37150,50939.24,9335.88,0.0,0.0,0.645,0.215,0.0,0.0,0.645,0.0,SONORA REGIONAL MEDICAL CENTER
15.27,2.52,38.12186,-121.28665,73979.00,7861.60,0.0,0.76,0.76,0.76,0.0,0.0,0.0,0.0,LODI MEMORIAL HOSPITAL
18.83,3.45,33.78798,-117.89026,92473.18,12702.32,0.0,0.652,0.261,0.522,0.0,0.0,0.13,0.391,UNIVERSITY OF CALIFORNIA IRVINE MED CENTER
6.53,2.84,34.01501,-118.10064,28667.89,9505.00,0.0,0.203,0.407,0.0,0.0,0.0,0.0,0.0,BEVERLY HOSPITAL
10.10,2.44,33.81131,-118.34364,47165.31,7453.87,0.0,0.585,0.418,0.167,0.0,0.0,0.418,0.0,TORRANCE MEMORIAL MEDICAL CENTER
12.86,2.58,33.83891,-118.35677,61499.45,8167.72,0.0,0.179,0.089,0.089,0.0,0.0,0.0,0.0,PROVIDENCE LITTLE COMPANY OF MARY MED CTR TORRANCE
6.36,2.74,36.22008,-119.33764,27773.53,8988.00,0.0,0.599,0.0,0.0,0.0,0.0,0.3,0.0,TULARE REGIONAL MEDICAL CENTER
14.24,2.76,37.94748,-122.53677,68647.61,9092.92,0.0,0.759,0.379,0.379,0.0,0.126,0.0,0.0,MARIN GENERAL HOSPITAL
25.31,3.53,38.26174,-122.04662,126065.00,13103.21,0.0,0.52,0.26,0.26,0.0,0.0,0.26,0.0,NORTHBAY MEDICAL CENTER
19.33,2.87,37.25153,-121.94684,95070.59,9657.65,0.0,0.222,0.998,1.996,0.0,0.0,0.111,0.0,GOOD SAMARITAN HOSPITAL
7.04,2.91,34.08802,-117.89341,31280.10,9861.85,0.0,1.315,0.088,0.263,0.0,0.088,0.0,0.0,CITRUS VALLEY MEDICAL CENTER-IC CAMPUS
8.49,2.53,33.75117,-116.96028,38811.98,7895.70,0.0,0.274,0.137,0.274,0.0,0.0,0.137,0.0,HEMET VALLEY MEDICAL CENTER
11.72,2.71,33.93530,-118.13030,55591.30,8823.37,0.0,0.33,0.11,0.0,0.0,0.0,0.0,0.0,DOWNEY REGIONAL MEDICAL CENTER
11.61,2.53,34.27459,-119.25812,55024.13,7914.83,0.0,0.114,0.114,0.114,0.0,0.114,0.341,0.114,COMMUNITY MEMORIAL HOSPITAL SAN BUENAVENTURA
7.65,2.59,34.42951,-119.72333,34469.41,8222.80,0.0,0.0,0.239,0.159,0.0,0.0,0.08,0.08,SANTA BARBARA COTTAGE HOSPITAL
10.43,2.55,32.89810,-117.24217,48916.26,8021.88,0.0,0.528,0.352,0.616,0.0,0.0,0.0,0.0,SCRIPPS GREEN HOSPITAL
6.18,2.45,38.60127,-121.39412,26820.15,7514.23,0.0,0.261,0.392,1.697,0.0,0.0,0.131,0.0,KAISER FOUNDATION HOSPITAL - SACRAMENTO
11.22,2.56,33.82557,-117.99493,52994.25,8042.00,0.0,0.191,0.191,0.0,0.0,0.0,0.0,0.0,WEST ANAHEIM MEDICAL CENTER
10.33,2.65,34.13364,-118.15275,48379.24,8520.68,0.0,0.171,0.514,0.171,0.0,0.0,0.057,0.057,HUNTINGTON MEMORIAL HOSPITAL
25.20,4.45,37.43436,-122.18013,125534.60,17868.56,0.0,0.28,0.449,0.337,0.0,0.0,0.112,0.112,STANFORD HOSPITAL
11.20,2.85,37.34027,-120.46817,52909.38,9585.31,0.0,0.358,0.597,0.119,0.0,0.0,0.0,0.0,MERCY MEDICAL CENTER
30.00,5.80,37.76421,-122.45716,150412.65,24895.45,0.0,0.738,0.492,0.492,0.0,0.123,0.123,0.0,UCSF MEDICAL CENTER
8.18,2.66,35.38338,-119.01969,37214.27,8598.17,0.0,0.606,0.242,0.0,0.0,0.0,0.0,0.0,SAN JOAQUIN COMMUNITY HOSPITAL
12.75,3.03,37.77449,-122.45429,60925.09,10495.64,0.0,0.171,0.513,0.0,0.0,0.0,0.0,0.0,ST MARY'S MEDICAL CENTER
22.12,2.85,37.66540,-120.99743,109515.54,9563.41,0.0,0.232,0.928,0.464,0.0,0.0,0.116,0.0,DOCTORS MEDICAL CENTER
13.63,2.98,34.05336,-118.26558,65498.19,10264.64,0.0,0.096,0.861,0.096,0.0,0.0,0.191,0.0,GOOD SAMARITAN HOSPITAL
16.81,2.85,34.20285,-118.62962,81989.56,9546.85,0.0,0.0,0.581,0.726,0.0,0.145,0.29,0.0,WEST HILLS HOSPITAL & MEDICAL CENTER
10.88,2.74,33.80861,-118.18661,51250.22,8982.19,0.0,0.66,0.6,0.42,0.0,0.0,0.0,0.06,LONG BEACH MEMORIAL MEDICAL CENTER
22.36,2.89,37.98396,-122.03464,110757.27,9781.27,0.0,0.512,0.256,0.64,0.0,0.0,0.0,0.0,JOHN MUIR MEDICAL CENTER - CONCORD CAMPUS
12.46,3.11,34.06389,-118.27347,59436.50,10943.63,0.0,0.863,0.0,0.0,0.0,0.0,0.108,0.0,SAINT VINCENT MEDICAL CENTER
12.67,2.53,33.03634,-117.28487,60522.17,7888.58,0.0,0.19,0.569,0.569,0.0,0.19,0.0,0.0,SCRIPPS MEMORIAL HOSPITAL - ENCINITAS
14.34,3.01,38.66956,-121.31378,69173.92,10411.48,0.0,0.085,0.34,0.17,0.0,0.0,0.17,0.085,MERCY SAN JUAN MEDICAL CENTER
9.48,2.90,34.52856,-117.29305,43988.71,9824.62,0.0,0.568,0.0,0.568,0.0,0.0,0.568,0.0,VICTOR VALLEY COMMUNITY HOSPITAL
12.56,2.92,37.98224,-121.80362,59965.47,9939.88,0.0,1.247,1.069,0.356,0.0,0.178,0.0,0.0,SUTTER DELTA MEDICAL CENTER
16.45,2.94,33.68179,-116.23394,80135.19,10044.19,0.0,0.576,0.864,0.0,0.0,0.0,0.288,0.0,JOHN F KENNEDY MEMORIAL HOSPITAL INC
11.51,2.80,34.20777,-118.88305,54477.32,9320.65,0.0,0.543,0.633,0.543,0.0,0.181,0.0,0.09,LOS ROBLES HOSPITAL & MEDICAL CENTER
15.46,2.41,33.80441,-118.06665,74961.00,7284.29,0.0,0.563,0.563,1.314,0.0,0.188,0.188,0.0,LOS ALAMITOS MEDICAL CENTER
15.21,2.64,37.66867,-120.97339,73693.87,8479.44,0.0,0.667,0.167,0.25,0.0,0.0,0.0,0.0,MEMORIAL  MEDICAL CENTER
13.37,2.40,33.56100,-117.66530,64150.86,7239.94,0.0,0.311,0.466,0.233,0.0,0.078,0.233,0.0,MISSION HOSPITAL REGIONAL MED CENTER
15.51,2.95,33.71466,-117.93322,75267.71,10082.00,0.0,0.882,0.196,0.0,0.0,0.0,0.0,0.0,FOUNTAIN VALLEY REGIONAL HOSPITAL & MEDICAL CENTER
14.09,2.34,33.76335,-116.40628,67875.60,6930.38,0.0,0.344,0.589,0.393,0.0,0.049,0.0,0.049,EISENHOWER MEDICAL CENTER
12.31,2.70,33.84932,-118.15323,58664.93,8798.78,0.0,0.143,0.57,0.143,0.0,0.0,0.0,0.0,LAKEWOOD REGIONAL MEDICAL CENTER
18.13,3.50,38.55484,-121.45628,88815.03,12925.26,0.0,1.915,0.479,2.668,0.0,0.137,0.0,0.137,UNIVERSITY OF CALIFORNIA DAVIS MEDICAL CENTER
10.02,2.36,33.60883,-117.70881,46772.89,7027.25,0.0,0.0,0.267,0.534,0.0,0.0,0.067,0.067,SADDLEBACK MEMORIAL MEDICAL CENTER
21.37,3.39,34.07664,-118.37955,105620.37,12349.57,0.0,0.348,0.294,0.268,0.0,0.107,0.241,0.0,CEDARS-SINAI MEDICAL CENTER
11.04,2.51,33.70167,-117.95566,52045.11,7830.39,0.0,0.223,0.0,0.0,0.0,0.0,0.0,0.223,ORANGE COAST MEMORIAL MEDICAL CENTER
17.73,2.65,37.77577,-121.95824,86745.50,8517.17,0.0,0.325,0.325,0.0,0.0,0.325,0.0,0.325,SAN RAMON REGIONAL MEDICAL CTR
14.52,3.12,34.06193,-118.20157,70108.24,10956.62,0.0,0.521,1.042,0.0,0.0,0.0,0.13,0.0,KECK HOSPITAL OF USC
10.17,2.48,34.47174,-117.29791,47517.00,7625.11,0.0,0.0,0.0,0.0,0.0,0.0,0.0,0.0,DESERT VALLEY HOSPITAL
9.16,2.41,35.38506,-119.03992,42326.30,7292.39,0.0,0.0,0.213,0.0,0.0,0.0,0.0,0.0,BAKERSFIELD HEART HOSPITAL
6.15,2.36,36.85992,-119.78858,26694.39,7050.00,0.0,0.402,0.402,0.402,0.0,0.805,0.0,0.0,FRESNO HEART AND SURGICAL HOSPITAL
14.36,3.32,34.06760,-118.12291,69275.75,12021.27,0.0,0.0,0.0,0.154,0.0,0.0,0.0,0.0,GARFIELD MEDICAL CENTER
12.92,2.80,33.95076,-118.34828,61824.48,9332.48,0.0,0.139,0.279,0.0,0.0,0.07,0.139,0.0,CENTINELA HOSPITAL MEDICAL CENTER
14.28,2.62,34.02303,-118.39741,68855.00,8353.00,0.0,0.494,0.0,0.0,0.0,0.0,0.0,0.0,BROTMAN MEDICAL CENTER
9.90,2.51,32.77629,-117.05730,46116.29,7822.62,0.0,0.667,0.133,0.0,0.0,0.0,0.133,0.0,ALVARADO HOSPITAL MEDICAL CENTER
12.45,2.48,34.17067,-118.53200,59346.83,7653.52,0.0,1.031,0.344,0.258,0.0,0.0,0.172,0.086,PROVIDENCE TARZANA MEDICAL CENTER
10.99,2.62,40.58532,-122.38702,51785.21,8387.00,0.0,0.0,0.113,0.225,0.0,0.113,0.0,0.0,SHASTA REGIONAL MEDICAL CENTER
7.20,2.33,33.61478,-117.16918,32149.50,6855.00,0.0,0.0,0.0,0.0,0.0,0.0,0.0,0.0,LOMA LINDA UNIVERSITY MEDICAL CENTER-MURRIETA
7.63,2.46,40.41481,-104.70890,34342.92,7566.11,0.0,0.0,0.603,0.345,0.0,0.0,0.172,0.0,NORTH COLORADO MEDICAL CENTER
7.32,2.28,40.18134,-105.12769,32774.04,6626.30,0.0,0.0,0.536,0.0,0.0,0.0,0.536,0.179,LONGMONT UNITED HOSPITAL
7.27,2.69,39.96455,-104.76855,32480.38,8760.88,0.0,1.283,0.641,0.641,0.0,0.0,0.0,0.0,PLATTE VALLEY MEDICAL CENTER
8.27,2.36,39.76893,-105.09006,37666.68,7004.45,0.109,0.437,0.219,0.328,0.0,0.109,0.0,0.109,EXEMPLA LUTHERAN MEDICAL CENTER
6.19,2.59,40.57315,-105.05741,26885.18,8231.00,0.0,0.181,0.543,0.362,0.0,0.0,0.0,0.091,POUDRE VALLEY HOSPITAL
7.68,2.40,38.23421,-104.62292,34641.17,7212.83,0.0,0.304,1.064,0.152,0.0,0.304,0.456,0.0,CENTURA HEALTH-ST MARY CORWIN MEDICAL CENTER
6.45,2.58,37.23629,-107.82578,28232.92,8182.69,0.0,0.0,0.0,0.0,0.0,0.0,0.0,0.0,MERCY REGIONAL MEDICAL CENTER
10.04,2.81,39.74615,-104.96682,46849.67,9356.42,0.0,2.6,0.557,2.229,0.0,0.371,0.0,0.371,PRESBYTERIAN/ST LUKE'S MEDICAL CENTER
9.24,2.41,39.71712,-105.12874,42728.60,7261.80,0.0,0.256,0.384,0.639,0.0,0.0,0.0,0.128,CENTURA HEALTH-ST ANTHONY HOSPITAL
8.66,2.29,38.28184,-104.61256,39712.79,6648.03,0.0,0.206,0.619,0.206,0.0,0.0,0.31,0.0,PARKVIEW MEDICAL CENTER INC
5.76,2.38,38.83903,-104.80024,24683.75,7143.49,0.0,0.363,0.544,0.06,0.0,0.0,0.0,0.181,MEMORIAL HOSPITAL CENTRAL
5.50,2.44,39.09046,-108.56190,23318.22,7441.70,0.0,0.976,0.759,1.193,0.0,0.0,0.217,0.108,ST MARYS HOSPITAL AND MEDICAL CENTER
11.87,3.28,39.74234,-104.84156,56346.79,11786.87,0.0,0.843,0.169,1.096,0.0,0.0,0.084,0.0,UNIVERSITY OF COLORADO HOSPITAL ANSCHUTZ INPATIENT
8.88,2.27,40.02615,-105.28391,40867.06,6579.25,0.0,0.192,0.192,0.0,0.0,0.0,0.0,0.0,BOULDER COMMUNITY HOSPITAL
8.20,2.67,39.74601,-104.96909,37325.42,8615.08,0.0,0.34,0.34,0.453,0.0,0.0,0.113,0.0,EXEMPLA SAINT JOSEPH HOSPITAL
6.94,2.39,40.41320,-105.05139,30767.35,7188.40,0.0,0.0,0.0,0.252,0.0,0.0,0.0,0.0,MCKEE MEDICAL CENTER
7.72,2.30,38.86559,-104.82182,34831.34,6699.31,0.0,0.655,0.298,0.119,0.0,0.0,0.238,0.0,CENTURA HEALTH-PENROSE ST FRANCIS HEALTH SERVICES
11.55,2.27,39.65399,-104.98116,54717.72,6574.50,0.0,1.376,0.994,0.688,0.0,0.076,0.0,0.306,SWEDISH MEDICAL CENTER
8.84,2.34,39.67005,-104.97490,40660.29,6914.00,0.0,0.158,0.947,0.473,0.0,0.0,0.0,0.0,CENTURA HEALTH-PORTER ADVENTIST HOSPITAL
12.20,2.36,39.86430,-104.98481,58078.47,7036.82,0.0,0.0,0.431,1.292,0.0,0.0,0.0,0.0,NORTH SUBURBAN MEDICAL CENTER
7.28,2.98,39.53243,-107.32158,32532.07,10241.20,0.0,0.0,2.719,0.68,0.0,0.0,0.0,0.0,VALLEY VIEW HOSPITAL ASSOCIATION
7.62,2.34,39.68859,-104.83205,34332.77,6945.45,0.0,0.92,1.022,0.409,0.0,0.0,0.102,0.0,MEDICAL CENTER OF AURORA THE
9.40,2.48,39.84960,-105.01825,43533.44,7665.25,0.0,0.581,0.968,0.387,0.0,0.0,0.194,0.0,CENTURA HEALTH-ST ANTHONY NORTH HOSPITAL
11.93,2.46,39.52910,-104.87121,56694.77,7557.54,0.0,0.298,0.745,0.298,0.0,0.0,0.0,0.0,SKY RIDGE MEDICAL CENTER
10.15,2.36,39.57629,-104.98610,47458.50,7036.32,0.0,0.0,0.35,0.175,0.0,0.0,0.175,0.0,CENTURA HEALTH-LITTLETON ADVENTIST HOSPITAL
4.91,2.22,40.45184,-105.19608,20260.49,6310.46,0.0,0.342,0.342,0.513,0.0,0.0,0.0,0.0,MEDICAL CENTER OF THE ROCKIES
7.72,2.73,41.30978,-72.93806,34819.73,8921.33,0.0,0.344,0.516,0.602,0.0,0.0,0.086,0.043,HOSPITAL OF ST RAPHAEL
5.51,2.74,41.77507,-72.69941,23365.11,9013.09,0.0,0.714,0.672,0.462,0.0,0.0,0.126,0.084,ST FRANCIS HOSPITAL & MEDICAL CENTER
8.81,2.67,41.55959,-73.05941,40463.00,8614.56,0.0,0.629,0.45,0.09,0.0,0.09,0.09,0.0,WATERBURY HOSPITAL
10.46,2.66,41.05562,-73.55390,49060.03,8559.97,0.0,1.067,0.534,0.32,0.0,0.0,0.854,0.107,STAMFORD HOSPITAL
5.56,2.62,41.33722,-72.10380,23602.80,8360.55,0.0,0.401,0.321,0.08,0.0,0.08,0.0,0.0,LAWRENCE & MEMORIAL HOSPITAL
8.01,3.00,41.18881,-73.16645,36348.57,10370.62,0.0,0.711,0.622,0.622,0.0,0.0,0.622,0.089,BRIDGEPORT HOSPITAL
6.54,2.73,41.55241,-73.03554,28697.35,8926.59,0.0,0.294,0.783,0.098,0.0,0.098,0.196,0.0,SAINT MARYS HOSPITAL
7.71,2.45,41.03431,-73.63020,34790.04,7510.04,0.0,0.102,0.407,0.611,0.0,0.102,0.204,0.102,GREENWICH HOSPITAL ASSOCIATION
11.78,2.56,41.55473,-72.64872,55900.95,8067.05,0.0,0.0,0.574,1.884,0.0,0.082,0.246,0.0,MIDDLESEX HOSPITAL
9.66,3.37,41.30400,-72.93502,44895.55,12287.45,0.0,0.865,0.587,0.68,0.0,0.124,0.062,0.34,YALE-NEW HAVEN HOSPITAL
5.20,2.62,41.54301,-72.08799,21767.37,8353.39,0.0,0.555,0.333,0.111,0.0,0.0,0.0,0.111,WILLIAM W BACKUS HOSPITAL
6.99,3.11,41.75412,-72.67927,31065.80,10922.32,0.0,0.402,0.511,0.548,0.0,0.073,0.073,0.11,HARTFORD HOSPITAL
8.21,2.66,41.20049,-73.20281,37400.37,8581.57,0.0,0.375,0.25,0.437,0.0,0.0,0.0,0.0,ST VINCENT'S MEDICAL CENTER
6.70,2.67,41.40474,-73.44739,29524.73,8637.59,0.0,0.0,0.517,0.46,0.0,0.0,0.057,0.23,DANBURY HOSPITAL
9.26,2.66,41.11147,-73.42010,42811.58,8589.32,0.0,0.195,0.39,0.098,0.0,0.0,0.293,0.0,NORWALK HOSPITAL ASSOCIATION
5.18,2.59,41.66107,-72.78671,21644.07,8220.02,0.0,0.249,0.187,0.435,0.0,0.062,0.124,0.124,HOSPITAL OF CENTRAL CONNECTICUT THE
4.33,3.37,41.73545,-72.79489,17266.33,12292.04,0.0,1.01,0.866,0.722,0.0,0.0,0.144,0.0,JOHN DEMPSEY HOSPITAL
6.18,2.80,39.69005,-75.68408,26827.97,9290.14,0.0,0.513,0.424,0.379,0.0,0.0,0.067,0.089,CHRISTIANA CARE HEALTH SERVICES INC.
7.71,2.55,39.74954,-75.56662,34772.85,8034.25,0.0,0.364,0.91,0.0,0.0,0.0,0.0,0.0,ST FRANCIS HOSPITAL
5.70,2.46,39.15135,-75.52309,24356.43,7571.20,0.0,0.258,0.773,0.193,0.0,0.0,0.064,0.129,BAYHEALTH - KENT GENERAL HOSPITAL
5.11,2.64,38.64231,-75.60660,21268.41,8501.72,0.0,0.421,0.0,0.0,0.0,0.0,0.211,0.0,NANTICOKE MEMORIAL HOSPITAL
6.49,2.41,38.77159,-75.14210,28433.42,7295.26,0.0,0.0,0.098,0.195,0.0,0.0,0.0,0.0,BEEBE MEDICAL CENTER
7.22,2.99,38.90106,-77.05079,32259.82,10281.35,0.0,0.445,1.112,0.778,0.0,0.445,0.0,0.111,GEORGE WASHINGTON UNIV HOSPITAL
8.17,3.49,38.91770,-77.02193,37188.25,12891.67,0.0,0.805,0.322,0.644,0.0,0.0,0.161,0.0,HOWARD UNIVERSITY HOSPITAL
8.02,2.75,38.94397,-76.99040,36405.66,9055.28,0.0,0.322,0.215,0.0,0.107,0.107,0.322,0.0,PROVIDENCE HOSPITAL
7.66,2.83,38.92944,-77.01473,34526.06,9449.16,0.0,0.761,0.217,0.362,0.0,0.0,0.145,0.109,WASHINGTON HOSPITAL CENTER
8.13,2.78,30.34913,-81.66391,36979.72,9202.89,0.0,0.31,0.31,0.186,0.0,0.0,0.124,0.186,SHANDS JACKSONVILLE MEDICAL CENTER
7.87,2.39,26.50479,-80.06979,35595.06,7178.41,0.0,0.508,0.799,0.29,0.0,0.073,0.29,0.0,BETHESDA MEMORIAL HOSPITAL
9.84,2.53,28.52517,-81.37729,45810.88,7920.60,0.0,0.826,0.486,0.219,0.0,0.049,0.097,0.024,ORLANDO HEALTH
8.72,2.42,28.57345,-81.36990,40006.36,7360.49,0.0,0.317,0.317,0.136,0.0,0.0,0.011,0.023,FLORIDA HOSPITAL
12.73,3.45,25.68309,-80.34038,60808.57,12688.95,0.0,0.316,0.443,0.19,0.0,0.0,0.19,0.063,BAPTIST HOSPITAL OF MIAMI INC
12.91,2.65,25.78846,-80.21644,61733.75,8517.68,0.0,0.929,0.547,0.109,0.0,0.0,1.093,0.055,UNIVERSITY OF MIAMI HOSPITAL
6.05,2.27,26.62849,-81.87423,26186.87,6575.24,0.0,0.511,0.746,1.021,0.0,0.0,0.157,0.039,LEE MEMORIAL HOSPITAL
5.21,2.10,29.01347,-80.94096,21827.68,5702.37,0.0,1.16,0.87,0.58,0.0,0.0,0.0,0.0,BERT FISH MEDICAL CENTER
5.03,2.46,29.20117,-81.05828,20899.44,7526.98,0.0,0.425,0.729,0.121,0.0,0.0,0.0,0.0,HALIFAX HEALTH MEDICAL CENTER
6.76,2.25,26.15053,-81.79919,29836.55,6463.34,0.0,0.303,0.539,0.101,0.0,0.0,0.135,0.034,NAPLES COMMUNITY HOSPITAL
7.88,2.15,28.08771,-80.61362,35641.18,5942.28,0.0,0.475,0.647,0.216,0.0,0.043,0.043,0.0,HOLMES REGIONAL MEDICAL CENTER
9.47,3.74,25.79143,-80.21250,43910.53,14160.86,0.047,0.837,0.186,0.186,0.0,0.047,0.326,0.0,JACKSON MEMORIAL HOSPITAL
7.83,2.10,28.83363,-82.33561,35419.97,5698.10,0.0,0.415,0.415,2.24,0.0,0.0,0.249,0.083,CITRUS MEMORIAL HOSPITAL
6.79,2.33,30.47650,-87.21219,29997.02,6894.07,0.058,0.231,0.231,0.81,0.0,0.173,0.058,0.116,SACRED HEART HOSPITAL
5.70,2.19,30.15963,-85.64818,24354.52,6135.90,0.0,0.3,0.72,0.0,0.0,0.06,0.0,0.0,BAY MEDICAL CENTER
6.08,2.20,28.63051,-80.82437,26320.28,6198.00,0.0,0.588,0.441,0.294,0.0,0.0,0.147,0.0,PARRISH MEDICAL CENTER
14.16,2.59,25.86166,-80.21398,68255.35,8222.55,0.0,0.15,0.225,0.0,0.0,0.0,0.075,0.0,NORTH SHORE MEDICAL CENTER
7.90,2.31,28.54917,-81.52746,35784.96,6785.35,0.0,0.307,0.461,0.154,0.0,0.0,0.0,0.154,HEALTH CENTRAL
8.89,2.51,27.76332,-82.64325,40876.57,7801.43,0.0,1.031,0.469,0.0,0.0,0.0,0.0,0.0,BAYFRONT MEDICAL CENTER INC
10.65,2.62,25.81317,-80.13996,50057.39,8391.02,0.0,0.313,0.813,0.313,0.0,0.063,0.125,0.063,MOUNT SINAI MEDICAL CENTER
8.35,2.28,27.49789,-82.56220,38118.88,6594.09,0.0,0.271,0.542,0.542,0.0,0.09,0.181,0.0,MANATEE MEMORIAL HOSPITAL
8.80,2.51,26.01867,-80.17981,40411.41,7782.18,0.0,0.273,0.436,0.164,0.0,0.0,0.055,0.109,MEMORIAL REGIONAL HOSPITAL
7.37,2.67,26.10282,-80.14245,33028.98,8614.69,0.0,0.847,0.423,0.212,0.0,0.0,0.0,0.0,BROWARD HEALTH BROWARD GENERAL MEDICAL CENTER
6.72,2.23,30.30835,-81.68919,29651.27,6367.14,0.0,0.139,0.173,0.104,0.0,0.0,0.069,0.035,ST VINCENT'S MEDICAL CENTER
9.66,2.25,27.19837,-80.24306,44902.20,6452.30,0.0,0.448,0.384,0.128,0.0,0.064,0.0,0.0,MARTIN MEMORIAL MEDICAL CENTER
7.05,2.22,29.04263,-81.31635,31347.25,6318.60,0.0,0.0,0.348,0.0,0.0,0.0,0.174,0.0,FLORIDA HOSPITAL DELAND
9.93,2.18,28.26092,-82.18802,46298.03,6074.87,0.0,0.131,0.262,0.262,0.0,0.131,0.262,0.0,FLORIDA HOSPITAL ZEPHYRHILLS
6.16,2.12,26.94042,-82.04094,26750.82,5802.17,0.0,0.199,0.099,0.397,0.0,0.0,0.0,0.099,CHARLOTTE REGIONAL MEDICAL CENTER
5.83,2.12,27.46707,-81.43358,25047.82,5775.86,0.0,0.0,0.736,1.104,0.0,0.368,0.0,0.368,HIGHLANDS REGIONAL MEDICAL CENTER
9.45,2.17,28.55140,-81.72120,43803.23,6025.21,0.0,1.095,1.824,0.547,0.0,0.0,0.0,0.0,SOUTH LAKE HOSPITAL
9.12,2.26,28.02768,-81.72466,42115.18,6523.37,0.0,0.4,0.799,0.32,0.0,0.0,0.719,0.0,WINTER HAVEN HOSPITAL
6.91,2.11,28.13321,-82.75839,30629.75,5725.44,0.0,0.289,0.0,0.289,0.0,0.0,0.0,0.0,HELEN ELLIS MEMORIAL HOSPITAL
6.33,2.15,28.82358,-81.71133,27620.85,5956.11,0.0,0.137,0.825,0.069,0.0,0.0,0.069,0.0,FLORIDA HOSPITAL WATERMAN
6.82,2.51,25.74067,-80.21244,30153.41,7809.71,0,0,0,0,0,0,0,0,MERCY HOSPITAL INC
6.14,2.13,29.17594,-82.13898,26627.39,5843.71,0.0,0.135,0.628,0.359,0.0,0.0,0.09,0.135,MUNROE REGIONAL MEDICAL CENTER
8.80,2.12,28.25431,-82.71447,40441.14,5763.34,0.0,0.0,0.245,0.0,0.0,0.0,0.0,0.0,MORTON PLANT NORTH BAY HOSPITAL
8.95,2.20,27.78088,-82.65126,41229.00,6220.91,0.0,0.632,0.316,0.316,0.0,0.0,0.105,0.0,ST ANTHONY'S HOSPITAL
5.59,2.16,29.24333,-81.10760,23781.97,5979.09,0.0,0.378,0.472,0.189,0.0,0.094,0.0,0.0,FLORIDA HOSPITAL MEMORIAL MEDICAL CENTER
7.91,2.12,27.09043,-82.44499,35793.77,5768.78,0.0,0.41,0.614,0.205,0.0,0.0,0.0,0.0,VENICE REGIONAL MEDICAL CENTER
11.98,2.24,28.53906,-82.44193,56914.61,6421.48,0.0,0.525,0.393,0.0,0.0,0.0,0.262,0.0,BROOKSVILLE REGIONAL HOSPITAL
6.77,2.16,28.91403,-81.28480,29910.00,6004.21,0.0,0.142,0.285,0.142,0.0,0.0,0.142,0.0,FLORIDA HOSPITAL FISH MEMORIAL
9.86,2.21,26.18711,-80.11941,45956.41,6224.00,0.0,0.328,0.46,1.182,0.0,0.0,0.131,0.066,HOLY CROSS HOSPITAL INC
8.84,2.42,27.98242,-82.49025,40631.52,7344.89,0.0,0.48,0.384,0.144,0.0,0.0,0.096,0.192,ST JOSEPH'S HOSPITAL
12.01,2.35,26.59805,-80.09271,57111.20,6977.03,0.0,0.454,0.578,0.165,0.0,0.041,0.041,0.0,JFK MEDICAL CENTER
6.63,2.17,28.80659,-81.86906,29179.05,6047.13,0.0,0.322,0.643,0.214,0.0,0.054,0.0,0.0,LEESBURG REGIONAL MEDICAL CENTER
6.75,2.18,27.31827,-82.53140,29803.70,6072.76,0.045,0.27,0.36,1.622,0.0,0.045,0.045,0.09,SARASOTA MEMORIAL HOSPITAL
9.28,2.33,30.31525,-81.66398,42924.62,6868.33,0.0,0.377,0.519,1.131,0.0,0.047,0.047,0.047,BAPTIST MEDICAL CENTER
7.52,2.43,29.86371,-81.31749,33785.64,7371.09,0.0,0.591,0.739,0.074,0.0,0.0,0.0,0.0,FLAGLER HOSPITAL
7.67,2.18,28.33522,-80.72319,34595.37,6111.68,0.0,0.193,1.158,0.289,0.0,0.0,0.0,0.193,WUESTHOFF MEDICAL CENTER  ROCKLEDGE
7.29,2.20,30.43066,-87.23191,32595.57,6183.99,0.0,0.201,0.502,0.1,0.0,0.0,0.1,0.0,BAPTIST HOSPITAL
10.84,2.14,27.89590,-81.56547,51025.04,5899.00,0.0,0.0,0.381,0.0,0.0,0.0,0.0,0.0,LAKE WALES MEDICAL CENTER
4.03,2.24,27.65832,-80.39307,15666.12,6425.00,0.0,0.068,0.204,0.136,0.0,0.068,0.0,0.0,INDIAN RIVER MEDICAL CENTER
7.22,2.21,27.50001,-81.43962,32218.66,6232.78,0.0,0.568,0.812,0.487,0.0,0.081,0.0,0.0,FLORIDA HOSPITAL HEARTLAND MEDICAL CENTER
12.09,2.33,28.29946,-81.41021,57521.96,6861.78,0.0,1.196,0.498,0.299,0.0,0.1,0.0,0.0,OSCEOLA REGIONAL MEDICAL CENTER
7.37,3.09,29.64155,-82.34844,33006.26,10836.52,0.0,0.99,0.344,0.689,0.0,0.0,0.172,0.172,SHANDS HOSPITAL AT THE UNIVERSITY OF FLORIDA
5.92,2.41,29.47897,-81.18915,25486.91,7272.55,0.0,0.778,1.089,0.156,0.0,0.156,0.0,0.156,FLORIDA HOSPITAL FLAGLER
11.88,2.45,30.73540,-86.56171,56389.30,7486.76,0.0,0.163,0.325,0.0,0.0,0.0,0.0,0.0,NORTH OKALOOSA MEDICAL CENTER
8.87,2.20,30.63421,-87.06708,40773.46,6178.08,0.0,0.0,0.317,0.317,0.0,0.0,0.0,0.317,SANTA ROSA MEDICAL CENTER
8.07,2.20,27.95192,-82.80379,36642.28,6187.94,0.052,0.209,0.731,0.992,0.0,0.0,0.0,0.0,MORTON PLANT HOSPITAL
13.88,3.00,27.93740,-82.45927,66773.85,10333.08,0.0,0.722,0.587,0.045,0.0,0.0,0.0,0.181,TAMPA GENERAL HOSPITAL
11.82,2.31,25.96994,-80.14533,56112.69,6775.13,0.0,0.351,0.984,0.141,0.0,0.0,0.351,0.0,AVENTURA HOSPITAL AND MEDICAL CENTER
9.43,2.24,28.01563,-82.13900,43697.57,6388.93,0.0,0.274,0.0,0.0,0.0,0.0,0.0,0.0,SOUTH FLORIDA BAPTIST HOSPITAL
7.49,2.31,30.45726,-84.26175,33620.70,6742.97,0.0,0.228,0.609,1.37,0.0,0.0,0.076,0.076,TALLAHASSEE MEMORIAL HEALTHCARE
10.15,2.24,28.18120,-81.64018,47436.27,6397.91,0.0,0.246,0.246,0.123,0.0,0.0,0.0,0.123,HEART OF FLORIDA REGIONAL MEDICAL CENTER
9.05,2.66,24.58076,-81.74233,41756.28,8586.17,0.0,1.094,1.094,1.094,0.0,0.0,0.0,0.0,LOWER KEYS MEDICAL CENTER
5.99,2.71,30.26389,-81.44283,25844.78,8848.61,0.0,0.504,0.144,0.216,0.0,0.0,0.072,0.144,MAYO CLINIC
13.48,2.97,25.70328,-80.29391,64719.95,10188.77,0.0,0.124,0.745,0.0,0.0,0.124,0.248,0.0,SOUTH MIAMI HOSPITAL INC
10.05,2.43,30.18340,-82.68783,46913.50,7383.37,0.0,0.547,0.182,0.365,0.0,0.0,0.0,0.0,LAKE CITY MEDICAL CENTER
8.98,2.23,28.06172,-81.95304,41391.88,6358.03,0.0,1.08,0.68,0.52,0.0,0.0,0.12,0.04,LAKELAND REGIONAL MEDICAL CENTER
9.19,2.22,28.81611,-81.28351,42478.64,6302.03,0.141,1.129,0.282,0.423,0.0,0.0,0.141,0.0,CENTRAL FLORIDA REGIONAL HOSPITAL
13.20,2.10,27.30187,-82.45428,63276.60,5694.44,0.0,0.261,0.521,0.652,0.0,0.0,0.13,0.0,DOCTORS HOSPITAL OF SARASOTA
10.02,2.64,26.12647,-80.20519,46769.07,8463.64,0.0,1.164,0.582,0.0,0.0,0.0,0.0,0.0,PLANTATION GENERAL HOSPITAL
8.40,2.20,26.35875,-80.10203,38378.81,6216.00,0.0,0.324,0.486,0.648,0.0,0.054,0.324,0.108,BOCA RATON REGIONAL HOSPITAL
7.98,2.65,28.07111,-82.42342,36206.53,8521.57,0.0,0.307,0.461,0.307,0.0,0.077,0.0,0.0,FLORIDA HOSPITAL TAMPA
10.13,2.24,26.83035,-80.08655,47355.47,6392.34,0.0,0.494,0.494,0.593,0.0,0.0,0.099,0.099,PALM BEACH GARDENS MEDICAL CENTER
8.50,2.14,28.36005,-80.62309,38855.87,5884.00,0.0,0.62,0.207,0.0,0.0,0.0,0.0,0.0,CAPE CANAVERAL HOSPITAL
12.91,2.24,30.28793,-81.60103,61767.60,6402.87,0.0,0.449,0.337,0.281,0.0,0.112,0.449,0.056,MEMORIAL HOSPITAL JACKSONVILLE
11.18,2.73,25.88563,-80.32635,52761.50,8933.13,0.0,0.477,0.341,0.0,0.0,0.0,0.136,0.0,PALMETTO GENERAL HOSPITAL
10.99,2.51,26.26259,-80.20292,51780.64,7801.82,0.0,0.203,0.507,0.101,0.0,0.101,0.101,0.101,NORTHWEST MEDICAL CENTER
13.66,2.27,28.19342,-82.46987,65665.83,6555.40,0.0,0.312,0.623,0.208,0.0,0.0,0.0,0.0,MEDICAL CENTER OF TRINITY
13.10,2.24,29.66085,-82.41172,62767.64,6392.57,0.0,0.656,0.615,0.983,0.0,0.082,0.164,0.0,NORTH FLORIDA REGIONAL MEDICAL CENTER
12.69,2.63,25.73195,-80.38580,60625.82,8451.23,0.0,0.247,0.412,0.082,0.0,0.082,0.494,0.165,KENDALL REGIONAL MEDICAL CENTER
9.81,2.21,28.34805,-82.19963,45655.68,6263.29,0.0,0.0,0.683,0.0,0.0,0.0,0.0,0.0,PASCO REGIONAL MEDICAL CENTER
12.69,2.10,29.17550,-82.13680,60637.46,5657.68,0.0,0.338,0.745,0.474,0.0,0.0,0.203,0.135,OCALA REGIONAL MEDICAL CENTER
8.35,2.16,27.48213,-82.62126,38121.48,5999.74,0.0,0.073,1.028,0.0,0.0,0.0,0.22,0.0,BLAKE MEDICAL CENTER
6.06,2.21,26.52735,-81.83337,26205.48,6255.32,0.0,0.418,0.731,0.209,0.0,0.0,0.052,0.052,GULF COAST MEDICAL CENTER LEE MEM HEALTH SYSTEM
16.83,2.18,30.45448,-86.63362,82108.59,6081.74,0.0,1.008,0.807,0.202,0.0,0.0,0.0,0.0,FORT WALTON BEACH MEDICAL CENTER
14.10,2.29,30.16550,-81.73775,67904.45,6639.50,0.0,0.578,0.413,0.165,0.0,0.0,0.0,0.165,ORANGE PARK MEDICAL CENTER
11.28,2.26,26.12354,-80.25951,53295.16,6499.11,0.0,0.441,0.617,0.176,0.0,0.088,0.088,0.0,WESTSIDE REGIONAL MEDICAL CENTER
10.77,2.12,30.51624,-87.21856,50646.02,5795.76,0.0,0.614,0.79,0.176,0.0,0.0,0.176,0.0,WEST FLORIDA HOSPITAL
6.03,2.33,29.64481,-81.69431,26057.57,6865.16,0.0,0.0,0.326,0.163,0.0,0.163,0.0,0.0,PUTNAM COMMUNITY MEDICAL CENTER
13.27,2.11,26.98884,-82.09877,63626.68,5755.77,0.0,0.333,0.333,0.416,0.0,0.0,0.0,0.0,FAWCETT MEMORIAL HOSPITAL
13.56,2.25,27.82545,-82.70122,65154.06,6436.90,0.0,0.941,0.523,0.105,0.0,0.0,0.0,0.314,NORTHSIDE HOSPITAL
12.14,2.29,30.18657,-85.66513,57750.25,6661.02,0.0,0.256,0.896,0.384,0.0,0.0,0.256,0.0,GULF COAST MEDICAL CENTER
11.63,2.38,27.93259,-82.28759,55119.47,7156.09,0.0,0.598,0.684,0.085,0.0,0.0,0.085,0.0,BRANDON REGIONAL HOSPITAL
5.34,2.10,26.63958,-81.94164,22504.78,5657.28,0.0,0.526,1.278,0.301,0.0,0.075,0.15,0.0,CAPE CORAL HOSPITAL
8.82,2.51,27.43392,-80.34350,40531.32,7813.74,0.0,0.563,0.563,0.188,0.0,0.094,0.0,0.282,LAWNWOOD REGIONAL MEDICAL CENTER & HEART INSTITUTE
12.00,2.25,27.91458,-82.80382,57042.41,6449.43,0.0,0.108,0.759,0.433,0.0,0.163,0.108,0.054,LARGO MEDICAL CENTER
7.97,2.13,28.95195,-82.62421,36122.43,5856.55,0.0,0.0,0.741,0.37,0.0,0.0,0.0,0.123,SEVEN RIVERS REGIONAL MEDICAL CENTER
7.05,2.18,26.92138,-80.09708,31336.58,6115.00,0.0,0.852,0.532,0.745,0.0,0.106,0.0,0.0,JUPITER MEDICAL CENTER
11.28,2.28,30.47616,-84.23140,53304.67,6601.74,0.0,0.695,0.463,0.116,0.0,0.116,0.0,0.0,CAPITAL REGIONAL MEDICAL CENTER
11.29,2.14,28.36128,-82.68883,53349.42,5868.94,0.0,0.258,0.687,0.258,0.0,0.0,0.086,0.0,REGIONAL MEDICAL CENTER BAYONET POINT
13.07,2.20,26.43709,-80.12728,62598.33,6222.00,0.0,0.373,0.479,0.053,0.0,0.0,0.053,0.0,DELRAY MEDICAL CENTER
12.73,2.25,27.28861,-80.29431,60830.82,6476.36,0.0,0.407,0.652,0.244,0.0,0.0,0.0,0.244,ST LUCIE MEDICAL CENTER
13.71,2.30,28.53585,-82.53404,65911.51,6717.82,0.0,0.467,1.089,0.0,0.0,0.078,0.0,0.0,OAK HILL HOSPITAL
7.79,2.10,28.03957,-82.70875,35192.11,5670.39,0.0,0.083,0.667,0.833,0.0,0.0,0.083,0.0,MEASE COUNTRYSIDE HOSPITAL
5.72,2.16,30.35772,-87.16046,24442.81,5974.92,0.0,0.234,0.234,0.0,0.0,0.0,0.0,0.0,GULF BREEZE HOSPITAL
12.36,2.13,26.94996,-82.32651,58879.81,5829.94,0.0,0.0,0.447,0.447,0.0,0.0,0.0,0.0,ENGLEWOOD COMMUNITY HOSPITAL
10.93,2.43,26.68337,-80.25269,51494.44,7381.17,0.0,0.0,1.097,0.914,0.0,0.0,0.548,0.0,PALMS WEST HOSPITAL
7.36,2.41,26.65230,-80.20504,32953.91,7276.18,0.0,0.312,0.623,0.0,0.0,0.0,0.0,0.312,WELLINGTON REGIONAL MEDICAL CENTER
8.14,2.36,26.01394,-80.30980,37024.31,7004.62,0.0,0.341,0.114,0.454,0.0,0.0,0.0,0.114,MEMORIAL HOSPITAL WEST
8.79,2.17,26.21388,-81.73257,40379.76,6051.00,0.0,0.122,0.733,0.122,0.0,0.0,0.0,0.0,PHYSICIANS REGIONAL MEDICAL CENTER - PINE RIDGE
8.14,2.22,26.70181,-80.05055,37021.87,6290.53,0.0,0.825,0.275,0.138,0.138,0.0,0.138,0.0,GOOD SAMARITAN MEDICAL CENTER
6.61,2.24,26.08155,-80.36449,29086.65,6400.57,0.0,0.237,0.356,0.356,0.0,0.119,0.237,0.0,CLEVELAND CLINIC HOSPITAL
6.41,2.09,28.94952,-81.95843,28047.34,5625.84,0.0,0.386,0.258,0.0,0.0,0.0,0.064,0.0,VILLAGES REGIONAL HOSPITAL THE
7.78,2.17,28.10969,-80.67280,35143.12,6040.00,0.0,0.249,0.746,0.0,0.0,0.497,0.0,0.0,WUESTHOFF MEDICAL CENTER - MELBOURNE
9.92,2.41,30.37837,-86.30696,46256.82,7307.77,0.0,0.0,0.583,0.0,0.0,0.0,0.0,0.291,SACRED HEART HOSPITAL ON THE EMERALD COAST
8.36,2.12,27.38993,-82.43343,38167.47,5785.79,0.0,0.0,0.623,0.0,0.0,0.0,0.0,0.0,LAKEWOOD RANCH MEDICAL CENTER
7.03,2.08,30.25377,-81.58270,31275.00,5555.84,0.0,0.499,0.333,0.333,0.0,0.0,0.0,0.0,ST VINCENT'S MEDICAL CENTER SOUTHSIDE
6.75,2.35,34.78963,-84.98398,29800.91,6987.12,0.0,0.162,0.809,0.324,0.0,0.0,0.0,0.0,HAMILTON MEDICAL CENTER
5.52,2.16,31.22516,-82.34898,23415.78,5994.12,0.0,0.0,0.535,0.0,0.0,0.0,0.0,0.0,SATILLA REGIONAL MEDICAL CENTER
4.76,2.27,34.94766,-85.26296,19480.92,6567.54,0.0,0.389,0.0,0.777,0.0,0.0,0.0,0.777,HUTCHESON MEDICAL CENTER
9.31,2.42,34.17863,-84.13992,43070.16,7327.73,0.0,0.696,0.974,0.139,0.0,0.0,0.0,0.139,NORTHSIDE HOSPITAL FORSYTH
6.45,2.23,33.94791,-83.40531,28270.47,6376.73,0.0,0.179,0.358,0.0,0.0,0.0,0.179,0.0,ST MARY'S HOSPITAL
5.83,2.53,31.59023,-84.15756,25016.49,7931.11,0.177,0.177,0.795,0.0,0.0,0.177,0.088,0.0,PHOEBE PUTNEY MEMORIAL HOSPITAL
8.69,2.25,34.24569,-84.49068,39844.00,6481.25,0.0,0.622,0.933,0.311,0.0,0.0,0.0,0.0,NORTHSIDE HOSPITAL CHEROKEE
6.99,2.72,33.79230,-84.32107,31040.40,8871.85,0.0,2.246,0.299,1.098,0.0,0.1,0.299,0.2,EMORY UNIVERSITY HOSPITAL
6.10,2.53,33.56970,-85.07276,26422.15,7893.49,0.0,0.172,0.343,0.0,0.0,0.172,0.0,0.0,TANNER MEDICAL CENTER - CARROLLTON
5.25,2.32,33.03204,-85.05781,22025.06,6824.15,0.0,0.151,0.303,0.0,0.0,0.151,0.0,0.0,WEST GEORGIA MEDICAL CENTER
5.34,2.22,33.60237,-83.84809,22511.00,6322.92,0.0,0.229,0.229,0.0,0.0,0.0,0.0,0.0,NEWTON MEDICAL CENTER
7.10,2.71,34.51192,-84.92579,31638.49,8835.36,0.0,0.0,0.273,0.273,0.0,0.0,0.0,0.0,GORDON HOSPITAL
6.64,2.29,32.02825,-81.09977,29243.25,6642.94,0.0,0.559,0.0,0.0,0.0,0.0,0.14,0.0,CANDLER HOSPITAL
5.22,2.56,31.17425,-81.48459,21848.80,8067.98,0.0,0.576,0.346,0.115,0.0,0.0,0.115,0.115,SOUTHEAST GEORGIA HEALTH SYSTEM- BRUNSWICK CAMPUS
4.56,2.33,33.47096,-81.98176,18423.81,6876.08,0.0,0.792,0.396,5.205,0.0,0.0,0.339,0.113,UNIVERSITY HOSPITAL
6.89,2.37,34.30335,-83.81737,30512.61,7065.86,0.0,0.15,0.4,0.65,0.0,0.05,0.0,0.1,NORTHEAST GEORGIA MEDICAL CENTER INC
9.20,2.26,34.19990,-84.79378,42494.00,6517.82,0.0,0.414,0.621,0.621,0.0,0.0,0.0,0.414,CARTERSVILLE MEDICAL CENTER
9.24,2.30,33.23886,-84.26706,42717.87,6692.62,0.0,0.721,0.432,0.144,0.0,0.0,0.0,0.0,SPALDING REGIONAL MEDICAL CENTER
6.38,3.21,33.47091,-81.98988,27868.71,11459.54,0.0,0.631,0.36,0.18,0.0,0.09,0.45,0.27,MEDICAL COLLEGE OF GA HOSPITALS AND CLINICS
6.96,2.29,33.96770,-84.55011,30890.06,6688.79,0.0,0.818,0.696,0.368,0.0,0.0,0.082,0.0,WELLSTAR KENNESTONE HOSPITAL
5.33,2.48,32.03185,-81.09158,22424.20,7651.10,0.0,0.179,0.359,0.299,0.0,0.06,0.179,0.0,MEMORIAL HEALTH UNIV MED CEN INC
5.51,2.31,30.82614,-83.97393,23378.91,6767.39,0.0,0.134,0.403,0.134,0.0,0.0,0.134,0.0,JOHN D ARCHBOLD MEMORIAL HOSPITAL
5.46,2.13,31.98515,-81.15475,23109.05,5830.66,0.0,0.375,0.844,0.0,0.0,0.0,0.094,0.0,ST JOSEPH'S HOSPITAL - SAVANNAH
6.54,2.48,34.26000,-85.17000,28707.13,7642.16,0.0,0.109,1.091,0.218,0.0,0.0,0.0,0.109,FLOYD MEDICAL CENTER
6.43,2.73,32.46602,-84.98695,28126.29,8928.24,0.0,0.0,0.177,0.0,0.0,0.177,0.0,0.0,MEDICAL CENTER THE
5.67,2.27,32.61642,-83.63065,24214.69,6561.07,0.0,0.863,0.384,0.767,0.0,0.0,0.0,0.0,HOUSTON MEDICAL CENTER
6.87,2.39,33.96117,-83.39832,30414.27,7185.66,0.0,0.276,0.276,0.414,0.0,0.138,0.0,0.0,ATHENS REGIONAL MEDICAL CENTER
8.38,2.32,32.41483,-81.76990,38239.90,6832.97,0.0,0.0,0.656,0.0,0.0,0.0,0.0,0.164,EAST GEORGIA REGIONAL MEDICAL CENTER
4.73,2.39,33.78956,-84.28077,19339.00,7178.15,0.0,0.243,0.243,0.081,0.0,0.0,0.0,0.0,DEKALB MEDICAL CENTER
6.22,2.48,33.76810,-84.38616,27071.82,7662.49,0.0,1.358,0.647,0.453,0.0,0.065,0.129,0.065,EMORY UNIVERSITY HOSPITAL MIDTOWN
6.94,2.95,33.75205,-84.38272,30801.53,10073.47,0.0,0.528,0.211,1.056,0.0,0.106,0.106,0.0,GRADY MEMORIAL HOSPITAL
6.54,2.18,33.90877,-84.35180,28687.03,6095.32,0.0,0.348,0.557,0.696,0.0,0.07,0.0,0.07,SAINT JOSEPH'S HOSPITAL OF ATLANTA INC
6.60,2.23,33.81003,-84.39568,29023.49,6350.55,0.0,0.146,0.438,0.049,0.0,0.049,0.049,0.049,PIEDMONT HOSPITAL
5.75,2.28,33.96351,-84.01769,24601.43,6610.73,0.0,0.159,0.239,0.0,0.0,0.0,0.0,0.0,GWINNETT MEDICAL CENTER
5.36,2.33,33.68072,-84.00200,22569.38,6874.88,0.0,0.0,0.369,0.185,0.0,0.185,0.185,0.185,ROCKDALE MEDICAL CENTER
5.82,2.24,31.47069,-83.50473,24990.44,6412.31,0.0,0.0,0.751,0.0,0.0,0.0,0.501,0.0,TIFT REGIONAL MEDICAL CENTER
7.13,2.50,32.83041,-83.63476,31789.32,7759.56,0.0,0.371,0.619,0.165,0.0,0.041,0.165,0.082,MEDICAL CENTER OF CENTRAL GEORGIA
12.22,2.68,33.76372,-84.37315,58191.31,8701.00,0.0,1.769,0.531,0.0,0.0,0.0,0.354,0.0,ATLANTA MEDICAL CENTER
5.01,2.44,30.86250,-83.28630,20775.42,7416.53,0.0,0.41,0.41,0.513,0.0,0.0,0.103,0.0,SOUTH GEORGIA MEDICAL CENTER
8.31,2.39,32.54026,-82.95741,37904.00,7175.02,0.0,0.463,0.463,0.0,0.0,0.0,0.232,0.0,FAIRVIEW PARK HOSPITAL
5.65,2.12,32.20903,-82.37585,24081.41,5757.12,0.0,0.0,0.691,0.0,0.0,0.0,0.0,0.0,MEADOWS REGIONAL MEDICAL CENTER
4.52,2.15,32.50679,-84.95933,18242.73,5944.13,0.0,0.229,0.915,0.153,0.0,0.0,0.0,0.153,ST FRANCIS HOSPITAL INC
6.84,2.37,33.85638,-84.60446,30268.18,7092.21,0.0,0.718,0.319,0.558,0.0,0.0,0.239,0.08,WELLSTAR COBB HOSPITAL
7.70,2.33,33.90903,-84.35410,34741.19,6848.88,0.0,0.579,0.579,0.193,0.0,0.0,0.0,0.386,NORTHSIDE HOSPITAL
6.71,2.28,32.84705,-83.61823,29577.28,6614.43,0.0,0.817,0.584,0.35,0.0,0.0,0.234,0.0,COLISEUM MEDICAL CENTER
6.06,2.45,33.57843,-84.38897,26236.53,7508.33,0.0,0.51,0.255,0.255,0.0,0.0,0.0,0.0,SOUTHERN REGIONAL MEDICAL CENTER
7.60,2.20,34.25704,-85.16467,34195.14,6214.14,0.0,0.0,0.501,0.167,0.0,0.0,0.0,0.0,REDMOND REGIONAL MEDICAL CENTER
8.20,2.31,33.48259,-82.09038,37340.09,6776.68,0.0,1.353,1.353,0.301,0.0,0.0,0.451,0.0,DOCTORS HOSPITAL
8.10,2.20,33.73938,-84.73111,36804.23,6189.85,0.0,0.0,0.79,0.0,0.0,0.0,0.0,0.0,WELLSTAR DOUGLAS HOSPITAL
5.42,2.29,33.51144,-84.22200,22909.17,6653.68,0.0,0.124,0.249,0.0,0.0,0.0,0.0,0.0,HENRY MEDICAL CENTER INC
8.87,2.19,33.87683,-84.02136,40788.67,6166.14,0.0,0.0,0.297,0.446,0.0,0.0,0.297,0.0,EMORY EASTSIDE MEDICAL CENTER
11.48,2.35,34.06334,-84.31976,54344.27,6986.80,0.0,0.587,0.782,1.565,0.0,0.0,0.0,0.0,NORTH FULTON REGIONAL HOSPITAL
5.24,2.15,33.45252,-84.50697,21978.72,5933.12,0.0,0.375,0.876,0.0,0.0,0.0,0.375,0.125,PIEDMONT FAYETTE HOSPITAL
10.42,2.49,33.68000,-84.42685,48848.50,7678.83,0.0,1.406,0.234,0.0,0.0,0.0,0.0,0.0,SOUTH FULTON MEDICAL CENTER
5.27,2.25,34.42855,-84.48026,22136.14,6461.43,0.0,0.0,2.489,0.0,0.0,0.0,0.0,0.0,PIEDMONT MOUNTAINSIDE HOSPITAL INC
5.73,2.19,33.39118,-84.81563,24489.10,6142.58,0.0,0.406,0.203,0.0,0.0,0.0,0.0,0.0,PIEDMONT NEWNAN HOSPITAL INC
5.68,2.26,34.06670,-84.17643,24252.00,6525.88,0.0,0.397,0.397,0.397,0.0,0.0,0.0,0.0,EMORY JOHNS CREEK HOSPITAL
5.66,2.95,21.30780,-157.85505,24125.89,10113.38,0.0,0.369,0.442,0.811,0.0,0.0,0.074,0.0,THE QUEENS MEDICAL CENTER
7.96,3.85,20.88519,-156.48928,36103.47,14748.58,0.0,0.275,0.275,0.0,0.0,0.0,0.0,0.0,MAUI MEMORIAL MEDICAL CENTER
7.30,2.79,21.38095,-157.75759,32671.75,9277.69,0.0,0.259,0.517,0.776,0.0,0.0,0.0,0.0,CASTLE MEDICAL CENTER
4.98,2.51,21.32239,-157.85662,20604.82,7795.73,0.0,0.0,0.371,1.857,0.0,0.0,0.186,0.0,KUAKINI MEDICAL CENTER
6.05,2.72,21.30226,-157.85092,26160.19,8873.27,0.0,0.0,0.387,5.226,0.0,0.0,0.0,0.0,STRAUB CLINIC AND HOSPITAL
7.01,2.70,21.38328,-157.93828,31128.05,8811.50,0.0,0.0,0.442,3.981,0.0,0.0,0.0,0.0,PALI MOMI MEDICAL CENTER
4.49,2.19,42.59072,-114.49627,18071.34,6135.12,0.0,0.491,0.818,0.327,0.0,0.0,0.0,0.164,ST LUKES MAGIC VALLEY RMC
5.46,2.34,43.61218,-116.19234,23132.59,6904.21,0.068,0.342,0.342,0.342,0.0,0.0,0.068,0.0,ST LUKES REGIONAL MEDICAL CENTER
4.83,2.29,43.61359,-116.25484,19821.92,6678.46,0.0,0.085,0.683,0.256,0.0,0.0,0.0,0.0,ST ALPHONSUS REGIONAL MEDICAL CENTER
5.80,2.52,43.55374,-116.57267,24853.76,7876.00,0.0,0.393,0.393,0.393,0.0,0.0,0.0,0.0,SAINT ALPHONSUS MEDICAL CENTER - NAMPA
6.70,2.36,43.46987,-111.99208,29565.51,7013.16,0.0,0.338,0.676,0.169,0.0,0.0,0.0,0.169,EASTERN IDAHO REGIONAL MEDICAL CENTER
6.51,2.80,42.87331,-112.42180,28560.71,9292.95,0.0,0.196,0.588,0.784,0.0,0.0,0.0,0.0,PORTNEUF MEDICAL CENTER
4.93,2.43,47.69645,-116.79476,20366.83,7409.04,0.0,0.246,1.229,0.738,0.0,0.0,0.0,0.0,KOOTENAI MEDICAL CENTER
5.60,2.18,38.90068,-90.16026,23853.52,6076.07,0.0,0.178,0.534,0.178,0.0,0.0,0.0,0.0,ALTON MEMORIAL HOSPITAL
8.21,2.37,41.52896,-88.13550,37393.08,7066.07,0.0,0.0,0.289,2.213,0.0,0.0,0.192,0.0,PROVENA ST JOSEPH MEDICAL CENTER
13.20,2.27,41.91082,-87.84451,63269.35,6535.00,0.0,0.569,0.711,0.0,0.0,0.0,0.0,0.0,LOYOLA GOTTLIEB MEMORIAL HOSPITAL
7.76,2.44,42.06550,-87.68428,35051.73,7438.68,0.0,0.131,0.557,0.164,0.0,0.033,0.066,0.033,EVANSTON HOSPITAL
8.20,2.52,41.84429,-89.48014,37301.64,7856.54,0.0,0.0,0.519,0.0,0.0,0.0,0.0,0.26,KATHERINE SHAW BETHEA HOSPITAL
5.82,2.28,40.75318,-89.59321,24976.12,6621.94,0.0,0.0,0.368,0.368,0.0,0.0,0.0,0.184,PROCTOR HOSPITAL
7.71,2.39,39.93563,-91.39833,34797.36,7197.25,0.0,0.164,0.164,0.082,0.0,0.082,0.409,0.164,BLESSING HOSPITAL
8.00,3.15,41.86011,-87.69571,36292.33,11120.00,0.0,0.0,0.179,0.359,0.0,0.179,0.718,0.0,MT SINAI HOSPITAL MEDICAL CENTER
11.88,3.12,41.72930,-88.26976,56398.33,10944.83,0.0,0.135,0.405,0.0,0.0,0.0,0.0,0.0,COPLEY MEMORIAL HOSPITAL
8.87,2.55,42.07012,-88.33180,40814.11,8028.92,0.0,0.0,0.996,0.299,0.0,0.0,0.0,0.0,SHERMAN HOSPITAL
6.41,2.26,38.52908,-89.11604,28017.26,6514.36,0.0,0.537,0.269,0.0,0.0,0.0,0.0,0.0,ST MARYS HOSPITAL
9.07,2.22,41.80160,-89.69714,41835.18,6300.73,0.0,0.0,0.0,0.474,0.0,0.0,0.158,0.0,CGH MEDICAL CENTER
4.71,2.24,38.32292,-88.91026,19209.65,6394.72,0.0,0.137,0.274,0.411,0.0,0.0,0.0,0.0,GOOD SAMARITAN REGIONAL HLTH CENTER
8.15,3.03,41.72636,-87.56727,37088.67,10509.00,0.0,0.832,0.238,0.595,0.0,0.0,0.0,0.119,ADVOCATE TRINITY HOSPITAL
8.29,2.84,41.89141,-87.77618,37774.70,9534.58,0.0,0.164,0.492,0.164,0.0,0.0,0.164,0.0,WEST SUBURBAN MEDICAL CENTER
8.58,2.76,42.05624,-87.74012,39294.40,9109.10,0.0,0.207,0.311,0.104,0.0,0.0,0.104,0.0,SKOKIE HOSPITAL
5.32,2.39,39.80726,-89.64496,22370.63,7166.27,0.0,0.318,0.572,0.254,0.0,0.0,0.127,0.127,ST JOHNS HOSPITAL
7.50,2.62,41.83195,-87.79266,33682.30,8365.93,0.0,0.181,0.272,0.0,0.0,0.091,0.0,0.0,MACNEAL  HOSPITAL
7.29,2.36,41.66900,-87.81414,32619.61,7048.13,0.0,0.0,0.181,0.136,0.0,0.045,0.091,0.0,PALOS COMMUNITY HOSPITAL
7.81,2.41,41.79660,-87.88627,35279.35,7275.04,0.0,0.092,0.832,0.554,0.092,0.0,0.0,0.0,ADVENTIST LA GRANGE MEMORIAL HOSPITAL
7.39,2.50,40.70200,-89.59222,33126.23,7772.31,0.0,0.311,0.489,0.533,0.0,0.0,0.133,0.089,SAINT FRANCIS MEDICAL CENTER
9.42,2.77,42.02578,-87.68371,43648.88,9163.39,0.0,0.378,0.378,0.0,0.0,0.126,0.0,0.0,RHC ST FRANCIS HOSPITAL
9.25,2.74,41.96698,-87.64941,42758.06,8988.39,0.0,0.387,1.161,0.0,0.0,0.0,0.258,0.0,LOUIS A WEISS MEMORIAL HOSPITAL
10.00,2.59,42.37840,-87.83329,46662.74,8207.85,0.0,0.631,0.526,0.0,0.0,0.0,0.315,0.0,VISTA MEDICAL CENTER EAST
13.93,3.38,41.78829,-87.60485,67050.10,12338.37,0.0,1.208,0.226,0.453,0.0,0.0,0.0,0.528,THE UNIVERSITY OF CHICAGO MEDICAL CENTER
7.90,2.88,40.11696,-88.21506,35762.79,9710.88,0.0,0.374,0.524,0.824,0.0,0.0,0.225,0.0,CARLE FOUNDATION HOSPITAL
6.81,2.33,41.36897,-88.42537,30091.48,6879.81,0.0,0.0,0.224,0.0,0.0,0.0,0.0,0.224,MORRIS HOSPITAL & HEALTHCARE CENTERS
6.98,2.34,40.11739,-88.22714,31005.28,6897.62,0.0,0.0,0.877,0.146,0.0,0.0,0.438,0.146,PROVENA COVENANT MEDICAL CENTER- URBANA
11.78,2.60,41.97532,-87.69958,55919.87,8280.05,0.0,0.276,0.0,0.276,0.0,0.0,0.0,0.0,SWEDISH COVENANT HOSPITAL
6.34,2.32,42.31832,-88.27920,27694.75,6823.57,0.0,0.205,0.307,0.102,0.0,0.0,0.0,0.0,CENTEGRA HEALTH SYSTEM - MC HENRY HOSPITAL
10.36,2.68,41.98743,-87.81440,48530.13,8706.60,0.0,0.446,1.211,0.382,0.0,0.0,0.0,0.064,RESURRECTION MEDICAL CENTER
6.28,2.69,41.65880,-87.67729,27369.80,8731.67,0.0,0.11,0.44,0.11,0.0,0.0,0.11,0.11,METROSOUTH MEDICAL CENTER
10.54,3.52,41.87497,-87.66927,49473.69,13022.16,0.0,0.884,0.416,0.988,0.0,0.156,0.104,0.156,RUSH UNIVERSITY MEDICAL CENTER
7.96,2.31,41.80555,-87.92059,36073.74,6760.30,0.0,0.507,0.304,0.304,0.0,0.101,0.0,0.0,HINSDALE HOSPITAL
4.04,3.36,41.87381,-87.67421,15724.05,12192.18,0.0,1.269,0.423,0.211,0.0,0.0,0.211,0.423,JOHN H STROGER JR HOSPITAL
18.53,2.43,38.70148,-90.14382,90897.43,7380.37,0.0,0.428,0.856,0.0,0.0,0.0,0.0,0.0,GATEWAY REGIONAL MEDICAL CENTER
4.80,2.30,40.49639,-88.99106,19674.55,6714.45,0.0,0.13,0.521,0.0,0.0,0.0,0.0,0.13,BROMENN HEALTHCARE
8.81,2.23,42.25244,-87.86528,40464.09,6327.73,0.0,0.167,0.333,0.0,0.0,0.0,0.0,0.0,LAKE FOREST HOSPITAL
8.22,2.66,41.76946,-87.69239,37450.08,8580.61,0.0,0.253,0.126,0.253,0.0,0.0,0.0,0.0,HOLY CROSS HOSPITAL
6.01,2.33,39.86644,-88.96090,25980.41,6861.27,0.0,0.161,1.048,0.161,0.0,0.0,0.081,0.081,DECATUR MEMORIAL HOSPITAL
5.20,2.33,39.80893,-89.65530,21750.22,6887.09,0.0,0.643,0.683,0.121,0.0,0.0,0.08,0.08,MEMORIAL MEDICAL CENTER
8.98,3.83,41.86927,-87.67052,41377.46,14644.07,0.0,1.673,0.257,0.0,0.0,0.0,0.129,0.0,UNIVERSITY OF ILLINOIS HOSPITAL
9.86,2.46,41.12049,-87.87187,45944.43,7539.89,0.0,0.145,0.435,0.58,0.0,0.0,0.0,0.145,PROVENA ST MARYS HOSPITAL
6.50,2.94,41.84639,-87.62345,28528.29,10052.96,0.0,0.442,0.442,0.53,0.0,0.088,0.088,0.088,MERCY HOSPITAL AND MEDICAL CENTER
5.87,2.44,42.29592,-89.63773,25220.85,7445.05,0.0,0.0,0.225,0.0,0.0,0.0,0.0,0.0,FHN MEMORIAL HOSPITAL
5.99,2.34,40.48254,-88.95519,25872.57,6908.08,0.0,0.201,0.201,0.0,0.0,0.0,0.0,0.0,ST JOSEPH MEDICAL CENTER
4.71,2.30,37.72790,-89.22058,19227.92,6697.51,0.0,0.504,0.504,0.0,0.0,0.126,0.126,0.0,MEMORIAL HOSPITAL OF CARBONDALE
6.53,2.30,39.82659,-88.93119,28649.55,6720.58,0.0,0.327,0.982,0.0,0.0,0.0,0.327,0.0,ST MARYS HOSPITAL
6.50,2.59,41.52283,-87.71111,28500.30,8201.49,0.0,0.0,0.196,0.147,0.0,0.0,0.049,0.049,FRANCISCAN ST JAMES HEALTH
11.82,2.40,41.78566,-88.32886,56118.59,7239.00,0.0,1.262,0.361,0.0,0.0,0.0,0.0,0.18,PROVENA MERCY MEDICAL CENTER
8.44,2.70,41.72094,-87.69220,38591.42,8787.91,0.0,0.218,0.436,0.291,0.0,0.0,0.073,0.145,LITTLE COMPANY OF MARY HOSPITAL
9.95,2.86,41.90414,-87.68254,46388.64,9602.64,0.0,0.285,0.57,0.071,0.0,0.071,0.428,0.071,ST MARY & ELIZABETH MED CTR-DIVISION CAMPUS
7.79,3.04,41.93641,-87.65295,35207.69,10531.98,0.0,0.399,0.199,0.0,0.0,0.1,0.0,0.0,ADVOCATE ILLINOIS MASONIC MEDICAL CENTER
13.06,2.19,37.74480,-88.99329,62543.96,6127.07,0.0,0.573,0.955,0.191,0.0,0.0,0.0,0.191,HEARTLAND REGIONAL MEDICAL CENTER
5.75,2.25,38.55020,-90.02146,24623.86,6436.29,0.0,0.611,0.229,0.153,0.0,0.0,0.0,0.0,MEMORIAL HOSPITAL
6.00,2.53,41.12572,-87.88526,25928.54,7894.24,0.0,0.186,0.931,1.117,0.0,0.0,0.0,0.0,RIVERSIDE MEDICAL CENTER
6.32,2.31,38.51081,-89.99014,27555.68,6747.52,0.0,0.211,0.949,0.527,0.0,0.0,0.105,0.0,ST ELIZABETH HOSPITAL
6.28,2.39,41.60726,-87.66060,27361.41,7193.44,0.0,0.279,0.21,0.279,0.0,0.07,0.07,0.0,INGALLS MEMORIAL HOSPITAL
7.70,2.49,41.86362,-87.93567,34752.69,7678.20,0.0,0.449,0.299,0.973,0.0,0.0,0.0,0.0,ELMHURST MEMORIAL HOSPITAL
8.50,2.66,42.27447,-87.95764,38864.21,8586.55,0.0,0.279,0.488,0.209,0.0,0.0,0.0,0.07,ADVOCATE CONDELL MEDICAL CENTER
7.13,2.94,41.90078,-87.69925,31770.50,10017.93,0.0,0.24,0.48,0.0,0.0,0.0,0.0,0.0,NORWEGIAN-AMERICAN HOSPITAL
7.31,2.88,41.72031,-87.73249,32709.80,9704.00,0.0,0.172,0.138,0.034,0.0,0.069,0.241,0.034,ADVOCATE CHRIST HOSPITAL & MEDICAL CENTER
6.61,2.71,40.70065,-89.59505,29070.75,8821.32,0.0,0.178,0.446,0.0,0.0,0.0,0.0,0.089,METHODIST MEDICAL CENTER OF ILLINOIS
8.90,2.20,41.88566,-88.34311,40950.34,6217.59,0.0,0.132,0.397,0.397,0.0,0.0,0.0,0.0,DELNOR COMMUNITY HOSPITAL
6.41,2.55,41.54446,-87.98379,28054.52,8037.82,0.0,0.513,0.22,0.439,0.0,0.0,0.0,0.073,SILVER CROSS HOSPITAL  AND MEDICAL CENTERS
10.04,2.22,42.03576,-88.32575,46847.81,6314.59,0.0,0.295,0.884,0.295,0.0,0.0,0.0,0.147,PROVENA - SAINT JOSEPH HOSPITAL
8.19,2.73,42.03837,-87.84820,37256.37,8972.53,0.0,0.181,0.135,0.045,0.0,0.0,0.0,0.045,ADVOCATE LUTHERAN GENERAL HOSPITAL
8.49,2.98,41.93418,-87.63579,38819.16,10225.05,0.0,0.24,0.24,0.12,0.12,0.0,0.0,0.12,SAINT JOSEPH HOSPITAL
7.48,2.61,42.26584,-89.07428,33569.76,8328.69,0.0,0.156,0.857,0.312,0.0,0.0,0.312,0.0,SWEDISH AMERICAN HOSPITAL
7.08,2.40,41.76076,-88.15016,31523.04,7231.19,0.0,0.393,0.131,0.524,0.0,0.066,0.0,0.0,EDWARD HOSPITAL
9.30,2.33,42.26634,-89.00900,43038.92,6876.69,0.0,0.311,0.414,0.311,0.0,0.104,0.104,0.104,SAINT ANTHONY MEDICAL CENTER
6.61,2.55,42.29844,-89.09897,29070.69,8034.75,0.0,0.197,0.492,0.0,0.0,0.0,0.0,0.0,ROCKFORD MEMORIAL HOSPITAL
8.89,2.76,41.89166,-87.84838,40903.37,9109.37,0.0,0.511,0.256,0.256,0.0,0.0,0.0,0.256,WESTLAKE COMMUNITY HOSPITAL
10.03,2.41,41.87269,-88.15684,46793.99,7298.00,0.0,0.067,0.599,0.399,0.0,0.0,0.067,0.067,CENTRAL DUPAGE HOSPITAL
6.25,2.56,41.56720,-87.69566,27229.32,8082.32,0.0,0.588,0.098,0.196,0.0,0.0,0.0,0.0,ADVOCATE SOUTH SUBURBAN HOSPITAL
9.83,2.57,41.94560,-87.76897,45794.42,8134.14,0.0,0.801,0.572,0.114,0.0,0.0,0.0,0.0,OUR LADY OF THE RESURRECTION MED CTR
7.39,2.21,42.06732,-87.99368,33099.66,6274.62,0.0,0.249,0.87,0.207,0.0,0.0,0.041,0.0,NORTHWEST COMMUNITY HOSPITAL
7.66,2.27,42.00413,-88.01745,34512.92,6573.48,0.0,0.056,0.726,0.223,0.0,0.0,0.0,0.0,ALEXIAN BROTHERS MEDICAL CENTER
4.70,2.18,41.49581,-90.41871,19173.70,6116.33,0.0,0.0,0.475,0.0,0.0,0.0,0.0,0.0,GENESIS MEDICAL CENTER ILLINI CAMPUS
6.98,3.10,41.86110,-87.83404,30985.09,10857.62,0.0,0.47,0.352,0.587,0.0,0.117,0.235,0.059,LOYOLA UNIVERSITY MEDICAL CENTER
4.63,2.25,41.48200,-90.57158,18796.45,6450.81,0.0,0.145,0.867,0.145,0.0,0.072,0.145,0.0,TRINITY ROCK ISLAND
10.28,2.92,41.89477,-87.62131,48137.57,9956.51,0.0,0.382,0.243,0.208,0.0,0.0,0.243,0.035,NORTHWESTERN MEMORIAL HOSPITAL
8.52,2.70,41.96185,-88.72130,38961.48,8775.91,0.0,0.181,0.542,0.181,0.0,0.0,0.0,0.0,KISHWAUKEE COMMUNITY HOSPITAL
6.98,2.22,41.81791,-88.00907,30989.97,6289.94,0.0,0.125,0.25,0.063,0.0,0.0,0.0,0.0,ADVOCATE GOOD SAMARITAN HOSPITAL
6.11,2.13,38.73818,-89.94728,26464.21,5858.07,0.0,0.0,0.187,0.561,0.0,0.0,0.0,0.0,ANDERSON HOSPITAL
8.44,2.35,42.05260,-88.14173,38563.64,7000.89,0.0,0.232,0.232,0.0,0.0,0.077,0.0,0.0,ST ALEXIUS MEDICAL CENTER
5.93,2.31,42.19586,-88.17286,25564.11,6780.54,0.0,0.501,0.201,0.301,0.0,0.0,0.0,0.0,ADVOCATE GOOD SHEPHERD HOSPITAL
8.18,2.56,41.91465,-88.05724,37217.92,8054.00,0.0,0.297,0.0,0.0,0.0,0.0,0.0,0.0,ADVENTIST GLENOAKS
8.41,2.29,41.68062,-88.08319,38390.57,6679.86,0.0,0.0,0.533,0.799,0.0,0.0,0.0,0.0,ADVENTIST BOLINGBROOK HOSPITAL
6.27,2.19,39.48010,-86.07773,27327.58,6161.33,0.0,0.438,0.876,0.438,0.0,0.0,0.0,0.438,JOHNSON MEMORIAL HOSPITAL
6.49,2.46,41.59920,-87.35764,28435.89,7520.90,0.0,0.576,0.384,0.0,0.0,0.064,0.192,0.0,METHODIST HOSPITALS INC
6.35,2.52,41.61514,-87.52413,27709.29,7882.94,0.0,0.732,0.209,0.105,0.0,0.0,0.0,0.0,FRANCISCAN ST MARGARET HEALTH - HAMMOND
6.10,2.25,39.76255,-86.50165,26436.00,6434.79,0.0,0.485,0.0,1.941,0.0,0.0,0.0,0.0,HENDRICKS REGIONAL HEALTH
7.81,2.15,41.61055,-86.72511,35306.75,5921.32,0.0,0.0,0.777,0.0,0.0,0.0,0.0,0.0,INDIANA UNIVERSITY HEALTH LA PORTE HOSPITAL
6.46,2.13,40.44665,-86.12707,28276.94,5834.88,0.0,0.0,0.223,0.223,0.0,0.0,0.223,0.0,HOWARD REGIONAL HEALTH SYSTEM
5.90,2.45,41.63466,-87.44901,25376.08,7494.38,0.0,0.171,0.686,0.171,0.0,0.0,0.0,0.0,ST CATHERINE HOSPITAL INC
5.13,2.23,38.28244,-85.74923,21389.86,6352.25,0.0,0.0,0.695,0.261,0.0,0.0,0.0,0.0,CLARK MEMORIAL HOSPITAL
6.10,2.14,40.48720,-86.15548,26415.33,5868.11,0.0,0.229,0.0,0.229,0.0,0.0,0.458,0.0,ST JOSEPH HOSPITAL & HEALTH CENTER INC
6.07,2.38,41.70877,-86.17026,26285.07,7142.38,0.0,0.0,0.439,0.146,0.0,0.0,0.0,0.0,SAINT JOSEPH REGIONAL MEDICAL CENTER
5.82,2.29,41.70639,-86.89936,24973.23,6650.98,0.0,0.156,0.0,0.311,0.0,0.0,0.156,0.156,FRANCISCAN ST ANTHONY HEALTH - MICHIGAN CITY
7.38,2.29,41.03874,-85.24876,33047.66,6688.75,0.0,0.481,0.962,0.361,0.0,0.0,0.12,0.0,LUTHERAN HOSPITAL OF INDIANA
5.82,2.34,41.70568,-85.93404,24957.58,6904.09,0.0,0.0,0.791,0.099,0.099,0.0,0.297,0.099,ELKHART GENERAL HOSPITAL
5.40,2.26,41.04659,-85.10906,22819.12,6530.13,0.0,0.131,0.524,1.114,0.0,0.0,0.131,0.066,PARKVIEW REGIONAL MEDICAL CENTER
5.10,2.28,39.48518,-87.40893,21226.59,6586.90,0.0,0.182,0.728,0.182,0.0,0.0,0.061,0.061,UNION HOSPITAL INC
5.43,2.94,39.78091,-86.17629,22944.71,10046.95,0.0,0.291,0.145,0.436,0.0,0.145,0.0,0.0,WILLIAM N WISHARD MEMORIAL HOSPITAL
5.95,2.68,41.56352,-85.83039,25660.68,8669.00,0.0,0.21,0.0,0.0,0.0,0.21,0.0,0.0,IU HEALTH GOSHEN HOSPITAL
6.03,2.29,41.51266,-87.26125,26052.89,6641.77,0.0,0.19,0.476,0.381,0.0,0.0,0.0,0.0,ST MARY MEDICAL CENTER INC
8.48,2.37,41.46729,-87.05130,38766.02,7058.37,0.0,0.342,0.684,0.342,0.0,0.0,0.0,0.0,PORTER VALPARAISO HOSPITAL
5.30,2.15,38.67313,-87.53370,22299.92,5941.21,0.0,0.285,0.285,0.142,0.0,0.0,0.0,0.142,GOOD SAMARITAN HOSPITAL
6.09,2.17,38.30195,-85.83409,26397.59,6043.91,0.0,0.077,0.154,0.309,0.0,0.0,0.0,0.0,FLOYD MEMORIAL HOSPITAL AND HEALTH SERVICES
6.08,2.47,41.07820,-85.14936,26334.54,7591.92,0.0,0.313,0.313,0.313,0.0,0.0,0.0,0.313,ST JOSEPH HOSPITAL
5.05,2.41,39.86405,-84.88413,20974.35,7268.38,0.0,0.354,0.707,0.0,0.0,0.0,0.088,0.088,REID HOSPITAL & HEALTH CARE SERVICES
5.84,2.29,39.16006,-86.54038,25082.89,6670.87,0.0,0.287,0.382,0.955,0.0,0.096,0.096,0.0,INDIANA UNIVERSITY HEALTH BLOOMINGTON HOSPITAL
7.76,2.96,39.79009,-86.16260,35063.19,10165.37,0.028,0.369,0.454,0.17,0.0,0.0,0.057,0.057,INDIANA UNIVERSITY HEALTH
6.39,2.38,41.68479,-86.25217,27938.84,7137.84,0.0,0.0,1.135,1.059,0.0,0.076,0.151,0.0,MEMORIAL HOSPITAL OF SOUTH BEND
5.77,2.19,40.04526,-86.02297,24718.45,6161.60,0.0,0.0,1.487,0.0,0.0,0.0,0.0,0.0,RIVERVIEW HOSPITAL
5.22,2.20,38.73589,-85.37996,21852.00,6211.15,0.0,0.0,0.265,0.796,0.0,0.0,0.0,0.0,KING'S DAUGHTERS' HOSPITAL AND HEALTH SERVICESTHE
7.40,2.40,39.78704,-86.07673,33189.66,7220.34,0.0,0.299,0.1,0.299,0.0,0.0,0.0,0.0,COMMUNITY HOSPITAL EAST
6.25,2.18,37.98293,-87.57072,27201.90,6116.66,0.0,0.472,0.515,0.215,0.0,0.086,0.0,0.0,DEACONESS HOSPITAL INC
8.65,2.70,39.91001,-86.19660,39644.90,8784.96,0.0,0.773,0.258,0.472,0.0,0.086,0.043,0.086,ST VINCENT HOSPITAL & HEALTH SERVICES
5.58,2.15,39.11138,-84.88343,23725.08,5938.16,0.0,0.515,0.772,1.029,0.0,0.0,0.257,0.0,DEARBORN COUNTY HOSPITAL
5.69,2.25,40.09594,-85.68152,24309.55,6454.18,0.0,0.15,0.15,0.451,0.0,0.0,0.0,0.15,SAINT JOHN'S HEALTH SYSTEM
8.11,2.50,40.19679,-85.41573,36850.40,7772.96,0.0,0.066,0.66,0.264,0.0,0.0,0.132,0.066,INDIANA UNIVERSITY HEALTH BALL MEMORIAL HOSPITAL
7.31,2.57,41.49222,-87.52429,32721.92,8128.73,0.0,0.765,0.306,0.0,0.0,0.0,0.0,0.0,FRANCISCAN ST MARGARET HEALTH - DYER
7.36,2.20,37.96320,-87.50292,32947.14,6191.26,0.0,0.262,0.589,0.327,0.0,0.0,0.131,0.0,ST MARY'S MEDICAL CENTER OF EVANSVILLE INC
6.89,2.36,40.39424,-86.83516,30540.93,7052.51,0.0,0.361,0.181,0.181,0.0,0.0,0.0,0.0,FRANCISCAN ST ELIZABETH HEALTH - LAFAYETTE EAST
5.94,2.26,39.21585,-85.89683,25622.50,6489.12,0.0,0.0,0.652,0.13,0.0,0.0,0.0,0.13,COLUMBUS REGIONAL HOSPITAL
4.50,2.24,40.12998,-85.69436,18112.09,6381.00,0.0,0.159,0.637,0.0,0.0,0.0,0.0,0.0,COMMUNITY HOSPITAL OF ANDERSON AND MADISON COUNTY
3.68,2.12,38.39499,-86.94089,13894.50,5801.77,0.0,0.0,0.692,0.519,0.0,0.0,0.0,0.0,MEMORIAL HOSPITAL AND HEALTH CARE CENTER
6.20,2.28,41.55065,-87.50619,26948.03,6634.00,0.0,0.554,0.604,0.252,0.0,0.0,0.0,0.0,COMMUNITY HOSPITAL
5.25,2.31,41.39576,-87.36689,22012.79,6769.16,0.0,0.0,0.849,0.189,0.0,0.0,0.0,0.0,FRANCISCAN ST ANTHONY HEALTH - CROWN POINT
6.40,2.14,39.63776,-86.13260,27973.33,5874.42,0.0,0.0,0.922,0.0,0.0,0.154,0.0,0.154,COMMUNITY HOSPITAL SOUTH
6.49,2.22,39.94017,-86.15975,28462.88,6291.91,0.0,0.165,0.165,0.661,0.0,0.0,0.0,0.0,ST VINCENT HEART CENTER OF INDIANA LLC
6.98,2.21,39.90201,-86.04478,31000.08,6227.21,0.0,0.0,0.24,0.0,0.0,0.0,0.24,0.0,INDIANA HEART HOSPITAL THE
6.11,2.14,39.78047,-86.34084,26463.33,5910.33,0.0,0.194,1.357,0.0,0.0,0.0,0.194,0.0,IU HEALTH WEST HOSPITAL
7.12,2.31,39.95930,-86.16016,31710.15,6791.12,0.0,0.804,0.536,0.268,0.0,0.0,0.0,0.0,INDIANA UNIVERSITY HEALTH NORTH HOSPITAL
6.00,2.40,39.64935,-86.07960,25905.15,7258.85,0.0,0.0,0.13,0.261,0.0,0.0,0.0,0.13,FRANCISCAN ST FRANCIS HEALTH - INDIANAPOLIS
7.30,3.34,40.40296,-86.80885,32656.56,12098.74,0.0,0.14,0.279,0.14,0.0,0.0,0.0,0.0,INDIANA UNIVERSITY HEALTH ARNETT HOSPITAL
5.22,2.06,37.97481,-87.44457,21888.87,5450.00,0.0,0.0,1.163,0.582,0.0,0.0,0.0,0.0,THE HEART HOSPITAL AT DEACONESS GATEWAY LLC
5.75,2.04,38.33336,-85.75165,24599.54,5380.54,0.0,0.606,0.0,0.0,0.0,0.0,0.0,0.0,KENTUCKIANA MEDICAL CENTER LLC
4.63,2.31,42.04855,-92.90625,18803.30,6766.03,0.0,0.367,0.734,1.835,0.0,0.0,0.0,0.367,MARSHALLTOWN MEDICAL & SURGICAL CENTER
4.71,2.24,42.49388,-94.18926,19227.57,6414.45,0.0,0.0,0.359,0.359,0.0,0.0,0.0,0.0,TRINITY REGIONAL MEDICAL CENTER
7.01,2.49,41.60051,-93.61086,31137.18,7704.34,0.0,0.187,0.187,0.187,0.0,0.0,0.0,0.0,IOWA LUTHERAN HOSPITAL
8.23,2.35,41.26886,-95.83923,37481.93,6963.07,0.0,0.197,0.592,0.0,0.0,0.197,0.0,0.0,ALEGENT HEALTH MERCY HOSPITAL
6.23,2.27,41.66411,-91.52841,27103.43,6558.64,0.0,0.133,0.665,0.798,0.0,0.133,0.0,0.0,MERCY HOSPITAL
5.42,2.19,42.03321,-93.61164,22899.72,6157.61,0.0,0.0,0.135,0.541,0.0,0.0,0.0,0.0,MARY GREELEY MEDICAL CENTER
4.80,2.31,41.54190,-90.55691,19699.13,6788.21,0.0,0.118,0.296,0.059,0.0,0.059,0.118,0.059,GENESIS MEDICAL CENTER-DAVENPORT
6.41,2.25,41.98570,-91.66093,28042.38,6469.67,0.0,0.0,0.589,0.098,0.0,0.098,0.0,0.0,ST LUKES HOSPITAL
6.34,2.13,41.26786,-95.83505,27665.32,5852.23,0.0,0.0,0.193,0.0,0.0,0.0,0.193,0.0,JENNIE EDMUNDSON HOSPITAL
4.62,2.17,40.81009,-91.17356,18754.35,6063.16,0.0,0.798,1.117,0.0,0.0,0.16,0.0,0.0,GREAT RIVER MEDICAL CENTER
9.08,3.10,41.66092,-91.54800,41902.48,10887.96,0.0,0.58,1.159,0.58,0.0,0.064,0.386,0.064,UNIVERSITY OF IOWA HOSPITAL & CLINICS
5.70,2.33,43.15063,-93.21718,24367.46,6877.22,0.0,0.076,0.076,0.534,0.0,0.0,0.0,0.0,MERCY MEDICAL CENTER-NORTH IOWA
6.96,2.28,42.46407,-92.34532,30874.71,6588.29,0.0,0.0,0.372,0.0,0.0,0.0,0.0,0.0,COVENANT MEDICAL CENTER
5.48,2.07,42.49227,-90.67404,23198.03,5536.87,0.0,0.261,0.651,0.0,0.0,0.0,0.0,0.13,MERCY MEDICAL CENTER-DUBUQUE
5.90,2.15,41.97864,-91.65507,25410.79,5947.32,0.0,0.226,0.113,0.0,0.0,0.113,0.0,0.0,MERCY MEDICAL CENTER - CEDAR RAPIDS
4.84,2.47,41.86141,-90.18921,19874.39,7614.73,0.0,0.0,0.358,0.0,0.0,0.0,0.0,0.0,MERCY MEDICAL CENTER-CLINTON
6.60,2.34,41.58955,-93.63248,29021.03,6916.32,0.0,0.502,0.669,1.339,0.0,0.112,0.223,0.335,IOWA METHODIST MEDICAL CENTER
6.02,2.35,41.59886,-93.62344,26010.72,6949.85,0.0,0.201,0.402,0.08,0.0,0.0,0.12,0.0,MERCY MEDICAL CENTER-DES MOINES
3.96,2.19,42.52665,-92.33957,15312.11,6158.34,0.0,0.165,0.165,0.0,0.0,0.082,0.0,0.0,ALLEN MEMORIAL HOSPITAL
4.15,2.30,42.51846,-96.40581,16289.55,6724.55,0.0,0.187,1.494,0.0,0.187,0.0,0.374,0.0,ST LUKES REGIONAL MEDICAL CENTER
5.79,2.20,42.49250,-96.39975,24805.61,6201.48,0.0,0.417,0.104,0.208,0.0,0.0,0.208,0.0,MERCY MEDICAL CENTER-SIOUX CITY
5.49,2.27,37.37991,-94.68739,23281.42,6583.26,0.0,1.024,1.28,0.768,0.0,0.0,0.0,0.0,VIA CHRISTI HOSPITAL PITTSBURG INC
6.33,2.31,38.83324,-97.61028,27597.07,6778.59,0.0,0.155,0.774,0.0,0.0,0.0,0.0,0.0,SALINA REGIONAL HEALTH CENTER
8.24,2.53,38.87847,-99.29923,37527.61,7925.90,0.0,0.0,0.712,0.712,0.0,0.178,0.534,0.0,HAYS MEDICAL CENTER
5.31,2.22,39.05660,-95.69599,22319.06,6322.34,0.0,0.42,0.631,3.258,0.0,0.0,0.21,0.21,ST FRANCIS HEALTH CENTER INC
5.43,2.41,38.07731,-97.89183,22949.44,7305.50,0.0,0.135,0.808,0.135,0.0,0.0,0.0,0.0,HUTCHINSON REGIONAL MEDICAL CENTER INC
7.87,2.58,39.05583,-94.60912,35613.64,8181.81,0.0,0.627,0.57,0.0,0.0,0.057,0.114,0.114,UNIVERSITY OF KANSAS HOSPITAL
5.33,2.21,38.85279,-94.82413,22411.86,6245.14,0.0,0.942,0.824,0.353,0.0,0.0,0.353,0.0,OLATHE MEDICAL CENTER
6.58,2.30,39.05128,-95.69572,28916.33,6708.07,0.0,0.061,0.427,0.549,0.0,0.0,0.122,0.0,STORMONT-VAIL HEALTHCARE
6.59,2.07,38.02419,-97.33117,28958.45,5521.82,0.0,0.0,1.334,0.667,0.0,0.0,0.0,0.0,NEWTON MEDICAL CENTER
10.39,2.22,38.99549,-94.69061,48663.10,6280.20,0.0,0.563,0.844,0.141,0.0,0.07,0.141,0.07,SHAWNEE MISSION MEDICAL CENTER
7.15,2.41,37.70405,-97.31386,31876.49,7300.36,0.0,0.213,0.39,0.567,0.0,0.0,0.213,0.0,VIA CHRISTI HOSPITALS WICHITA INC
9.27,2.38,37.69556,-97.29785,42870.95,7140.21,0.0,0.076,0.841,1.605,0.0,0.076,0.382,0.0,WESLEY MEDICAL CENTER
5.73,2.23,38.97848,-95.24771,24504.25,6373.00,0.0,0.207,0.83,0.415,0.0,0.0,0.0,0.207,LAWRENCE MEMORIAL HOSPITAL
5.70,2.13,39.20164,-96.60003,24331.00,5821.60,0.0,0.224,1.121,0.224,0.0,0.0,0.0,0.0,MERCY REGIONAL HEALTH CENTER
8.59,2.25,39.12677,-94.78643,39337.21,6443.88,0.0,1.045,1.045,0.597,0.0,0.0,0.149,0.0,PROVIDENCE MEDICAL CENTER
5.56,2.28,37.78537,-100.01492,23606.00,6597.85,0.0,0.0,0.496,0.0,0.0,0.0,0.0,0.0,WESTERN PLAINS MEDICAL COMPLEX
11.07,2.31,38.93763,-94.72630,52215.38,6744.27,0.0,0.497,0.745,1.49,0.0,0.0,0.0,0.248,OVERLAND PARK REG MED CTR
8.85,2.19,38.91047,-94.65205,40711.52,6166.39,0.0,0.201,0.803,0.402,0.0,0.0,0.201,0.0,MENORAH MEDICAL CENTER
8.37,2.21,38.90355,-94.66966,38221.25,6237.96,0.0,0.0,0.471,0.0,0.0,0.0,0.0,0.0,SAINT LUKE'S SOUTH HOSPITAL
3.75,2.12,37.74995,-97.22652,14221.40,5787.37,0.0,0.365,0.0,1.095,0.0,0.0,0.0,0.0,KANSAS HEART HOSPITAL
4.01,2.09,37.73142,-97.26078,15578.20,5607.35,0,0,0,0,0,0,0,0,GALICHIA HEART HOSPITAL LLC
4.88,2.09,37.72341,-97.14628,20078.37,5611.95,0.0,0.32,0.32,0.0,0.0,0.641,0.0,0.0,KANSAS MEDICAL CENTER LLC
5.99,2.32,39.07816,-84.46695,25852.58,6809.20,0.0,0.176,0.528,0.176,0.0,0.0,0.0,0.0,ST ELIZABETH FT THOMAS
4.54,2.30,37.72943,-82.76716,18345.46,6704.46,0.0,0.409,0.613,0.204,0.0,0.0,0.0,0.0,HIGHLANDS REGIONAL MEDICAL CENTER
4.95,2.31,38.47021,-82.63498,20438.70,6752.23,0.0,0.092,0.826,0.092,0.0,0.0,0.138,0.138,KING'S DAUGHTERS' MEDICAL CENTER
3.77,2.15,38.03140,-84.52194,14347.30,5943.77,0.0,0.051,0.66,0.61,0.0,0.0,0.254,0.0,SAINT JOSEPH HOSPITAL
7.45,2.51,37.11784,-84.10910,33413.80,7816.25,0.0,0.0,0.451,0.0,0.0,0.0,0.15,0.15,SAINT JOSEPH HOSPITAL LONDON
3.33,2.15,37.71183,-85.87623,12071.54,5931.18,0.0,0.09,0.538,0.627,0.0,0.0,0.0,0.0,HARDIN MEMORIAL HOSPITAL
5.47,2.32,36.99641,-86.43006,23153.33,6800.43,0.0,0.412,1.029,0.412,0.0,0.0,0.48,0.069,THE MEDICAL CENTER AT BOWLING GREEN
3.87,2.34,37.01079,-85.90342,14843.76,6916.94,0.0,0.0,0.356,0.0,0.0,0.0,0.0,0.178,T J SAMSON COMMUNITY HOSPITAL
6.45,2.53,38.18397,-83.43268,28220.74,7894.32,0.0,0.0,0.0,0.0,0.0,0.0,0.0,0.248,ST CLAIRE REGIONAL MEDICAL CENTER
5.96,2.28,38.63961,-83.80820,25689.79,6614.21,0.0,0.0,0.0,0.0,0.0,0.0,0.0,0.0,MEADOWVIEW REGIONAL MEDICAL CENTER
6.32,2.32,37.27729,-83.22802,27546.91,6811.62,0.0,0.198,0.495,0.0,0.0,0.0,0.0,0.0,HAZARD ARH REGIONAL MEDICAL CENTER
5.51,2.31,39.06704,-84.49946,23393.39,6758.49,0.042,0.085,0.254,0.042,0.0,0.0,0.042,0.042,ST ELIZABETH MEDICAL CENTER NORTH
5.18,2.21,38.50697,-82.69222,21679.88,6255.15,0.0,0.426,1.137,0.0,0.0,0.0,0.0,0.0,OUR LADY OF BELLEFONTE HOSPITAL
4.62,2.45,37.76518,-87.10197,18747.98,7497.50,0.0,0.121,0.908,0.0,0.0,0.061,0.0,0.061,OWENSBORO MEDICAL HEALTH SYSTEM
5.98,2.43,38.24927,-85.75081,25831.43,7399.34,0.0,0.506,0.476,0.149,0.0,0.06,0.06,0.03,JEWISH HOSPITAL & ST MARY'S HEALTHCARE
9.18,2.69,37.47264,-82.52605,42386.58,8752.34,0.0,0.71,0.304,0.0,0.0,0.0,0.0,0.0,PIKEVILLE MEDICAL CENTER
6.62,2.43,39.01660,-84.63078,29134.20,7397.56,0.0,0.0,0.182,0.0,0.0,0.0,0.363,0.363,ST ELIZABETH FLORENCE
5.59,2.26,37.64378,-84.77272,23786.95,6486.73,0.0,0.0,1.158,0.386,0.0,0.0,0.0,0.129,EPHRAIM MCDOWELL REGIONAL MEDICAL CENTER
5.12,2.37,37.73107,-84.29238,21368.43,7064.14,0.0,0.0,1.123,0.0,0.0,0.0,0.0,0.0,PATTIE A CLAY REGIONAL MEDICAL CENTER
6.40,2.82,37.85504,-87.58345,27970.64,9387.64,0.0,0.0,0.0,0.0,0.0,0.0,0.0,0.0,METHODIST HOSPITAL
7.92,3.22,38.03282,-84.50674,35869.46,11471.96,0.0,0.676,1.07,0.282,0.0,0.0,0.282,0.0,UNIVERSITY OF KENTUCKY HOSPITAL
6.14,2.26,36.92128,-84.11838,26612.83,6525.21,0.0,0.0,1.301,0.0,0.0,0.0,0.0,0.13,BAPTIST REGIONAL MEDICAL CENTER
4.40,2.21,37.36583,-85.33917,17592.41,6231.88,0.0,0.332,0.664,0.0,0.0,0.0,0.0,0.0,TAYLOR REGIONAL HOSPITAL
8.20,2.43,38.24806,-85.75125,37347.86,7388.04,0.0,0.605,0.706,0.176,0.025,0.025,0.202,0.05,NORTON HOSPITALS INC
4.82,2.26,37.33959,-87.48988,19777.37,6492.58,0.0,0.0,0.271,0.0,0.0,0.0,0.0,0.136,REGIONAL MEDICAL CENTER OF HOPKINS COUNTY
5.80,2.12,37.06431,-88.67523,24856.00,5781.48,0.0,0.466,1.025,0.373,0.0,0.093,0.093,0.093,LOURDES HOSPITAL
4.95,2.23,38.01849,-84.51236,20443.58,6355.12,0.0,0.283,0.848,2.191,0.0,0.0,0.0,0.0,CENTRAL BAPTIST HOSPITAL
4.52,2.13,37.07404,-88.62685,18208.02,5825.32,0.0,0.131,0.588,0.261,0.0,0.0,0.0,0.0,WESTERN BAPTIST HOSPITAL
6.43,2.26,38.16020,-84.90519,28159.84,6518.84,0.0,0.258,0.0,0.258,0.0,0.0,0.0,0.0,FRANKFORT REGIONAL MEDICAL CENTER
4.20,2.13,38.23898,-85.63941,16593.56,5809.02,0.0,0.615,0.73,0.192,0.0,0.038,0.038,0.0,BAPTIST HOSPITAL EAST
6.35,2.32,37.08724,-84.61828,27711.17,6828.78,0.0,0.191,1.147,0.0,0.0,0.0,0.86,0.573,LAKE CUMBERLAND REGIONAL HOSPITAL
7.18,2.14,37.56166,-83.37202,32047.92,5891.00,0.0,0.0,0.0,0.0,0.0,0.0,0.0,0.0,KENTUCKY RIVER MEDICAL CENTER
6.35,2.80,38.24802,-85.74464,27743.39,9294.39,0.0,0.122,0.122,1.347,0.0,0.0,0.0,0.0,UNIVERSITY OF LOUISVILLE HOSPITAL
3.86,2.31,37.99944,-84.43941,14812.50,6754.17,0.0,0.0,0.566,0.189,0.0,0.0,0.189,0.0,SAINT JOSEPH EAST
5.20,2.64,30.20227,-92.01906,21767.30,8498.51,0.091,0.364,0.0,0.091,0.0,0.0,0.0,0.0,LAFAYETTE GENERAL MEDICAL CENTER
7.99,2.43,30.00890,-91.79475,36211.73,7408.27,0.0,0.0,0.487,0.975,0.0,0.0,0.487,0.487,DAUTERIVE HOSPITAL
6.02,2.15,29.77956,-90.80568,26036.83,5952.17,0.0,0.153,0.153,0.305,0.0,0.0,0.305,0.0,THIBODAUX REGIONAL MEDICAL CENTER
6.72,2.30,29.59851,-90.71397,29653.03,6725.98,0.0,0.267,0.668,0.134,0.0,0.0,0.134,0.0,TERREBONNE GENERAL MEDICAL CENTER
13.84,2.41,30.46813,-90.45814,66562.67,7260.77,0.0,0.101,0.101,0.604,0.0,0.0,0.806,0.0,NORTH OAKS MEDICAL CENTER LLC
5.51,2.40,30.54354,-92.07608,23362.51,7217.86,0.0,0.0,0.587,0.0,0.0,0.0,0.147,0.147,OPELOUSAS GENERAL HEALTH SYSTEM
7.20,2.42,31.28258,-92.46060,32111.60,7354.90,0.0,0.928,0.186,0.557,0.0,0.0,0.557,0.0,CHRISTUS ST FRANCES CABRINI HOSPITAL
8.96,2.21,30.65001,-91.13821,41245.31,6257.81,0.0,0.0,1.784,0.0,0.0,0.0,0.0,0.0,LANE REGIONAL MEDICAL CENTER
8.09,2.33,31.31451,-92.44997,36767.12,6897.37,0.08,0.879,0.479,0.399,0.0,0.0,0.479,0.24,RAPIDES REGIONAL MEDICAL CENTER
9.08,3.40,30.21521,-93.22682,41867.08,12425.69,0.0,0.53,0.662,0.132,0.0,0.0,0.0,0.265,CHRISTUS ST PATRICK HOSPITAL
7.68,2.61,30.01875,-90.19452,34637.72,8301.23,0.0,0.453,0.091,0.59,0.0,0.0,0.091,0.045,OCHSNER FOUNDATION HOSPITAL
6.14,2.34,29.89089,-90.09395,26628.13,6903.09,0.0,0.214,0.107,0.107,0.0,0.0,0.214,0.107,WEST JEFFERSON MEDICAL CENTER
8.44,2.35,30.28456,-89.77038,38584.42,6969.58,0.0,0.89,0.534,0.0,0.0,0.0,0.0,0.0,SLIDELL MEMORIAL HOSPITAL AND MEDICAL CENTER
7.33,2.39,32.49443,-93.75011,32824.41,7197.41,0.0,0.256,0.511,0.256,0.0,0.0,0.0,0.085,CHRISTUS SCHUMPERT HEALTH SYSTEM
7.57,2.30,30.46834,-90.11383,34077.15,6704.64,0.0,0.271,0.135,0.0,0.0,0.135,0.135,0.0,ST TAMMANY PARISH HOSPITAL
8.38,2.44,29.92596,-90.09191,38273.00,7434.53,0.0,0.523,0.523,0.131,0.0,0.0,0.262,0.0,TOURO INFIRMARY
7.40,2.19,30.84189,-93.28906,33164.90,6162.29,0.0,0.0,0.461,0.0,0.0,0.0,0.0,0.0,BEAUREGARD MEMORIAL HOSPITAL
6.75,2.33,30.20458,-93.19774,29780.30,6880.04,0.0,0.0,1.108,0.0,0.0,0.0,0.277,0.0,LAKE CHARLES MEMORIAL HOSPITAL
5.71,2.34,30.40118,-91.11160,24392.86,6916.05,0.0,0.221,0.486,0.044,0.0,0.044,0.839,0.088,OUR LADY OF THE LAKE REGIONAL MEDICAL CENTER
5.10,2.42,30.45015,-91.15273,21260.06,7360.60,0.0,0.556,0.626,0.139,0.0,0.0,0.0,0.0,BATON ROUGE GENERAL MEDICAL CENTER
9.77,2.33,32.51544,-92.63343,45461.70,6854.47,0.0,0.193,0.0,0.193,0.0,0.0,1.157,0.386,NORTHERN LOUISIANA MEDICAL CENTER
3.81,2.82,32.48177,-93.76264,14533.17,9428.47,0.0,3.903,0.163,0.163,0.0,0.0,0.0,0.0,LSU HEALTH SCIENCES CENTER - SHREVEPORT
5.62,2.18,30.15052,-92.03698,23950.98,6095.37,0.0,0.328,0.328,0.109,0.0,0.109,0.0,0.0,OUR LADY OF LOURDES REGIONAL MEDICAL CENTER INC
5.84,2.25,32.48393,-93.77884,25093.60,6472.66,0.0,0.155,0.466,0.155,0.0,0.039,0.039,0.0,WILLIS KNIGHTON MEDICAL CENTER
7.03,2.30,32.49997,-92.11359,31227.92,6737.01,0.0,1.122,0.321,1.763,0.0,0.0,0.561,0.0,ST FRANCIS MEDICAL CENTER
6.26,2.36,32.61700,-93.28566,27235.57,7043.71,0.0,0.279,0.558,0.0,0.0,0.0,0.0,0.0,MINDEN MEDICAL CENTER
7.09,2.22,30.01438,-90.18155,31575.43,6309.38,0.0,0.321,0.578,0.064,0.0,0.129,0.0,0.0,EAST JEFFERSON GENERAL HOSPITAL
8.46,2.21,32.51315,-92.15713,38659.50,6264.85,0.0,0.108,0.108,0.0,0.0,0.0,0.0,0.0,GLENWOOD REGIONAL MEDICAL CENTER
7.75,2.15,31.13861,-93.26892,34997.58,5962.00,0.0,0.0,0.268,0.268,0.0,0.0,0.0,0.268,BYRD REGIONAL HOSPITAL
9.62,2.32,30.07331,-90.51602,44701.00,6844.67,0.0,0.0,0.0,0.0,0.0,0.0,0.0,0.0,RIVER PARISHES HOSPITAL
13.51,3.06,29.95570,-90.07587,64853.56,10652.69,0.0,2.571,0.454,0.756,0.0,0.151,0.151,0.454,TULANE MEDICAL CENTER
8.36,2.28,30.47547,-90.10091,38157.23,6614.10,0.0,0.245,0.245,0.0,0.0,0.0,0.245,0.245,LAKEVIEW REGIONAL MEDICAL CENTER
4.63,2.48,29.57147,-90.68974,18810.00,7624.72,0.0,0.71,0.0,0.0,0.0,0.0,1.42,0.0,LEONARD J CHABERT MEDICAL CENTER
8.37,2.45,30.19775,-92.07724,38225.16,7510.17,0.0,0.364,0.182,0.0,0.0,0.0,0.0,0.0,THE REGIONAL MEDICAL CENTER OF ACADIANA
5.92,2.19,32.55761,-93.71874,25492.81,6155.07,0.0,0.0,0.0,0.0,0.0,0.149,0.0,0.0,WILLIS KNIGHTON BOSSIER HEALTH CENTER
5.73,2.14,30.35437,-89.91917,24521.73,5887.33,0.0,0.44,0.44,0.0,0.0,0.0,0.0,0.0,LOUISIANA MEDICAL CENTER AND HEART HOSPITAL LLC
3.25,2.03,32.51442,-92.63351,11645.08,5333.00,0.0,0.0,0.0,0.0,0.0,0.0,0.0,0.0,GREEN CLINIC SURGICAL HOSPITAL
5.34,2.08,30.17316,-92.02697,22509.81,5576.21,0.0,0.0,0.398,0.0,0.0,0.0,0.0,0.0,HEART HOSPITAL OF LAFAYETTE
4.29,2.17,44.81469,-68.77153,17013.94,6060.23,0.0,0.0,0.609,1.217,0.0,0.0,0.203,0.203,ST JOSEPH HOSPITAL
4.19,2.65,43.65325,-70.27533,16509.00,8525.99,0.0,0.287,0.409,0.737,0.0,0.041,0.246,0.082,MAINE MEDICAL CENTER
5.44,2.82,46.67663,-67.99905,22986.50,9390.00,0.0,0.0,0.411,0.822,0.0,0.0,0.411,0.0,AROOSTOOK MEDICAL CENTERTHE
4.19,2.21,43.47840,-70.49221,16497.62,6237.96,0.0,0.194,0.0,0.581,0.0,0.194,0.0,0.194,SOUTHERN MAINE MEDICAL CENTER
4.78,2.16,53.96230,-1.08188,19564.15,6008.44,0.0,0.0,0.493,0.0,0.0,0.247,0.0,0.0,YORK HOSPITAL
4.54,2.38,43.90901,-69.89611,18327.86,7155.79,0.0,0.249,0.997,0.748,0.0,0.0,0.0,0.0,MID COAST HOSPITAL
5.58,2.52,44.10107,-70.21432,23755.55,7881.45,0.0,0.242,0.121,0.485,0.0,0.0,0.242,0.0,CENTRAL MAINE MEDICAL CENTER
4.23,2.42,44.80988,-68.74929,16736.53,7332.48,0.0,0.343,0.286,0.514,0.0,0.0,0.286,0.114,EASTERN MAINE MEDICAL CENTER
4.97,2.29,45.25378,-69.44547,20564.18,6651.91,0.0,0.895,0.597,0.895,0.0,0.0,0.298,0.199,MAINE GENERAL MEDICAL CENTER
2.77,2.68,39.62183,-77.68219,9133.56,8692.44,0.0,0.0,0.0,0.0,0.0,0.0,0.0,0.0,MERITUS MEDICAL CENTER
4.13,3.96,39.28817,-76.62438,16194.85,15331.60,0.0,0.0,0.0,0.0,0.0,0.0,0.0,0.0,UNIVERSITY OF MARYLAND MEDICAL CENTER
3.26,3.12,38.93090,-76.92161,11693.98,10992.32,0.0,0.0,0.0,0.0,0.0,0.0,0.0,0.0,PRINCE GEORGES HOSPITAL CENTER
3.69,3.56,39.01578,-77.03591,13908.64,13232.82,0.0,0.0,0.0,0.0,0.0,0.0,0.0,0.0,HOLY CROSS HOSPITAL
3.21,3.08,39.42366,-77.41386,11435.74,10779.13,0.0,0.0,0.0,0.0,0.0,0.0,0.0,0.0,FREDERICK MEMORIAL HOSPITAL
2.69,2.59,39.38813,-76.61068,8724.26,8231.27,0.0,0.0,0.0,0.0,0.0,0.0,0.0,0.0,SAINT JOSEPH MEDICAL CENTER
3.70,3.54,39.29297,-76.61314,13966.33,13128.48,0.0,0.0,0.0,0.0,0.0,0.0,0.0,0.0,MERCY MEDICAL CENTER INC
4.42,4.23,39.29688,-76.59242,17731.49,16729.38,0.0,0.0,0.0,0.0,0.0,0.0,0.0,0.0,JOHNS HOPKINS HOSPITAL THE
2.81,4.24,39.27352,-76.67219,9339.94,16769.81,0.0,0.0,0.0,0.0,0.0,0.0,0.0,0.0,SAINT AGNES HOSPITAL
2.84,2.74,39.35262,-76.66196,9533.53,9019.61,0.0,0.0,0.0,0.0,0.0,0.0,0.0,0.0,SINAI HOSPITAL OF BALTIMORE
3.14,3.03,39.35169,-76.47919,11082.39,10481.69,0.0,0.0,0.0,0.0,0.0,0.0,0.0,0.0,FRANKLIN SQUARE HOSPITAL CENTER
2.75,2.65,38.98482,-77.00139,9054.12,8528.51,0.0,0.0,0.0,0.0,0.0,0.0,0.0,0.0,WASHINGTON ADVENTIST HOSPITAL
2.27,2.20,38.36248,-75.59799,6561.05,6206.51,0.0,0.0,0.0,0.0,0.0,0.0,0.0,0.0,PENINSULA REGIONAL MEDICAL CENTER
2.66,2.56,38.99743,-77.11048,8572.98,8079.91,0.0,0.0,0.0,0.0,0.0,0.0,0.0,0.0,SUBURBAN HOSPITAL
2.74,2.65,38.99014,-76.53398,9015.64,8532.48,0.0,0.0,0.0,0.0,0.0,0.0,0.0,0.0,ANNE ARUNDEL MEDICAL CENTER
2.85,2.76,39.32930,-76.61432,9575.79,9127.38,0.0,0.0,0.0,0.0,0.0,0.0,0.0,0.0,UNION MEMORIAL HOSPITAL
2.69,2.60,39.64928,-78.73206,8759.37,8258.40,0.0,0.0,0.0,0.0,0.0,0.0,0.0,0.0,WESTERN MARYLAND REGIONAL MEDICAL CENTER
4.36,4.18,39.29100,-76.54623,17414.21,16480.72,0.0,0.0,0.0,0.0,0.0,0.0,0.0,0.0,JOHNS HOPKINS BAYVIEW MEDICAL CENTER
3.38,3.25,39.55808,-76.99107,12338.86,11658.34,0.0,0.0,0.0,0.0,0.0,0.0,0.0,0.0,CARROLL HOSPITAL CENTER
2.69,2.59,38.76970,-76.07697,8739.05,8240.95,0.0,0.0,0.0,0.0,0.0,0.0,0.0,0.0,MEMORIAL HOSPITAL AT EASTON
2.69,2.59,39.13732,-76.62228,8753.88,8228.55,0.0,0.0,0.0,0.0,0.0,0.0,0.0,0.0,BALTIMORE WASHINGTON  MEDICAL CENTER
2.63,2.53,39.51870,-76.34688,8410.58,7905.85,0.0,0.0,0.0,0.0,0.0,0.0,0.0,0.0,UPPER CHESAPEAKE MEDICAL CENTER
3.00,2.88,38.96851,-76.86203,10335.00,9715.21,0.0,0.0,0.0,0.0,0.0,0.0,0.0,0.0,DOCTORS'  COMMUNITY HOSPITAL
2.88,2.76,38.74827,-76.87590,9705.57,9123.22,0.0,0.0,0.0,0.0,0.0,0.0,0.0,0.0,SOUTHERN MARYLAND HOSPITAL CENTER
2.74,2.65,39.35962,-76.58851,9021.98,8511.46,0.0,0.0,0.0,0.0,0.0,0.0,0.0,0.0,GOOD SAMARITAN HOSPITAL
3.08,2.94,39.09796,-77.19799,10773.27,10020.09,0.0,0.0,0.0,0.0,0.0,0.0,0.0,0.0,SHADY GROVE ADVENTIST HOSPITAL
4.81,2.61,42.37441,-71.13378,19726.61,8338.13,0.0,0.0,0.282,0.0,0.0,0.094,0.0,0.0,MOUNT AUBURN HOSPITAL
4.28,2.31,41.94236,-71.27364,17003.79,6752.86,0.0,0.315,0.472,2.99,0.0,0.0,0.157,0.0,STURDY MEMORIAL HOSPITAL
5.08,2.63,42.70912,-71.14877,21130.95,8428.90,0.0,0.0,1.138,0.114,0.0,0.114,0.0,0.0,LAWRENCE GENERAL HOSPITAL
4.10,2.76,41.65298,-70.27484,16046.02,9097.20,0.0,0.159,0.318,0.106,0.0,0.106,0.053,0.053,CAPE COD HOSPITAL
4.76,2.42,42.81476,-70.89068,19467.08,7348.00,0.0,0.622,0.778,0.0,0.0,0.0,0.0,0.0,ANNA JAQUES HOSPITAL
6.29,3.62,42.35843,-71.05977,27437.40,13588.51,0.0,0.493,0.062,0.123,0.0,0.062,0.308,0.185,BOSTON MEDICAL CENTER CORPORATION
4.54,2.47,42.56407,-70.87543,18345.41,7589.93,0.0,0.397,0.238,0.238,0.0,0.0,0.079,0.079,BEVERLY HOSPITAL CORPORATION
8.45,2.65,42.51078,-70.90712,38599.36,8507.39,0.0,0.108,0.597,0.325,0.0,0.163,0.542,0.054,NORTH SHORE MEDICAL CENTER
5.52,3.13,42.34896,-71.14768,23440.62,11017.08,0.0,0.204,0.306,0.51,0.0,0.102,0.0,0.0,ST ELIZABETH'S MEDICAL CENTER
5.70,2.64,42.03597,-71.09792,24354.73,8490.51,0.0,0.324,0.216,0.108,0.0,0.108,0.0,0.971,SIGNATURE HEALTHCARE BROCKTON HOSPITAL
4.54,2.40,41.94445,-70.64511,18350.13,7211.78,0.0,0.0,0.556,0.0,0.0,0.0,0.278,0.0,JORDAN HOSPITAL INC
5.34,2.86,42.64636,-71.34118,22478.67,9627.09,0.0,0.0,0.397,0.264,0.0,0.0,0.0,0.0,LOWELL GENERAL HOSPITAL
5.74,2.52,42.11449,-72.59502,24564.79,7848.14,0.0,0.33,0.55,0.0,0.0,0.0,0.11,0.0,MERCY MEDICAL CENTER
4.83,2.44,42.25105,-71.01411,19858.23,7421.00,0.0,0.206,0.823,0.0,0.0,0.0,0.206,0.411,QUINCY MEDICAL CENTER
4.19,2.46,42.46049,-71.06203,16541.67,7520.60,0.0,0.251,0.564,0.188,0.0,0.063,0.063,0.063,HALLMARK HEALTH SYSTEM
9.51,3.05,42.36227,-71.06941,44123.79,10591.47,0.028,0.908,0.482,0.312,0.0,0.0,0.17,0.085,MASSACHUSETTS GENERAL HOSPITAL
5.18,2.52,41.70928,-71.14519,21681.02,7880.78,0.028,0.277,0.471,0.138,0.0,0.0,0.111,0.055,SOUTHCOAST HOSPITAL GROUP INC
4.81,2.79,42.12077,-72.60525,19731.02,9257.26,0.0,0.119,0.398,0.398,0.0,0.0,0.239,0.119,BAYSTATE MEDICAL CENTER
4.97,2.45,42.72846,-71.16830,20570.93,7479.10,0.0,0.122,0.0,0.0,0.0,0.122,0.0,0.122,HOLY FAMILY HOSPITAL
4.65,2.47,42.64529,-71.30052,18888.67,7579.91,0.0,0.0,0.308,0.0,0.0,0.0,0.0,0.0,SAINTS  MEDICAL CENTER INC
4.88,3.15,42.33719,-71.10939,20097.73,11124.94,0.0,0.469,0.289,0.397,0.0,0.0,0.036,0.0,BETH ISRAEL DEACONESS MEDICAL CENTER
5.46,2.42,42.13234,-71.52825,23108.86,7348.00,0.0,0.118,0.355,0.355,0.0,0.0,0.0,0.118,MILFORD REGIONAL MEDICAL CENTER
5.05,2.37,42.17644,-70.95398,20958.23,7054.03,0.0,0.204,0.511,0.204,0.0,0.0,0.0,0.102,SOUTH SHORE HOSPITAL
10.69,3.33,42.33600,-71.10704,50252.88,12034.96,0.034,1.091,0.478,0.614,0.0,0.068,0.0,0.273,BRIGHAM AND WOMEN'S HOSPITAL
4.14,2.56,42.09864,-71.06607,16262.71,8051.17,0.0,0.169,0.675,0.169,0.0,0.0,0.084,0.506,GOOD SAMARITAN MEDICAL CENTER
5.25,3.34,42.34951,-71.06331,22029.56,12089.82,0.0,0.407,0.244,0.163,0.0,0.081,0.081,0.0,TUFTS MEDICAL CENTER
4.37,2.35,42.18869,-71.20197,17431.56,6979.71,0.0,0.0,0.189,0.378,0.0,0.0,0.0,0.189,NORWOOD HOSPITAL
4.24,2.38,41.56412,-70.62200,16775.32,7146.89,0.0,0.0,0.27,0.135,0.0,0.27,0.27,0.0,FALMOUTH HOSPITAL
7.27,3.07,42.27720,-71.75922,32502.20,10698.73,0.033,0.36,0.459,0.36,0.0,0.033,0.229,0.033,UMASS MEMORIAL MEDICAL CENTER INC
4.52,2.61,42.48585,-71.20686,18252.22,8335.33,0.0,0.271,0.226,0.045,0.0,0.0,0.0,0.045,LAHEY CLINIC HOSPITAL
4.79,2.71,42.28385,-71.41896,19650.64,8844.47,0.0,0.162,0.081,0.081,0.0,0.0,0.0,0.081,METROWEST MEDICAL CENTER
4.39,2.64,42.26633,-71.79760,17553.58,8504.44,0.0,0.077,0.077,0.231,0.0,0.0,0.0,0.077,ST VINCENT HOSPITAL
4.17,2.21,42.39466,-83.40537,16429.29,6270.63,0.0,0.225,0.845,0.056,0.0,0.0,0.056,0.169,ST MARY MERCY HOSPITAL
4.56,2.36,43.20588,-86.20839,18447.39,7021.71,0.0,0.089,0.892,0.0,0.0,0.0,0.089,0.0,MERCY HEALTH PARTNERS MERCY CAMPUS
5.55,2.63,42.28551,-85.58042,23566.99,8427.95,0.0,0.0,0.179,0.119,0.0,0.0,0.0,0.06,BRONSON METHODIST HOSPITAL
5.79,2.56,42.45741,-83.20513,24826.82,8042.81,0.0,0.539,0.404,0.438,0.0,0.034,0.135,0.0,PROVIDENCE HOSPITAL AND MEDICAL CENTERS
5.41,2.51,42.29077,-83.21504,22825.59,7804.09,0.0,0.653,0.481,0.309,0.0,0.069,0.103,0.034,OAKWOOD HOSPITAL AND MEDICAL CENTER
3.83,2.42,42.08955,-86.47781,14655.86,7315.62,0.0,0.287,0.862,0.144,0.0,0.0,0.072,0.0,LAKELAND HOSPITAL ST JOSEPH
5.56,2.91,42.41911,-83.18228,23627.59,9860.73,0.0,0.703,0.192,0.512,0.0,0.064,0.384,0.128,SINAI-GRACE HOSPITAL
5.35,2.63,42.61425,-83.27602,22524.39,8433.39,0.0,0.532,0.886,0.295,0.0,0.059,0.177,0.0,ST JOSEPH MERCY OAKLAND
3.92,2.43,43.39166,-84.66140,15109.36,7371.64,0.0,0.223,0.223,0.0,0.0,0.0,0.0,0.0,MIDMICHIGAN MEDICAL CENTER-GRATIOT
4.52,2.17,42.95582,-82.43222,18207.94,6045.59,0.0,0.212,0.423,0.0,0.0,0.0,0.0,0.0,ST JOSEPH MERCY PORT HURON
4.96,2.73,42.96881,-85.66649,20517.95,8932.32,0.0,0.275,0.426,0.05,0.0,0.0,0.075,0.025,SPECTRUM HEALTH - BUTTERWORTH CAMPUS
6.27,2.21,43.58941,-83.86908,27302.20,6269.17,0.0,0.576,0.518,0.518,0.0,0.0,0.058,0.23,MCLAREN BAY REGION
8.81,3.56,42.28388,-83.72960,40511.18,13263.33,0.0,0.523,0.628,1.884,0.0,0.0,0.279,0.0,UNIVERSITY OF MICHIGAN HEALTH SYSTEM
4.62,2.36,42.61490,-82.96060,18760.28,7014.72,0.0,0.209,0.962,0.209,0.0,0.0,0.293,0.0,HENRY FORD MACOMB HOSPITAL
6.82,3.09,42.36762,-83.08461,30150.66,10794.36,0.0,0.368,0.501,0.468,0.0,0.033,0.2,0.033,HENRY FORD HOSPITAL
3.86,2.50,46.54758,-87.39560,14819.74,7769.36,0.0,0.375,0.5,0.25,0.0,0.0,0.0,0.125,MARQUETTE GENERAL HOSPITAL
3.41,2.42,42.95817,-85.66253,12456.86,7324.43,0.0,0.162,1.217,0.243,0.0,0.0,0.406,0.081,SAINT MARY'S HEALTH CARE
5.24,2.38,43.42857,-83.95556,21943.81,7112.23,0.0,0.253,0.421,0.211,0.0,0.0,0.295,0.042,COVENANT MEDICAL CENTER INC
4.49,2.25,42.77487,-86.11378,18087.09,6472.22,0.0,0.713,0.951,1.665,0.0,0.238,0.0,0.238,HOLLAND COMMUNITY HOSPITAL
4.11,2.26,42.33111,-85.17817,16121.97,6528.70,0.0,0.196,0.295,0.098,0.0,0.0,0.0,0.0,BRONSON BATTLE CREEK HOSPITAL
6.47,2.34,43.42612,-83.94185,28345.59,6936.62,0.0,0.954,0.556,0.238,0.0,0.0,0.0,0.079,ST MARY'S OF MICHIGAN MEDICAL CENTER
4.89,2.13,43.59935,-84.76097,20145.45,5853.00,0.0,0.0,0.331,0.0,0.0,0.0,0.0,0.0,CENTRAL MICHIGAN COMMUNITY HOSPITAL
5.51,2.23,42.38392,-82.91480,23357.68,6344.61,0.0,0.526,0.263,0.088,0.0,0.0,0.088,0.088,BEAUMONT HOSPITAL GROSSE POINTE
5.81,2.31,42.25117,-84.39240,24902.34,6785.98,0.0,0.0,0.448,0.0,0.0,0.0,0.0,0.064,ALLEGIANCE HEALTH
3.19,2.26,44.26333,-84.24625,11325.63,6533.37,0.0,0.0,0.326,0.653,0.0,0.0,0.0,0.0,WEST BRANCH REGIONAL MEDICAL CENTER
4.61,2.47,44.76156,-85.64143,18703.69,7605.94,0.042,0.21,0.379,0.463,0.0,0.084,0.126,0.042,MUNSON MEDICAL CENTER
5.00,3.12,42.35230,-83.05676,20714.71,10970.32,0.0,0.502,0.144,0.287,0.0,0.0,0.144,0.072,HARPER UNIVERSITY HOSPITAL
4.80,2.47,45.37209,-84.97065,19666.60,7609.00,0.0,0.112,0.784,0.0,0.0,0.0,0.112,0.0,NORTHERN MICHIGAN REGIONAL HOSPITAL
5.41,2.48,42.30489,-85.56152,22840.40,7656.85,0.0,0.803,0.535,0.375,0.0,0.054,0.054,0.054,BORGESS MEDICAL CENTER
7.20,2.62,42.51418,-83.19259,32109.79,8375.52,0.0,0.557,0.298,0.358,0.0,0.0,0.099,0.02,WILLIAM BEAUMONT HOSPITAL
7.40,2.98,43.02135,-83.70308,33176.91,10255.91,0.0,1.113,0.223,0.111,0.0,0.0,0.0,0.223,HURLEY MEDICAL CENTER
6.16,2.54,43.01399,-83.73250,26731.80,7965.61,0.0,0.364,0.591,0.182,0.0,0.0,0.045,0.136,MCLAREN FLINT
5.27,2.34,42.27424,-83.36580,22100.52,6938.29,0.0,0.233,0.117,0.0,0.0,0.0,0.35,0.117,OAKWOOD ANNAPOLIS HOSPITAL
5.28,2.33,42.21065,-83.14861,22149.96,6877.94,0.0,0.232,0.522,0.232,0.0,0.058,0.0,0.0,HENRY FORD WYANDOTTE HOSPITAL
5.06,2.78,42.46176,-83.37629,21044.33,9194.17,0.0,0.066,0.531,0.0,0.0,0.0,0.199,0.0,BOTSFORD HOSPITAL
7.22,2.40,42.26181,-83.66003,32249.63,7248.96,0.0,0.217,0.398,0.434,0.0,0.0,0.108,0.072,ST JOSEPH MERCY HOSPITAL
6.17,2.62,42.41975,-82.91442,26810.79,8388.56,0.0,0.151,0.377,0.339,0.0,0.0,0.075,0.0,ST JOHN HOSPITAL AND MEDICAL CENTER
5.93,2.45,42.70417,-84.55488,25545.20,7490.54,0.0,0.267,0.6,0.333,0.0,0.0,0.0,0.0,MCLAREN - GREATER LANSING
5.83,2.37,42.11695,-83.21365,25010.10,7066.93,0.0,0.0,1.176,0.706,0.0,0.0,0.118,0.0,OAKWOOD SOUTHSHORE MEDICAL CENTER
6.81,2.42,42.50514,-83.00422,30086.72,7360.64,0.0,0.477,0.404,0.845,0.0,0.147,0.073,0.0,ST JOHN MACOMB-OAKLAND HOSPITAL-MACOMB CENTER
5.34,2.62,42.89254,-83.63621,22510.94,8395.31,0.0,0.051,0.355,0.0,0.0,0.102,0.102,0.0,GENESYS REGIONAL MEDICAL CENTER - HEALTH PARK
4.29,2.23,42.98625,-82.42802,17064.93,6355.36,0.0,0.0,0.84,0.28,0.0,0.093,0.093,0.0,PORT HURON HOSPITAL
4.75,2.41,43.63618,-84.26187,19437.65,7305.12,0.0,0.096,0.482,0.096,0.0,0.0,0.289,0.0,MIDMICHIGAN MEDICAL CENTER-MIDLAND
4.35,2.46,42.58900,-82.89799,17364.04,7539.87,0.0,0.066,0.596,0.331,0.0,0.066,0.066,0.0,MOUNT CLEMENS REGIONAL MEDICAL CENTER
5.68,2.61,42.73767,-84.51698,24274.16,8326.66,0.0,0.339,0.484,0.097,0.0,0.0,0.0,0.242,EDWARD W SPARROW HOSPITAL
5.00,2.52,42.85736,-85.71774,20718.72,7843.75,0.0,0.131,0.131,0.262,0.0,0.0,0.131,0.131,METRO HEALTH HOSPITAL
4.72,2.44,42.33215,-83.31195,19255.67,7439.31,0.0,0.117,0.235,0.0,0.0,0.0,0.117,0.0,GARDEN CITY HOSPITAL
6.12,2.27,42.67850,-83.14771,26513.31,6564.06,0.0,0.189,0.944,0.0,0.0,0.0,0.094,0.094,CRITTENTON HOSPITAL MEDICAL CENTER
6.77,2.35,42.61826,-83.09239,29926.80,6992.01,0.0,0.414,0.451,0.338,0.0,0.0,0.038,0.038,WILLIAM BEAUMONT HOSPITAL-TROY
7.41,3.09,42.35295,-83.05447,33224.22,10811.62,0.0,0.486,0.243,1.093,0.0,0.0,0.364,0.0,DETROIT RECEIVING HOSPITAL & UNIV HEALTH CENTER
5.14,2.58,42.59290,-83.49920,21450.50,8182.95,0.0,0.406,0.271,0.271,0.0,0.135,0.135,0.406,HURON VALLEY-SINAI HOSPITAL
4.93,2.12,42.53914,-83.40777,20350.11,5760.32,0.0,0.323,0.646,1.507,0.0,0.0,0.108,0.323,HENRY FORD WEST BLOOMFIELD HOSPITAL
6.59,2.38,45.01403,-93.32177,28975.07,7148.80,0.0,0.114,0.286,0.057,0.0,0.0,0.057,0.114,NORTH MEMORIAL MEDICAL CENTER
5.26,2.46,46.79380,-92.09573,22076.68,7533.92,0.0,0.356,0.64,0.0,0.0,0.0,0.0,0.071,ESSENTIA HEALTH ST MARY'S MEDICAL CENTER
6.65,3.49,44.97210,-93.26240,29297.00,12909.00,0.0,0.984,0.547,2.514,0.0,0.109,0.547,0.656,HENNEPIN COUNTY MEDICAL CENTER
7.01,3.15,44.02052,-92.48292,31172.05,11140.84,0.031,0.862,0.462,0.862,0.0,0.0,0.031,0.123,MAYO CLINIC - SAINT MARYS HOSPITAL
5.02,2.62,45.57390,-94.16942,20840.88,8385.21,0.0,0.599,0.23,0.23,0.0,0.0,0.046,0.184,ST CLOUD HOSPITAL
7.47,2.60,44.94214,-93.10858,33535.18,8263.55,0.0,0.115,0.172,0.172,0.0,0.0,0.0,0.0,UNITED HOSPITAL
6.36,2.39,46.79634,-92.08793,27790.23,7187.04,0.0,0.318,0.318,0.425,0.0,0.0,0.106,0.0,ST LUKES HOSPITAL
3.82,2.40,44.93031,-93.36276,14617.14,7243.97,0.0,0.113,0.395,0.225,0.0,0.056,0.0,0.0,PARK NICOLLET METHODIST HOSPITAL
8.52,2.56,44.95248,-93.26196,39006.71,8060.93,0.0,0.036,0.434,0.723,0.0,0.036,0.0,0.0,ABBOTT NORTHWESTERN HOSPITAL
6.64,2.55,44.94898,-93.10016,29232.84,7989.80,0.0,0.17,0.339,0.085,0.0,0.085,0.085,0.0,ST JOSEPH'S HOSPITAL
4.90,2.38,46.36166,-94.20573,20199.33,7145.00,0.0,0.0,0.187,0.373,0.0,0.0,0.0,0.0,ESSENTIA HEALTH ST JOSEPH'S MEDICAL CENTER
6.40,2.28,44.88645,-93.32693,27984.56,6635.11,0.0,0.161,0.241,0.805,0.0,0.0,0.08,0.08,FAIRVIEW SOUTHDALE HOSPITAL
10.51,3.48,44.96766,-93.23640,49297.72,12827.02,0.0,1.524,0.435,0.363,0.0,0.073,0.145,0.0,UNIVERSITY OF MINNESOTA  MEDICAL CENTER FAIRVIEW
3.84,2.36,44.16396,-94.00412,14700.35,7014.29,0.0,0.275,0.55,0.413,0.0,0.0,0.275,0.138,MAYO CLINIC HEALTH SYSTEM - MANKATO
5.28,2.76,44.95570,-93.09429,22150.35,9076.56,0.0,0.059,0.531,0.531,0.0,0.0,0.0,0.0,REGIONS HOSPITAL
7.00,2.46,45.18355,-93.36789,31107.12,7565.49,0.0,0.067,0.266,0.266,0.0,0.0,0.0,0.133,MERCY HOSPITAL
6.92,2.24,45.10789,-93.25685,30682.57,6405.29,0.0,0.114,0.341,0.114,0.0,0.0,0.0,0.0,UNITY HOSPITAL
6.79,2.34,44.74846,-93.27289,29999.80,6925.20,0.0,0.178,1.065,0.0,0.0,0.0,0.0,0.0,FAIRVIEW RIDGES HOSPITAL
5.61,2.81,32.33069,-90.17030,23872.89,9344.76,0.0,1.097,0.337,1.687,0.0,0.0,0.506,0.337,UNIVERSITY OF MISSISSIPPI MED CENTER
4.18,2.28,34.24336,-88.71753,16455.91,6596.82,0.0,0.044,0.489,0.267,0.0,0.133,0.0,0.044,NORTH MISSISSIPPI MEDICAL CENTER
14.04,2.30,30.39599,-88.89061,67642.93,6703.07,0.0,0.204,0.204,1.022,0.0,0.0,0.0,0.0,BILOXI REGIONAL MEDICAL CENTER
8.26,2.47,34.93596,-88.55955,37648.78,7613.81,0.0,0.0,1.107,0.123,0.0,0.123,0.0,0.0,MAGNOLIA REGIONAL HEALTH CENTER
10.33,2.36,30.36674,-89.11535,48367.73,7005.71,0.0,0.233,1.01,0.311,0.0,0.0,0.311,0.0,MEMORIAL HOSPITAL AT GULFPORT
9.62,2.35,32.35265,-90.87788,44666.41,6992.75,0.0,0.119,0.477,0.477,0.0,0.0,0.0,0.0,RIVER REGION HEALTH SYSTEM
5.29,2.34,34.34899,-89.52062,22221.39,6917.58,0.0,0.124,0.249,2.115,0.0,0.0,0.0,0.249,BAPTIST MEMORIAL HOSPITAL NORTH MS
7.71,2.22,30.37516,-88.53226,34757.57,6312.73,0.0,0.269,0.47,0.269,0.0,0.0,0.134,0.0,SINGING RIVER HOSPITAL
8.59,2.57,34.19610,-90.55208,39369.09,8115.89,0.0,0.199,0.0,0.597,0.0,0.0,0.0,0.0,NORTHWEST MISSISSIPPI REGIONAL MEDICAL CENTER
4.28,2.19,32.33616,-90.15652,16991.99,6149.11,0.0,0.461,0.307,0.154,0.0,0.051,0.717,0.0,ST DOMINIC-JACKSON MEMORIAL HOSPITAL
3.99,2.17,31.69405,-89.13061,15499.78,6035.81,0.0,0.611,1.526,0.153,0.0,0.0,0.0,0.0,SOUTH CENTRAL REG MED CTR
5.97,2.28,32.36983,-88.69702,25738.29,6634.48,0.0,0.412,0.619,0.0,0.0,0.0,0.0,0.0,RUSH FOUNDATION HOSPITAL
10.48,2.30,32.28805,-90.25566,49125.32,6717.59,0.0,0.501,0.167,0.167,0.0,0.0,0.0,0.0,CENTRAL MISSISSIPPI MEDICAL CENTER
4.72,2.31,31.31872,-89.32955,19272.74,6752.82,0.0,0.422,0.528,0.58,0.0,0.0,0.106,0.053,FORREST GENERAL HOSPITAL
5.54,2.40,33.41099,-91.03479,23512.56,7253.67,0.0,0.155,0.155,0.155,0.0,0.0,0.0,0.0,DELTA REGIONAL MEDICAL CENTER
7.76,2.03,31.56671,-91.38800,35034.97,5332.90,0.0,0.0,0.379,0.0,0.0,0.0,0.0,0.0,NATCHEZ REGIONAL MEDICAL CENTER
9.53,2.26,31.32573,-89.36670,44216.92,6499.52,0.0,0.591,0.355,0.118,0.118,0.118,0.0,0.0,WESLEY MEDICAL CENTER
3.63,2.32,31.24000,-90.45000,13603.32,6799.11,0.0,0.0,0.35,0.0,0.0,0.0,0.0,0.35,SOUTHWEST MS REGIONAL MEDICAL CENTER
5.57,2.29,33.52568,-88.42742,23667.88,6646.79,0.0,0.693,0.0,1.039,0.0,0.0,0.0,0.173,BAPTIST MEM HOSP/GOLDEN TRIANGLE INC
7.01,2.20,32.31643,-90.17922,31159.63,6182.45,0.0,0.312,0.989,0.312,0.0,0.104,0.208,0.052,MISSISSIPPI BAPTIST MEDICAL CENTER
5.87,2.19,32.37280,-88.69954,25246.17,6127.44,0.0,0.105,0.738,0.0,0.0,0.0,0.105,0.0,ANDERSON REGIONAL MEDICAL CENTER
5.78,2.32,34.96927,-89.99709,24782.54,6842.10,0.0,0.277,0.416,0.486,0.0,0.0,0.0,0.069,BAPTIST MEMORIAL HOSPITAL DESOTO
6.17,2.19,37.06032,-94.52747,26802.11,6169.00,0.0,0.534,0.686,0.534,0.0,0.0,0.153,0.0,ST JOHN'S REGIONAL MEDICAL CENTER
6.31,2.26,38.78060,-90.48379,27523.73,6488.67,0.0,0.123,0.738,0.738,0.0,0.0,0.0,0.0,SSM ST JOSEPH HEALTH CENTER
5.00,2.64,39.77393,-94.77089,20711.96,8460.46,0.0,0.286,0.571,0.343,0.0,0.057,0.057,0.0,HEARTLAND REGIONAL MEDICAL CENTER
6.11,2.17,38.69946,-93.22211,26489.26,6043.83,0.0,0.334,0.334,0.167,0.0,0.0,0.0,0.0,BOTHWELL REGIONAL HEALTH CENTER
5.64,2.12,38.57670,-92.17352,24060.26,5790.83,0.0,0.117,0.705,0.0,0.0,0.0,0.0,0.0,ST MARYS HEALTH CENTER
7.40,2.50,37.95144,-91.75940,33157.68,7745.60,0.0,0.0,0.445,0.148,0.0,0.0,0.0,0.0,PHELPS COUNTY REGIONAL MEDICAL CENTER
6.73,2.26,38.64281,-90.44448,29695.65,6513.59,0.0,0.686,0.441,0.294,0.0,0.0,0.147,0.196,MERCY HOSPITAL ST LOUIS
4.82,2.16,38.16498,-90.38082,19790.07,5997.14,0.0,0.105,0.42,0.105,0.0,0.0,0.0,0.0,JEFFERSON REGIONAL MEDICAL CENTER
7.35,2.39,39.71116,-91.45071,32925.41,7172.11,0.0,0.0,0.178,0.0,0.0,0.0,0.178,0.0,HANNIBAL REGIONAL HOSPITAL
9.64,2.37,39.00717,-94.55925,44809.20,7102.77,0.0,0.103,0.414,0.207,0.0,0.0,0.0,0.0,RESEARCH MEDICAL CENTER
5.69,2.65,38.63524,-90.26508,24312.03,8531.62,0.0,0.967,0.604,0.121,0.0,0.0,0.29,0.072,BARNES JEWISH HOSPITAL
5.58,2.27,37.14560,-93.28037,23730.84,6556.03,0.0,0.133,0.575,0.354,0.0,0.0,0.044,0.088,COX MEDICAL CENTER
5.61,2.37,38.56571,-92.18204,23872.44,7071.99,0.0,0.135,0.405,0.135,0.0,0.0,0.0,0.0,CAPITAL REGION MEDICAL CENTER
3.55,3.12,39.08401,-94.57591,13199.09,10954.64,0.0,1.435,0.82,0.41,0.0,0.0,0.0,0.41,TRUMAN MEDICAL CENTER HOSPITAL HILL
6.67,2.21,38.55199,-91.00029,29372.50,6239.62,0.0,0.0,0.0,0.547,0.0,0.0,0.0,0.0,MERCY HOSPITAL WASHINGTON
6.48,2.42,39.24809,-94.64928,28382.42,7357.79,0.0,0.0,0.251,0.251,0.0,0.0,0.0,0.0,ST LUKES NORTHLAND HOSPITAL
4.23,2.26,39.17288,-91.87692,16739.64,6485.82,0.0,0.0,0.642,0.0,0.0,0.0,0.0,0.0,AUDRAIN MEDICAL CENTER
6.39,2.23,37.17999,-93.27409,27924.84,6355.87,0.0,0.223,0.356,1.381,0.0,0.0,0.045,0.045,ST JOHN'S REGIONAL HEALTH CENTER
4.85,2.09,38.94903,-92.31563,19943.26,5616.30,0.0,0.114,0.513,0.057,0.0,0.057,0.0,0.0,BOONE HOSPITAL CENTER
10.74,2.51,39.42385,-92.41354,50495.69,7788.00,0.0,0.0,0.426,0.0,0.0,0.0,0.852,0.0,MOBERLY REGIONAL MEDICAL CENTER
5.56,2.11,38.50661,-90.38025,23603.01,5751.38,0.0,1.359,1.15,0.627,0.0,0.0,0.209,0.0,ST ANTHONY'S MEDICAL CENTER
5.37,2.29,36.73801,-91.87553,22644.68,6640.11,0.0,0.0,0.218,0.0,0.0,0.0,0.0,0.0,OZARKS MEDICAL CENTER
5.79,2.14,38.52738,-90.47501,24815.63,5907.66,0.0,0.339,0.566,0.453,0.0,0.113,0.0,0.0,SSM ST CLARE HEALTH CENTER
6.68,2.34,38.93592,-94.60376,29436.49,6916.81,0.0,0.389,0.389,1.264,0.0,0.0,0.0,0.0,ST JOSEPH MEDICAL CENTER
6.31,2.63,38.63268,-90.31089,27544.00,8434.56,0.0,0.449,0.449,0.225,0.0,0.0,0.0,0.0,SSM ST MARYS HEALTH CENTER
5.85,2.23,36.64970,-93.22138,25138.74,6352.98,0.0,0.673,0.841,0.337,0.0,0.0,0.0,0.0,SKAGGS REGIONAL MEDICAL CENTER
9.71,2.32,39.04749,-94.34105,45161.85,6796.62,0.0,0.09,0.358,0.358,0.0,0.0,0.09,0.0,CENTERPOINT MEDICAL CENTER OF INDEPENDENCE LLC
6.29,2.18,39.14957,-94.55148,27433.35,6094.02,0.0,0.421,0.421,1.106,0.0,0.0,0.053,0.053,NORTH KANSAS CITY HOSPITAL
6.36,2.30,38.75097,-90.43255,27803.09,6738.54,0.0,0.338,0.619,0.338,0.0,0.0,0.056,0.0,SSM DEPAUL HEALTH CENTER
8.87,2.95,38.62280,-90.24049,40775.87,10089.50,0.097,0.871,0.29,0.194,0.0,0.0,0.097,0.194,ST LOUIS UNIVERSITY HOSPITAL
5.07,2.16,38.63702,-90.44699,21091.83,6005.81,0.0,0.421,0.374,0.515,0.0,0.0,0.047,0.0,MISSOURI BAPTIST MEDICAL CENTER
8.21,2.37,37.31072,-89.53990,37365.49,7089.71,0.0,0.324,0.757,0.0,0.0,0.108,0.0,0.0,SOUTHEAST MISSOURI HOSPITAL
9.98,2.42,36.78510,-90.42779,46567.75,7356.70,0.0,0.43,0.323,0.215,0.0,0.215,0.108,0.0,POPLAR BLUFF REGIONAL MEDICAL CENTER
4.92,2.30,37.05238,-94.52777,20332.88,6723.16,0.0,0.072,0.795,0.289,0.0,0.144,0.0,0.0,FREEMAN HEALTH SYSTEM - FREEMAN WEST
9.14,2.57,39.04761,-94.59037,42174.87,8139.03,0.062,0.248,0.311,0.373,0.0,0.0,0.124,0.124,ST LUKES HOSPITAL OF KANSAS CITY
6.12,2.58,38.95171,-92.33407,26555.41,8155.70,0.0,0.245,0.327,0.245,0.0,0.0,0.327,0.164,UNIVERSITY OF MISSOURI HEALTH CARE
7.62,2.24,38.58103,-90.45144,34317.19,6391.31,0.0,0.347,0.231,0.463,0.0,0.0,0.0,0.116,DES PERES HOSPITAL
5.82,2.16,39.27591,-94.42572,24959.00,6001.77,0.0,0.264,0.527,0.176,0.0,0.088,0.088,0.0,LIBERTY HOSPITAL
5.07,2.25,38.65123,-90.50301,21104.77,6431.68,0.0,0.296,0.591,0.414,0.0,0.0,0.0,0.059,ST LUKES HOSPITAL
6.86,2.28,38.77576,-90.23906,30346.06,6601.87,0.0,0.15,0.376,0.075,0.0,0.0,0.15,0.0,CHRISTIAN HOSPITAL NORTHEAST
8.28,2.54,37.30401,-89.57190,37747.81,7941.54,0.0,1.223,0.611,0.175,0.0,0.0,0.0,0.087,ST FRANCIS MEDICAL CENTER
6.80,2.47,38.12027,-92.68146,30080.31,7575.94,0.0,0.174,0.87,0.348,0.0,0.0,0.348,0.174,LAKE REGIONAL HEALTH SYSTEM
8.67,2.11,38.90359,-94.33308,39762.29,5720.71,0.0,0.35,0.0,0.35,0.0,0.0,0.0,0.0,LEE'S SUMMIT MEDICAL CENTER
4.96,2.25,38.79427,-90.58049,20493.27,6440.03,0.0,0.162,0.648,0.973,0.0,0.0,0.0,0.0,BARNES-JEWISH ST PETERS HOSPITAL
6.28,2.29,39.02539,-94.26453,27369.43,6686.48,0.0,0.231,0.231,0.694,0.0,0.231,0.0,0.0,ST MARY'S MEDICAL CENTER
5.08,2.38,37.60022,-93.42237,21138.00,7110.06,0.0,0.0,0.0,0.0,0.0,0.0,0.0,0.0,CITIZENS MEMORIAL HOSPITAL
6.50,2.14,38.80334,-90.77619,28484.00,5907.06,0.0,0.315,0.787,0.472,0.0,0.0,0.0,0.157,SSM ST JOSEPH HOSPITAL WEST
8.09,2.29,38.94062,-94.37842,36760.65,6660.43,0.174,0.174,1.22,0.174,0.0,0.0,0.0,0.0,SAINT LUKE'S EAST LEE'S SUMMIT HOSPITAL
4.11,2.77,46.58297,-111.99684,16121.50,9137.33,0.0,0.273,0.273,1.366,0.0,0.0,0.0,0.0,ST PETER'S HOSPITAL
4.92,2.44,45.78958,-108.51283,20324.89,7430.81,0.0,0.09,0.181,0.181,0.0,0.0,0.0,0.0,BILLINGS CLINIC HOSPITAL
5.31,2.45,47.49139,-111.26255,22307.43,7479.51,0.0,0.689,0.574,0.689,0.0,0.0,0.0,0.23,BENEFIS HOSPITALS INC
5.29,2.26,46.87545,-114.00033,22248.11,6514.89,0.0,0.445,0.593,0.148,0.0,0.0,0.0,0.0,ST PATRICK HOSPITAL
4.77,2.38,45.79337,-108.51928,19548.00,7111.73,0.0,0.0,0.313,0.104,0.0,0.0,0.104,0.0,ST VINCENT HEALTHCARE
6.28,2.27,48.21465,-114.32386,27357.79,6586.12,0.0,0.0,0.531,0.531,0.0,0.0,0.0,0.0,KALISPELL REGIONAL MEDICAL CENTER
5.78,2.28,40.78318,-96.63709,24769.80,6617.24,0.0,0.179,0.239,0.598,0.0,0.06,0.0,0.0,BRYANLGH MEDICAL CENTER
