size,lat,lon,price,name
3.42,34.46784,-93.06667,26916.19,ST JOSEPHS MERCY HEALTH CENTER INC
2.67,36.34295,-92.39442,16140.69,BAXTER REGIONAL MEDICAL CENTER
4.30,35.28275,-93.14901,39692.56,ST MARYS REGIONAL MEDICAL CENTER
3.31,35.37445,-94.41868,25351.09,SPARKS REGIONAL MEDICAL CENTER
3.34,34.18894,-92.01886,25822.90,JEFFERSON REGIONAL MEDICAL CENTER
5.13,34.48600,-93.03521,51619.48,NATIONAL PARK MEDICAL CENTER
3.15,34.74866,-92.35422,23035.38,BAPTIST HEALTH MEDICAL CENTER-LITTLE ROCK
3.05,35.80838,-90.66658,21649.80,NEA BAPTIST MEMORIAL HOSPITAL
2.97,35.76927,-91.63408,20494.33,WHITE RIVER MEDICAL CENTER
2.83,34.73868,-92.39307,18529.43,ARKANSAS HEART HOSPITAL
3.15,34.81290,-92.20814,23076.47,ST VINCENT MEDICAL CENTER/NORTH
7.71,37.63362,-122.08802,88770.98,ST ROSE HOSPITAL
4.68,40.78366,-124.14246,45112.96,ST JOSEPH HOSPITAL
6.77,38.32472,-122.29671,75129.22,QUEEN OF THE VALLEY MEDICAL CENTER
5.16,38.54384,-122.47401,52053.62,ST HELENA HOSPITAL
5.23,38.57053,-121.45216,53011.51,MERCY GENERAL HOSPITAL
4.77,35.38736,-119.01690,46417.98,BAKERSFIELD MEMORIAL HOSPITAL
5.32,37.31288,-121.93329,54359.48,SANTA CLARA VALLEY MEDICAL CENTER
6.94,37.79100,-122.43125,77614.18,CALIFORNIA PACIFIC MEDICAL CTR-PACIFIC CAMPUS HOSP
3.71,34.67486,-118.15771,31222.73,ANTELOPE VALLEY HOSPITAL MED CENTER
4.16,36.32737,-119.29548,37683.51,KAWEAH DELTA MEDICAL CENTER
4.00,34.12834,-118.25777,35331.15,GLENDALE MEM HOSPITAL & HLTH CENTER
5.10,33.78036,-117.86495,51196.62,ST JOSEPH HOSPITAL
4.82,37.33569,-121.99595,47149.25,KAISER FOUNDATION HOSPITAL-SANTA CLARA
2.45,37.78248,-122.44290,12975.55,KAISER FOUNDATION HOSPITAL - SAN FRANCISCO
5.77,37.95337,-122.33672,60792.50,DOCTORS MEDICAL CENTER-SAN PABLO
6.01,37.96987,-121.28873,64226.20,ST JOSEPHS MED CENTER OF STOCKTON
3.94,36.83532,-119.76562,34413.50,SAINT AGNES MEDICAL CENTER
4.87,34.10130,-117.63651,47864.82,SAN ANTONIO COMMUNITY HOSPITAL
7.25,32.79949,-117.15394,82118.06,SHARP MEMORIAL HOSPITAL
6.75,34.04932,-118.21746,74884.64,WHITE MEMORIAL MEDICAL CENTER
5.85,38.57155,-121.46874,61980.31,SUTTER GENERAL HOSPITAL
5.16,34.02685,-118.48651,52045.21,SANTA MONICA - UCLA MED CTR & ORTHOPAEDIC HOSPITAL
4.21,36.32362,-119.66726,38351.54,ADVENTIST MEDICAL CENTER
10.54,37.36257,-121.84974,129466.02,REGIONAL MEDICAL CENTER OF SAN JOSE
4.70,34.19494,-118.46319,45420.06,VALLEY PRESBYTERIAN HOSPITAL
4.21,33.18402,-117.29661,38346.72,TRI-CITY MEDICAL CENTER
6.43,39.13822,-121.59436,70217.44,RIDEOUT MEMORIAL HOSPITAL
9.06,37.32710,-121.93863,108131.21,O'CONNOR HOSPITAL
6.01,33.96860,-118.04831,64226.90,PRESBYTERIAN INTERCOMMUNITY HOSPITAL
6.68,38.44369,-122.70138,73946.69,SANTA ROSA MEMORIAL HOSPITAL
7.92,37.55717,-121.98126,91761.56,WASHINGTON HOSPITAL
8.79,37.48000,-122.25441,104246.37,SEQUOIA HOSPITAL
4.45,34.58305,-118.14490,41799.47,PALMDALE REGIONAL MEDICAL CENTER
6.09,32.61972,-117.02278,65408.82,SHARP CHULA VISTA MEDICAL CENTER
4.15,33.62229,-117.92995,37539.50,HOAG MEMORIAL HOSPITAL PRESBYTERIAN
5.50,33.84780,-117.93661,56957.23,AHMC ANAHEIM REGIONAL MEDICAL CENTER
5.26,35.27882,-120.65047,53413.96,FRENCH HOSPITAL MEDICAL CENTER
6.61,34.15601,-118.32834,72891.21,PROVIDENCE SAINT JOSEPH MEDICAL CTR
7.11,33.83862,-116.54557,80009.73,DESERT REGIONAL MEDICAL CENTER
7.09,38.72562,-120.79096,79807.96,MARSHALL MEDICAL CENTER (1-RH)
6.99,34.06675,-118.44613,78323.43,RONALD REAGAN UCLA MEDICAL CENTER
4.62,34.03721,-117.20474,44243.73,REDLANDS COMMUNITY HOSPITAL
5.99,40.58654,-122.39168,63988.83,MERCY MEDICAL CENTER REDDING
7.99,37.69502,-121.88095,92747.90,VALLEYCARE MEDICAL CENTER
4.68,34.03009,-118.47833,45087.53,SAINT JOHN'S HEALTH CENTER
4.89,38.46964,-122.70746,48084.42,SUTTER MEDICAL CENTER OF SANTA ROSA
5.26,34.50107,-117.17285,53434.78,ST MARY MEDICAL CENTER
7.35,37.85593,-122.25730,83560.64,ALTA BATES SUMMIT MEDICAL CENTER - ALTA BATES CAMP
7.97,37.36934,-122.08047,92391.19,EL CAMINO HOSPITAL
4.77,38.76514,-121.24979,46363.03,SUTTER ROSEVILLE MEDICAL CENTER
5.53,32.88461,-117.22244,57350.62,SCRIPPS MEMORIAL HOSPITAL LA JOLLA
4.63,34.05076,-117.26395,44374.60,LOMA LINDA UNIVERSITY MEDICAL CENTER
4.68,33.87236,-117.56809,45076.33,CORONA REGIONAL MEDICAL CENTER
5.08,37.97780,-120.37150,50939.24,SONORA REGIONAL MEDICAL CENTER
6.69,38.12186,-121.28665,73979.00,LODI MEMORIAL HOSPITAL
3.54,34.01501,-118.10064,28667.89,BEVERLY HOSPITAL
3.47,36.22008,-119.33764,27773.53,TULARE REGIONAL MEDICAL CENTER
6.32,37.94748,-122.53677,68647.61,MARIN GENERAL HOSPITAL
10.31,38.26174,-122.04662,126065.00,NORTHBAY MEDICAL CENTER
8.15,37.25153,-121.94684,95070.59,GOOD SAMARITAN HOSPITAL
4.24,33.75117,-116.96028,38811.98,HEMET VALLEY MEDICAL CENTER
5.41,33.93530,-118.13030,55591.30,DOWNEY REGIONAL MEDICAL CENTER
4.94,32.89810,-117.24217,48916.26,SCRIPPS GREEN HOSPITAL
5.23,33.82557,-117.99493,52994.25,WEST ANAHEIM MEDICAL CENTER
4.91,34.13364,-118.15275,48379.24,HUNTINGTON MEMORIAL HOSPITAL
10.27,37.43436,-122.18013,125534.60,STANFORD HOSPITAL
12.00,37.76421,-122.45716,150412.65,UCSF MEDICAL CENTER
4.13,35.38338,-119.01969,37214.27,SAN JOAQUIN COMMUNITY HOSPITAL
9.16,37.66540,-120.99743,109515.54,DOCTORS MEDICAL CENTER
6.10,34.05336,-118.26558,65498.19,GOOD SAMARITAN HOSPITAL
7.24,34.20285,-118.62962,81989.56,WEST HILLS HOSPITAL & MEDICAL CENTER
5.68,34.06389,-118.27347,59436.50,SAINT VINCENT MEDICAL CENTER
4.60,34.52856,-117.29305,43988.71,VICTOR VALLEY COMMUNITY HOSPITAL
5.33,34.20777,-118.88305,54477.32,LOS ROBLES HOSPITAL & MEDICAL CENTER
6.75,33.80441,-118.06665,74961.00,LOS ALAMITOS MEDICAL CENTER
6.78,33.71466,-117.93322,75267.71,FOUNTAIN VALLEY REGIONAL HOSPITAL & MEDICAL CENTER
7.72,38.55484,-121.45628,88815.03,UNIVERSITY OF CALIFORNIA DAVIS MEDICAL CENTER
4.80,33.60883,-117.70881,46772.89,SADDLEBACK MEMORIAL MEDICAL CENTER
8.89,34.07664,-118.37955,105620.37,CEDARS-SINAI MEDICAL CENTER
5.16,33.70167,-117.95566,52045.11,ORANGE COAST MEMORIAL MEDICAL CENTER
4.85,34.47174,-117.29791,47517.00,DESERT VALLEY HOSPITAL
4.49,35.38506,-119.03992,42326.30,BAKERSFIELD HEART HOSPITAL
3.40,36.85992,-119.78858,26694.39,FRESNO HEART AND SURGICAL HOSPITAL
6.36,34.06760,-118.12291,69275.75,GARFIELD MEDICAL CENTER
5.84,33.95076,-118.34828,61824.48,CENTINELA HOSPITAL MEDICAL CENTER
4.75,32.77629,-117.05730,46116.29,ALVARADO HOSPITAL MEDICAL CENTER
5.67,34.17067,-118.53200,59346.83,PROVIDENCE TARZANA MEDICAL CENTER
5.14,40.58532,-122.38702,51785.21,SHASTA REGIONAL MEDICAL CENTER
3.78,33.61478,-117.16918,32149.50,LOMA LINDA UNIVERSITY MEDICAL CENTER-MURRIETA
3.82,40.18134,-105.12769,32774.04,LONGMONT UNITED HOSPITAL
3.80,39.96455,-104.76855,32480.38,PLATTE VALLEY MEDICAL CENTER
3.41,40.57315,-105.05741,26885.18,POUDRE VALLEY HOSPITAL
3.95,38.23421,-104.62292,34641.17,CENTURA HEALTH-ST MARY CORWIN MEDICAL CENTER
3.51,37.23629,-107.82578,28232.92,MERCY REGIONAL MEDICAL CENTER
4.80,39.74615,-104.96682,46849.67,PRESBYTERIAN/ST LUKE'S MEDICAL CENTER
4.51,39.71712,-105.12874,42728.60,CENTURA HEALTH-ST ANTHONY HOSPITAL
4.30,38.28184,-104.61256,39712.79,PARKVIEW MEDICAL CENTER INC
5.46,39.74234,-104.84156,56346.79,UNIVERSITY OF COLORADO HOSPITAL ANSCHUTZ INPATIENT
4.38,40.02615,-105.28391,40867.06,BOULDER COMMUNITY HOSPITAL
4.14,39.74601,-104.96909,37325.42,EXEMPLA SAINT JOSEPH HOSPITAL
3.68,40.41320,-105.05139,30767.35,MCKEE MEDICAL CENTER
3.97,38.86559,-104.82182,34831.34,CENTURA HEALTH-PENROSE ST FRANCIS HEALTH SERVICES
5.35,39.65399,-104.98116,54717.72,SWEDISH MEDICAL CENTER
4.37,39.67005,-104.97490,40660.29,CENTURA HEALTH-PORTER ADVENTIST HOSPITAL
3.81,39.53243,-107.32158,32532.07,VALLEY VIEW HOSPITAL ASSOCIATION
4.57,39.84960,-105.01825,43533.44,CENTURA HEALTH-ST ANTHONY NORTH HOSPITAL
5.49,39.52910,-104.87121,56694.77,SKY RIDGE MEDICAL CENTER
3.17,41.77507,-72.69941,23365.11,ST FRANCIS HOSPITAL & MEDICAL CENTER
4.36,41.55959,-73.05941,40463.00,WATERBURY HOSPITAL
4.95,41.05562,-73.55390,49060.03,STAMFORD HOSPITAL
3.18,41.33722,-72.10380,23602.80,LAWRENCE & MEMORIAL HOSPITAL
4.07,41.18881,-73.16645,36348.57,BRIDGEPORT HOSPITAL
3.54,41.55241,-73.03554,28697.35,SAINT MARYS HOSPITAL
3.96,41.03431,-73.63020,34790.04,GREENWICH HOSPITAL ASSOCIATION
3.06,41.54301,-72.08799,21767.37,WILLIAM W BACKUS HOSPITAL
3.70,41.75412,-72.67927,31065.80,HARTFORD HOSPITAL
4.14,41.20049,-73.20281,37400.37,ST VINCENT'S MEDICAL CENTER
3.60,41.40474,-73.44739,29524.73,DANBURY HOSPITAL
3.05,41.66107,-72.78671,21644.07,HOSPITAL OF CENTRAL CONNECTICUT, THE
2.74,41.73545,-72.79489,17266.33,JOHN DEMPSEY HOSPITAL
3.96,39.74954,-75.56662,34772.85,ST FRANCIS HOSPITAL
3.24,39.15135,-75.52309,24356.43,BAYHEALTH - KENT GENERAL HOSPITAL
3.02,38.64231,-75.60660,21268.41,NANTICOKE MEMORIAL HOSPITAL
3.52,38.77159,-75.14210,28433.42,BEEBE MEDICAL CENTER
3.79,38.90106,-77.05079,32259.82,GEORGE WASHINGTON UNIV HOSPITAL
4.13,38.91770,-77.02193,37188.25,HOWARD UNIVERSITY HOSPITAL
4.07,38.94397,-76.99040,36405.66,PROVIDENCE HOSPITAL
3.94,38.92944,-77.01473,34526.06,WASHINGTON HOSPITAL CENTER
4.11,30.34913,-81.66391,36979.72,SHANDS JACKSONVILLE MEDICAL CENTER
4.02,26.50479,-80.06979,35595.06,BETHESDA MEMORIAL HOSPITAL
4.73,28.52517,-81.37729,45810.88,ORLANDO HEALTH
5.77,25.68309,-80.34038,60808.57,BAPTIST HOSPITAL OF MIAMI INC
5.84,25.78846,-80.21644,61733.75,UNIVERSITY OF MIAMI HOSPITAL
3.00,29.20117,-81.05828,20899.44,HALIFAX HEALTH MEDICAL CENTER
3.62,26.15053,-81.79919,29836.55,NAPLES COMMUNITY HOSPITAL
4.60,25.79143,-80.21250,43910.53,JACKSON MEMORIAL HOSPITAL
4.01,28.83363,-82.33561,35419.97,CITRUS MEMORIAL HOSPITAL
3.63,30.47650,-87.21219,29997.02,SACRED HEART HOSPITAL
3.24,30.15963,-85.64818,24354.52,BAY MEDICAL CENTER
6.29,25.86166,-80.21398,68255.35,NORTH SHORE MEDICAL CENTER
5.02,25.81317,-80.13996,50057.39,MOUNT SINAI MEDICAL CENTER
4.35,26.01867,-80.17981,40411.41,MEMORIAL REGIONAL HOSPITAL
3.61,30.30835,-81.68919,29651.27,ST VINCENT'S MEDICAL CENTER
4.67,27.19837,-80.24306,44902.20,MARTIN MEMORIAL MEDICAL CENTER
3.72,29.04263,-81.31635,31347.25,FLORIDA HOSPITAL DELAND
4.76,28.26092,-82.18802,46298.03,FLORIDA HOSPITAL ZEPHYRHILLS
3.40,26.94042,-82.04094,26750.82,CHARLOTTE REGIONAL MEDICAL CENTER
4.59,28.55140,-81.72120,43803.23,SOUTH LAKE HOSPITAL
3.67,28.13321,-82.75839,30629.75,HELEN ELLIS MEMORIAL HOSPITAL
3.39,29.17594,-82.13898,26627.39,MUNROE REGIONAL MEDICAL CENTER
4.36,28.25431,-82.71447,40441.14,MORTON PLANT NORTH BAY HOSPITAL
4.41,27.78088,-82.65126,41229.00,ST ANTHONY'S HOSPITAL
3.20,29.24333,-81.10760,23781.97,FLORIDA HOSPITAL MEMORIAL MEDICAL CENTER
4.03,27.09043,-82.44499,35793.77,VENICE REGIONAL MEDICAL CENTER
5.50,28.53906,-82.44193,56914.61,BROOKSVILLE REGIONAL HOSPITAL
4.74,26.18711,-80.11941,45956.41,HOLY CROSS HOSPITAL INC
5.51,26.59805,-80.09271,57111.20,JFK MEDICAL CENTER
3.57,28.80659,-81.86906,29179.05,LEESBURG REGIONAL MEDICAL CENTER
4.53,30.31525,-81.66398,42924.62,BAPTIST MEDICAL CENTER
3.95,28.33522,-80.72319,34595.37,WUESTHOFF MEDICAL CENTER  ROCKLEDGE
3.81,30.43066,-87.23191,32595.57,BAPTIST HOSPITAL
2.63,27.65832,-80.39307,15666.12,INDIAN RIVER MEDICAL CENTER
3.84,29.64155,-82.34844,33006.26,SHANDS HOSPITAL AT THE UNIVERSITY OF FLORIDA
4.58,28.01563,-82.13900,43697.57,SOUTH FLORIDA BAPTIST HOSPITAL
4.45,24.58076,-81.74233,41756.28,LOWER KEYS MEDICAL CENTER
3.34,30.26389,-81.44283,25844.78,MAYO CLINIC
6.04,25.70328,-80.29391,64719.95,SOUTH MIAMI HOSPITAL, INC
4.42,28.06172,-81.95304,41391.88,LAKELAND REGIONAL MEDICAL CENTER
4.50,28.81611,-81.28351,42478.64,CENTRAL FLORIDA REGIONAL HOSPITAL
5.94,27.30187,-82.45428,63276.60,DOCTORS HOSPITAL OF SARASOTA
4.25,28.36005,-80.62309,38855.87,CAPE CANAVERAL HOSPITAL
5.14,26.26259,-80.20292,51780.64,NORTHWEST MEDICAL CENTER
5.76,25.73195,-80.38580,60625.82,KENDALL REGIONAL MEDICAL CENTER
4.72,28.34805,-82.19963,45655.68,PASCO REGIONAL MEDICAL CENTER
4.19,27.48213,-82.62126,38121.48,BLAKE MEDICAL CENTER
5.25,26.12354,-80.25951,53295.16,WESTSIDE REGIONAL MEDICAL CENTER
3.36,29.64481,-81.69431,26057.57,PUTNAM COMMUNITY MEDICAL CENTER
5.38,27.93259,-82.28759,55119.47,BRANDON REGIONAL HOSPITAL
4.36,27.43392,-80.34350,40531.32,LAWNWOOD REGIONAL MEDICAL CENTER & HEART INSTITUTE
3.72,26.92138,-80.09708,31336.58,JUPITER MEDICAL CENTER
5.25,28.36128,-82.68883,53349.42,REGIONAL MEDICAL CENTER BAYONET POINT
5.90,26.43709,-80.12728,62598.33,DELRAY MEDICAL CENTER
5.77,27.28861,-80.29431,60830.82,ST LUCIE MEDICAL CENTER
6.13,28.53585,-82.53404,65911.51,OAK HILL HOSPITAL
3.99,28.03957,-82.70875,35192.11,MEASE COUNTRYSIDE HOSPITAL
5.64,26.94996,-82.32651,58879.81,ENGLEWOOD COMMUNITY HOSPITAL
5.12,26.68337,-80.25269,51494.44,PALMS WEST HOSPITAL
4.12,26.01394,-80.30980,37024.31,MEMORIAL HOSPITAL WEST
4.35,26.21388,-81.73257,40379.76,PHYSICIANS REGIONAL MEDICAL CENTER - PINE RIDGE
4.12,26.70181,-80.05055,37021.87,GOOD SAMARITAN MEDICAL CENTER
3.57,26.08155,-80.36449,29086.65,CLEVELAND CLINIC HOSPITAL
4.76,30.37837,-86.30696,46256.82,SACRED HEART HOSPITAL ON THE EMERALD COAST
4.20,27.38993,-82.43343,38167.47,LAKEWOOD RANCH MEDICAL CENTER
3.62,34.78963,-84.98398,29800.91,HAMILTON MEDICAL CENTER
3.17,31.22516,-82.34898,23415.78,SATILLA REGIONAL MEDICAL CENTER
2.90,34.94766,-85.26296,19480.92,HUTCHESON MEDICAL CENTER
3.28,31.59023,-84.15756,25016.49,PHOEBE PUTNEY MEMORIAL HOSPITAL
4.31,34.24569,-84.49068,39844.00,NORTHSIDE HOSPITAL CHEROKEE
3.70,33.79230,-84.32107,31040.40,EMORY UNIVERSITY HOSPITAL
3.07,33.03204,-85.05781,22025.06,WEST GEORGIA MEDICAL CENTER
3.11,33.60237,-83.84809,22511.00,NEWTON MEDICAL CENTER
3.74,34.51192,-84.92579,31638.49,GORDON HOSPITAL
3.58,32.02825,-81.09977,29243.25,CANDLER HOSPITAL
2.82,33.47096,-81.98176,18423.81,UNIVERSITY HOSPITAL
3.67,34.30335,-83.81737,30512.61,NORTHEAST GEORGIA MEDICAL CENTER, INC
4.50,34.19990,-84.79378,42494.00,CARTERSVILLE MEDICAL CENTER
3.48,33.47091,-81.98988,27868.71,MEDICAL COLLEGE OF GA HOSPITALS AND CLINICS
3.69,33.96770,-84.55011,30890.06,WELLSTAR KENNESTONE HOSPITAL
3.15,31.98515,-81.15475,23109.05,ST JOSEPH'S HOSPITAL - SAVANNAH
3.54,34.26000,-85.17000,28707.13,FLOYD MEDICAL CENTER
3.23,32.61642,-83.63065,24214.69,HOUSTON MEDICAL CENTER
3.66,33.96117,-83.39832,30414.27,ATHENS REGIONAL MEDICAL CENTER
2.89,33.78956,-84.28077,19339.00,DEKALB MEDICAL CENTER
3.43,33.76810,-84.38616,27071.82,EMORY UNIVERSITY HOSPITAL MIDTOWN
3.69,33.75205,-84.38272,30801.53,GRADY MEMORIAL HOSPITAL
3.54,33.90877,-84.35180,28687.03,SAINT JOSEPH'S HOSPITAL OF ATLANTA, INC
3.11,33.68072,-84.00200,22569.38,ROCKDALE MEDICAL CENTER
3.28,31.47069,-83.50473,24990.44,TIFT REGIONAL MEDICAL CENTER
3.75,32.83041,-83.63476,31789.32,MEDICAL CENTER OF CENTRAL GEORGIA
5.59,33.76372,-84.37315,58191.31,ATLANTA MEDICAL CENTER
2.99,30.86250,-83.28630,20775.42,SOUTH GEORGIA MEDICAL CENTER
3.22,32.20903,-82.37585,24081.41,MEADOWS REGIONAL MEDICAL CENTER
3.65,33.85638,-84.60446,30268.18,WELLSTAR COBB HOSPITAL
3.96,33.90903,-84.35410,34741.19,NORTHSIDE HOSPITAL
3.60,32.84705,-83.61823,29577.28,COLISEUM MEDICAL CENTER
3.37,33.57843,-84.38897,26236.53,SOUTHERN REGIONAL MEDICAL CENTER
4.14,33.48259,-82.09038,37340.09,DOCTORS HOSPITAL
3.14,33.51144,-84.22200,22909.17,HENRY MEDICAL CENTER, INC
5.32,34.06334,-84.31976,54344.27,NORTH FULTON REGIONAL HOSPITAL
3.07,33.45252,-84.50697,21978.72,PIEDMONT FAYETTE HOSPITAL
4.94,33.68000,-84.42685,48848.50,SOUTH FULTON MEDICAL CENTER
3.23,34.06670,-84.17643,24252.00,EMORY JOHNS CREEK HOSPITAL
3.22,21.30780,-157.85505,24125.89,THE QUEENS MEDICAL CENTER
3.82,21.38095,-157.75759,32671.75,CASTLE MEDICAL CENTER
2.98,21.32239,-157.85662,20604.82,KUAKINI MEDICAL CENTER
3.36,21.30226,-157.85092,26160.19,STRAUB CLINIC AND HOSPITAL
3.15,43.61218,-116.19234,23132.59,ST LUKES REGIONAL MEDICAL CENTER
3.27,43.55374,-116.57267,24853.76,SAINT ALPHONSUS MEDICAL CENTER - NAMPA
3.60,43.46987,-111.99208,29565.51,EASTERN IDAHO REGIONAL MEDICAL CENTER
3.98,42.06550,-87.68428,35051.73,EVANSTON HOSPITAL
3.28,40.75318,-89.59321,24976.12,PROCTOR HOSPITAL
3.96,39.93563,-91.39833,34797.36,BLESSING HOSPITAL
4.07,41.86011,-87.69571,36292.33,MT SINAI HOSPITAL MEDICAL CENTER
5.46,41.72930,-88.26976,56398.33,COPLEY MEMORIAL HOSPITAL
3.49,38.52908,-89.11604,28017.26,ST MARYS HOSPITAL
4.45,41.80160,-89.69714,41835.18,CGH MEDICAL CENTER
2.88,38.32292,-88.91026,19209.65,GOOD SAMARITAN REGIONAL HLTH CENTER
4.12,41.72636,-87.56727,37088.67,ADVOCATE TRINITY HOSPITAL
4.17,41.89141,-87.77618,37774.70,WEST SUBURBAN MEDICAL CENTER
4.28,42.05624,-87.74012,39294.40,SKOKIE HOSPITAL
3.10,39.80726,-89.64496,22370.63,ST JOHNS HOSPITAL
3.89,41.83195,-87.79266,33682.30,MACNEAL  HOSPITAL
3.81,41.66900,-87.81414,32619.61,PALOS COMMUNITY HOSPITAL
3.85,40.70200,-89.59222,33126.23,SAINT FRANCIS MEDICAL CENTER
4.79,42.37840,-87.83329,46662.74,VISTA MEDICAL CENTER EAST
6.20,41.78829,-87.60485,67050.10,THE UNIVERSITY OF CHICAGO MEDICAL CENTER
3.64,41.36897,-88.42537,30091.48,MORRIS HOSPITAL & HEALTHCARE CENTERS
3.70,40.11739,-88.22714,31005.28,PROVENA COVENANT MEDICAL CENTER- URBANA
5.43,41.97532,-87.69958,55919.87,SWEDISH COVENANT HOSPITAL
3.47,42.31832,-88.27920,27694.75,CENTEGRA HEALTH SYSTEM - MC HENRY HOSPITAL
4.05,41.80555,-87.92059,36073.74,HINSDALE HOSPITAL
2.64,41.87381,-87.67421,15724.05,JOHN H STROGER JR HOSPITAL
7.86,38.70148,-90.14382,90897.43,GATEWAY REGIONAL MEDICAL CENTER
2.91,40.49639,-88.99106,19674.55,BROMENN HEALTHCARE
4.15,41.76946,-87.69239,37450.08,HOLY CROSS HOSPITAL
4.42,41.86927,-87.67052,41377.46,UNIVERSITY OF ILLINOIS HOSPITAL
4.74,41.12049,-87.87187,45944.43,PROVENA ST MARYS HOSPITAL
3.53,41.84639,-87.62345,28528.29,MERCY HOSPITAL AND MEDICAL CENTER
3.30,42.29592,-89.63773,25220.85,FHN MEMORIAL HOSPITAL
2.88,37.72790,-89.22058,19227.92,MEMORIAL HOSPITAL OF CARBONDALE
3.54,39.82659,-88.93119,28649.55,ST MARYS HOSPITAL
5.45,41.78566,-88.32886,56118.59,PROVENA MERCY MEDICAL CENTER
4.23,41.72094,-87.69220,38591.42,LITTLE COMPANY OF MARY HOSPITAL
4.77,41.90414,-87.68254,46388.64,ST MARY & ELIZABETH MED CTR-DIVISION CAMPUS
3.35,41.12572,-87.88526,25928.54,RIVERSIDE MEDICAL CENTER
3.46,38.51081,-89.99014,27555.68,ST ELIZABETH HOSPITAL
3.96,41.86362,-87.93567,34752.69,ELMHURST MEMORIAL HOSPITAL
4.25,42.27447,-87.95764,38864.21,ADVOCATE CONDELL MEDICAL CENTER
3.82,41.72031,-87.73249,32709.80,ADVOCATE CHRIST HOSPITAL & MEDICAL CENTER
4.39,41.88566,-88.34311,40950.34,DELNOR COMMUNITY HOSPITAL
4.80,42.03576,-88.32575,46847.81,PROVENA - SAINT JOSEPH HOSPITAL
4.13,42.03837,-87.84820,37256.37,ADVOCATE LUTHERAN GENERAL HOSPITAL
4.24,41.93418,-87.63579,38819.16,SAINT JOSEPH HOSPITAL
3.88,42.26584,-89.07428,33569.76,SWEDISH AMERICAN HOSPITAL
4.54,42.26634,-89.00900,43038.92,SAINT ANTHONY MEDICAL CENTER
3.56,42.29844,-89.09897,29070.69,ROCKFORD MEMORIAL HOSPITAL
4.39,41.89166,-87.84838,40903.37,WESTLAKE COMMUNITY HOSPITAL
3.44,41.56720,-87.69566,27229.32,ADVOCATE SOUTH SUBURBAN HOSPITAL
4.73,41.94560,-87.76897,45794.42,OUR LADY OF THE RESURRECTION MED CTR
2.88,41.49581,-90.41871,19173.70,GENESIS MEDICAL CENTER ILLINI CAMPUS
2.85,41.48200,-90.57158,18796.45,TRINITY ROCK ISLAND
4.25,41.96185,-88.72130,38961.48,KISHWAUKEE COMMUNITY HOSPITAL
3.70,41.81791,-88.00907,30989.97,ADVOCATE GOOD SAMARITAN HOSPITAL
3.38,38.73818,-89.94728,26464.21,ANDERSON HOSPITAL
4.13,41.91465,-88.05724,37217.92,ADVENTIST GLENOAKS
3.38,39.76255,-86.50165,26436.00,HENDRICKS REGIONAL HEALTH
4.00,41.61055,-86.72511,35306.75,INDIANA UNIVERSITY HEALTH LA PORTE HOSPITAL
3.51,40.44665,-86.12707,28276.94,HOWARD REGIONAL HEALTH SYSTEM
3.31,41.63466,-87.44901,25376.08,ST CATHERINE HOSPITAL INC
3.38,40.48720,-86.15548,26415.33,ST JOSEPH HOSPITAL & HEALTH CENTER INC
3.28,41.70639,-86.89936,24973.23,FRANCISCAN ST ANTHONY HEALTH - MICHIGAN CITY
3.28,41.70568,-85.93404,24957.58,ELKHART GENERAL HOSPITAL
3.35,41.51266,-87.26125,26052.89,ST MARY MEDICAL CENTER INC
4.24,41.46729,-87.05130,38766.02,PORTER VALPARAISO HOSPITAL
3.98,39.79009,-86.16260,35063.19,INDIANA UNIVERSITY HEALTH
3.26,40.04526,-86.02297,24718.45,RIVERVIEW HOSPITAL
3.85,39.78704,-86.07673,33189.66,COMMUNITY HOSPITAL EAST
3.43,37.98293,-87.57072,27201.90,DEACONESS HOSPITAL INC
4.30,39.91001,-86.19660,39644.90,ST VINCENT HOSPITAL & HEALTH SERVICES
3.19,39.11138,-84.88343,23725.08,DEARBORN COUNTY HOSPITAL
3.23,40.09594,-85.68152,24309.55,SAINT JOHN'S HEALTH SYSTEM
4.11,40.19679,-85.41573,36850.40,INDIANA UNIVERSITY HEALTH BALL MEMORIAL HOSPITAL
3.83,37.96320,-87.50292,32947.14,ST MARY'S MEDICAL CENTER OF EVANSVILLE INC
3.33,39.21585,-85.89683,25622.50,COLUMBUS REGIONAL HOSPITAL
2.51,38.39499,-86.94089,13894.50,MEMORIAL HOSPITAL AND HEALTH CARE CENTER
3.52,39.94017,-86.15975,28462.88,ST VINCENT HEART CENTER OF INDIANA LLC
3.70,39.90201,-86.04478,31000.08,INDIANA HEART HOSPITAL THE
3.75,39.95930,-86.16016,31710.15,INDIANA UNIVERSITY HEALTH NORTH HOSPITAL
3.34,39.64935,-86.07960,25905.15,FRANCISCAN ST FRANCIS HEALTH - INDIANAPOLIS
3.81,40.40296,-86.80885,32656.56,INDIANA UNIVERSITY HEALTH ARNETT HOSPITAL
3.07,37.97481,-87.44457,21888.87,THE HEART HOSPITAL AT DEACONESS GATEWAY LLC
3.25,38.33336,-85.75165,24599.54,KENTUCKIANA MEDICAL CENTER LLC
2.85,42.04855,-92.90625,18803.30,MARSHALLTOWN MEDICAL & SURGICAL CENTER
2.88,42.49388,-94.18926,19227.57,TRINITY REGIONAL MEDICAL CENTER
4.15,41.26886,-95.83923,37481.93,ALEGENT HEALTH MERCY HOSPITAL
3.43,41.66411,-91.52841,27103.43,MERCY HOSPITAL
2.91,41.54190,-90.55691,19699.13,GENESIS MEDICAL CENTER-DAVENPORT
3.49,41.98570,-91.66093,28042.38,ST LUKES HOSPITAL
3.47,41.26786,-95.83505,27665.32,JENNIE EDMUNDSON HOSPITAL
4.46,41.66092,-91.54800,41902.48,UNIVERSITY OF IOWA HOSPITAL & CLINICS
3.24,43.15063,-93.21718,24367.46,MERCY MEDICAL CENTER-NORTH IOWA
3.31,41.97864,-91.65507,25410.79,MERCY MEDICAL CENTER - CEDAR RAPIDS
2.93,41.86141,-90.18921,19874.39,MERCY MEDICAL CENTER-CLINTON
3.35,41.59886,-93.62344,26010.72,MERCY MEDICAL CENTER-DES MOINES
2.68,42.51846,-96.40581,16289.55,ST LUKES REGIONAL MEDICAL CENTER
3.27,42.49250,-96.39975,24805.61,MERCY MEDICAL CENTER-SIOUX CITY
3.16,37.37991,-94.68739,23281.42,VIA CHRISTI HOSPITAL PITTSBURG INC
3.46,38.83324,-97.61028,27597.07,SALINA REGIONAL HEALTH CENTER
4.15,38.87847,-99.29923,37527.61,HAYS MEDICAL CENTER
3.10,39.05660,-95.69599,22319.06,ST FRANCIS HEALTH CENTER INC
3.10,38.85279,-94.82413,22411.86,OLATHE MEDICAL CENTER
3.56,38.02419,-97.33117,28958.45,NEWTON MEDICAL CENTER
4.52,37.69556,-97.29785,42870.95,WESLEY MEDICAL CENTER
3.25,38.97848,-95.24771,24504.25,LAWRENCE MEMORIAL HOSPITAL
4.28,39.12677,-94.78643,39337.21,PROVIDENCE MEDICAL CENTER
3.18,37.78537,-100.01492,23606.00,WESTERN PLAINS MEDICAL COMPLEX
5.17,38.93763,-94.72630,52215.38,OVERLAND PARK REG MED CTR
4.37,38.91047,-94.65205,40711.52,MENORAH MEDICAL CENTER
4.20,38.90355,-94.66966,38221.25,SAINT LUKE'S SOUTH HOSPITAL
2.63,37.73142,-97.26078,15578.20,GALICHIA HEART HOSPITAL LLC
3.34,39.07816,-84.46695,25852.58,ST ELIZABETH FT THOMAS
2.96,38.47021,-82.63498,20438.70,KING'S DAUGHTERS' MEDICAL CENTER
3.87,37.11784,-84.10910,33413.80,SAINT JOSEPH HOSPITAL LONDON
2.58,37.01079,-85.90342,14843.76,T J SAMSON COMMUNITY HOSPITAL
3.51,38.18397,-83.43268,28220.74,ST CLAIRE REGIONAL MEDICAL CENTER
3.33,38.63961,-83.80820,25689.79,MEADOWVIEW REGIONAL MEDICAL CENTER
3.46,37.27729,-83.22802,27546.91,HAZARD ARH REGIONAL MEDICAL CENTER
3.17,39.06704,-84.49946,23393.39,ST ELIZABETH MEDICAL CENTER NORTH
2.85,37.76518,-87.10197,18747.98,OWENSBORO MEDICAL HEALTH SYSTEM
4.49,37.47264,-82.52605,42386.58,PIKEVILLE MEDICAL CENTER
2.77,37.36583,-85.33917,17592.41,TAYLOR REGIONAL HOSPITAL
2.92,37.33959,-87.48988,19777.37,REGIONAL MEDICAL CENTER OF HOPKINS COUNTY
2.97,38.01849,-84.51236,20443.58,CENTRAL BAPTIST HOSPITAL
3.50,38.16020,-84.90519,28159.84,FRANKFORT REGIONAL MEDICAL CENTER
3.47,37.08724,-84.61828,27711.17,LAKE CUMBERLAND REGIONAL HOSPITAL
3.77,37.56166,-83.37202,32047.92,KENTUCKY RIVER MEDICAL CENTER
3.06,30.20227,-92.01906,21767.30,LAFAYETTE GENERAL MEDICAL CENTER
4.06,30.00890,-91.79475,36211.73,DAUTERIVE HOSPITAL
3.61,29.59851,-90.71397,29653.03,TERREBONNE GENERAL MEDICAL CENTER
6.17,30.46813,-90.45814,66562.67,NORTH OAKS MEDICAL CENTER, LLC
3.17,30.54354,-92.07608,23362.51,OPELOUSAS GENERAL HEALTH SYSTEM
3.78,31.28258,-92.46060,32111.60,CHRISTUS ST FRANCES CABRINI HOSPITAL
4.41,30.65001,-91.13821,41245.31,LANE REGIONAL MEDICAL CENTER
4.10,31.31451,-92.44997,36767.12,RAPIDES REGIONAL MEDICAL CENTER
4.23,30.28456,-89.77038,38584.42,SLIDELL MEMORIAL HOSPITAL AND MEDICAL CENTER
3.85,30.84189,-93.28906,33164.90,BEAUREGARD MEMORIAL HOSPITAL
3.61,30.20458,-93.19774,29780.30,LAKE CHARLES MEMORIAL HOSPITAL
3.24,30.40118,-91.11160,24392.86,OUR LADY OF THE LAKE REGIONAL MEDICAL CENTER
3.02,30.45015,-91.15273,21260.06,BATON ROUGE GENERAL MEDICAL CENTER
4.70,32.51544,-92.63343,45461.70,NORTHERN LOUISIANA MEDICAL CENTER
2.55,32.48177,-93.76264,14533.17,LSU HEALTH SCIENCES CENTER - SHREVEPORT
3.29,32.48393,-93.77884,25093.60,WILLIS KNIGHTON MEDICAL CENTER
3.44,32.61700,-93.28566,27235.57,MINDEN MEDICAL CENTER
3.74,30.01438,-90.18155,31575.43,EAST JEFFERSON GENERAL HOSPITAL
3.98,31.13861,-93.26892,34997.58,BYRD REGIONAL HOSPITAL
4.65,30.07331,-90.51602,44701.00,RIVER PARISHES HOSPITAL
6.05,29.95570,-90.07587,64853.56,TULANE MEDICAL CENTER
3.25,30.35437,-89.91917,24521.73,LOUISIANA MEDICAL CENTER AND HEART HOSPITAL, LLC
3.11,30.17316,-92.02697,22509.81,HEART HOSPITAL OF LAFAYETTE
2.69,43.65325,-70.27533,16509.00,MAINE MEDICAL CENTER
2.69,43.47840,-70.49221,16497.62,SOUTHERN MAINE MEDICAL CENTER
3.20,44.10107,-70.21432,23755.55,CENTRAL MAINE MEDICAL CENTER
2.18,39.62183,-77.68219,9133.56,MERITUS MEDICAL CENTER
2.67,39.28817,-76.62438,16194.85,UNIVERSITY OF MARYLAND MEDICAL CENTER
2.36,38.93090,-76.92161,11693.98,PRINCE GEORGES HOSPITAL CENTER
2.51,39.01578,-77.03591,13908.64,HOLY CROSS HOSPITAL
2.34,39.42366,-77.41386,11435.74,FREDERICK MEMORIAL HOSPITAL
2.15,39.38813,-76.61068,8724.26,SAINT JOSEPH MEDICAL CENTER
2.78,39.29688,-76.59242,17731.49,JOHNS HOPKINS HOSPITAL, THE
2.19,39.27352,-76.67219,9339.94,SAINT AGNES HOSPITAL
2.21,39.35262,-76.66196,9533.53,SINAI HOSPITAL OF BALTIMORE
2.31,39.35169,-76.47919,11082.39,FRANKLIN SQUARE HOSPITAL CENTER
2.00,38.36248,-75.59799,6561.05,PENINSULA REGIONAL MEDICAL CENTER
2.17,38.99014,-76.53398,9015.64,ANNE ARUNDEL MEDICAL CENTER
2.21,39.32930,-76.61432,9575.79,UNION MEMORIAL HOSPITAL
2.40,39.55808,-76.99107,12338.86,CARROLL HOSPITAL CENTER
2.15,38.76970,-76.07697,8739.05,MEMORIAL HOSPITAL AT EASTON
2.15,39.13732,-76.62228,8753.88,BALTIMORE WASHINGTON  MEDICAL CENTER
2.13,39.51870,-76.34688,8410.58,UPPER CHESAPEAKE MEDICAL CENTER
2.22,38.74827,-76.87590,9705.57,SOUTHERN MARYLAND HOSPITAL CENTER
2.17,39.35962,-76.58851,9021.98,GOOD SAMARITAN HOSPITAL
2.29,39.09796,-77.19799,10773.27,SHADY GROVE ADVENTIST HOSPITAL
2.92,42.37441,-71.13378,19726.61,MOUNT AUBURN HOSPITAL
3.01,42.70912,-71.14877,21130.95,LAWRENCE GENERAL HOSPITAL
2.90,42.81476,-70.89068,19467.08,ANNA JAQUES HOSPITAL
2.82,42.56407,-70.87543,18345.41,BEVERLY HOSPITAL CORPORATION
4.23,42.51078,-70.90712,38599.36,NORTH SHORE MEDICAL CENTER
3.17,42.34896,-71.14768,23440.62,ST ELIZABETH'S MEDICAL CENTER
3.24,42.03597,-71.09792,24354.73,SIGNATURE HEALTHCARE BROCKTON HOSPITAL
2.82,41.94445,-70.64511,18350.13,JORDAN HOSPITAL INC
3.11,42.64636,-71.34118,22478.67,LOWELL GENERAL HOSPITAL
2.69,42.46049,-71.06203,16541.67,HALLMARK HEALTH SYSTEM
4.61,42.36227,-71.06941,44123.79,MASSACHUSETTS GENERAL HOSPITAL
3.05,41.70928,-71.14519,21681.02,SOUTHCOAST HOSPITAL GROUP, INC
2.92,42.12077,-72.60525,19731.02,BAYSTATE MEDICAL CENTER
2.97,42.72846,-71.16830,20570.93,HOLY FAMILY HOSPITAL
2.86,42.64529,-71.30052,18888.67,SAINTS  MEDICAL CENTER INC
3.00,42.17644,-70.95398,20958.23,SOUTH SHORE HOSPITAL
5.04,42.33600,-71.10704,50252.88,BRIGHAM AND WOMEN'S HOSPITAL
2.67,42.09864,-71.06607,16262.71,GOOD SAMARITAN MEDICAL CENTER
3.08,42.34951,-71.06331,22029.56,TUFTS MEDICAL CENTER
2.76,42.18869,-71.20197,17431.56,NORWOOD HOSPITAL
2.71,41.56412,-70.62200,16775.32,FALMOUTH HOSPITAL
2.91,42.28385,-71.41896,19650.64,METROWEST MEDICAL CENTER
2.83,43.20588,-86.20839,18447.39,MERCY HEALTH PARTNERS, MERCY CAMPUS
3.27,42.45741,-83.20513,24826.82,PROVIDENCE HOSPITAL AND MEDICAL CENTERS
3.13,42.29077,-83.21504,22825.59,OAKWOOD HOSPITAL AND MEDICAL CENTER
3.11,42.61425,-83.27602,22524.39,ST JOSEPH MERCY OAKLAND
2.97,42.96881,-85.66649,20517.95,SPECTRUM HEALTH - BUTTERWORTH CAMPUS
3.44,43.58941,-83.86908,27302.20,MCLAREN BAY REGION
2.85,42.61490,-82.96060,18760.28,HENRY FORD MACOMB HOSPITAL
3.64,42.36762,-83.08461,30150.66,HENRY FORD HOSPITAL
3.07,43.42857,-83.95556,21943.81,COVENANT MEDICAL CENTER, INC
2.80,42.77487,-86.11378,18087.09,HOLLAND COMMUNITY HOSPITAL
2.66,42.33111,-85.17817,16121.97,BRONSON BATTLE CREEK HOSPITAL
3.51,43.42612,-83.94185,28345.59,ST MARY'S OF MICHIGAN MEDICAL CENTER
2.94,43.59935,-84.76097,20145.45,CENTRAL MICHIGAN COMMUNITY HOSPITAL
3.28,42.25117,-84.39240,24902.34,ALLEGIANCE HEALTH
2.33,44.26333,-84.24625,11325.63,WEST BRANCH REGIONAL MEDICAL CENTER
3.85,43.02135,-83.70308,33176.91,HURLEY MEDICAL CENTER
3.08,42.21065,-83.14861,22149.96,HENRY FORD WYANDOTTE HOSPITAL
3.32,42.70417,-84.55488,25545.20,MCLAREN - GREATER LANSING
3.28,42.11695,-83.21365,25010.10,OAKWOOD SOUTHSHORE MEDICAL CENTER
3.11,42.89254,-83.63621,22510.94,GENESYS REGIONAL MEDICAL CENTER - HEALTH PARK
2.73,42.98625,-82.42802,17064.93,PORT HURON HOSPITAL
2.88,42.33215,-83.31195,19255.67,GARDEN CITY HOSPITAL
3.39,42.67850,-83.14771,26513.31,CRITTENTON HOSPITAL MEDICAL CENTER
3.62,42.61826,-83.09239,29926.80,WILLIAM BEAUMONT HOSPITAL-TROY
3.85,42.35295,-83.05447,33224.22,DETROIT RECEIVING HOSPITAL & UNIV HEALTH CENTER
3.04,42.59290,-83.49920,21450.50,HURON VALLEY-SINAI HOSPITAL
2.96,42.53914,-83.40777,20350.11,HENRY FORD WEST BLOOMFIELD HOSPITAL
3.08,46.79380,-92.09573,22076.68,ESSENTIA HEALTH ST MARY'S MEDICAL CENTER
3.58,44.97210,-93.26240,29297.00,HENNEPIN COUNTY MEDICAL CENTER
2.99,45.57390,-94.16942,20840.88,ST CLOUD HOSPITAL
3.48,46.79634,-92.08793,27790.23,ST LUKES HOSPITAL
4.26,44.95248,-93.26196,39006.71,ABBOTT NORTHWESTERN HOSPITAL
2.95,46.36166,-94.20573,20199.33,ESSENTIA HEALTH ST JOSEPH'S MEDICAL CENTER
3.49,44.88645,-93.32693,27984.56,FAIRVIEW SOUTHDALE HOSPITAL
3.08,44.95570,-93.09429,22150.35,REGIONS HOSPITAL
3.71,45.18355,-93.36789,31107.12,MERCY HOSPITAL
3.68,45.10789,-93.25685,30682.57,UNITY HOSPITAL
3.63,44.74846,-93.27289,29999.80,FAIRVIEW RIDGES HOSPITAL
2.69,34.24336,-88.71753,16455.91,NORTH MISSISSIPPI MEDICAL CENTER
3.09,34.34899,-89.52062,22221.39,BAPTIST MEMORIAL HOSPITAL NORTH MS
4.96,32.28805,-90.25566,49125.32,CENTRAL MISSISSIPPI MEDICAL CENTER
2.49,31.24000,-90.45000,13603.32,SOUTHWEST MS REGIONAL MEDICAL CENTER
3.19,33.52568,-88.42742,23667.88,BAPTIST MEM HOSP/GOLDEN TRIANGLE INC
3.71,32.31643,-90.17922,31159.63,MISSISSIPPI BAPTIST MEDICAL CENTER
3.30,32.37280,-88.69954,25246.17,ANDERSON REGIONAL MEDICAL CENTER
3.41,37.06032,-94.52747,26802.11,ST JOHN'S REGIONAL MEDICAL CENTER
3.85,37.95144,-91.75940,33157.68,PHELPS COUNTY REGIONAL MEDICAL CENTER
2.92,38.16498,-90.38082,19790.07,JEFFERSON REGIONAL MEDICAL CENTER
3.83,39.71116,-91.45071,32925.41,HANNIBAL REGIONAL HOSPITAL
4.66,39.00717,-94.55925,44809.20,RESEARCH MEDICAL CENTER
3.23,38.63524,-90.26508,24312.03,BARNES JEWISH HOSPITAL
2.46,39.08401,-94.57591,13199.09,TRUMAN MEDICAL CENTER HOSPITAL HILL
2.71,39.17288,-91.87692,16739.64,AUDRAIN MEDICAL CENTER
3.49,37.17999,-93.27409,27924.84,ST JOHN'S REGIONAL HEALTH CENTER
2.93,38.94903,-92.31563,19943.26,BOONE HOSPITAL CENTER
5.05,39.42385,-92.41354,50495.69,MOBERLY REGIONAL MEDICAL CENTER
3.18,38.50661,-90.38025,23603.01,ST ANTHONY'S MEDICAL CENTER
3.12,36.73801,-91.87553,22644.68,OZARKS MEDICAL CENTER
3.46,38.63268,-90.31089,27544.00,SSM ST MARYS HEALTH CENTER
3.29,36.64970,-93.22138,25138.74,SKAGGS REGIONAL MEDICAL CENTER
4.68,39.04749,-94.34105,45161.85,CENTERPOINT MEDICAL CENTER OF INDEPENDENCE, LLC
3.48,38.75097,-90.43255,27803.09,SSM DEPAUL HEALTH CENTER
4.38,38.62280,-90.24049,40775.87,ST LOUIS UNIVERSITY HOSPITAL
4.14,37.31072,-89.53990,37365.49,SOUTHEAST MISSOURI HOSPITAL
4.78,36.78510,-90.42779,46567.75,POPLAR BLUFF REGIONAL MEDICAL CENTER
2.96,37.05238,-94.52777,20332.88,FREEMAN HEALTH SYSTEM - FREEMAN WEST
4.48,39.04761,-94.59037,42174.87,ST LUKES HOSPITAL OF KANSAS CITY
3.39,38.95171,-92.33407,26555.41,UNIVERSITY OF MISSOURI HEALTH CARE
3.28,39.27591,-94.42572,24959.00,LIBERTY HOSPITAL
3.65,38.77576,-90.23906,30346.06,CHRISTIAN HOSPITAL NORTHEAST
3.63,38.12027,-92.68146,30080.31,LAKE REGIONAL HEALTH SYSTEM
4.31,38.90359,-94.33308,39762.29,LEE'S SUMMIT MEDICAL CENTER
2.97,38.79427,-90.58049,20493.27,BARNES-JEWISH ST PETERS HOSPITAL
3.01,37.60022,-93.42237,21138.00,CITIZENS MEMORIAL HOSPITAL
4.10,38.94062,-94.37842,36760.65,SAINT LUKE'S EAST LEE'S SUMMIT HOSPITAL
2.66,46.58297,-111.99684,16121.50,ST PETER'S HOSPITAL
3.19,40.70646,-99.08136,23665.04,GOOD SAMARITAN HOSPITAL
3.93,41.25522,-95.97892,34306.20,THE NEBRASKA MEDICAL CENTER
3.33,40.80816,-96.62689,25735.81,SAINT ELIZABETH REGIONAL MEDICAL CENTER
3.10,40.92425,-98.37053,22355.15,ST FRANCIS MEDICAL CENTER
6.05,41.26509,-95.95494,64827.52,CREIGHTON UNIVERSITY MEDICAL CENTER - SAINT JOSEPH
2.85,40.59160,-98.38755,18827.42,MARY LANNING MEMORIAL HOSPITAL
3.84,41.25797,-96.04164,32993.81,THE NEBRASKA METHODIST HOSPITAL
3.56,41.88690,-103.66400,29072.67,REGIONAL WEST MEDICAL CENTER
3.01,41.12081,-100.77062,21104.00,GREAT PLAINS REGIONAL MEDICAL CENTER
3.39,41.45152,-96.49184,26588.48,FREMONT AREA MEDICAL CENTER
4.46,41.13585,-96.04011,41986.91,ALEGENT HEALTH MIDLANDS HOSPITAL
3.70,42.03257,-97.45100,30970.27,FAITH REGIONAL HEALTH SERVICES
2.37,40.73657,-96.59332,11913.09,NEBRASKA HEART HOSPITAL
4.27,41.23771,-96.18052,39254.00,ALEGENT HEALTH LAKESIDE HOSPITAL
6.49,36.13459,-115.13576,71111.87,SUNRISE HOSPITAL AND MEDICAL CENTER
6.21,36.19568,-115.12284,67142.86,NORTH VISTA HOSPITAL
3.34,39.53066,-119.82067,25790.72,SAINT MARY'S REGIONAL MEDICAL CENTER
5.87,36.03931,-114.98259,62257.76,SAINT ROSE DOMINICAN HOSPITAL - DE LIMA
4.33,39.20247,-119.78446,40088.12,CARSON TAHOE REGIONAL MEDICAL CENTER
6.61,36.16380,-115.16574,72884.06,VALLEY HOSPITAL MEDICAL CENTER
4.56,39.54241,-119.69736,43399.62,NORTHERN NEVADA MEDICAL CENTER
6.21,36.21599,-115.25095,67118.04,MOUNTAINVIEW HOSPITAL
6.27,36.16586,-115.32436,68030.77,SUMMERLIN HOSPITAL MEDICAL CENTER
5.43,36.00527,-115.11618,55897.60,SAINT ROSE DOMINICAN HOSPITAL - SIENA CAMPUS
5.56,36.28588,-115.28772,57821.39,CENTENNIAL HILLS HOSPITAL MEDICAL CENTER
3.67,43.19846,-71.56230,30616.71,CONCORD HOSPITAL
3.41,43.67286,-72.27232,26867.44,MARY HITCHCOCK MEMORIAL HOSPITAL
3.31,42.75004,-71.48100,25355.20,ST JOSEPH HOSPITAL
2.95,43.00792,-71.46807,20180.64,ELLIOT HOSPITAL
3.62,43.21231,-70.87499,29898.08,WENTWORTH-DOUGLASS HOSPITAL
3.00,42.75623,-71.46059,20902.05,SOUTHERN NH MEDICAL CENTER
3.47,42.98369,-70.93511,27734.19,EXETER HOSPITAL INC
3.30,43.06469,-70.78916,25267.50,PORTSMOUTH REGIONAL HOSPITAL
5.19,40.88346,-74.05564,52447.03,HACKENSACK UNIVERSITY MEDICAL CENTER
7.06,40.71011,-74.21368,79341.29,NEWARK BETH ISRAEL MEDICAL CENTER
3.82,40.53142,-74.86080,32740.97,HUNTERDON MEDICAL CENTER
4.18,40.88275,-74.01021,37923.96,HOLY NAME MEDICAL CENTER
5.47,40.35684,-74.66166,56521.63,UNIVERSITY MEDICAL CENTER AT PRINCETON
3.54,39.08752,-74.81657,28692.21,CAPE REGIONAL MEDICAL CENTER INC
4.19,40.98359,-74.10047,38057.22,VALLEY HOSPITAL
5.79,39.94152,-75.11680,61017.51,COOPER UNIVERSITY HOSPITAL
4.40,40.78883,-74.46620,41026.92,MORRISTOWN MEMORIAL HOSPITAL
7.21,40.73417,-74.04977,81468.50,CHRIST HOSPITAL
5.43,40.21634,-74.74143,55957.49,ST FRANCIS MEDICAL CENTER
5.77,39.78261,-74.91670,60746.23,VIRTUA WEST JERSEY HOSPITALS BERLIN
7.15,40.61288,-74.29092,80699.54,ROBERT WOOD JOHNSON UNIVERSITY HOSPITAL AT RAHWAY
9.41,40.66805,-74.11334,113226.03,BAYONNE HOSPITAL CENTER
6.03,39.44743,-75.05838,64462.39,SOUTH JERSEY HEALTHCARE REGIONAL MEDICAL CENTER
5.54,40.35309,-74.06484,57467.84,RIVERVIEW MEDICAL CENTER
6.02,40.51891,-74.28183,64392.79,RARITAN BAY MEDICAL CENTER
7.52,40.29209,-74.80327,86028.33,CAPITAL HEALTH MEDICAL CENTER - HOPEWELL
4.70,40.90400,-73.96847,45335.19,ENGLEWOOD HOSPITAL AND MEDICAL CENTER
5.18,40.89538,-74.46479,52340.42,SAINT CLARE'S HOSPITAL
4.34,40.71264,-74.35460,40209.21,OVERLOOK HOSPITAL
5.77,40.07832,-74.13009,60796.68,OCEAN MEDICAL CENTER
5.70,40.81058,-74.20459,59757.88,MOUNTAINSIDE HOSPITAL
6.82,39.35775,-74.43449,75934.60,ATLANTICARE REGIONAL MEDICAL CENTER - CITY DIV
5.87,40.76190,-74.30335,62240.39,SAINT BARNABAS MEDICAL CENTER
5.53,40.07503,-74.21832,57289.21,KIMBALL MEDICAL CENTER
5.20,40.55784,-74.34970,52555.60,JFK MEDICAL CTR - ANTHONY M. YELENCSICS COMMUNITY
6.18,40.21575,-74.67273,66698.22,ROBERT WOOD JOHNSON UNIVERSITY HOSPITAL HAMILTON
3.36,35.65960,-105.94578,26060.58,ST VINCENT HOSPITAL
3.23,36.72387,-108.21749,24299.29,SAN JUAN REGIONAL MEDICAL CENTER
4.36,32.32310,-106.72900,40580.91,MOUNTAIN VIEW REGIONAL MEDICAL CENTER
3.51,41.92720,-73.99535,28256.17,KINGSTON HOSPITAL
2.33,42.87482,-78.84942,11254.53,KALEIDA HEALTH
4.43,42.65345,-73.77543,41576.69,ALBANY MEDICAL CENTER HOSPITAL
2.88,40.70141,-73.81630,19290.60,JAMAICA HOSPITAL MEDICAL CENTER
4.02,41.69441,-73.93432,35646.55,VASSAR BROTHERS MEDICAL CENTER
3.76,40.79041,-73.95386,31935.65,MOUNT SINAI HOSPITAL
3.36,40.72548,-73.55287,26120.07,NASSAU UNIVERSITY MEDICAL CENTER
4.58,40.63588,-74.10556,43607.84,RICHMOND UNIVERSITY MEDICAL CENTER
2.89,43.09840,-75.27819,19345.20,FAXTON-ST LUKE'S HEALTHCARE
4.37,40.80556,-73.96131,40660.48,ST LUKE'S ROOSEVELT HOSPITAL
3.35,40.74722,-73.82521,25994.76,NEW YORK HOSPITAL MEDICAL CENTER OF QUEENS
3.36,40.68983,-73.97794,26129.33,BROOKLYN HOSPITAL CENTER AT DOWNTOWN CAMPUS
3.26,42.65583,-73.80372,24671.71,ST PETER'S HOSPITAL
2.77,42.10076,-76.82800,17667.31,ARNOT OGDEN MEDICAL CENTER
4.37,40.77686,-73.70212,40593.20,NORTH SHORE UNIVERSITY HOSPITAL
2.40,43.19244,-77.58590,12287.90,ROCHESTER GENERAL HOSPITAL
4.14,41.44138,-74.36821,37279.29,ORANGE REGIONAL MEDICAL CENTER
2.40,43.05571,-76.14981,12334.31,ST JOSEPH'S HOSPITAL HEALTH CENTER
5.27,40.78000,-72.97763,53532.04,BROOKHAVEN MEMORIAL HOSPITAL MEDICAL CENTER
3.09,42.81963,-73.91653,22251.00,ELLIS HOSPITAL
3.84,40.73265,-73.98162,33089.67,BETH ISRAEL MEDICAL CENTER
3.31,42.73354,-73.67249,25338.86,SAMARITAN HOSPITAL
4.48,40.80462,-73.67023,42171.92,ST FRANCIS HOSPITAL, ROSLYN
2.65,43.30652,-73.64663,15953.86,GLENS FALLS HOSPITAL
3.83,40.75332,-73.70899,32841.12,LONG ISLAND JEWISH MEDICAL CENTER
3.39,40.65189,-73.63096,26623.45,SOUTH NASSAU COMMUNITIES HOSPITAL
3.72,40.96967,-73.88447,31238.05,ST JOHN'S RIVERSIDE HOSPITAL
3.88,40.74335,-73.97408,33584.10,NYU HOSPITALS CENTER
2.77,42.92531,-78.83111,17693.26,ERIE COUNTY MEDICAL CENTER
3.97,40.70419,-73.91754,34920.45,WYCKOFF HEIGHTS MEDICAL CENTER
3.11,43.08561,-73.79712,22467.50,SARATOGA HOSPITAL
2.62,43.19054,-77.70177,15423.37,UNITY HOSPITAL OF ROCHESTER
2.79,42.74285,-73.67673,17861.57,SETON HEALTH SYSTEM-ST MARY'S CAMPUS
3.12,40.65533,-73.91221,22737.28,BROOKDALE HOSPITAL MEDICAL CENTER
4.91,41.08773,-73.80395,48480.18,WESTCHESTER MEDICAL CENTER
2.94,40.66762,-73.97850,20152.62,NEW YORK METHODIST HOSPITAL
2.73,42.08997,-79.23058,17052.83,WOMAN'S CHRISTIAN ASSOCIATION
3.01,43.04269,-76.14043,21089.85,UNIVERSITY HOSPITAL S U N Y HEALTH SCIENCE CENTER
3.72,41.50307,-74.01517,31260.54,ST LUKE'S CORNWALL HOSPITAL
2.56,42.84782,-78.81264,14616.33,MERCY HOSPITAL
4.16,40.69327,-73.29412,37653.00,GOOD SAMARITAN HOSPITAL MEDICAL CENTER
3.63,40.64666,-74.02049,29969.56,LUTHERAN MEDICAL CENTER
2.53,42.47286,-76.53849,14132.41,CAYUGA MEDICAL CENTER AT ITHACA
2.83,40.65508,-73.94521,18432.01,UNIVERSITY HOSPITAL OF BROOKLYN ( DOWNSTATE )
2.86,42.11422,-75.95851,19003.12,UNITED HEALTH SERVICES HOSPITALS, INC
4.75,40.85738,-73.18681,46134.00,ST CATHERINE OF SIENA HOSPITAL
3.37,35.57658,-82.54922,26218.35,MEMORIAL MISSION HOSPITAL AND ASHEVILLE SURGERY CE
2.77,35.95000,-80.00000,17612.06,HIGH POINT REGIONAL HOSPITAL
3.08,34.75124,-79.46789,22148.82,SCOTLAND MEMORIAL HOSPITAL
2.95,36.07581,-80.29779,20264.66,FORSYTH MEMORIAL HOSPITAL
3.06,35.68172,-80.47072,21766.79,ROWAN REGIONAL MEDICAL CENTER
2.62,35.32080,-82.46812,15501.33,MARGARET R PARDEE MEMORIAL HOSPITAL
3.50,35.30288,-81.53571,28099.83,CLEVELAND REGIONAL MEDICAL CENTER
3.03,35.29053,-77.58307,21330.07,LENOIR MEMORIAL HOSPITAL
4.02,36.00850,-78.94006,35650.40,DUKE UNIVERSITY HOSPITAL
3.37,35.79986,-80.87863,26224.08,IREDELL MEMORIAL HOSPITAL INC
3.32,35.60726,-77.40477,25591.19,PITT COUNTY MEMORIAL HOSPITAL
2.80,36.09062,-80.27161,18070.79,NORTH CAROLINA BAPTIST HOSPITAL
3.61,35.22196,-80.83287,29649.55,PRESBYTERIAN HOSPITAL
2.83,35.90529,-79.04963,18564.22,UNIVERSITY OF NORTH CAROLINA HOSPITAL
3.35,35.78523,-78.58836,26028.31,WAKEMED, RALEIGH CAMPUS
2.67,36.06347,-79.50208,16266.06,ALAMANCE REGIONAL MEDICAL CENTER
2.79,36.09251,-79.78855,17988.63,MOSES H CONE MEMORIAL HOSPITAL, THE
3.47,35.21029,-80.82084,27670.90,CAROLINAS MED CENTER-MERCY
3.06,36.32690,-76.22370,21749.43,ALBEMARLE HOSPITAL AUTHORITY
3.28,35.71850,-77.94518,25036.14,WILSON MEDICAL CENTER
2.92,34.97382,-80.52250,19742.22,CAROLINAS MEDICAL CENTER-UNION
3.12,35.71664,-81.26661,22601.16,CATAWBA VALLEY MEDICAL CENTER
3.67,36.04960,-78.90617,30569.62,DURHAM REGIONAL HOSPITAL
3.46,35.11432,-80.71971,27506.69,PRESBYTERIAN HOSPITAL MATTHEWS
3.23,35.52586,-82.94351,24305.86,MEDWEST HAYWOOD
2.84,46.80739,-100.77773,18672.06,ST ALEXIUS MEDICAL CENTER
2.83,48.23258,-101.28843,18430.10,TRINITY HOSPITALS
3.06,46.88496,-96.78609,21820.60,SANFORD MEDICAL CENTER FARGO
2.63,46.80798,-100.78229,15620.00,MEDCENTER ONE
2.89,47.91045,-97.06742,19308.33,ALTRU HOSPITAL
2.95,46.83250,-96.82805,20245.97,ESSENTIA HEALTH-FARGO
3.33,39.08582,-84.34886,25733.06,MERCY HOSPITAL ANDERSON
4.03,39.13707,-84.50392,35816.77,UNIVERSITY HOSPITAL, INC
3.37,40.03064,-83.03440,26255.61,RIVERSIDE METHODIST HOSPITAL
3.43,38.75320,-82.97800,27066.34,SOUTHERN OHIO MEDICAL CENTER
3.13,40.73578,-84.08630,22816.06,LIMA MEMORIAL HEALTH SYSTEM
3.40,39.20680,-84.38093,26709.03,JEWISH HOSPITAL, LLC
3.07,39.96098,-82.99077,22014.50,GRANT MEDICAL CENTER
3.95,41.01476,-81.58913,34657.55,SUMMA HEALTH SYSTEM BARBERTON HOSPITAL
3.25,41.44642,-82.70864,24590.25,FIRELANDS REGIONAL MEDICAL CENTER
3.49,41.07747,-81.53042,27923.06,AKRON GENERAL MEDICAL CENTER
3.17,41.49640,-81.67376,23376.72,ST VINCENT CHARITY MEDICAL CENTER
3.22,40.39967,-82.44822,24146.38,KNOX COMMUNITY HOSPITAL
2.79,41.38265,-81.73127,17996.64,PARMA COMMUNITY GENERAL HOSPITAL
3.21,41.61788,-83.61632,23979.65,UNIVERSITY OF TOLEDO MEDICAL CENTER
5.91,39.74547,-84.18523,62797.84,MIAMI VALLEY HOSPITAL
5.98,39.78778,-84.23493,63859.62,GOOD SAMARITAN HOSPITAL
2.93,38.84439,-82.23902,19873.49,HOLZER MEDICAL CENTER
3.29,39.31257,-84.51774,25057.59,MERCY HOSPITAL FAIRFIELD
2.57,40.81219,-81.39625,14799.94,MERCY MEDICAL CENTER
2.79,39.71750,-82.57772,17995.25,FAIRFIELD MEDICAL CENTER
3.25,41.17554,-81.24915,24538.00,ROBINSON MEMORIAL HOSPITAL
3.37,40.09873,-80.72072,26209.31,EAST OHIO REGIONAL HOSPITAL
4.42,39.99445,-83.01872,41385.95,OHIO STATE UNIVERSITY HOSPITALS
3.08,41.55725,-83.68141,22087.61,ST LUKE'S HOSPITAL
2.67,41.01785,-83.65165,16235.81,BLANCHARD VALLEY HOSPITAL
3.63,41.66317,-81.24696,29985.52,LAKE HEALTH
4.08,41.66810,-83.54275,36469.54,MERCY ST VINCENT MEDICAL CENTER
3.89,41.39496,-81.53484,33817.28,UHHS BEDFORD MEDICAL CENTER
3.22,40.75264,-82.52803,24111.24,MEDCENTRAL HEALTH SYSTEM
3.07,41.43653,-81.94451,21937.95,ST JOHN MEDICAL CENTER
3.00,41.88034,-80.79553,20987.05,ASHTABULA COUNTY MEDICAL CENTER
3.93,41.42112,-81.59808,34340.76,MARYMOUNT HOSPITAL
2.78,41.36649,-82.09708,17791.50,EMH REGIONAL MEDICAL CENTER
3.49,39.43061,-81.46454,28009.04,MARIETTA MEMORIAL HOSPITAL
3.31,40.80656,-81.51633,25438.81,AFFINITY MEDICAL CENTER
3.64,41.37028,-81.83189,30109.90,SOUTHWEST GENERAL HEALTH CENTER
3.54,41.43688,-82.23761,28709.64,MERCY REGIONAL MEDICAL CENTER
4.59,41.50248,-81.62110,43861.57,CLEVELAND CLINIC
2.94,40.04115,-81.57789,20099.29,SOUTHEASTERN OHIO REGIONAL MEDICAL CENTER
4.07,41.48479,-81.79649,36399.62,LAKEWOOD HOSPITAL
3.69,41.52013,-81.43291,30809.26,HILLCREST HOSPITAL
4.01,39.35830,-84.36785,35474.15,WEST CHESTER MEDICAL CENTER
5.26,34.00655,-96.39398,53457.59,MEDICAL CENTER OF SOUTHEASTERN OKLAHOMA
3.52,35.75351,-95.40612,28482.16,MUSKOGEE REGIONAL MEDICAL CENTER
4.37,36.39385,-97.87094,40668.92,ST MARY'S REGIONAL MEDICAL CENTER
3.92,35.52531,-97.58461,34153.80,DEACONESS HOSPITAL
3.26,35.47800,-97.52352,24705.58,ST ANTHONY HOSPITAL
3.87,36.32303,-95.60538,33452.96,CLAREMORE REGIONAL HOSPITAL
3.83,34.18908,-97.14128,32876.78,MERCY MEMORIAL HEALTH CENTER
3.34,36.14675,-95.99969,25903.92,OKLAHOMA STATE UNIVERSITY MEDICAL CENTER
2.42,35.91530,-94.94996,12665.00,TAHLEQUAH CITY HOSPITAL
5.54,35.46721,-97.39370,57521.46,MIDWEST REGIONAL MEDICAL CENTER
3.21,36.58133,-94.75864,23981.12,INTEGRIS GROVE HOSPITAL
2.94,36.13393,-95.96718,20147.25,ST JOHN MEDICAL CENTER, INC
4.10,36.03590,-95.86511,36805.50,SOUTHCREST HOSPITAL
3.25,35.60901,-97.59429,24472.04,OKLAHOMA HEART HOSPITAL
3.74,45.54248,-122.66972,31641.57,LEGACY EMANUEL MEDICAL CENTER
3.01,44.60322,-123.25312,21073.38,GOOD SAMARITAN REGIONAL MEDICAL CENTER
3.80,45.53028,-122.69692,32486.39,LEGACY GOOD SAMARITAN MEDICAL CENTER
3.30,42.31769,-122.83333,25284.78,ROGUE VALLEY MEDICAL CENTER
3.08,44.06773,-121.26817,22102.89,ST CHARLES MEDICAL CENTER - BEND
3.18,44.93267,-123.03418,23513.60,SALEM HOSPITAL
3.17,45.51288,-122.55630,23337.89,ADVENTIST MEDICAL CENTER
2.91,45.52677,-122.61469,19608.58,PROVIDENCE PORTLAND MEDICAL CENTER
3.21,45.19897,-123.16482,23911.16,WILLAMETTE VALLEY MEDICAL CENTER
3.55,42.34086,-122.86108,28925.33,PROVIDENCE MEDFORD MEDICAL CENTER
3.00,41.40075,-75.64594,20874.68,COMMUNITY MEDICAL CENTER
3.92,40.96789,-76.60506,34234.92,GEISINGER MEDICAL CENTER
4.03,42.11102,-80.07912,35696.49,SAINT VINCENT HEALTH CENTER
2.70,40.97877,-76.88593,16606.07,EVANGELICAL COMMUNITY HOSPITAL
2.82,41.01409,-80.35398,18415.27,JAMESON MEMORIAL HOSPITAL
3.63,40.43609,-79.98537,30038.25,UPMC MERCY
2.51,40.71251,-80.32136,13891.88,HERITAGE VALLEY BEAVER
2.29,39.90180,-79.73854,10718.44,UNIONTOWN HOSPITAL
2.57,40.18302,-80.24767,14706.75,WASHINGTON HOSPITAL, THE
2.84,41.24548,-77.01438,18672.49,WILLIAMSPORT REGIONAL MEDICAL CENTER
3.84,40.45705,-80.00363,33070.30,ALLEGHENY GENERAL HOSPITAL
3.47,40.36358,-75.32621,27724.81,GRAND VIEW HOSPITAL
4.95,42.13338,-80.08703,49039.78,UPMC HAMOT
7.56,40.10226,-74.86338,86591.12,LOWER BUCKS HOSPITAL
3.01,40.52204,-78.39824,21125.15,ALTOONA REGIONAL HEALTH SYSTEM
2.63,41.11492,-78.77515,15651.69,DUBOIS REGIONAL MEDICAL CENTER
3.83,40.04740,-76.30540,32922.72,LANCASTER GENERAL HOSPITAL
3.94,40.48928,-79.89596,34525.15,UPMC ST MARGARET
5.93,40.12453,-75.33533,63106.97,MONTGOMERY HOSPITAL
7.29,39.95045,-75.19259,82604.11,HOSPITAL OF UNIV OF PENNSYLVANIA
3.19,41.64205,-80.14579,23681.47,MEADVILLE MEDICAL CENTER
4.56,40.07160,-74.98341,43400.28,ARIA HEALTH
4.45,40.60000,-75.47000,41733.01,LEHIGH VALLEY HOSPITAL
2.96,40.30103,-79.55505,20424.46,EXCELA HEALTH WESTMORELAND REGIONAL HOSPITAL
3.20,39.93492,-77.64744,23807.60,CHAMBERSBURG HOSPITAL
4.44,40.04475,-75.50425,41663.83,MAIN LINE HOSPITAL PAOLI
6.18,39.92871,-75.26873,66648.42,MERCY FITZGERALD HOSPITAL
5.45,40.68708,-75.24272,56139.34,EASTON HOSPITAL
5.61,39.94969,-75.15712,58438.76,THOMAS JEFFERSON UNIVERSITY HOSPITAL
3.22,39.97024,-75.60259,24050.59,CHESTER COUNTY HOSPITAL
8.75,39.85598,-75.36791,103684.03,CROZER CHESTER MEDICAL CENTER
2.70,42.07400,-80.09368,16651.54,MILLCREEK COMMUNITY HOSPITAL
3.46,40.99225,-75.17466,27605.29,POCONO MEDICAL CENTER
3.89,40.18739,-76.18224,33769.22,EPHRATA COMMUNITY HOSPITAL
2.92,40.37782,-80.06589,19782.27,ST CLAIR MEMORIAL HOSPITAL
5.78,40.12077,-75.11818,60886.41,ABINGTON MEMORIAL HOSPITAL
3.84,40.20064,-74.92952,33101.40,ST MARY MEDICAL CENTER
2.69,40.31802,-79.93494,16526.45,JEFFERSON REGIONAL MEDICAL CENTER
3.03,40.42897,-79.74808,21406.14,WESTERN PENNSYLVANIA HOSP FORBES REGIONAL CAMPUS
3.38,40.81936,-77.84273,26456.11,MOUNT NITTANY MEDICAL CENTER
4.30,41.25855,-75.81041,39576.98,GEISINGER WYOMING VALLEY MEDICAL CENTER
8.93,39.95658,-75.16249,106189.23,HAHNEMANN UNIVERSITY HOSPITAL
3.97,41.81254,-71.40760,34921.15,RHODE ISLAND HOSPITAL
4.03,42.00497,-71.49561,35736.08,LANDMARK MEDICAL CENTER,  INC
3.67,41.85172,-71.39826,30521.85,MIRIAM HOSPITAL
3.05,34.96733,-81.94021,21621.87,SPARTANBURG REGIONAL MEDICAL CENTER
3.38,34.69403,-82.98884,26423.73,OCONEE MEDICAL CENTER
3.98,34.02839,-81.03539,35065.38,PALMETTO HEALTH RICHLAND
5.57,34.71787,-80.78844,57860.77,SPRINGS MEMORIAL HOSPITAL
3.16,34.24654,-80.60702,23242.62,KERSHAW HEALTH
3.50,33.78555,-79.00178,28131.38,CONWAY MEDICAL CENTER
3.93,34.19543,-79.76256,34321.90,MCLEOD REGIONAL MEDICAL CENTER-PEE DEE
3.70,33.62185,-80.74922,31015.48,TRMC OF ORANGEBURG & CALHOUN
4.36,34.17571,-82.15791,40504.15,SELF REGIONAL HEALTHCARE
3.48,34.81904,-82.41308,27838.81,GREENVILLE MEMORIAL HOSPITAL
4.71,32.97605,-80.07302,45546.55,TRIDENT MEDICAL CENTER
3.82,32.22325,-80.71444,32703.10,HILTON HEAD REGIONAL MEDICAL CENTER
4.30,33.70704,-78.89487,39665.66,GRAND STRAND REG MED CENTER
4.28,34.00754,-81.03270,39291.90,PALMETTO HEALTH BAPTIST
3.83,32.78211,-79.95018,32866.74,ROPER HOSPITAL
3.55,33.59553,-79.02412,28846.00,WACCAMAW COMMUNITY HOSPITAL
2.68,44.91113,-97.12063,16358.74,PRAIRIE LAKES HOSPITAL
2.73,45.46141,-98.47929,17012.39,AVERA ST LUKES
2.93,43.53460,-96.71136,19939.72,AVERA MCKENNAN HOSPITAL & UNIVERSITY HEALTH CENTER
3.06,43.53562,-96.74305,21862.24,SANFORD USD MEDICAL CENTER
2.88,35.63906,-88.83207,19151.38,JACKSON-MADISON COUNTY GENERAL HOSPITAL
3.97,36.24440,-86.75204,34872.86,SKYLINE MEDICAL CENTER
3.14,35.93917,-85.01865,22929.57,CUMBERLAND MEDICAL CENTER
2.92,36.58587,-82.25703,19863.37,WELLMONT BRISTOL REGIONAL MEDICAL CENTER
2.82,36.55401,-82.55483,18320.62,WELLMONT HOLSTON VALLEY MEDICAL CENTER
2.74,35.98589,-84.28055,17233.67,METHODIST MEDICAL CENTER OF OAK RIDGE
4.16,36.58199,-87.27050,37608.97,GATEWAY MEDICAL CENTER
3.79,34.50579,-92.96678,32318.48,HORIZON MEDICAL CENTER
3.43,35.12837,-89.86202,27163.98,BAPTIST MEMORIAL HOSPITAL
3.22,35.86074,-86.42434,24079.28,MIDDLE TENNESSEE MEDICAL CENTER INC
3.59,35.17733,-86.09081,29505.26,SOUTHERN TENNESSEE MEDICAL CENTER
2.57,36.17121,-85.50938,14706.26,COOKEVILLE REGIONAL MEDICAL CENTER
4.23,36.30767,-82.38497,38617.52,JOHNSON CITY MEDICAL CENTER
2.89,36.47927,-86.88632,19369.53,NORTHCREST MEDICAL CENTER
2.90,36.12859,-86.84559,19517.26,ST THOMAS HOSPITAL
2.95,35.05068,-85.28823,20217.84,ERLANGER MEDICAL CENTER
3.37,35.99233,-83.92697,26208.82,TENNOVA HEALTHCARE
2.66,35.95747,-83.93660,16091.00,FORT SANDERS REGIONAL MEDICAL CENTER
3.36,36.15388,-86.80249,26095.62,BAPTIST HOSPITAL
4.40,35.03467,-85.26735,41023.97,PARKRIDGE MEDICAL CENTER
2.83,35.91765,-84.10080,18522.20,PARKWEST MEDICAL CENTER
4.06,36.55057,-82.51465,36146.76,INDIAN PATH MEDICAL CENTER
5.07,35.09925,-89.86301,50655.86,ST FRANCIS HOSPITAL
4.27,35.17731,-84.86873,39153.90,SKYRIDGE MEDICAL CENTER
5.32,35.68445,-88.85461,54309.98,REGIONAL HOSPITAL OF JACKSON
4.06,36.22069,-86.32731,36199.00,UNIVERSITY MEDICAL CENTER
4.19,36.32443,-86.62304,38081.76,HENDERSONVILLE MEDICAL CENTER
3.81,35.97510,-86.56688,32656.15,STONECREST MEDICAL CENTER
5.25,35.20713,-89.80059,53290.39,SAINT FRANCIS BARTLETT MEDICAL CENTER
5.92,31.77031,-106.50085,62937.60,PROVIDENCE MEMORIAL HOSPITAL
3.46,30.04413,-99.15217,27558.55,PETERSON REGIONAL MEDICAL CENTER
4.14,33.90296,-98.50035,37416.95,UNITED REGIONAL HEALTH CARE SYSTEM
4.28,30.65598,-96.34672,39380.40,ST JOSEPH REGIONAL HEALTH CENTER
5.46,32.81043,-96.83699,56356.33,PARKLAND HEALTH AND HOSPITAL SYSTEM
4.05,29.31233,-94.77317,35994.37,UNIVERSITY OF TEXAS MEDICAL BRANCH GAL
4.14,32.78994,-96.78044,37273.70,BAYLOR UNIVERSITY MEDICAL CENTER
3.22,28.81269,-96.97780,24129.03,CITIZENS MEDICAL CENTER
4.40,27.53249,-99.47808,41082.91,LAREDO MEDICAL CENTER
4.05,26.17446,-97.67014,36089.34,VHS HARLINGEN HOSPITAL COMPANY LLC
4.86,29.74802,-95.36609,47745.64,ST JOSEPH MEDICAL CENTER
4.19,32.50219,-94.73025,38099.63,GOOD SHEPHERD MEDICAL CENTER
4.84,32.72621,-97.32659,47394.24,JPS HEALTH NETWORK
5.99,33.57524,-101.89272,63887.89,COVENANT MEDICAL CENTER
2.70,31.51444,-97.19927,16693.76,PROVIDENCE HEALTH CENTER
4.97,32.81224,-96.83795,49257.36,UT SOUTHWESTERN UNIVERSITY HOSPITAL
3.54,32.76017,-96.82437,28747.45,METHODIST DALLAS MEDICAL CENTER
4.24,31.07837,-97.36403,38820.47,SCOTT & WHITE MEMORIAL HOSPITAL
4.68,29.43360,-98.49265,45098.43,BAPTIST MEDICAL CENTER
4.91,32.74944,-97.11630,48469.24,TEXAS HEALTH ARLINGTON MEMORIAL HOSPITAL
4.55,29.71431,-95.39680,43274.38,MEMORIAL HERMANN TEXAS MEDICAL CENTER
4.74,32.82932,-97.21399,45921.94,NORTH HILLS HOSPITAL
5.29,29.66575,-95.18131,53849.05,BAYSHORE MEDICAL CENTER
3.91,29.65646,-95.20253,33986.21,PAMPA REGIONAL MEDICAL CENTER
6.37,31.76998,-106.49897,69364.40,LAS PALMAS MEDICAL CENTER
5.97,26.26353,-98.18455,63654.14,SOUTH TEXAS HEALTH SYSTEM
3.10,31.99616,-102.09950,22321.57,MIDLAND MEMORIAL HOSPITAL
3.56,32.73780,-97.33899,28979.98,TEXAS HEALTH HARRIS METHODIST FORT WORTH
5.37,28.80765,-96.99896,55083.00,DETAR HOSPITAL NAVARRO
3.74,31.11326,-97.80076,31555.05,METROPLEX HOSPITAL
3.61,26.19665,-98.31409,29661.47,MISSION REGIONAL MEDICAL CENTER
3.52,29.81230,-95.43010,28395.25,MEMORIAL HERMANN HOSPITAL SYSTEM
4.84,29.70719,-95.40048,47345.97,ST LUKES EPISCOPAL HOSPITAL
3.56,35.19934,-101.92186,28976.56,NORTHWEST TEXAS HOSPITAL
5.14,30.28473,-95.46714,51739.82,CONROE REGIONAL MEDICAL CENTER
3.49,35.19533,-101.91907,28022.40,BAPTIST ST ANTHONYS HEALTH SYSTEM-BAPTIST CAMPUS
3.51,33.21990,-97.59383,28265.15,WISE REGIONAL HEALTH SYSTEM
3.97,29.85271,-97.94841,34836.58,CENTRAL TEXAS MEDICAL CENTER
3.39,29.68674,-95.38652,26582.44,HARRIS COUNTY HOSPITAL DISTRICT
4.02,33.71085,-96.58493,35605.79,TEXOMA MEDICAL CENTER
4.14,31.42009,-100.47013,37377.31,SAN ANGELO COMMUNITY MEDICAL CENTER
3.94,32.91527,-96.86934,34412.29,DALLAS MEDICAL CENTER
4.63,29.50795,-98.57224,44366.17,METHODIST HOSPITAL
4.79,31.32794,-94.75614,46755.98,WOODLAND HEIGHTS MEDICAL CENTER
4.86,29.93570,-93.98900,47746.38,THE MEDICAL CENTER OF SOUTHEAST TEXAS
5.01,29.39378,-94.98682,49834.57,MAINLAND MEDICAL CENTER
4.46,32.40574,-99.76486,41968.76,ABILENE REGIONAL MEDICAL CENTER
3.71,32.93228,-97.09436,31195.00,BAYLOR REGIONAL MEDICAL CENTER AT GRAPEVINE
3.25,31.46574,-100.43466,24541.82,SHANNON MEDICAL CENTER
3.33,29.78143,-95.54541,25658.80,MEMORIAL HERMANN MEMORIAL CITY MEDICAL CENTER
5.15,33.17345,-97.11382,51946.17,DENTON REGIONAL MEDICAL CENTER
4.73,30.01994,-95.44379,45883.06,HOUSTON NORTHWEST MEDICAL CENTER
4.90,29.72913,-95.59429,48314.92,WEST HOUSTON MEDICAL CENTER
5.29,33.02168,-96.76621,53930.00,MEDICAL CENTER OF PLANO
4.54,32.23859,-101.49810,43040.65,SCENIC MOUNTAIN MEDICAL CENTER
4.94,31.65212,-94.65488,48813.82,NACOGDOCHES MEDICAL CENTER
3.82,31.85052,-102.36474,32804.64,ODESSA REGIONAL HOSPITAL
5.24,25.97780,-97.51442,53154.50,VALLEY REGIONAL MEDICAL CENTER
3.51,30.08682,-95.62403,28308.87,TOMBALL REGIONAL MEDICAL CENTER
4.88,32.73563,-97.34483,48003.14,PLAZA MEDICAL CENTER OF FORT WORTH
4.23,32.67614,-97.32079,38636.44,HUGULEY HEALTH SYSTEM
3.39,29.99677,-95.27641,26625.38,MEMORIAL HERMANN NORTHEAST
4.25,33.58838,-101.89214,38991.31,UNIVERSITY MEDICAL CENTER
4.99,29.35295,-98.54601,49608.56,SOUTHWEST GENERAL HOSPITAL
5.80,32.53312,-94.73022,61242.07,LONGVIEW REGIONAL MEDICAL CENTER
4.19,29.54946,-95.08660,38057.32,CHRISTUS ST JOHN HOSPITAL
4.40,30.22723,-97.77447,41100.41,ST DAVID'S SOUTH AUSTIN MEDICAL CENTER
5.61,29.92772,-95.59016,58560.48,CYPRESS FAIRBANKS MEDICAL CENTER
3.96,32.64448,-96.87635,34695.65,METHODIST CHARLTON MEDICAL CENTER
3.46,32.65818,-97.42078,27588.41,TEXAS HEALTH HARRIS METHODIST HOSPITAL SOUTHWEST F
4.82,27.69288,-97.34476,47171.00,CORPUS CHRISTI MEDICAL CENTER,THE
4.80,30.41163,-97.70649,46879.57,NORTH AUSTIN MEDICAL CENTER
4.79,29.58896,-95.63112,46755.14,METHODIST SUGAR LAND HOSPITAL
3.87,30.30542,-97.74320,33415.07,HEART HOSPITAL OF AUSTIN
5.21,29.96603,-95.55127,52792.42,METHODIST WILLOWBROOK HOSPITAL
3.07,32.78814,-96.78083,21959.48,BAYLOR HEART AND VASCULAR HOSPITAL
4.54,30.20579,-95.45830,43106.69,ST LUKE'S THE WOODLANDS HOSPITAL
4.16,31.73448,-106.30034,37703.24,EAST EL PASO PHYSICIANS MEDICAL CENTER, LLC
2.69,40.24999,-111.66524,16525.16,UTAH VALLEY REGIONAL MEDICAL CENTER
2.75,41.75744,-111.82113,17333.55,LOGAN REGIONAL HOSPITAL
2.63,37.09986,-113.55271,15574.63,DIXIE REGIONAL MEDICAL CENTER
3.35,41.09098,-111.99557,25922.43,DAVIS HOSPITAL AND MEDICAL CENTER
3.50,40.58979,-111.97499,28141.07,JORDAN VALLEY MEDICAL CENTER
2.71,44.47966,-73.19412,16823.25,FLETCHER ALLEN HOSPITAL OF VERMONT
2.92,38.40552,-78.85730,19794.28,ROCKINGHAM MEMORIAL HOSPITAL
2.90,39.19345,-78.19599,19532.66,WINCHESTER MEDICAL CENTER INC
4.07,36.86268,-76.30355,36300.03,SENTARA NORFOLK GENERAL HOSPITAL
4.46,38.02573,-78.51526,41952.85,UNIVERSITY OF VIRGINIA MEDICAL CENTER
2.85,36.89933,-76.28157,18857.00,BON SECOURS - DEPAUL MEDICAL CENTER
3.46,36.83716,-76.34786,27591.83,BON SECOURS MARYVIEW MEDICAL CENTER
3.02,38.09436,-78.98659,21292.28,AUGUSTA HEALTH
2.91,37.41368,-79.16870,19704.75,CENTRA  HEALTH, INC
3.45,37.25129,-79.94125,27368.30,CARILION ROANOKE MEMORIAL CENTER
4.48,37.54330,-77.42932,42227.87,MEDICAL COLLEGE OF VIRGINIA HOSPITALS
3.00,38.82218,-77.10533,20906.39,INOVA ALEXANDRIA HOSPITAL
3.29,37.14463,-76.51197,25188.08,MARY IMMACULATE HOSPITAL
3.63,37.09020,-80.50370,29981.18,CARILION NEW RIVER VALLEY MEDICAL CENTER
2.78,39.07405,-77.47754,17722.31,INOVA LOUDOUN HOSPITAL
4.13,36.77378,-76.57856,37271.28,SENTARA OBICI HOSPITAL
3.52,36.85098,-76.18989,28446.45,SENTARA LEIGH HOSPITAL
2.96,37.06523,-76.48417,20417.34,RIVERSIDE REGIONAL MEDICAL CENTER
3.34,38.85764,-77.22772,25891.33,INOVA FAIRFAX HOSPITAL
3.70,37.33700,-76.74046,30957.29,SENTARA WILLIAMSBURG REGIONAL MEDICAL CENTER
5.71,37.18253,-77.35957,59899.82,SOUTHSIDE REGIONAL MEDICAL CENTER
4.80,37.62931,-77.38804,46774.77,BON SECOURS - MEMORIAL REGIONAL MEDICAL
2.79,38.02176,-78.44530,17854.68,MARTHA JEFFERSON HOSPITAL
3.91,36.69555,-79.86374,34016.82,MEMORIAL HOSPITAL OF MARTINSVILLE & HENRY COUNTY
3.74,37.05580,-76.39048,31554.81,SENTARA CAREPLEX HOSPITAL
3.48,38.63463,-77.28361,27793.09,SENTARA POTOMAC HOSPITAL
3.64,36.77664,-76.09682,30107.49,SENTARA PRINCESS ANNE HOSPITAL
4.58,37.46807,-77.66143,43688.86,BON SECOURS - ST FRANCIS MEDICAL CENTER
4.22,47.71468,-122.33762,38471.29,NORTHWEST HOSPITAL
4.04,47.33947,-122.26677,35846.38,AUBURN REGIONAL MEDICAL CENTER
4.29,47.58295,-122.62506,39485.44,HARRISON MEDICAL CENTER
3.27,46.13039,-122.94110,24782.05,PEACHEALTH ST JOHN MEDICAL CENTER
3.74,45.62460,-122.58145,31530.73,PEACEHEALTH SOUTHWEST MEDICAL CENTER
4.00,47.64936,-117.41194,35312.15,PROVIDENCE SACRED HEART MEDICAL CENTER
3.47,46.28132,-119.28218,27776.23,KADLEC REGIONAL MEDICAL CENTER
3.74,47.60351,-122.32305,31594.00,HARBORVIEW MEDICAL CENTER
4.06,47.70969,-117.40722,36155.27,PROVIDENCE HOLY FAMILY HOSPITAL
5.12,47.17742,-122.28943,51470.50,MULTICARE GOOD SAMARITAN HOSPITAL
3.54,47.44243,-122.21392,28755.21,VALLEY MEDICAL CENTER
4.65,47.25980,-122.45243,44699.50,TACOMA GENERAL ALLENMORE HOSPITAL
4.78,47.29252,-122.32729,46613.69,ST FRANCIS COMMUNITY HOSPITAL
2.81,39.65498,-79.95814,18151.28,WEST VIRGINIA UNIVERSITY HOSPITALS
2.57,39.32836,-80.23964,14724.24,UNITED HOSPITAL CENTER
3.03,38.43236,-82.40067,21328.54,ST MARY'S MEDICAL CENTER
2.33,39.94672,-80.75423,11338.50,REYNOLDS MEMORIAL HOSPITAL
2.83,38.34739,-81.62600,18463.63,CHARLESTON AREA MEDICAL CENTER
2.71,40.39520,-80.52796,16753.70,WEIRTON MEDICAL CENTER
2.50,39.66383,-79.94681,13713.26,MONONGALIA COUNTY GENERAL HOSPITAL
2.68,38.35361,-81.63222,16335.98,ST FRANCIS HOSPITAL
2.69,39.27800,-81.55171,16482.72,ST JOSEPHS HEALTHCARE SYSTEM
3.00,40.05876,-80.72237,20962.86,OHIO VALLEY MEDICAL CENTER
2.79,39.48229,-80.16519,17991.62,FAIRMONT GENERAL HOSPITAL
4.10,37.84674,-81.99565,36835.83,LOGAN REGIONAL MEDICAL CENTER
3.06,39.27035,-81.56026,21785.47,CAMDEN CLARK MEDICAL CENTER
2.89,37.78754,-81.20183,19410.39,RALEIGH GENERAL HOSPITAL
2.70,44.50233,-88.01140,16566.31,BELLIN MEMORIAL HSPTL
4.10,43.06195,-87.87861,36768.95,COLUMBIA ST MARYS HSPTL  MILW (COL & MILW CAMPUS)
3.45,42.68685,-89.03244,27437.17,MERCY HLTH SYS CORP
3.19,44.81192,-91.51352,23696.54,MAYO CLINIC HEALTH SYSTEM EAU CLAIRE HOSPITAL
3.41,43.77733,-88.42866,26850.82,ST AGNES HSPTL
3.07,42.73444,-87.82788,21902.65,WHEATON FRANCISCAN HEALTHCARE- ALL SAINTS
3.23,44.53265,-88.06664,24243.73,ST MARYS HSPTL MED CTR
3.48,43.07633,-89.43133,27801.63,UNIVERSITY OF WI  HOSPITALS & CLINICS AUTHORITY
3.63,42.54868,-89.00822,29982.52,BELOIT MEM HSPTL
3.17,43.07393,-87.97612,23457.48,WHEATON FRANCISCAN, INC- ST JOSEPH
4.45,42.98958,-87.95079,41871.07,AURORA ST LUKES MEDICAL CENTER
2.49,44.27860,-88.39550,13567.93,APPLETON MED CTR
3.34,43.04008,-88.02523,25795.54,FROEDTERT MEM LUTHERAN HSPTL
2.70,44.89045,-89.58006,16661.76,ST CLARE'S HOSPITAL OF WESTON INC
3.76,42.84802,-106.30851,31939.95,WYOMING MEDICAL CENTER
3.54,41.14037,-104.81660,28701.48,CHEYENNE REGIONAL MEDICAL CENTER
3.48,33.01573,-96.79031,27899.81,THE HEART HOSPITAL BAYLOR PLANO
4.09,29.64125,-95.16176,36624.95,ST LUKE'S PATIENTS MEDICAL CENTER
4.33,30.56899,-97.65104,40117.68,SETON MEDICAL CENTER WILLIAMSON
6.04,31.79047,-106.26500,64712.37,SIERRA PROVIDENCE EAST MEDICAL CENTER
4.07,29.61578,-98.47479,36406.81,METHODIST STONE OAK HOSPITAL
5.15,32.77776,-96.56763,51891.64,TEXAS REGIONAL MEDICAL CENTER AT SUNNYVALE
2.85,33.59616,-86.66750,18766.65,ST VINCENT'S EAST
4.42,34.43845,-85.75574,41424.00,DEKALB REGIONAL MEDICAL CENTER
4.14,33.25607,-86.81035,37307.49,SHELBY BAPTIST MEDICAL CENTER
2.59,32.82377,-85.17019,15041.58,GEORGE H. LANIER MEMORIAL HOSPITAL
2.67,32.63806,-85.40413,16266.38,EAST ALABAMA MEDICAL CENTER AND SNF
4.41,33.50619,-86.80210,41243.79,UNIVERSITY OF ALABAMA HOSPITAL
3.51,34.20768,-86.87489,28264.38,CULLMAN REGIONAL MEDICAL CENTER
4.56,33.66767,-85.83420,43329.16,STRINGFELLOW MEMORIAL HOSPITAL
6.19,34.00941,-85.97078,66779.71,GADSDEN REGIONAL MEDICAL CENTER
5.24,34.00426,-86.00339,53137.68,RIVERVIEW REGIONAL MEDICAL CENTER
3.04,32.94573,-85.98570,21549.92,RUSSELL HOSPITAL
3.55,33.65640,-85.82284,28914.33,NORTHEAST ALABAMA REGIONAL MED CENTER
4.39,30.42700,-87.68386,41013.45,SOUTH BALDWIN REGIONAL MEDICAL CENTER
2.57,34.59052,-86.97262,14762.46,DECATUR GENERAL HOSPITAL
3.19,33.20521,-87.52546,23748.78,D C H REGIONAL MEDICAL CENTER
3.62,33.49854,-86.84633,29848.69,BAPTIST MEDICAL CENTER-PRINCETON
3.71,32.43020,-87.05515,31198.81,VAUGHAN REG MED CENTER PARKWAY CAMPUS
5.49,33.46420,-86.77409,56797.54,BROOKWOOD MEDICAL CENTER
3.42,30.68546,-88.13170,27048.36,SPRINGHILL MEDICAL CENTER
4.54,60.94901,-149.17033,43169.54,PROVIDENCE ALASKA MEDICAL CENTER
5.52,61.56297,-149.25782,57216.97,MAT-SU REGIONAL MEDICAL CENTER
4.95,61.21082,-149.82866,49010.50,ALASKA REGIONAL HOSPITAL
4.68,33.46514,-112.05797,45183.85,BANNER GOOD SAMARITAN MEDICAL CENTER
3.56,32.25294,-110.88135,29009.64,TUCSON MEDICAL CENTER
3.56,34.56017,-112.48217,29027.65,YAVAPAI REGIONAL MEDICAL CENTER
4.35,32.88123,-111.71067,40415.92,CASA GRANDE REGIONAL MEDICAL CENTER
4.73,35.20923,-111.64486,45859.80,FLAGSTAFF MEDICAL CENTER
4.90,33.48073,-112.07948,48258.04,ST JOSEPH'S HOSPITAL AND MEDICAL CENTER
4.78,33.29750,-111.87461,46622.72,CHANDLER REGIONAL MEDICAL CENTER
4.43,33.45154,-112.04313,41456.52,ST LUKES MEDICAL CENTER
4.93,33.48885,-111.92387,48678.79,SCOTTSDALE HEALTHCARE-OSBORN MEDICAL CENTER
3.28,31.55116,-110.27248,24994.83,SIERRA VISTA REGIONAL HEALTH CENTER INC
3.79,35.22024,-114.03585,32344.11,KINGMAN REGIONAL MEDICAL CENTER
4.56,33.60432,-112.28378,43371.44,BANNER BOSWELL MEDICAL CENTER
3.85,33.39097,-111.87638,33187.24,BANNER DESERT MEDICAL CENTER
4.82,34.47988,-114.33938,47122.66,HAVASU REGIONAL MEDICAL CENTER
3.92,33.64058,-111.99766,34159.00,PARADISE VALLEY HOSPITAL
4.40,33.60949,-112.18129,41088.47,BANNER THUNDERBIRD MEDICAL CENTER
4.11,33.66596,-112.11618,36915.98,JOHN C LINCOLN DEER VALLEY HOSPITAL
4.03,33.65965,-112.37283,35795.37,BANNER DEL E WEBB MEDICAL CENTER
7.55,35.11068,-114.55505,86453.06,WESTERN ARIZONA REGIONAL MEDICAL CTR
4.19,33.41128,-111.68579,38108.04,BANNER HEART HOSPITAL
5.06,33.28686,-111.75246,50541.42,MERCY GILBERT MEDICAL CENTER
4.17,33.42537,-111.82251,37710.89,ARIZONA REGIONAL MEDICAL CENTER
3.88,35.22129,-113.98568,33592.52,HUALAPAI MOUNTAIN MEDICAL CENTER
3.29,36.10940,-94.16036,25075.65,WASHINGTON REGIONAL MED CTR AT NORTH HILLS
3.16,34.75031,-92.33897,23286.86,ST VINCENT INFIRMARY MEDICAL CENTER
3.36,36.31007,-94.18471,26111.37,MERCY MEDICAL CENTER
2.89,35.25046,-91.70056,19427.10,WHITE COUNTY MEDICAL CENTER
2.35,35.83746,-90.70386,11542.30,ST BERNARDS MEDICAL CTR
