size_charge,size_pay,lat,lon,charge,pay,name
9.00,2.25,36.18082,-94.13644,41469.15,6450.63,NW ARKANSAS HOSPITALS, LLC
6.19,2.20,34.46784,-93.06667,26916.19,6197.44,ST JOSEPHS MERCY HEALTH CENTER INC
4.12,2.13,36.34295,-92.39442,16140.69,5829.27,BAXTER REGIONAL MEDICAL CENTER
4.04,2.20,35.08546,-92.45774,15745.65,6212.81,CONWAY REGIONAL MEDICAL CENTER
5.16,2.26,34.77770,-92.12539,21530.57,6503.07,BAPTIST HEALTH MEDICAL CENTER NORTH LITTLE ROCK
4.27,2.26,36.05214,-90.49908,16945.16,6490.95,ARKANSAS METHODIST MEDICAL CENTER
8.66,2.22,35.28275,-93.14901,39692.56,6281.95,ST MARYS REGIONAL MEDICAL CENTER
7.08,2.53,35.14320,-90.18837,31527.15,7930.19,CRITTENDEN MEMORIAL HOSPITAL
5.89,2.25,35.37445,-94.41868,25351.09,6481.94,SPARKS REGIONAL MEDICAL CENTER
5.57,2.13,35.35395,-94.35262,23659.60,5836.32,ST EDWARD MERCY MEDICAL CENTER
5.98,2.35,34.18894,-92.01886,25822.90,6974.05,JEFFERSON REGIONAL MEDICAL CENTER
10.96,2.28,34.48600,-93.03521,51619.48,6637.21,NATIONAL PARK MEDICAL CENTER
6.24,2.17,34.57290,-92.58508,27153.10,6032.86,SALINE MEMORIAL HOSPITAL
9.63,2.49,33.22053,-92.67102,44753.36,7707.12,MEDICAL CENTER SOUTH ARKANSAS
5.45,2.22,34.74866,-92.35422,23035.38,6326.00,BAPTIST HEALTH MEDICAL CENTER-LITTLE ROCK
5.18,2.13,35.80838,-90.66658,21649.80,5835.05,NEA BAPTIST MEMORIAL HOSPITAL
4.96,2.30,35.76927,-91.63408,20494.33,6701.59,WHITE RIVER MEDICAL CENTER
4.58,2.09,34.73868,-92.39307,18529.43,5615.44,ARKANSAS HEART HOSPITAL
5.45,2.10,34.81290,-92.20814,23076.47,5657.14,ST VINCENT MEDICAL CENTER/NORTH
18.12,3.40,37.63362,-122.08802,88770.98,12444.32,ST ROSE HOSPITAL
9.70,2.68,40.78366,-124.14246,45112.96,8689.00,ST JOSEPH HOSPITAL
15.49,2.75,38.32472,-122.29671,75129.22,9061.78,QUEEN OF THE VALLEY MEDICAL CENTER
11.04,2.97,38.54384,-122.47401,52053.62,10188.66,ST HELENA HOSPITAL
11.22,2.93,38.57053,-121.45216,53011.51,9977.61,MERCY GENERAL HOSPITAL
12.53,3.14,33.97659,-117.38184,59761.36,11080.07,RIVERSIDE COMMUNITY HOSPITAL
10.78,2.90,32.68425,-117.08161,50703.00,9807.30,PARADISE VALLEY HOSPITAL
10.46,3.44,32.75426,-117.16592,49028.46,12614.62,UNIVERSITY OF CALIFORNIA SAN DIEGO MEDICAL CENTER
13.63,2.55,32.77495,-117.01467,65508.61,8031.48,GROSSMONT HOSPITAL
9.95,2.78,35.38736,-119.01690,46417.98,9183.54,BAKERSFIELD MEMORIAL HOSPITAL
11.48,4.02,37.31288,-121.93329,54359.48,15621.52,SANTA CLARA VALLEY MEDICAL CENTER
13.49,2.46,39.74221,-121.85000,64777.14,7521.20,ENLOE MEDICAL CENTER
10.04,4.12,34.30238,-118.36957,46859.40,16160.00,LAC/OLIVE VIEW-UCLA MEDICAL CENTER
11.20,3.15,37.82206,-122.26275,52908.44,11140.41,ALTA BATES SUMMIT MEDICAL CENTER
15.97,3.27,37.79100,-122.43125,77614.18,11752.21,CALIFORNIA PACIFIC MEDICAL CTR-PACIFIC CAMPUS HOSP
7.02,2.72,34.67486,-118.15771,31222.73,8902.94,ANTELOPE VALLEY HOSPITAL MED CENTER
8.27,2.65,36.32737,-119.29548,37683.51,8533.36,KAWEAH DELTA MEDICAL CENTER
7.82,3.04,34.12834,-118.25777,35331.15,10575.85,GLENDALE MEM HOSPITAL & HLTH CENTER
8.76,3.15,36.73000,-119.78000,40234.82,11120.31,COMMUNITY REGIONAL MEDICAL CENTER
16.39,3.35,34.09643,-118.29103,79806.51,12137.15,HOLLYWOOD PRESBYTERIAN MEDICAL CENTER
10.87,2.53,33.78036,-117.86495,51196.62,7888.10,ST JOSEPH HOSPITAL
10.09,4.13,37.33569,-121.99595,47149.25,16187.75,KAISER FOUNDATION HOSPITAL-SANTA CLARA
3.51,2.82,37.78248,-122.44290,12975.55,9415.00,KAISER FOUNDATION HOSPITAL - SAN FRANCISCO
11.50,2.84,32.75143,-117.16083,54440.24,9540.82,SCRIPPS MERCY HOSPITAL
12.72,2.97,37.95337,-122.33672,60792.50,10174.43,DOCTORS MEDICAL CENTER-SAN PABLO
10.61,2.73,34.21674,-119.15631,49808.93,8930.64,ST JOHNS REGIONAL MEDICAL CENTER
13.39,2.78,37.96987,-121.28873,64226.20,9214.50,ST JOSEPHS MED CENTER OF STOCKTON
7.69,3.09,34.13101,-117.32181,34697.68,10802.93,COMMUNITY HOSPITAL OF SAN BERNARDINO
7.64,2.60,36.83532,-119.76562,34413.50,8249.01,SAINT AGNES MEDICAL CENTER
10.23,2.53,34.10130,-117.63651,47864.82,7921.88,SAN ANTONIO COMMUNITY HOSPITAL
16.84,3.04,32.79949,-117.15394,82118.06,10567.37,SHARP MEMORIAL HOSPITAL
15.44,3.33,34.04932,-118.21746,74884.64,12068.42,WHITE MEMORIAL MEDICAL CENTER
11.97,3.38,33.92963,-118.20332,56856.04,12313.83,SAINT FRANCIS MEDICAL CENTER
12.95,2.95,38.57155,-121.46874,61980.31,10101.94,SUTTER GENERAL HOSPITAL
11.04,2.63,34.02685,-118.48651,52045.21,8429.29,SANTA MONICA - UCLA MED CTR & ORTHOPAEDIC HOSPITAL
10.49,2.47,33.12535,-117.07336,49182.16,7619.95,PALOMAR MEDICAL CENTER
14.00,2.75,34.22014,-118.53410,67388.69,9033.60,NORTHRIDGE HOSPITAL MEDICAL CENTER
8.40,2.59,36.32362,-119.66726,38351.54,8236.32,ADVENTIST MEDICAL CENTER
17.72,2.65,37.96125,-121.30103,86721.12,8517.24,DAMERON HOSPITAL
25.96,3.43,37.36257,-121.84974,129466.02,12602.96,REGIONAL MEDICAL CENTER OF SAN JOSE
9.76,2.99,34.19494,-118.46319,45420.06,10317.61,VALLEY PRESBYTERIAN HOSPITAL
8.40,2.57,33.18402,-117.29661,38346.72,8098.50,TRI-CITY MEDICAL CENTER
9.80,2.76,34.13495,-117.27603,45626.21,9081.52,ST BERNARDINE MEDICAL CENTER
14.54,2.74,39.13822,-121.59436,70217.44,8989.70,RIDEOUT MEMORIAL HOSPITAL
10.52,2.82,36.57886,-121.91316,49382.70,9389.77,COMMUNITY HOSPITAL OF THE MONTEREY PENINSULA
21.85,3.11,37.32710,-121.93863,108131.21,10918.90,O'CONNOR HOSPITAL
9.95,2.38,33.89465,-117.92716,46399.27,7143.58,ST JUDE MEDICAL CENTER
13.39,2.63,33.96860,-118.04831,64226.90,8413.52,PRESBYTERIAN INTERCOMMUNITY HOSPITAL
15.26,2.86,38.44369,-122.70138,73946.69,9608.77,SANTA ROSA MEMORIAL HOSPITAL
14.65,2.58,37.51164,-120.83800,70781.07,8177.04,EMANUEL MEDICAL CENTER INC
23.46,2.72,37.91341,-122.04163,116502.13,8905.53,JOHN MUIR MEDICAL CENTER - WALNUT CREEK CAMPUS
8.57,3.05,33.77991,-118.18602,39258.78,10603.56,ST MARY MEDICAL CENTER
21.96,3.24,36.92821,-121.79360,108694.42,11592.33,WATSONVILLE COMMUNITY HOSPITAL
18.69,3.06,37.55717,-121.98126,91761.56,10679.00,WASHINGTON HOSPITAL
21.10,2.74,37.48000,-122.25441,104246.37,9007.05,SEQUOIA HOSPITAL
9.06,2.53,34.58305,-118.14490,41799.47,7886.00,PALMDALE REGIONAL MEDICAL CENTER
13.61,2.77,32.61972,-117.02278,65408.82,9145.83,SHARP CHULA VISTA MEDICAL CENTER
8.24,2.38,33.62229,-117.92995,37539.50,7113.53,HOAG MEMORIAL HOSPITAL PRESBYTERIAN
14.67,2.44,39.75720,-121.57018,70882.47,7435.63,FEATHER RIVER HOSPITAL
11.98,2.53,33.84780,-117.93661,56957.23,7907.47,AHMC ANAHEIM REGIONAL MEDICAL CENTER
18.13,4.37,37.75676,-122.40461,88825.53,17440.81,SAN FRANCISCO GENERAL HOSPITAL
15.71,3.30,34.07709,-117.75063,76275.66,11920.06,POMONA VALLEY HOSPITAL MEDICAL CENTER
11.30,2.40,35.27882,-120.65047,53413.96,7245.42,FRENCH HOSPITAL MEDICAL CENTER
15.06,2.57,34.15601,-118.32834,72891.21,8137.23,PROVIDENCE SAINT JOSEPH MEDICAL CTR
9.66,2.72,34.13973,-118.03534,44898.17,8873.02,METHODIST HOSPITAL OF SOUTHERN CA
11.82,3.02,34.14987,-118.23117,56091.70,10431.44,GLENDALE ADVENTIST MEDICAL CENTER
15.39,3.00,36.98999,-121.98357,74631.60,10349.51,DOMINICAN HOSPITAL
16.43,2.67,33.83862,-116.54557,80009.73,8639.21,DESERT REGIONAL MEDICAL CENTER
16.39,2.75,38.72562,-120.79096,79807.96,9065.96,MARSHALL MEDICAL CENTER (1-RH)
16.10,4.20,34.06675,-118.44613,78323.43,16577.23,RONALD REAGAN UCLA MEDICAL CENTER
9.53,2.43,34.03721,-117.20474,44243.73,7372.18,REDLANDS COMMUNITY HOSPITAL
14.90,2.73,34.27915,-118.46006,72070.84,8936.36,PROVIDENCE HOLY CROSS MEDICAL CENTER
13.34,2.78,40.58654,-122.39168,63988.83,9210.62,MERCY MEDICAL CENTER REDDING
18.88,2.77,37.69502,-121.88095,92747.90,9158.00,VALLEYCARE MEDICAL CENTER
22.37,3.29,37.67947,-122.47447,110847.37,11868.89,SETON MEDICAL CENTER
9.70,2.41,34.03009,-118.47833,45087.53,7264.19,SAINT JOHN'S HEALTH CENTER
10.27,3.32,38.46964,-122.70746,48084.42,12002.52,SUTTER MEDICAL CENTER OF SANTA ROSA
11.31,2.59,34.50107,-117.17285,53434.78,8205.57,ST MARY MEDICAL CENTER
17.11,3.54,37.85593,-122.25730,83560.64,13126.45,ALTA BATES SUMMIT MEDICAL CENTER - ALTA BATES CAMP
18.82,3.01,37.36934,-122.08047,92391.19,10407.00,EL CAMINO HOSPITAL
9.94,2.51,38.76514,-121.24979,46363.03,7828.74,SUTTER ROSEVILLE MEDICAL CENTER
12.06,2.63,32.88461,-117.22244,57350.62,8432.06,SCRIPPS MEMORIAL HOSPITAL LA JOLLA
9.56,3.29,34.05076,-117.26395,44374.60,11832.78,LOMA LINDA UNIVERSITY MEDICAL CENTER
9.69,2.62,33.87236,-117.56809,45076.33,8393.75,CORONA REGIONAL MEDICAL CENTER
11.75,3.22,36.65910,-121.64630,55727.84,11462.68,SALINAS VALLEY MEMORIAL HOSPITAL
10.82,2.81,37.97780,-120.37150,50939.24,9335.88,SONORA REGIONAL MEDICAL CENTER
15.27,2.52,38.12186,-121.28665,73979.00,7861.60,LODI MEMORIAL HOSPITAL
18.83,3.45,33.78798,-117.89026,92473.18,12702.32,UNIVERSITY OF CALIFORNIA IRVINE MED CENTER
6.53,2.84,34.01501,-118.10064,28667.89,9505.00,BEVERLY HOSPITAL
10.10,2.44,33.81131,-118.34364,47165.31,7453.87,TORRANCE MEMORIAL MEDICAL CENTER
12.86,2.58,33.83891,-118.35677,61499.45,8167.72,PROVIDENCE LITTLE COMPANY OF MARY MED CTR TORRANCE
6.36,2.74,36.22008,-119.33764,27773.53,8988.00,TULARE REGIONAL MEDICAL CENTER
14.24,2.76,37.94748,-122.53677,68647.61,9092.92,MARIN GENERAL HOSPITAL
25.31,3.53,38.26174,-122.04662,126065.00,13103.21,NORTHBAY MEDICAL CENTER
19.33,2.87,37.25153,-121.94684,95070.59,9657.65,GOOD SAMARITAN HOSPITAL
7.04,2.91,34.08802,-117.89341,31280.10,9861.85,CITRUS VALLEY MEDICAL CENTER-IC CAMPUS
8.49,2.53,33.75117,-116.96028,38811.98,7895.70,HEMET VALLEY MEDICAL CENTER
11.72,2.71,33.93530,-118.13030,55591.30,8823.37,DOWNEY REGIONAL MEDICAL CENTER
11.61,2.53,34.27459,-119.25812,55024.13,7914.83,COMMUNITY MEMORIAL HOSPITAL SAN BUENAVENTURA
7.65,2.59,34.42951,-119.72333,34469.41,8222.80,SANTA BARBARA COTTAGE HOSPITAL
10.43,2.55,32.89810,-117.24217,48916.26,8021.88,SCRIPPS GREEN HOSPITAL
6.18,2.45,38.60127,-121.39412,26820.15,7514.23,KAISER FOUNDATION HOSPITAL - SACRAMENTO
11.22,2.56,33.82557,-117.99493,52994.25,8042.00,WEST ANAHEIM MEDICAL CENTER
10.33,2.65,34.13364,-118.15275,48379.24,8520.68,HUNTINGTON MEMORIAL HOSPITAL
25.20,4.45,37.43436,-122.18013,125534.60,17868.56,STANFORD HOSPITAL
11.20,2.85,37.34027,-120.46817,52909.38,9585.31,MERCY MEDICAL CENTER
30.00,5.80,37.76421,-122.45716,150412.65,24895.45,UCSF MEDICAL CENTER
8.18,2.66,35.38338,-119.01969,37214.27,8598.17,SAN JOAQUIN COMMUNITY HOSPITAL
12.75,3.03,37.77449,-122.45429,60925.09,10495.64,ST MARY'S MEDICAL CENTER
22.12,2.85,37.66540,-120.99743,109515.54,9563.41,DOCTORS MEDICAL CENTER
13.63,2.98,34.05336,-118.26558,65498.19,10264.64,GOOD SAMARITAN HOSPITAL
16.81,2.85,34.20285,-118.62962,81989.56,9546.85,WEST HILLS HOSPITAL & MEDICAL CENTER
10.88,2.74,33.80861,-118.18661,51250.22,8982.19,LONG BEACH MEMORIAL MEDICAL CENTER
22.36,2.89,37.98396,-122.03464,110757.27,9781.27,JOHN MUIR MEDICAL CENTER - CONCORD CAMPUS
12.46,3.11,34.06389,-118.27347,59436.50,10943.63,SAINT VINCENT MEDICAL CENTER
12.67,2.53,33.03634,-117.28487,60522.17,7888.58,SCRIPPS MEMORIAL HOSPITAL - ENCINITAS
14.34,3.01,38.66956,-121.31378,69173.92,10411.48,MERCY SAN JUAN MEDICAL CENTER
9.48,2.90,34.52856,-117.29305,43988.71,9824.62,VICTOR VALLEY COMMUNITY HOSPITAL
12.56,2.92,37.98224,-121.80362,59965.47,9939.88,SUTTER DELTA MEDICAL CENTER
16.45,2.94,33.68179,-116.23394,80135.19,10044.19,JOHN F KENNEDY MEMORIAL HOSPITAL, INC
11.51,2.80,34.20777,-118.88305,54477.32,9320.65,LOS ROBLES HOSPITAL & MEDICAL CENTER
15.46,2.41,33.80441,-118.06665,74961.00,7284.29,LOS ALAMITOS MEDICAL CENTER
15.21,2.64,37.66867,-120.97339,73693.87,8479.44,MEMORIAL  MEDICAL CENTER
13.37,2.40,33.56100,-117.66530,64150.86,7239.94,MISSION HOSPITAL REGIONAL MED CENTER
15.51,2.95,33.71466,-117.93322,75267.71,10082.00,FOUNTAIN VALLEY REGIONAL HOSPITAL & MEDICAL CENTER
14.09,2.34,33.76335,-116.40628,67875.60,6930.38,EISENHOWER MEDICAL CENTER
12.31,2.70,33.84932,-118.15323,58664.93,8798.78,LAKEWOOD REGIONAL MEDICAL CENTER
18.13,3.50,38.55484,-121.45628,88815.03,12925.26,UNIVERSITY OF CALIFORNIA DAVIS MEDICAL CENTER
10.02,2.36,33.60883,-117.70881,46772.89,7027.25,SADDLEBACK MEMORIAL MEDICAL CENTER
21.37,3.39,34.07664,-118.37955,105620.37,12349.57,CEDARS-SINAI MEDICAL CENTER
11.04,2.51,33.70167,-117.95566,52045.11,7830.39,ORANGE COAST MEMORIAL MEDICAL CENTER
17.73,2.65,37.77577,-121.95824,86745.50,8517.17,SAN RAMON REGIONAL MEDICAL CTR
14.52,3.12,34.06193,-118.20157,70108.24,10956.62,KECK HOSPITAL OF USC
10.17,2.48,34.47174,-117.29791,47517.00,7625.11,DESERT VALLEY HOSPITAL
9.16,2.41,35.38506,-119.03992,42326.30,7292.39,BAKERSFIELD HEART HOSPITAL
6.15,2.36,36.85992,-119.78858,26694.39,7050.00,FRESNO HEART AND SURGICAL HOSPITAL
14.36,3.32,34.06760,-118.12291,69275.75,12021.27,GARFIELD MEDICAL CENTER
12.92,2.80,33.95076,-118.34828,61824.48,9332.48,CENTINELA HOSPITAL MEDICAL CENTER
14.28,2.62,34.02303,-118.39741,68855.00,8353.00,BROTMAN MEDICAL CENTER
9.90,2.51,32.77629,-117.05730,46116.29,7822.62,ALVARADO HOSPITAL MEDICAL CENTER
12.45,2.48,34.17067,-118.53200,59346.83,7653.52,PROVIDENCE TARZANA MEDICAL CENTER
10.99,2.62,40.58532,-122.38702,51785.21,8387.00,SHASTA REGIONAL MEDICAL CENTER
7.20,2.33,33.61478,-117.16918,32149.50,6855.00,LOMA LINDA UNIVERSITY MEDICAL CENTER-MURRIETA
7.63,2.46,40.41481,-104.70890,34342.92,7566.11,NORTH COLORADO MEDICAL CENTER
7.32,2.28,40.18134,-105.12769,32774.04,6626.30,LONGMONT UNITED HOSPITAL
7.27,2.69,39.96455,-104.76855,32480.38,8760.88,PLATTE VALLEY MEDICAL CENTER
8.27,2.36,39.76893,-105.09006,37666.68,7004.45,EXEMPLA LUTHERAN MEDICAL CENTER
6.19,2.59,40.57315,-105.05741,26885.18,8231.00,POUDRE VALLEY HOSPITAL
7.68,2.40,38.23421,-104.62292,34641.17,7212.83,CENTURA HEALTH-ST MARY CORWIN MEDICAL CENTER
6.45,2.58,37.23629,-107.82578,28232.92,8182.69,MERCY REGIONAL MEDICAL CENTER
10.04,2.81,39.74615,-104.96682,46849.67,9356.42,PRESBYTERIAN/ST LUKE'S MEDICAL CENTER
9.24,2.41,39.71712,-105.12874,42728.60,7261.80,CENTURA HEALTH-ST ANTHONY HOSPITAL
8.66,2.29,38.28184,-104.61256,39712.79,6648.03,PARKVIEW MEDICAL CENTER INC
5.76,2.38,38.83903,-104.80024,24683.75,7143.49,MEMORIAL HOSPITAL CENTRAL
5.50,2.44,39.09046,-108.56190,23318.22,7441.70,ST MARYS HOSPITAL AND MEDICAL CENTER
11.87,3.28,39.74234,-104.84156,56346.79,11786.87,UNIVERSITY OF COLORADO HOSPITAL ANSCHUTZ INPATIENT
8.88,2.27,40.02615,-105.28391,40867.06,6579.25,BOULDER COMMUNITY HOSPITAL
8.20,2.67,39.74601,-104.96909,37325.42,8615.08,EXEMPLA SAINT JOSEPH HOSPITAL
6.94,2.39,40.41320,-105.05139,30767.35,7188.40,MCKEE MEDICAL CENTER
7.72,2.30,38.86559,-104.82182,34831.34,6699.31,CENTURA HEALTH-PENROSE ST FRANCIS HEALTH SERVICES
11.55,2.27,39.65399,-104.98116,54717.72,6574.50,SWEDISH MEDICAL CENTER
8.84,2.34,39.67005,-104.97490,40660.29,6914.00,CENTURA HEALTH-PORTER ADVENTIST HOSPITAL
12.20,2.36,39.86430,-104.98481,58078.47,7036.82,NORTH SUBURBAN MEDICAL CENTER
7.28,2.98,39.53243,-107.32158,32532.07,10241.20,VALLEY VIEW HOSPITAL ASSOCIATION
7.62,2.34,39.68859,-104.83205,34332.77,6945.45,MEDICAL CENTER OF AURORA, THE
9.40,2.48,39.84960,-105.01825,43533.44,7665.25,CENTURA HEALTH-ST ANTHONY NORTH HOSPITAL
11.93,2.46,39.52910,-104.87121,56694.77,7557.54,SKY RIDGE MEDICAL CENTER
10.15,2.36,39.57629,-104.98610,47458.50,7036.32,CENTURA HEALTH-LITTLETON ADVENTIST HOSPITAL
4.91,2.22,40.45184,-105.19608,20260.49,6310.46,MEDICAL CENTER OF THE ROCKIES
7.72,2.73,41.30978,-72.93806,34819.73,8921.33,HOSPITAL OF ST RAPHAEL
5.51,2.74,41.77507,-72.69941,23365.11,9013.09,ST FRANCIS HOSPITAL & MEDICAL CENTER
8.81,2.67,41.55959,-73.05941,40463.00,8614.56,WATERBURY HOSPITAL
10.46,2.66,41.05562,-73.55390,49060.03,8559.97,STAMFORD HOSPITAL
5.56,2.62,41.33722,-72.10380,23602.80,8360.55,LAWRENCE & MEMORIAL HOSPITAL
8.01,3.00,41.18881,-73.16645,36348.57,10370.62,BRIDGEPORT HOSPITAL
6.54,2.73,41.55241,-73.03554,28697.35,8926.59,SAINT MARYS HOSPITAL
7.71,2.45,41.03431,-73.63020,34790.04,7510.04,GREENWICH HOSPITAL ASSOCIATION
11.78,2.56,41.55473,-72.64872,55900.95,8067.05,MIDDLESEX HOSPITAL
9.66,3.37,41.30400,-72.93502,44895.55,12287.45,YALE-NEW HAVEN HOSPITAL
5.20,2.62,41.54301,-72.08799,21767.37,8353.39,WILLIAM W BACKUS HOSPITAL
6.99,3.11,41.75412,-72.67927,31065.80,10922.32,HARTFORD HOSPITAL
8.21,2.66,41.20049,-73.20281,37400.37,8581.57,ST VINCENT'S MEDICAL CENTER
6.70,2.67,41.40474,-73.44739,29524.73,8637.59,DANBURY HOSPITAL
9.26,2.66,41.11147,-73.42010,42811.58,8589.32,NORWALK HOSPITAL ASSOCIATION
5.18,2.59,41.66107,-72.78671,21644.07,8220.02,HOSPITAL OF CENTRAL CONNECTICUT, THE
4.33,3.37,41.73545,-72.79489,17266.33,12292.04,JOHN DEMPSEY HOSPITAL
6.18,2.80,39.69005,-75.68408,26827.97,9290.14,CHRISTIANA CARE HEALTH SERVICES, INC.
7.71,2.55,39.74954,-75.56662,34772.85,8034.25,ST FRANCIS HOSPITAL
5.70,2.46,39.15135,-75.52309,24356.43,7571.20,BAYHEALTH - KENT GENERAL HOSPITAL
5.11,2.64,38.64231,-75.60660,21268.41,8501.72,NANTICOKE MEMORIAL HOSPITAL
6.49,2.41,38.77159,-75.14210,28433.42,7295.26,BEEBE MEDICAL CENTER
7.22,2.99,38.90106,-77.05079,32259.82,10281.35,GEORGE WASHINGTON UNIV HOSPITAL
8.17,3.49,38.91770,-77.02193,37188.25,12891.67,HOWARD UNIVERSITY HOSPITAL
8.02,2.75,38.94397,-76.99040,36405.66,9055.28,PROVIDENCE HOSPITAL
7.66,2.83,38.92944,-77.01473,34526.06,9449.16,WASHINGTON HOSPITAL CENTER
8.13,2.78,30.34913,-81.66391,36979.72,9202.89,SHANDS JACKSONVILLE MEDICAL CENTER
7.87,2.39,26.50479,-80.06979,35595.06,7178.41,BETHESDA MEMORIAL HOSPITAL
9.84,2.53,28.52517,-81.37729,45810.88,7920.60,ORLANDO HEALTH
8.72,2.42,28.57345,-81.36990,40006.36,7360.49,FLORIDA HOSPITAL
12.73,3.45,25.68309,-80.34038,60808.57,12688.95,BAPTIST HOSPITAL OF MIAMI INC
12.91,2.65,25.78846,-80.21644,61733.75,8517.68,UNIVERSITY OF MIAMI HOSPITAL
6.05,2.27,26.62849,-81.87423,26186.87,6575.24,LEE MEMORIAL HOSPITAL
5.21,2.10,29.01347,-80.94096,21827.68,5702.37,BERT FISH MEDICAL CENTER
5.03,2.46,29.20117,-81.05828,20899.44,7526.98,HALIFAX HEALTH MEDICAL CENTER
6.76,2.25,26.15053,-81.79919,29836.55,6463.34,NAPLES COMMUNITY HOSPITAL
7.88,2.15,28.08771,-80.61362,35641.18,5942.28,HOLMES REGIONAL MEDICAL CENTER
9.47,3.74,25.79143,-80.21250,43910.53,14160.86,JACKSON MEMORIAL HOSPITAL
7.83,2.10,28.83363,-82.33561,35419.97,5698.10,CITRUS MEMORIAL HOSPITAL
6.79,2.33,30.47650,-87.21219,29997.02,6894.07,SACRED HEART HOSPITAL
5.70,2.19,30.15963,-85.64818,24354.52,6135.90,BAY MEDICAL CENTER
6.08,2.20,28.63051,-80.82437,26320.28,6198.00,PARRISH MEDICAL CENTER
14.16,2.59,25.86166,-80.21398,68255.35,8222.55,NORTH SHORE MEDICAL CENTER
7.90,2.31,28.54917,-81.52746,35784.96,6785.35,HEALTH CENTRAL
8.89,2.51,27.76332,-82.64325,40876.57,7801.43,BAYFRONT MEDICAL CENTER INC
10.65,2.62,25.81317,-80.13996,50057.39,8391.02,MOUNT SINAI MEDICAL CENTER
8.35,2.28,27.49789,-82.56220,38118.88,6594.09,MANATEE MEMORIAL HOSPITAL
8.80,2.51,26.01867,-80.17981,40411.41,7782.18,MEMORIAL REGIONAL HOSPITAL
7.37,2.67,26.10282,-80.14245,33028.98,8614.69,BROWARD HEALTH BROWARD GENERAL MEDICAL CENTER
6.72,2.23,30.30835,-81.68919,29651.27,6367.14,ST VINCENT'S MEDICAL CENTER
9.66,2.25,27.19837,-80.24306,44902.20,6452.30,MARTIN MEMORIAL MEDICAL CENTER
7.05,2.22,29.04263,-81.31635,31347.25,6318.60,FLORIDA HOSPITAL DELAND
9.93,2.18,28.26092,-82.18802,46298.03,6074.87,FLORIDA HOSPITAL ZEPHYRHILLS
6.16,2.12,26.94042,-82.04094,26750.82,5802.17,CHARLOTTE REGIONAL MEDICAL CENTER
5.83,2.12,27.46707,-81.43358,25047.82,5775.86,HIGHLANDS REGIONAL MEDICAL CENTER
9.45,2.17,28.55140,-81.72120,43803.23,6025.21,SOUTH LAKE HOSPITAL
9.12,2.26,28.02768,-81.72466,42115.18,6523.37,WINTER HAVEN HOSPITAL
6.91,2.11,28.13321,-82.75839,30629.75,5725.44,HELEN ELLIS MEMORIAL HOSPITAL
6.33,2.15,28.82358,-81.71133,27620.85,5956.11,FLORIDA HOSPITAL WATERMAN
6.82,2.51,25.74067,-80.21244,30153.41,7809.71,MERCY HOSPITAL INC
6.14,2.13,29.17594,-82.13898,26627.39,5843.71,MUNROE REGIONAL MEDICAL CENTER
8.80,2.12,28.25431,-82.71447,40441.14,5763.34,MORTON PLANT NORTH BAY HOSPITAL
8.95,2.20,27.78088,-82.65126,41229.00,6220.91,ST ANTHONY'S HOSPITAL
5.59,2.16,29.24333,-81.10760,23781.97,5979.09,FLORIDA HOSPITAL MEMORIAL MEDICAL CENTER
7.91,2.12,27.09043,-82.44499,35793.77,5768.78,VENICE REGIONAL MEDICAL CENTER
11.98,2.24,28.53906,-82.44193,56914.61,6421.48,BROOKSVILLE REGIONAL HOSPITAL
6.77,2.16,28.91403,-81.28480,29910.00,6004.21,FLORIDA HOSPITAL FISH MEMORIAL
9.86,2.21,26.18711,-80.11941,45956.41,6224.00,HOLY CROSS HOSPITAL INC
8.84,2.42,27.98242,-82.49025,40631.52,7344.89,ST JOSEPH'S HOSPITAL
12.01,2.35,26.59805,-80.09271,57111.20,6977.03,JFK MEDICAL CENTER
6.63,2.17,28.80659,-81.86906,29179.05,6047.13,LEESBURG REGIONAL MEDICAL CENTER
6.75,2.18,27.31827,-82.53140,29803.70,6072.76,SARASOTA MEMORIAL HOSPITAL
9.28,2.33,30.31525,-81.66398,42924.62,6868.33,BAPTIST MEDICAL CENTER
7.52,2.43,29.86371,-81.31749,33785.64,7371.09,FLAGLER HOSPITAL
7.67,2.18,28.33522,-80.72319,34595.37,6111.68,WUESTHOFF MEDICAL CENTER  ROCKLEDGE
7.29,2.20,30.43066,-87.23191,32595.57,6183.99,BAPTIST HOSPITAL
10.84,2.14,27.89590,-81.56547,51025.04,5899.00,LAKE WALES MEDICAL CENTER
4.03,2.24,27.65832,-80.39307,15666.12,6425.00,INDIAN RIVER MEDICAL CENTER
7.22,2.21,27.50001,-81.43962,32218.66,6232.78,FLORIDA HOSPITAL HEARTLAND MEDICAL CENTER
12.09,2.33,28.29946,-81.41021,57521.96,6861.78,OSCEOLA REGIONAL MEDICAL CENTER
7.37,3.09,29.64155,-82.34844,33006.26,10836.52,SHANDS HOSPITAL AT THE UNIVERSITY OF FLORIDA
5.92,2.41,29.47897,-81.18915,25486.91,7272.55,FLORIDA HOSPITAL FLAGLER
11.88,2.45,30.73540,-86.56171,56389.30,7486.76,NORTH OKALOOSA MEDICAL CENTER
8.87,2.20,30.63421,-87.06708,40773.46,6178.08,SANTA ROSA MEDICAL CENTER
8.07,2.20,27.95192,-82.80379,36642.28,6187.94,MORTON PLANT HOSPITAL
13.88,3.00,27.93740,-82.45927,66773.85,10333.08,TAMPA GENERAL HOSPITAL
11.82,2.31,25.96994,-80.14533,56112.69,6775.13,AVENTURA HOSPITAL AND MEDICAL CENTER
9.43,2.24,28.01563,-82.13900,43697.57,6388.93,SOUTH FLORIDA BAPTIST HOSPITAL
7.49,2.31,30.45726,-84.26175,33620.70,6742.97,TALLAHASSEE MEMORIAL HEALTHCARE
10.15,2.24,28.18120,-81.64018,47436.27,6397.91,HEART OF FLORIDA REGIONAL MEDICAL CENTER
9.05,2.66,24.58076,-81.74233,41756.28,8586.17,LOWER KEYS MEDICAL CENTER
5.99,2.71,30.26389,-81.44283,25844.78,8848.61,MAYO CLINIC
13.48,2.97,25.70328,-80.29391,64719.95,10188.77,SOUTH MIAMI HOSPITAL, INC
10.05,2.43,30.18340,-82.68783,46913.50,7383.37,LAKE CITY MEDICAL CENTER
8.98,2.23,28.06172,-81.95304,41391.88,6358.03,LAKELAND REGIONAL MEDICAL CENTER
9.19,2.22,28.81611,-81.28351,42478.64,6302.03,CENTRAL FLORIDA REGIONAL HOSPITAL
13.20,2.10,27.30187,-82.45428,63276.60,5694.44,DOCTORS HOSPITAL OF SARASOTA
10.02,2.64,26.12647,-80.20519,46769.07,8463.64,PLANTATION GENERAL HOSPITAL
8.40,2.20,26.35875,-80.10203,38378.81,6216.00,BOCA RATON REGIONAL HOSPITAL
7.98,2.65,28.07111,-82.42342,36206.53,8521.57,FLORIDA HOSPITAL TAMPA
10.13,2.24,26.83035,-80.08655,47355.47,6392.34,PALM BEACH GARDENS MEDICAL CENTER
8.50,2.14,28.36005,-80.62309,38855.87,5884.00,CAPE CANAVERAL HOSPITAL
12.91,2.24,30.28793,-81.60103,61767.60,6402.87,MEMORIAL HOSPITAL JACKSONVILLE
11.18,2.73,25.88563,-80.32635,52761.50,8933.13,PALMETTO GENERAL HOSPITAL
10.99,2.51,26.26259,-80.20292,51780.64,7801.82,NORTHWEST MEDICAL CENTER
13.66,2.27,28.19342,-82.46987,65665.83,6555.40,MEDICAL CENTER OF TRINITY
13.10,2.24,29.66085,-82.41172,62767.64,6392.57,NORTH FLORIDA REGIONAL MEDICAL CENTER
12.69,2.63,25.73195,-80.38580,60625.82,8451.23,KENDALL REGIONAL MEDICAL CENTER
9.81,2.21,28.34805,-82.19963,45655.68,6263.29,PASCO REGIONAL MEDICAL CENTER
12.69,2.10,29.17550,-82.13680,60637.46,5657.68,OCALA REGIONAL MEDICAL CENTER
8.35,2.16,27.48213,-82.62126,38121.48,5999.74,BLAKE MEDICAL CENTER
6.06,2.21,26.52735,-81.83337,26205.48,6255.32,GULF COAST MEDICAL CENTER LEE MEM HEALTH SYSTEM
16.83,2.18,30.45448,-86.63362,82108.59,6081.74,FORT WALTON BEACH MEDICAL CENTER
14.10,2.29,30.16550,-81.73775,67904.45,6639.50,ORANGE PARK MEDICAL CENTER
11.28,2.26,26.12354,-80.25951,53295.16,6499.11,WESTSIDE REGIONAL MEDICAL CENTER
10.77,2.12,30.51624,-87.21856,50646.02,5795.76,WEST FLORIDA HOSPITAL
6.03,2.33,29.64481,-81.69431,26057.57,6865.16,PUTNAM COMMUNITY MEDICAL CENTER
13.27,2.11,26.98884,-82.09877,63626.68,5755.77,FAWCETT MEMORIAL HOSPITAL
13.56,2.25,27.82545,-82.70122,65154.06,6436.90,NORTHSIDE HOSPITAL
12.14,2.29,30.18657,-85.66513,57750.25,6661.02,GULF COAST MEDICAL CENTER
11.63,2.38,27.93259,-82.28759,55119.47,7156.09,BRANDON REGIONAL HOSPITAL
5.34,2.10,26.63958,-81.94164,22504.78,5657.28,CAPE CORAL HOSPITAL
8.82,2.51,27.43392,-80.34350,40531.32,7813.74,LAWNWOOD REGIONAL MEDICAL CENTER & HEART INSTITUTE
12.00,2.25,27.91458,-82.80382,57042.41,6449.43,LARGO MEDICAL CENTER
7.97,2.13,28.95195,-82.62421,36122.43,5856.55,SEVEN RIVERS REGIONAL MEDICAL CENTER
7.05,2.18,26.92138,-80.09708,31336.58,6115.00,JUPITER MEDICAL CENTER
11.28,2.28,30.47616,-84.23140,53304.67,6601.74,CAPITAL REGIONAL MEDICAL CENTER
11.29,2.14,28.36128,-82.68883,53349.42,5868.94,REGIONAL MEDICAL CENTER BAYONET POINT
13.07,2.20,26.43709,-80.12728,62598.33,6222.00,DELRAY MEDICAL CENTER
12.73,2.25,27.28861,-80.29431,60830.82,6476.36,ST LUCIE MEDICAL CENTER
13.71,2.30,28.53585,-82.53404,65911.51,6717.82,OAK HILL HOSPITAL
7.79,2.10,28.03957,-82.70875,35192.11,5670.39,MEASE COUNTRYSIDE HOSPITAL
5.72,2.16,30.35772,-87.16046,24442.81,5974.92,GULF BREEZE HOSPITAL
12.36,2.13,26.94996,-82.32651,58879.81,5829.94,ENGLEWOOD COMMUNITY HOSPITAL
10.93,2.43,26.68337,-80.25269,51494.44,7381.17,PALMS WEST HOSPITAL
7.36,2.41,26.65230,-80.20504,32953.91,7276.18,WELLINGTON REGIONAL MEDICAL CENTER
8.14,2.36,26.01394,-80.30980,37024.31,7004.62,MEMORIAL HOSPITAL WEST
8.79,2.17,26.21388,-81.73257,40379.76,6051.00,PHYSICIANS REGIONAL MEDICAL CENTER - PINE RIDGE
8.14,2.22,26.70181,-80.05055,37021.87,6290.53,GOOD SAMARITAN MEDICAL CENTER
6.61,2.24,26.08155,-80.36449,29086.65,6400.57,CLEVELAND CLINIC HOSPITAL
6.41,2.09,28.94952,-81.95843,28047.34,5625.84,VILLAGES REGIONAL HOSPITAL, THE
7.78,2.17,28.10969,-80.67280,35143.12,6040.00,WUESTHOFF MEDICAL CENTER - MELBOURNE
9.92,2.41,30.37837,-86.30696,46256.82,7307.77,SACRED HEART HOSPITAL ON THE EMERALD COAST
8.36,2.12,27.38993,-82.43343,38167.47,5785.79,LAKEWOOD RANCH MEDICAL CENTER
7.03,2.08,30.25377,-81.58270,31275.00,5555.84,ST VINCENT'S MEDICAL CENTER SOUTHSIDE
6.75,2.35,34.78963,-84.98398,29800.91,6987.12,HAMILTON MEDICAL CENTER
5.52,2.16,31.22516,-82.34898,23415.78,5994.12,SATILLA REGIONAL MEDICAL CENTER
4.76,2.27,34.94766,-85.26296,19480.92,6567.54,HUTCHESON MEDICAL CENTER
9.31,2.42,34.17863,-84.13992,43070.16,7327.73,NORTHSIDE HOSPITAL FORSYTH
6.45,2.23,33.94791,-83.40531,28270.47,6376.73,ST MARY'S HOSPITAL
5.83,2.53,31.59023,-84.15756,25016.49,7931.11,PHOEBE PUTNEY MEMORIAL HOSPITAL
8.69,2.25,34.24569,-84.49068,39844.00,6481.25,NORTHSIDE HOSPITAL CHEROKEE
6.99,2.72,33.79230,-84.32107,31040.40,8871.85,EMORY UNIVERSITY HOSPITAL
6.10,2.53,33.56970,-85.07276,26422.15,7893.49,TANNER MEDICAL CENTER - CARROLLTON
5.25,2.32,33.03204,-85.05781,22025.06,6824.15,WEST GEORGIA MEDICAL CENTER
5.34,2.22,33.60237,-83.84809,22511.00,6322.92,NEWTON MEDICAL CENTER
7.10,2.71,34.51192,-84.92579,31638.49,8835.36,GORDON HOSPITAL
6.64,2.29,32.02825,-81.09977,29243.25,6642.94,CANDLER HOSPITAL
5.22,2.56,31.17425,-81.48459,21848.80,8067.98,SOUTHEAST GEORGIA HEALTH SYSTEM- BRUNSWICK CAMPUS
4.56,2.33,33.47096,-81.98176,18423.81,6876.08,UNIVERSITY HOSPITAL
6.89,2.37,34.30335,-83.81737,30512.61,7065.86,NORTHEAST GEORGIA MEDICAL CENTER, INC
9.20,2.26,34.19990,-84.79378,42494.00,6517.82,CARTERSVILLE MEDICAL CENTER
9.24,2.30,33.23886,-84.26706,42717.87,6692.62,SPALDING REGIONAL MEDICAL CENTER
6.38,3.21,33.47091,-81.98988,27868.71,11459.54,MEDICAL COLLEGE OF GA HOSPITALS AND CLINICS
6.96,2.29,33.96770,-84.55011,30890.06,6688.79,WELLSTAR KENNESTONE HOSPITAL
5.33,2.48,32.03185,-81.09158,22424.20,7651.10,MEMORIAL HEALTH UNIV MED CEN, INC
5.51,2.31,30.82614,-83.97393,23378.91,6767.39,JOHN D ARCHBOLD MEMORIAL HOSPITAL
5.46,2.13,31.98515,-81.15475,23109.05,5830.66,ST JOSEPH'S HOSPITAL - SAVANNAH
6.54,2.48,34.26000,-85.17000,28707.13,7642.16,FLOYD MEDICAL CENTER
6.43,2.73,32.46602,-84.98695,28126.29,8928.24,MEDICAL CENTER, THE
5.67,2.27,32.61642,-83.63065,24214.69,6561.07,HOUSTON MEDICAL CENTER
6.87,2.39,33.96117,-83.39832,30414.27,7185.66,ATHENS REGIONAL MEDICAL CENTER
8.38,2.32,32.41483,-81.76990,38239.90,6832.97,EAST GEORGIA REGIONAL MEDICAL CENTER
4.73,2.39,33.78956,-84.28077,19339.00,7178.15,DEKALB MEDICAL CENTER
6.22,2.48,33.76810,-84.38616,27071.82,7662.49,EMORY UNIVERSITY HOSPITAL MIDTOWN
6.94,2.95,33.75205,-84.38272,30801.53,10073.47,GRADY MEMORIAL HOSPITAL
6.54,2.18,33.90877,-84.35180,28687.03,6095.32,SAINT JOSEPH'S HOSPITAL OF ATLANTA, INC
6.60,2.23,33.81003,-84.39568,29023.49,6350.55,PIEDMONT HOSPITAL
5.75,2.28,33.96351,-84.01769,24601.43,6610.73,GWINNETT MEDICAL CENTER
5.36,2.33,33.68072,-84.00200,22569.38,6874.88,ROCKDALE MEDICAL CENTER
5.82,2.24,31.47069,-83.50473,24990.44,6412.31,TIFT REGIONAL MEDICAL CENTER
7.13,2.50,32.83041,-83.63476,31789.32,7759.56,MEDICAL CENTER OF CENTRAL GEORGIA
12.22,2.68,33.76372,-84.37315,58191.31,8701.00,ATLANTA MEDICAL CENTER
5.01,2.44,30.86250,-83.28630,20775.42,7416.53,SOUTH GEORGIA MEDICAL CENTER
8.31,2.39,32.54026,-82.95741,37904.00,7175.02,FAIRVIEW PARK HOSPITAL
5.65,2.12,32.20903,-82.37585,24081.41,5757.12,MEADOWS REGIONAL MEDICAL CENTER
4.52,2.15,32.50679,-84.95933,18242.73,5944.13,ST FRANCIS HOSPITAL, INC
6.84,2.37,33.85638,-84.60446,30268.18,7092.21,WELLSTAR COBB HOSPITAL
7.70,2.33,33.90903,-84.35410,34741.19,6848.88,NORTHSIDE HOSPITAL
6.71,2.28,32.84705,-83.61823,29577.28,6614.43,COLISEUM MEDICAL CENTER
6.06,2.45,33.57843,-84.38897,26236.53,7508.33,SOUTHERN REGIONAL MEDICAL CENTER
7.60,2.20,34.25704,-85.16467,34195.14,6214.14,REDMOND REGIONAL MEDICAL CENTER
8.20,2.31,33.48259,-82.09038,37340.09,6776.68,DOCTORS HOSPITAL
8.10,2.20,33.73938,-84.73111,36804.23,6189.85,WELLSTAR DOUGLAS HOSPITAL
5.42,2.29,33.51144,-84.22200,22909.17,6653.68,HENRY MEDICAL CENTER, INC
8.87,2.19,33.87683,-84.02136,40788.67,6166.14,EMORY EASTSIDE MEDICAL CENTER
11.48,2.35,34.06334,-84.31976,54344.27,6986.80,NORTH FULTON REGIONAL HOSPITAL
5.24,2.15,33.45252,-84.50697,21978.72,5933.12,PIEDMONT FAYETTE HOSPITAL
10.42,2.49,33.68000,-84.42685,48848.50,7678.83,SOUTH FULTON MEDICAL CENTER
5.27,2.25,34.42855,-84.48026,22136.14,6461.43,PIEDMONT MOUNTAINSIDE HOSPITAL INC
5.73,2.19,33.39118,-84.81563,24489.10,6142.58,PIEDMONT NEWNAN HOSPITAL, INC
5.68,2.26,34.06670,-84.17643,24252.00,6525.88,EMORY JOHNS CREEK HOSPITAL
5.66,2.95,21.30780,-157.85505,24125.89,10113.38,THE QUEENS MEDICAL CENTER
7.96,3.85,20.88519,-156.48928,36103.47,14748.58,MAUI MEMORIAL MEDICAL CENTER
7.30,2.79,21.38095,-157.75759,32671.75,9277.69,CASTLE MEDICAL CENTER
4.98,2.51,21.32239,-157.85662,20604.82,7795.73,KUAKINI MEDICAL CENTER
6.05,2.72,21.30226,-157.85092,26160.19,8873.27,STRAUB CLINIC AND HOSPITAL
7.01,2.70,21.38328,-157.93828,31128.05,8811.50,PALI MOMI MEDICAL CENTER
4.49,2.19,42.59072,-114.49627,18071.34,6135.12,ST LUKES MAGIC VALLEY RMC
5.46,2.34,43.61218,-116.19234,23132.59,6904.21,ST LUKES REGIONAL MEDICAL CENTER
4.83,2.29,43.61359,-116.25484,19821.92,6678.46,ST ALPHONSUS REGIONAL MEDICAL CENTER
5.80,2.52,43.55374,-116.57267,24853.76,7876.00,SAINT ALPHONSUS MEDICAL CENTER - NAMPA
6.70,2.36,43.46987,-111.99208,29565.51,7013.16,EASTERN IDAHO REGIONAL MEDICAL CENTER
6.51,2.80,42.87331,-112.42180,28560.71,9292.95,PORTNEUF MEDICAL CENTER
4.93,2.43,47.69645,-116.79476,20366.83,7409.04,KOOTENAI MEDICAL CENTER
5.60,2.18,38.90068,-90.16026,23853.52,6076.07,ALTON MEMORIAL HOSPITAL
8.21,2.37,41.52896,-88.13550,37393.08,7066.07,PROVENA ST JOSEPH MEDICAL CENTER
13.20,2.27,41.91082,-87.84451,63269.35,6535.00,LOYOLA GOTTLIEB MEMORIAL HOSPITAL
7.76,2.44,42.06550,-87.68428,35051.73,7438.68,EVANSTON HOSPITAL
8.20,2.52,41.84429,-89.48014,37301.64,7856.54,KATHERINE SHAW BETHEA HOSPITAL
5.82,2.28,40.75318,-89.59321,24976.12,6621.94,PROCTOR HOSPITAL
7.71,2.39,39.93563,-91.39833,34797.36,7197.25,BLESSING HOSPITAL
8.00,3.15,41.86011,-87.69571,36292.33,11120.00,MT SINAI HOSPITAL MEDICAL CENTER
11.88,3.12,41.72930,-88.26976,56398.33,10944.83,COPLEY MEMORIAL HOSPITAL
8.87,2.55,42.07012,-88.33180,40814.11,8028.92,SHERMAN HOSPITAL
6.41,2.26,38.52908,-89.11604,28017.26,6514.36,ST MARYS HOSPITAL
9.07,2.22,41.80160,-89.69714,41835.18,6300.73,CGH MEDICAL CENTER
4.71,2.24,38.32292,-88.91026,19209.65,6394.72,GOOD SAMARITAN REGIONAL HLTH CENTER
8.15,3.03,41.72636,-87.56727,37088.67,10509.00,ADVOCATE TRINITY HOSPITAL
8.29,2.84,41.89141,-87.77618,37774.70,9534.58,WEST SUBURBAN MEDICAL CENTER
8.58,2.76,42.05624,-87.74012,39294.40,9109.10,SKOKIE HOSPITAL
5.32,2.39,39.80726,-89.64496,22370.63,7166.27,ST JOHNS HOSPITAL
7.50,2.62,41.83195,-87.79266,33682.30,8365.93,MACNEAL  HOSPITAL
7.29,2.36,41.66900,-87.81414,32619.61,7048.13,PALOS COMMUNITY HOSPITAL
7.81,2.41,41.79660,-87.88627,35279.35,7275.04,ADVENTIST LA GRANGE MEMORIAL HOSPITAL
7.39,2.50,40.70200,-89.59222,33126.23,7772.31,SAINT FRANCIS MEDICAL CENTER
9.42,2.77,42.02578,-87.68371,43648.88,9163.39,RHC ST FRANCIS HOSPITAL
9.25,2.74,41.96698,-87.64941,42758.06,8988.39,LOUIS A WEISS MEMORIAL HOSPITAL
10.00,2.59,42.37840,-87.83329,46662.74,8207.85,VISTA MEDICAL CENTER EAST
13.93,3.38,41.78829,-87.60485,67050.10,12338.37,THE UNIVERSITY OF CHICAGO MEDICAL CENTER
7.90,2.88,40.11696,-88.21506,35762.79,9710.88,CARLE FOUNDATION HOSPITAL
6.81,2.33,41.36897,-88.42537,30091.48,6879.81,MORRIS HOSPITAL & HEALTHCARE CENTERS
6.98,2.34,40.11739,-88.22714,31005.28,6897.62,PROVENA COVENANT MEDICAL CENTER- URBANA
11.78,2.60,41.97532,-87.69958,55919.87,8280.05,SWEDISH COVENANT HOSPITAL
6.34,2.32,42.31832,-88.27920,27694.75,6823.57,CENTEGRA HEALTH SYSTEM - MC HENRY HOSPITAL
10.36,2.68,41.98743,-87.81440,48530.13,8706.60,RESURRECTION MEDICAL CENTER
6.28,2.69,41.65880,-87.67729,27369.80,8731.67,METROSOUTH MEDICAL CENTER
10.54,3.52,41.87497,-87.66927,49473.69,13022.16,RUSH UNIVERSITY MEDICAL CENTER
7.96,2.31,41.80555,-87.92059,36073.74,6760.30,HINSDALE HOSPITAL
4.04,3.36,41.87381,-87.67421,15724.05,12192.18,JOHN H STROGER JR HOSPITAL
18.53,2.43,38.70148,-90.14382,90897.43,7380.37,GATEWAY REGIONAL MEDICAL CENTER
4.80,2.30,40.49639,-88.99106,19674.55,6714.45,BROMENN HEALTHCARE
8.81,2.23,42.25244,-87.86528,40464.09,6327.73,LAKE FOREST HOSPITAL
8.22,2.66,41.76946,-87.69239,37450.08,8580.61,HOLY CROSS HOSPITAL
6.01,2.33,39.86644,-88.96090,25980.41,6861.27,DECATUR MEMORIAL HOSPITAL
5.20,2.33,39.80893,-89.65530,21750.22,6887.09,MEMORIAL MEDICAL CENTER
8.98,3.83,41.86927,-87.67052,41377.46,14644.07,UNIVERSITY OF ILLINOIS HOSPITAL
9.86,2.46,41.12049,-87.87187,45944.43,7539.89,PROVENA ST MARYS HOSPITAL
6.50,2.94,41.84639,-87.62345,28528.29,10052.96,MERCY HOSPITAL AND MEDICAL CENTER
5.87,2.44,42.29592,-89.63773,25220.85,7445.05,FHN MEMORIAL HOSPITAL
5.99,2.34,40.48254,-88.95519,25872.57,6908.08,ST JOSEPH MEDICAL CENTER
4.71,2.30,37.72790,-89.22058,19227.92,6697.51,MEMORIAL HOSPITAL OF CARBONDALE
6.53,2.30,39.82659,-88.93119,28649.55,6720.58,ST MARYS HOSPITAL
6.50,2.59,41.52283,-87.71111,28500.30,8201.49,FRANCISCAN ST JAMES HEALTH
11.82,2.40,41.78566,-88.32886,56118.59,7239.00,PROVENA MERCY MEDICAL CENTER
8.44,2.70,41.72094,-87.69220,38591.42,8787.91,LITTLE COMPANY OF MARY HOSPITAL
9.95,2.86,41.90414,-87.68254,46388.64,9602.64,ST MARY & ELIZABETH MED CTR-DIVISION CAMPUS
7.79,3.04,41.93641,-87.65295,35207.69,10531.98,ADVOCATE ILLINOIS MASONIC MEDICAL CENTER
13.06,2.19,37.74480,-88.99329,62543.96,6127.07,HEARTLAND REGIONAL MEDICAL CENTER
5.75,2.25,38.55020,-90.02146,24623.86,6436.29,MEMORIAL HOSPITAL
6.00,2.53,41.12572,-87.88526,25928.54,7894.24,RIVERSIDE MEDICAL CENTER
6.32,2.31,38.51081,-89.99014,27555.68,6747.52,ST ELIZABETH HOSPITAL
6.28,2.39,41.60726,-87.66060,27361.41,7193.44,INGALLS MEMORIAL HOSPITAL
7.70,2.49,41.86362,-87.93567,34752.69,7678.20,ELMHURST MEMORIAL HOSPITAL
8.50,2.66,42.27447,-87.95764,38864.21,8586.55,ADVOCATE CONDELL MEDICAL CENTER
7.13,2.94,41.90078,-87.69925,31770.50,10017.93,NORWEGIAN-AMERICAN HOSPITAL
7.31,2.88,41.72031,-87.73249,32709.80,9704.00,ADVOCATE CHRIST HOSPITAL & MEDICAL CENTER
6.61,2.71,40.70065,-89.59505,29070.75,8821.32,METHODIST MEDICAL CENTER OF ILLINOIS
8.90,2.20,41.88566,-88.34311,40950.34,6217.59,DELNOR COMMUNITY HOSPITAL
6.41,2.55,41.54446,-87.98379,28054.52,8037.82,SILVER CROSS HOSPITAL  AND MEDICAL CENTERS
10.04,2.22,42.03576,-88.32575,46847.81,6314.59,PROVENA - SAINT JOSEPH HOSPITAL
8.19,2.73,42.03837,-87.84820,37256.37,8972.53,ADVOCATE LUTHERAN GENERAL HOSPITAL
8.49,2.98,41.93418,-87.63579,38819.16,10225.05,SAINT JOSEPH HOSPITAL
7.48,2.61,42.26584,-89.07428,33569.76,8328.69,SWEDISH AMERICAN HOSPITAL
7.08,2.40,41.76076,-88.15016,31523.04,7231.19,EDWARD HOSPITAL
9.30,2.33,42.26634,-89.00900,43038.92,6876.69,SAINT ANTHONY MEDICAL CENTER
6.61,2.55,42.29844,-89.09897,29070.69,8034.75,ROCKFORD MEMORIAL HOSPITAL
8.89,2.76,41.89166,-87.84838,40903.37,9109.37,WESTLAKE COMMUNITY HOSPITAL
10.03,2.41,41.87269,-88.15684,46793.99,7298.00,CENTRAL DUPAGE HOSPITAL
6.25,2.56,41.56720,-87.69566,27229.32,8082.32,ADVOCATE SOUTH SUBURBAN HOSPITAL
9.83,2.57,41.94560,-87.76897,45794.42,8134.14,OUR LADY OF THE RESURRECTION MED CTR
7.39,2.21,42.06732,-87.99368,33099.66,6274.62,NORTHWEST COMMUNITY HOSPITAL
7.66,2.27,42.00413,-88.01745,34512.92,6573.48,ALEXIAN BROTHERS MEDICAL CENTER
4.70,2.18,41.49581,-90.41871,19173.70,6116.33,GENESIS MEDICAL CENTER ILLINI CAMPUS
6.98,3.10,41.86110,-87.83404,30985.09,10857.62,LOYOLA UNIVERSITY MEDICAL CENTER
4.63,2.25,41.48200,-90.57158,18796.45,6450.81,TRINITY ROCK ISLAND
10.28,2.92,41.89477,-87.62131,48137.57,9956.51,NORTHWESTERN MEMORIAL HOSPITAL
8.52,2.70,41.96185,-88.72130,38961.48,8775.91,KISHWAUKEE COMMUNITY HOSPITAL
6.98,2.22,41.81791,-88.00907,30989.97,6289.94,ADVOCATE GOOD SAMARITAN HOSPITAL
6.11,2.13,38.73818,-89.94728,26464.21,5858.07,ANDERSON HOSPITAL
8.44,2.35,42.05260,-88.14173,38563.64,7000.89,ST ALEXIUS MEDICAL CENTER
5.93,2.31,42.19586,-88.17286,25564.11,6780.54,ADVOCATE GOOD SHEPHERD HOSPITAL
8.18,2.56,41.91465,-88.05724,37217.92,8054.00,ADVENTIST GLENOAKS
8.41,2.29,41.68062,-88.08319,38390.57,6679.86,ADVENTIST BOLINGBROOK HOSPITAL
6.27,2.19,39.48010,-86.07773,27327.58,6161.33,JOHNSON MEMORIAL HOSPITAL
6.49,2.46,41.59920,-87.35764,28435.89,7520.90,METHODIST HOSPITALS INC
6.35,2.52,41.61514,-87.52413,27709.29,7882.94,FRANCISCAN ST MARGARET HEALTH - HAMMOND
6.10,2.25,39.76255,-86.50165,26436.00,6434.79,HENDRICKS REGIONAL HEALTH
7.81,2.15,41.61055,-86.72511,35306.75,5921.32,INDIANA UNIVERSITY HEALTH LA PORTE HOSPITAL
6.46,2.13,40.44665,-86.12707,28276.94,5834.88,HOWARD REGIONAL HEALTH SYSTEM
5.90,2.45,41.63466,-87.44901,25376.08,7494.38,ST CATHERINE HOSPITAL INC
5.13,2.23,38.28244,-85.74923,21389.86,6352.25,CLARK MEMORIAL HOSPITAL
6.10,2.14,40.48720,-86.15548,26415.33,5868.11,ST JOSEPH HOSPITAL & HEALTH CENTER INC
6.07,2.38,41.70877,-86.17026,26285.07,7142.38,SAINT JOSEPH REGIONAL MEDICAL CENTER
5.82,2.29,41.70639,-86.89936,24973.23,6650.98,FRANCISCAN ST ANTHONY HEALTH - MICHIGAN CITY
7.38,2.29,41.03874,-85.24876,33047.66,6688.75,LUTHERAN HOSPITAL OF INDIANA
5.82,2.34,41.70568,-85.93404,24957.58,6904.09,ELKHART GENERAL HOSPITAL
5.40,2.26,41.04659,-85.10906,22819.12,6530.13,PARKVIEW REGIONAL MEDICAL CENTER
5.10,2.28,39.48518,-87.40893,21226.59,6586.90,UNION HOSPITAL INC
5.43,2.94,39.78091,-86.17629,22944.71,10046.95,WILLIAM N WISHARD MEMORIAL HOSPITAL
5.95,2.68,41.56352,-85.83039,25660.68,8669.00,IU HEALTH GOSHEN HOSPITAL
6.03,2.29,41.51266,-87.26125,26052.89,6641.77,ST MARY MEDICAL CENTER INC
8.48,2.37,41.46729,-87.05130,38766.02,7058.37,PORTER VALPARAISO HOSPITAL
5.30,2.15,38.67313,-87.53370,22299.92,5941.21,GOOD SAMARITAN HOSPITAL
6.09,2.17,38.30195,-85.83409,26397.59,6043.91,FLOYD MEMORIAL HOSPITAL AND HEALTH SERVICES
6.08,2.47,41.07820,-85.14936,26334.54,7591.92,ST JOSEPH HOSPITAL
5.05,2.41,39.86405,-84.88413,20974.35,7268.38,REID HOSPITAL & HEALTH CARE SERVICES
5.84,2.29,39.16006,-86.54038,25082.89,6670.87,INDIANA UNIVERSITY HEALTH BLOOMINGTON HOSPITAL
7.76,2.96,39.79009,-86.16260,35063.19,10165.37,INDIANA UNIVERSITY HEALTH
6.39,2.38,41.68479,-86.25217,27938.84,7137.84,MEMORIAL HOSPITAL OF SOUTH BEND
5.77,2.19,40.04526,-86.02297,24718.45,6161.60,RIVERVIEW HOSPITAL
5.22,2.20,38.73589,-85.37996,21852.00,6211.15,KING'S DAUGHTERS' HOSPITAL AND HEALTH SERVICES,THE
7.40,2.40,39.78704,-86.07673,33189.66,7220.34,COMMUNITY HOSPITAL EAST
6.25,2.18,37.98293,-87.57072,27201.90,6116.66,DEACONESS HOSPITAL INC
8.65,2.70,39.91001,-86.19660,39644.90,8784.96,ST VINCENT HOSPITAL & HEALTH SERVICES
5.58,2.15,39.11138,-84.88343,23725.08,5938.16,DEARBORN COUNTY HOSPITAL
5.69,2.25,40.09594,-85.68152,24309.55,6454.18,SAINT JOHN'S HEALTH SYSTEM
8.11,2.50,40.19679,-85.41573,36850.40,7772.96,INDIANA UNIVERSITY HEALTH BALL MEMORIAL HOSPITAL
7.31,2.57,41.49222,-87.52429,32721.92,8128.73,FRANCISCAN ST MARGARET HEALTH - DYER
7.36,2.20,37.96320,-87.50292,32947.14,6191.26,ST MARY'S MEDICAL CENTER OF EVANSVILLE INC
6.89,2.36,40.39424,-86.83516,30540.93,7052.51,FRANCISCAN ST ELIZABETH HEALTH - LAFAYETTE EAST
5.94,2.26,39.21585,-85.89683,25622.50,6489.12,COLUMBUS REGIONAL HOSPITAL
4.50,2.24,40.12998,-85.69436,18112.09,6381.00,COMMUNITY HOSPITAL OF ANDERSON AND MADISON COUNTY
3.68,2.12,38.39499,-86.94089,13894.50,5801.77,MEMORIAL HOSPITAL AND HEALTH CARE CENTER
6.20,2.28,41.55065,-87.50619,26948.03,6634.00,COMMUNITY HOSPITAL
5.25,2.31,41.39576,-87.36689,22012.79,6769.16,FRANCISCAN ST ANTHONY HEALTH - CROWN POINT
6.40,2.14,39.63776,-86.13260,27973.33,5874.42,COMMUNITY HOSPITAL SOUTH
6.49,2.22,39.94017,-86.15975,28462.88,6291.91,ST VINCENT HEART CENTER OF INDIANA LLC
6.98,2.21,39.90201,-86.04478,31000.08,6227.21,INDIANA HEART HOSPITAL THE
6.11,2.14,39.78047,-86.34084,26463.33,5910.33,IU HEALTH WEST HOSPITAL
7.12,2.31,39.95930,-86.16016,31710.15,6791.12,INDIANA UNIVERSITY HEALTH NORTH HOSPITAL
6.00,2.40,39.64935,-86.07960,25905.15,7258.85,FRANCISCAN ST FRANCIS HEALTH - INDIANAPOLIS
7.30,3.34,40.40296,-86.80885,32656.56,12098.74,INDIANA UNIVERSITY HEALTH ARNETT HOSPITAL
5.22,2.06,37.97481,-87.44457,21888.87,5450.00,THE HEART HOSPITAL AT DEACONESS GATEWAY LLC
5.75,2.04,38.33336,-85.75165,24599.54,5380.54,KENTUCKIANA MEDICAL CENTER LLC
4.63,2.31,42.04855,-92.90625,18803.30,6766.03,MARSHALLTOWN MEDICAL & SURGICAL CENTER
4.71,2.24,42.49388,-94.18926,19227.57,6414.45,TRINITY REGIONAL MEDICAL CENTER
7.01,2.49,41.60051,-93.61086,31137.18,7704.34,IOWA LUTHERAN HOSPITAL
8.23,2.35,41.26886,-95.83923,37481.93,6963.07,ALEGENT HEALTH MERCY HOSPITAL
6.23,2.27,41.66411,-91.52841,27103.43,6558.64,MERCY HOSPITAL
5.42,2.19,42.03321,-93.61164,22899.72,6157.61,MARY GREELEY MEDICAL CENTER
4.80,2.31,41.54190,-90.55691,19699.13,6788.21,GENESIS MEDICAL CENTER-DAVENPORT
6.41,2.25,41.98570,-91.66093,28042.38,6469.67,ST LUKES HOSPITAL
6.34,2.13,41.26786,-95.83505,27665.32,5852.23,JENNIE EDMUNDSON HOSPITAL
4.62,2.17,40.81009,-91.17356,18754.35,6063.16,GREAT RIVER MEDICAL CENTER
9.08,3.10,41.66092,-91.54800,41902.48,10887.96,UNIVERSITY OF IOWA HOSPITAL & CLINICS
5.70,2.33,43.15063,-93.21718,24367.46,6877.22,MERCY MEDICAL CENTER-NORTH IOWA
6.96,2.28,42.46407,-92.34532,30874.71,6588.29,COVENANT MEDICAL CENTER
5.48,2.07,42.49227,-90.67404,23198.03,5536.87,MERCY MEDICAL CENTER-DUBUQUE
5.90,2.15,41.97864,-91.65507,25410.79,5947.32,MERCY MEDICAL CENTER - CEDAR RAPIDS
4.84,2.47,41.86141,-90.18921,19874.39,7614.73,MERCY MEDICAL CENTER-CLINTON
6.60,2.34,41.58955,-93.63248,29021.03,6916.32,IOWA METHODIST MEDICAL CENTER
6.02,2.35,41.59886,-93.62344,26010.72,6949.85,MERCY MEDICAL CENTER-DES MOINES
3.96,2.19,42.52665,-92.33957,15312.11,6158.34,ALLEN MEMORIAL HOSPITAL
4.15,2.30,42.51846,-96.40581,16289.55,6724.55,ST LUKES REGIONAL MEDICAL CENTER
5.79,2.20,42.49250,-96.39975,24805.61,6201.48,MERCY MEDICAL CENTER-SIOUX CITY
5.49,2.27,37.37991,-94.68739,23281.42,6583.26,VIA CHRISTI HOSPITAL PITTSBURG INC
6.33,2.31,38.83324,-97.61028,27597.07,6778.59,SALINA REGIONAL HEALTH CENTER
8.24,2.53,38.87847,-99.29923,37527.61,7925.90,HAYS MEDICAL CENTER
5.31,2.22,39.05660,-95.69599,22319.06,6322.34,ST FRANCIS HEALTH CENTER INC
5.43,2.41,38.07731,-97.89183,22949.44,7305.50,HUTCHINSON REGIONAL MEDICAL CENTER INC
7.87,2.58,39.05583,-94.60912,35613.64,8181.81,UNIVERSITY OF KANSAS HOSPITAL
5.33,2.21,38.85279,-94.82413,22411.86,6245.14,OLATHE MEDICAL CENTER
6.58,2.30,39.05128,-95.69572,28916.33,6708.07,STORMONT-VAIL HEALTHCARE
6.59,2.07,38.02419,-97.33117,28958.45,5521.82,NEWTON MEDICAL CENTER
10.39,2.22,38.99549,-94.69061,48663.10,6280.20,SHAWNEE MISSION MEDICAL CENTER
7.15,2.41,37.70405,-97.31386,31876.49,7300.36,VIA CHRISTI HOSPITALS WICHITA INC
9.27,2.38,37.69556,-97.29785,42870.95,7140.21,WESLEY MEDICAL CENTER
5.73,2.23,38.97848,-95.24771,24504.25,6373.00,LAWRENCE MEMORIAL HOSPITAL
5.70,2.13,39.20164,-96.60003,24331.00,5821.60,MERCY REGIONAL HEALTH CENTER
8.59,2.25,39.12677,-94.78643,39337.21,6443.88,PROVIDENCE MEDICAL CENTER
5.56,2.28,37.78537,-100.01492,23606.00,6597.85,WESTERN PLAINS MEDICAL COMPLEX
11.07,2.31,38.93763,-94.72630,52215.38,6744.27,OVERLAND PARK REG MED CTR
8.85,2.19,38.91047,-94.65205,40711.52,6166.39,MENORAH MEDICAL CENTER
8.37,2.21,38.90355,-94.66966,38221.25,6237.96,SAINT LUKE'S SOUTH HOSPITAL
3.75,2.12,37.74995,-97.22652,14221.40,5787.37,KANSAS HEART HOSPITAL
4.01,2.09,37.73142,-97.26078,15578.20,5607.35,GALICHIA HEART HOSPITAL LLC
4.88,2.09,37.72341,-97.14628,20078.37,5611.95,KANSAS MEDICAL CENTER LLC
5.99,2.32,39.07816,-84.46695,25852.58,6809.20,ST ELIZABETH FT THOMAS
4.54,2.30,37.72943,-82.76716,18345.46,6704.46,HIGHLANDS REGIONAL MEDICAL CENTER
4.95,2.31,38.47021,-82.63498,20438.70,6752.23,KING'S DAUGHTERS' MEDICAL CENTER
3.77,2.15,38.03140,-84.52194,14347.30,5943.77,SAINT JOSEPH HOSPITAL
7.45,2.51,37.11784,-84.10910,33413.80,7816.25,SAINT JOSEPH HOSPITAL LONDON
3.33,2.15,37.71183,-85.87623,12071.54,5931.18,HARDIN MEMORIAL HOSPITAL
5.47,2.32,36.99641,-86.43006,23153.33,6800.43,THE MEDICAL CENTER AT BOWLING GREEN
3.87,2.34,37.01079,-85.90342,14843.76,6916.94,T J SAMSON COMMUNITY HOSPITAL
6.45,2.53,38.18397,-83.43268,28220.74,7894.32,ST CLAIRE REGIONAL MEDICAL CENTER
5.96,2.28,38.63961,-83.80820,25689.79,6614.21,MEADOWVIEW REGIONAL MEDICAL CENTER
6.32,2.32,37.27729,-83.22802,27546.91,6811.62,HAZARD ARH REGIONAL MEDICAL CENTER
5.51,2.31,39.06704,-84.49946,23393.39,6758.49,ST ELIZABETH MEDICAL CENTER NORTH
5.18,2.21,38.50697,-82.69222,21679.88,6255.15,OUR LADY OF BELLEFONTE HOSPITAL
4.62,2.45,37.76518,-87.10197,18747.98,7497.50,OWENSBORO MEDICAL HEALTH SYSTEM
5.98,2.43,38.24927,-85.75081,25831.43,7399.34,JEWISH HOSPITAL & ST MARY'S HEALTHCARE
9.18,2.69,37.47264,-82.52605,42386.58,8752.34,PIKEVILLE MEDICAL CENTER
6.62,2.43,39.01660,-84.63078,29134.20,7397.56,ST ELIZABETH FLORENCE
5.59,2.26,37.64378,-84.77272,23786.95,6486.73,EPHRAIM MCDOWELL REGIONAL MEDICAL CENTER
5.12,2.37,37.73107,-84.29238,21368.43,7064.14,PATTIE A CLAY REGIONAL MEDICAL CENTER
6.40,2.82,37.85504,-87.58345,27970.64,9387.64,METHODIST HOSPITAL
7.92,3.22,38.03282,-84.50674,35869.46,11471.96,UNIVERSITY OF KENTUCKY HOSPITAL
6.14,2.26,36.92128,-84.11838,26612.83,6525.21,BAPTIST REGIONAL MEDICAL CENTER
4.40,2.21,37.36583,-85.33917,17592.41,6231.88,TAYLOR REGIONAL HOSPITAL
8.20,2.43,38.24806,-85.75125,37347.86,7388.04,NORTON HOSPITALS, INC
4.82,2.26,37.33959,-87.48988,19777.37,6492.58,REGIONAL MEDICAL CENTER OF HOPKINS COUNTY
5.80,2.12,37.06431,-88.67523,24856.00,5781.48,LOURDES HOSPITAL
4.95,2.23,38.01849,-84.51236,20443.58,6355.12,CENTRAL BAPTIST HOSPITAL
4.52,2.13,37.07404,-88.62685,18208.02,5825.32,WESTERN BAPTIST HOSPITAL
6.43,2.26,38.16020,-84.90519,28159.84,6518.84,FRANKFORT REGIONAL MEDICAL CENTER
4.20,2.13,38.23898,-85.63941,16593.56,5809.02,BAPTIST HOSPITAL EAST
6.35,2.32,37.08724,-84.61828,27711.17,6828.78,LAKE CUMBERLAND REGIONAL HOSPITAL
7.18,2.14,37.56166,-83.37202,32047.92,5891.00,KENTUCKY RIVER MEDICAL CENTER
6.35,2.80,38.24802,-85.74464,27743.39,9294.39,UNIVERSITY OF LOUISVILLE HOSPITAL
3.86,2.31,37.99944,-84.43941,14812.50,6754.17,SAINT JOSEPH EAST
5.20,2.64,30.20227,-92.01906,21767.30,8498.51,LAFAYETTE GENERAL MEDICAL CENTER
7.99,2.43,30.00890,-91.79475,36211.73,7408.27,DAUTERIVE HOSPITAL
6.02,2.15,29.77956,-90.80568,26036.83,5952.17,THIBODAUX REGIONAL MEDICAL CENTER
6.72,2.30,29.59851,-90.71397,29653.03,6725.98,TERREBONNE GENERAL MEDICAL CENTER
13.84,2.41,30.46813,-90.45814,66562.67,7260.77,NORTH OAKS MEDICAL CENTER, LLC
5.51,2.40,30.54354,-92.07608,23362.51,7217.86,OPELOUSAS GENERAL HEALTH SYSTEM
7.20,2.42,31.28258,-92.46060,32111.60,7354.90,CHRISTUS ST FRANCES CABRINI HOSPITAL
8.96,2.21,30.65001,-91.13821,41245.31,6257.81,LANE REGIONAL MEDICAL CENTER
8.09,2.33,31.31451,-92.44997,36767.12,6897.37,RAPIDES REGIONAL MEDICAL CENTER
9.08,3.40,30.21521,-93.22682,41867.08,12425.69,CHRISTUS ST PATRICK HOSPITAL
7.68,2.61,30.01875,-90.19452,34637.72,8301.23,OCHSNER FOUNDATION HOSPITAL
6.14,2.34,29.89089,-90.09395,26628.13,6903.09,WEST JEFFERSON MEDICAL CENTER
8.44,2.35,30.28456,-89.77038,38584.42,6969.58,SLIDELL MEMORIAL HOSPITAL AND MEDICAL CENTER
7.33,2.39,32.49443,-93.75011,32824.41,7197.41,CHRISTUS SCHUMPERT HEALTH SYSTEM
7.57,2.30,30.46834,-90.11383,34077.15,6704.64,ST TAMMANY PARISH HOSPITAL
8.38,2.44,29.92596,-90.09191,38273.00,7434.53,TOURO INFIRMARY
7.40,2.19,30.84189,-93.28906,33164.90,6162.29,BEAUREGARD MEMORIAL HOSPITAL
6.75,2.33,30.20458,-93.19774,29780.30,6880.04,LAKE CHARLES MEMORIAL HOSPITAL
5.71,2.34,30.40118,-91.11160,24392.86,6916.05,OUR LADY OF THE LAKE REGIONAL MEDICAL CENTER
5.10,2.42,30.45015,-91.15273,21260.06,7360.60,BATON ROUGE GENERAL MEDICAL CENTER
9.77,2.33,32.51544,-92.63343,45461.70,6854.47,NORTHERN LOUISIANA MEDICAL CENTER
3.81,2.82,32.48177,-93.76264,14533.17,9428.47,LSU HEALTH SCIENCES CENTER - SHREVEPORT
5.62,2.18,30.15052,-92.03698,23950.98,6095.37,OUR LADY OF LOURDES REGIONAL MEDICAL CENTER, INC
5.84,2.25,32.48393,-93.77884,25093.60,6472.66,WILLIS KNIGHTON MEDICAL CENTER
7.03,2.30,32.49997,-92.11359,31227.92,6737.01,ST FRANCIS MEDICAL CENTER
6.26,2.36,32.61700,-93.28566,27235.57,7043.71,MINDEN MEDICAL CENTER
7.09,2.22,30.01438,-90.18155,31575.43,6309.38,EAST JEFFERSON GENERAL HOSPITAL
8.46,2.21,32.51315,-92.15713,38659.50,6264.85,GLENWOOD REGIONAL MEDICAL CENTER
7.75,2.15,31.13861,-93.26892,34997.58,5962.00,BYRD REGIONAL HOSPITAL
9.62,2.32,30.07331,-90.51602,44701.00,6844.67,RIVER PARISHES HOSPITAL
13.51,3.06,29.95570,-90.07587,64853.56,10652.69,TULANE MEDICAL CENTER
8.36,2.28,30.47547,-90.10091,38157.23,6614.10,LAKEVIEW REGIONAL MEDICAL CENTER
4.63,2.48,29.57147,-90.68974,18810.00,7624.72,LEONARD J CHABERT MEDICAL CENTER
8.37,2.45,30.19775,-92.07724,38225.16,7510.17,THE REGIONAL MEDICAL CENTER OF ACADIANA
5.92,2.19,32.55761,-93.71874,25492.81,6155.07,WILLIS KNIGHTON BOSSIER HEALTH CENTER
5.73,2.14,30.35437,-89.91917,24521.73,5887.33,LOUISIANA MEDICAL CENTER AND HEART HOSPITAL, LLC
3.25,2.03,32.51442,-92.63351,11645.08,5333.00,GREEN CLINIC SURGICAL HOSPITAL
5.34,2.08,30.17316,-92.02697,22509.81,5576.21,HEART HOSPITAL OF LAFAYETTE
4.29,2.17,44.81469,-68.77153,17013.94,6060.23,ST JOSEPH HOSPITAL
4.19,2.65,43.65325,-70.27533,16509.00,8525.99,MAINE MEDICAL CENTER
5.44,2.82,46.67663,-67.99905,22986.50,9390.00,AROOSTOOK MEDICAL CENTER,THE
4.19,2.21,43.47840,-70.49221,16497.62,6237.96,SOUTHERN MAINE MEDICAL CENTER
4.78,2.16,53.96230,-1.08188,19564.15,6008.44,YORK HOSPITAL
4.54,2.38,43.90901,-69.89611,18327.86,7155.79,MID COAST HOSPITAL
5.58,2.52,44.10107,-70.21432,23755.55,7881.45,CENTRAL MAINE MEDICAL CENTER
4.23,2.42,44.80988,-68.74929,16736.53,7332.48,EASTERN MAINE MEDICAL CENTER
4.97,2.29,45.25378,-69.44547,20564.18,6651.91,MAINE GENERAL MEDICAL CENTER
2.77,2.68,39.62183,-77.68219,9133.56,8692.44,MERITUS MEDICAL CENTER
4.13,3.96,39.28817,-76.62438,16194.85,15331.60,UNIVERSITY OF MARYLAND MEDICAL CENTER
3.26,3.12,38.93090,-76.92161,11693.98,10992.32,PRINCE GEORGES HOSPITAL CENTER
3.69,3.56,39.01578,-77.03591,13908.64,13232.82,HOLY CROSS HOSPITAL
3.21,3.08,39.42366,-77.41386,11435.74,10779.13,FREDERICK MEMORIAL HOSPITAL
2.69,2.59,39.38813,-76.61068,8724.26,8231.27,SAINT JOSEPH MEDICAL CENTER
3.70,3.54,39.29297,-76.61314,13966.33,13128.48,MERCY MEDICAL CENTER INC
4.42,4.23,39.29688,-76.59242,17731.49,16729.38,JOHNS HOPKINS HOSPITAL, THE
2.81,4.24,39.27352,-76.67219,9339.94,16769.81,SAINT AGNES HOSPITAL
2.84,2.74,39.35262,-76.66196,9533.53,9019.61,SINAI HOSPITAL OF BALTIMORE
3.14,3.03,39.35169,-76.47919,11082.39,10481.69,FRANKLIN SQUARE HOSPITAL CENTER
2.75,2.65,38.98482,-77.00139,9054.12,8528.51,WASHINGTON ADVENTIST HOSPITAL
2.27,2.20,38.36248,-75.59799,6561.05,6206.51,PENINSULA REGIONAL MEDICAL CENTER
2.66,2.56,38.99743,-77.11048,8572.98,8079.91,SUBURBAN HOSPITAL
2.74,2.65,38.99014,-76.53398,9015.64,8532.48,ANNE ARUNDEL MEDICAL CENTER
2.85,2.76,39.32930,-76.61432,9575.79,9127.38,UNION MEMORIAL HOSPITAL
2.69,2.60,39.64928,-78.73206,8759.37,8258.40,WESTERN MARYLAND REGIONAL MEDICAL CENTER
4.36,4.18,39.29100,-76.54623,17414.21,16480.72,JOHNS HOPKINS BAYVIEW MEDICAL CENTER
3.38,3.25,39.55808,-76.99107,12338.86,11658.34,CARROLL HOSPITAL CENTER
2.69,2.59,38.76970,-76.07697,8739.05,8240.95,MEMORIAL HOSPITAL AT EASTON
2.69,2.59,39.13732,-76.62228,8753.88,8228.55,BALTIMORE WASHINGTON  MEDICAL CENTER
2.63,2.53,39.51870,-76.34688,8410.58,7905.85,UPPER CHESAPEAKE MEDICAL CENTER
3.00,2.88,38.96851,-76.86203,10335.00,9715.21,DOCTORS'  COMMUNITY HOSPITAL
2.88,2.76,38.74827,-76.87590,9705.57,9123.22,SOUTHERN MARYLAND HOSPITAL CENTER
2.74,2.65,39.35962,-76.58851,9021.98,8511.46,GOOD SAMARITAN HOSPITAL
3.08,2.94,39.09796,-77.19799,10773.27,10020.09,SHADY GROVE ADVENTIST HOSPITAL
4.81,2.61,42.37441,-71.13378,19726.61,8338.13,MOUNT AUBURN HOSPITAL
4.28,2.31,41.94236,-71.27364,17003.79,6752.86,STURDY MEMORIAL HOSPITAL
5.08,2.63,42.70912,-71.14877,21130.95,8428.90,LAWRENCE GENERAL HOSPITAL
4.10,2.76,41.65298,-70.27484,16046.02,9097.20,CAPE COD HOSPITAL
4.76,2.42,42.81476,-70.89068,19467.08,7348.00,ANNA JAQUES HOSPITAL
6.29,3.62,42.35843,-71.05977,27437.40,13588.51,BOSTON MEDICAL CENTER CORPORATION
4.54,2.47,42.56407,-70.87543,18345.41,7589.93,BEVERLY HOSPITAL CORPORATION
8.45,2.65,42.51078,-70.90712,38599.36,8507.39,NORTH SHORE MEDICAL CENTER
5.52,3.13,42.34896,-71.14768,23440.62,11017.08,ST ELIZABETH'S MEDICAL CENTER
5.70,2.64,42.03597,-71.09792,24354.73,8490.51,SIGNATURE HEALTHCARE BROCKTON HOSPITAL
4.54,2.40,41.94445,-70.64511,18350.13,7211.78,JORDAN HOSPITAL INC
5.34,2.86,42.64636,-71.34118,22478.67,9627.09,LOWELL GENERAL HOSPITAL
5.74,2.52,42.11449,-72.59502,24564.79,7848.14,MERCY MEDICAL CENTER
4.83,2.44,42.25105,-71.01411,19858.23,7421.00,QUINCY MEDICAL CENTER
4.19,2.46,42.46049,-71.06203,16541.67,7520.60,HALLMARK HEALTH SYSTEM
9.51,3.05,42.36227,-71.06941,44123.79,10591.47,MASSACHUSETTS GENERAL HOSPITAL
5.18,2.52,41.70928,-71.14519,21681.02,7880.78,SOUTHCOAST HOSPITAL GROUP, INC
4.81,2.79,42.12077,-72.60525,19731.02,9257.26,BAYSTATE MEDICAL CENTER
4.97,2.45,42.72846,-71.16830,20570.93,7479.10,HOLY FAMILY HOSPITAL
4.65,2.47,42.64529,-71.30052,18888.67,7579.91,SAINTS  MEDICAL CENTER INC
4.88,3.15,42.33719,-71.10939,20097.73,11124.94,BETH ISRAEL DEACONESS MEDICAL CENTER
5.46,2.42,42.13234,-71.52825,23108.86,7348.00,MILFORD REGIONAL MEDICAL CENTER
5.05,2.37,42.17644,-70.95398,20958.23,7054.03,SOUTH SHORE HOSPITAL
10.69,3.33,42.33600,-71.10704,50252.88,12034.96,BRIGHAM AND WOMEN'S HOSPITAL
4.14,2.56,42.09864,-71.06607,16262.71,8051.17,GOOD SAMARITAN MEDICAL CENTER
5.25,3.34,42.34951,-71.06331,22029.56,12089.82,TUFTS MEDICAL CENTER
4.37,2.35,42.18869,-71.20197,17431.56,6979.71,NORWOOD HOSPITAL
4.24,2.38,41.56412,-70.62200,16775.32,7146.89,FALMOUTH HOSPITAL
7.27,3.07,42.27720,-71.75922,32502.20,10698.73,UMASS MEMORIAL MEDICAL CENTER INC
4.52,2.61,42.48585,-71.20686,18252.22,8335.33,LAHEY CLINIC HOSPITAL
4.79,2.71,42.28385,-71.41896,19650.64,8844.47,METROWEST MEDICAL CENTER
4.39,2.64,42.26633,-71.79760,17553.58,8504.44,ST VINCENT HOSPITAL
4.17,2.21,42.39466,-83.40537,16429.29,6270.63,ST MARY MERCY HOSPITAL
4.56,2.36,43.20588,-86.20839,18447.39,7021.71,MERCY HEALTH PARTNERS, MERCY CAMPUS
5.55,2.63,42.28551,-85.58042,23566.99,8427.95,BRONSON METHODIST HOSPITAL
5.79,2.56,42.45741,-83.20513,24826.82,8042.81,PROVIDENCE HOSPITAL AND MEDICAL CENTERS
5.41,2.51,42.29077,-83.21504,22825.59,7804.09,OAKWOOD HOSPITAL AND MEDICAL CENTER
3.83,2.42,42.08955,-86.47781,14655.86,7315.62,LAKELAND HOSPITAL, ST JOSEPH
5.56,2.91,42.41911,-83.18228,23627.59,9860.73,SINAI-GRACE HOSPITAL
5.35,2.63,42.61425,-83.27602,22524.39,8433.39,ST JOSEPH MERCY OAKLAND
3.92,2.43,43.39166,-84.66140,15109.36,7371.64,MIDMICHIGAN MEDICAL CENTER-GRATIOT
4.52,2.17,42.95582,-82.43222,18207.94,6045.59,ST JOSEPH MERCY PORT HURON
4.96,2.73,42.96881,-85.66649,20517.95,8932.32,SPECTRUM HEALTH - BUTTERWORTH CAMPUS
6.27,2.21,43.58941,-83.86908,27302.20,6269.17,MCLAREN BAY REGION
8.81,3.56,42.28388,-83.72960,40511.18,13263.33,UNIVERSITY OF MICHIGAN HEALTH SYSTEM
4.62,2.36,42.61490,-82.96060,18760.28,7014.72,HENRY FORD MACOMB HOSPITAL
6.82,3.09,42.36762,-83.08461,30150.66,10794.36,HENRY FORD HOSPITAL
3.86,2.50,46.54758,-87.39560,14819.74,7769.36,MARQUETTE GENERAL HOSPITAL
3.41,2.42,42.95817,-85.66253,12456.86,7324.43,SAINT MARY'S HEALTH CARE
5.24,2.38,43.42857,-83.95556,21943.81,7112.23,COVENANT MEDICAL CENTER, INC
4.49,2.25,42.77487,-86.11378,18087.09,6472.22,HOLLAND COMMUNITY HOSPITAL
4.11,2.26,42.33111,-85.17817,16121.97,6528.70,BRONSON BATTLE CREEK HOSPITAL
6.47,2.34,43.42612,-83.94185,28345.59,6936.62,ST MARY'S OF MICHIGAN MEDICAL CENTER
4.89,2.13,43.59935,-84.76097,20145.45,5853.00,CENTRAL MICHIGAN COMMUNITY HOSPITAL
5.51,2.23,42.38392,-82.91480,23357.68,6344.61,BEAUMONT HOSPITAL, GROSSE POINTE
5.81,2.31,42.25117,-84.39240,24902.34,6785.98,ALLEGIANCE HEALTH
3.19,2.26,44.26333,-84.24625,11325.63,6533.37,WEST BRANCH REGIONAL MEDICAL CENTER
4.61,2.47,44.76156,-85.64143,18703.69,7605.94,MUNSON MEDICAL CENTER
5.00,3.12,42.35230,-83.05676,20714.71,10970.32,HARPER UNIVERSITY HOSPITAL
4.80,2.47,45.37209,-84.97065,19666.60,7609.00,NORTHERN MICHIGAN REGIONAL HOSPITAL
5.41,2.48,42.30489,-85.56152,22840.40,7656.85,BORGESS MEDICAL CENTER
7.20,2.62,42.51418,-83.19259,32109.79,8375.52,WILLIAM BEAUMONT HOSPITAL
7.40,2.98,43.02135,-83.70308,33176.91,10255.91,HURLEY MEDICAL CENTER
6.16,2.54,43.01399,-83.73250,26731.80,7965.61,MCLAREN FLINT
5.27,2.34,42.27424,-83.36580,22100.52,6938.29,OAKWOOD ANNAPOLIS HOSPITAL
5.28,2.33,42.21065,-83.14861,22149.96,6877.94,HENRY FORD WYANDOTTE HOSPITAL
5.06,2.78,42.46176,-83.37629,21044.33,9194.17,BOTSFORD HOSPITAL
7.22,2.40,42.26181,-83.66003,32249.63,7248.96,ST JOSEPH MERCY HOSPITAL
6.17,2.62,42.41975,-82.91442,26810.79,8388.56,ST JOHN HOSPITAL AND MEDICAL CENTER
5.93,2.45,42.70417,-84.55488,25545.20,7490.54,MCLAREN - GREATER LANSING
5.83,2.37,42.11695,-83.21365,25010.10,7066.93,OAKWOOD SOUTHSHORE MEDICAL CENTER
6.81,2.42,42.50514,-83.00422,30086.72,7360.64,ST JOHN MACOMB-OAKLAND HOSPITAL-MACOMB CENTER
5.34,2.62,42.89254,-83.63621,22510.94,8395.31,GENESYS REGIONAL MEDICAL CENTER - HEALTH PARK
4.29,2.23,42.98625,-82.42802,17064.93,6355.36,PORT HURON HOSPITAL
4.75,2.41,43.63618,-84.26187,19437.65,7305.12,MIDMICHIGAN MEDICAL CENTER-MIDLAND
4.35,2.46,42.58900,-82.89799,17364.04,7539.87,MOUNT CLEMENS REGIONAL MEDICAL CENTER
5.68,2.61,42.73767,-84.51698,24274.16,8326.66,EDWARD W SPARROW HOSPITAL
5.00,2.52,42.85736,-85.71774,20718.72,7843.75,METRO HEALTH HOSPITAL
4.72,2.44,42.33215,-83.31195,19255.67,7439.31,GARDEN CITY HOSPITAL
6.12,2.27,42.67850,-83.14771,26513.31,6564.06,CRITTENTON HOSPITAL MEDICAL CENTER
6.77,2.35,42.61826,-83.09239,29926.80,6992.01,WILLIAM BEAUMONT HOSPITAL-TROY
7.41,3.09,42.35295,-83.05447,33224.22,10811.62,DETROIT RECEIVING HOSPITAL & UNIV HEALTH CENTER
5.14,2.58,42.59290,-83.49920,21450.50,8182.95,HURON VALLEY-SINAI HOSPITAL
4.93,2.12,42.53914,-83.40777,20350.11,5760.32,HENRY FORD WEST BLOOMFIELD HOSPITAL
6.59,2.38,45.01403,-93.32177,28975.07,7148.80,NORTH MEMORIAL MEDICAL CENTER
5.26,2.46,46.79380,-92.09573,22076.68,7533.92,ESSENTIA HEALTH ST MARY'S MEDICAL CENTER
6.65,3.49,44.97210,-93.26240,29297.00,12909.00,HENNEPIN COUNTY MEDICAL CENTER
7.01,3.15,44.02052,-92.48292,31172.05,11140.84,MAYO CLINIC - SAINT MARYS HOSPITAL
5.02,2.62,45.57390,-94.16942,20840.88,8385.21,ST CLOUD HOSPITAL
7.47,2.60,44.94214,-93.10858,33535.18,8263.55,UNITED HOSPITAL
6.36,2.39,46.79634,-92.08793,27790.23,7187.04,ST LUKES HOSPITAL
3.82,2.40,44.93031,-93.36276,14617.14,7243.97,PARK NICOLLET METHODIST HOSPITAL
8.52,2.56,44.95248,-93.26196,39006.71,8060.93,ABBOTT NORTHWESTERN HOSPITAL
6.64,2.55,44.94898,-93.10016,29232.84,7989.80,ST JOSEPH'S HOSPITAL
4.90,2.38,46.36166,-94.20573,20199.33,7145.00,ESSENTIA HEALTH ST JOSEPH'S MEDICAL CENTER
6.40,2.28,44.88645,-93.32693,27984.56,6635.11,FAIRVIEW SOUTHDALE HOSPITAL
10.51,3.48,44.96766,-93.23640,49297.72,12827.02,UNIVERSITY OF MINNESOTA  MEDICAL CENTER, FAIRVIEW
3.84,2.36,44.16396,-94.00412,14700.35,7014.29,MAYO CLINIC HEALTH SYSTEM - MANKATO
5.28,2.76,44.95570,-93.09429,22150.35,9076.56,REGIONS HOSPITAL
7.00,2.46,45.18355,-93.36789,31107.12,7565.49,MERCY HOSPITAL
6.92,2.24,45.10789,-93.25685,30682.57,6405.29,UNITY HOSPITAL
6.79,2.34,44.74846,-93.27289,29999.80,6925.20,FAIRVIEW RIDGES HOSPITAL
5.61,2.81,32.33069,-90.17030,23872.89,9344.76,UNIVERSITY OF MISSISSIPPI MED CENTER
4.18,2.28,34.24336,-88.71753,16455.91,6596.82,NORTH MISSISSIPPI MEDICAL CENTER
14.04,2.30,30.39599,-88.89061,67642.93,6703.07,BILOXI REGIONAL MEDICAL CENTER
8.26,2.47,34.93596,-88.55955,37648.78,7613.81,MAGNOLIA REGIONAL HEALTH CENTER
10.33,2.36,30.36674,-89.11535,48367.73,7005.71,MEMORIAL HOSPITAL AT GULFPORT
9.62,2.35,32.35265,-90.87788,44666.41,6992.75,RIVER REGION HEALTH SYSTEM
5.29,2.34,34.34899,-89.52062,22221.39,6917.58,BAPTIST MEMORIAL HOSPITAL NORTH MS
7.71,2.22,30.37516,-88.53226,34757.57,6312.73,SINGING RIVER HOSPITAL
8.59,2.57,34.19610,-90.55208,39369.09,8115.89,NORTHWEST MISSISSIPPI REGIONAL MEDICAL CENTER
4.28,2.19,32.33616,-90.15652,16991.99,6149.11,ST DOMINIC-JACKSON MEMORIAL HOSPITAL
3.99,2.17,31.69405,-89.13061,15499.78,6035.81,SOUTH CENTRAL REG MED CTR
5.97,2.28,32.36983,-88.69702,25738.29,6634.48,RUSH FOUNDATION HOSPITAL
10.48,2.30,32.28805,-90.25566,49125.32,6717.59,CENTRAL MISSISSIPPI MEDICAL CENTER
4.72,2.31,31.31872,-89.32955,19272.74,6752.82,FORREST GENERAL HOSPITAL
5.54,2.40,33.41099,-91.03479,23512.56,7253.67,DELTA REGIONAL MEDICAL CENTER
7.76,2.03,31.56671,-91.38800,35034.97,5332.90,NATCHEZ REGIONAL MEDICAL CENTER
9.53,2.26,31.32573,-89.36670,44216.92,6499.52,WESLEY MEDICAL CENTER
3.63,2.32,31.24000,-90.45000,13603.32,6799.11,SOUTHWEST MS REGIONAL MEDICAL CENTER
5.57,2.29,33.52568,-88.42742,23667.88,6646.79,BAPTIST MEM HOSP/GOLDEN TRIANGLE INC
7.01,2.20,32.31643,-90.17922,31159.63,6182.45,MISSISSIPPI BAPTIST MEDICAL CENTER
5.87,2.19,32.37280,-88.69954,25246.17,6127.44,ANDERSON REGIONAL MEDICAL CENTER
5.78,2.32,34.96927,-89.99709,24782.54,6842.10,BAPTIST MEMORIAL HOSPITAL DESOTO
6.17,2.19,37.06032,-94.52747,26802.11,6169.00,ST JOHN'S REGIONAL MEDICAL CENTER
6.31,2.26,38.78060,-90.48379,27523.73,6488.67,SSM ST JOSEPH HEALTH CENTER
5.00,2.64,39.77393,-94.77089,20711.96,8460.46,HEARTLAND REGIONAL MEDICAL CENTER
6.11,2.17,38.69946,-93.22211,26489.26,6043.83,BOTHWELL REGIONAL HEALTH CENTER
5.64,2.12,38.57670,-92.17352,24060.26,5790.83,ST MARYS HEALTH CENTER
7.40,2.50,37.95144,-91.75940,33157.68,7745.60,PHELPS COUNTY REGIONAL MEDICAL CENTER
6.73,2.26,38.64281,-90.44448,29695.65,6513.59,MERCY HOSPITAL ST LOUIS
4.82,2.16,38.16498,-90.38082,19790.07,5997.14,JEFFERSON REGIONAL MEDICAL CENTER
7.35,2.39,39.71116,-91.45071,32925.41,7172.11,HANNIBAL REGIONAL HOSPITAL
9.64,2.37,39.00717,-94.55925,44809.20,7102.77,RESEARCH MEDICAL CENTER
5.69,2.65,38.63524,-90.26508,24312.03,8531.62,BARNES JEWISH HOSPITAL
5.58,2.27,37.14560,-93.28037,23730.84,6556.03,COX MEDICAL CENTER
5.61,2.37,38.56571,-92.18204,23872.44,7071.99,CAPITAL REGION MEDICAL CENTER
3.55,3.12,39.08401,-94.57591,13199.09,10954.64,TRUMAN MEDICAL CENTER HOSPITAL HILL
6.67,2.21,38.55199,-91.00029,29372.50,6239.62,MERCY HOSPITAL WASHINGTON
6.48,2.42,39.24809,-94.64928,28382.42,7357.79,ST LUKES NORTHLAND HOSPITAL
4.23,2.26,39.17288,-91.87692,16739.64,6485.82,AUDRAIN MEDICAL CENTER
6.39,2.23,37.17999,-93.27409,27924.84,6355.87,ST JOHN'S REGIONAL HEALTH CENTER
4.85,2.09,38.94903,-92.31563,19943.26,5616.30,BOONE HOSPITAL CENTER
10.74,2.51,39.42385,-92.41354,50495.69,7788.00,MOBERLY REGIONAL MEDICAL CENTER
5.56,2.11,38.50661,-90.38025,23603.01,5751.38,ST ANTHONY'S MEDICAL CENTER
5.37,2.29,36.73801,-91.87553,22644.68,6640.11,OZARKS MEDICAL CENTER
5.79,2.14,38.52738,-90.47501,24815.63,5907.66,SSM ST CLARE HEALTH CENTER
6.68,2.34,38.93592,-94.60376,29436.49,6916.81,ST JOSEPH MEDICAL CENTER
6.31,2.63,38.63268,-90.31089,27544.00,8434.56,SSM ST MARYS HEALTH CENTER
5.85,2.23,36.64970,-93.22138,25138.74,6352.98,SKAGGS REGIONAL MEDICAL CENTER
9.71,2.32,39.04749,-94.34105,45161.85,6796.62,CENTERPOINT MEDICAL CENTER OF INDEPENDENCE, LLC
6.29,2.18,39.14957,-94.55148,27433.35,6094.02,NORTH KANSAS CITY HOSPITAL
6.36,2.30,38.75097,-90.43255,27803.09,6738.54,SSM DEPAUL HEALTH CENTER
8.87,2.95,38.62280,-90.24049,40775.87,10089.50,ST LOUIS UNIVERSITY HOSPITAL
5.07,2.16,38.63702,-90.44699,21091.83,6005.81,MISSOURI BAPTIST MEDICAL CENTER
8.21,2.37,37.31072,-89.53990,37365.49,7089.71,SOUTHEAST MISSOURI HOSPITAL
9.98,2.42,36.78510,-90.42779,46567.75,7356.70,POPLAR BLUFF REGIONAL MEDICAL CENTER
4.92,2.30,37.05238,-94.52777,20332.88,6723.16,FREEMAN HEALTH SYSTEM - FREEMAN WEST
9.14,2.57,39.04761,-94.59037,42174.87,8139.03,ST LUKES HOSPITAL OF KANSAS CITY
6.12,2.58,38.95171,-92.33407,26555.41,8155.70,UNIVERSITY OF MISSOURI HEALTH CARE
7.62,2.24,38.58103,-90.45144,34317.19,6391.31,DES PERES HOSPITAL
5.82,2.16,39.27591,-94.42572,24959.00,6001.77,LIBERTY HOSPITAL
5.07,2.25,38.65123,-90.50301,21104.77,6431.68,ST LUKES HOSPITAL
6.86,2.28,38.77576,-90.23906,30346.06,6601.87,CHRISTIAN HOSPITAL NORTHEAST
8.28,2.54,37.30401,-89.57190,37747.81,7941.54,ST FRANCIS MEDICAL CENTER
6.80,2.47,38.12027,-92.68146,30080.31,7575.94,LAKE REGIONAL HEALTH SYSTEM
8.67,2.11,38.90359,-94.33308,39762.29,5720.71,LEE'S SUMMIT MEDICAL CENTER
4.96,2.25,38.79427,-90.58049,20493.27,6440.03,BARNES-JEWISH ST PETERS HOSPITAL
6.28,2.29,39.02539,-94.26453,27369.43,6686.48,ST MARY'S MEDICAL CENTER
5.08,2.38,37.60022,-93.42237,21138.00,7110.06,CITIZENS MEMORIAL HOSPITAL
6.50,2.14,38.80334,-90.77619,28484.00,5907.06,SSM ST JOSEPH HOSPITAL WEST
8.09,2.29,38.94062,-94.37842,36760.65,6660.43,SAINT LUKE'S EAST LEE'S SUMMIT HOSPITAL
4.11,2.77,46.58297,-111.99684,16121.50,9137.33,ST PETER'S HOSPITAL
4.92,2.44,45.78958,-108.51283,20324.89,7430.81,BILLINGS CLINIC HOSPITAL
5.31,2.45,47.49139,-111.26255,22307.43,7479.51,BENEFIS HOSPITALS INC
5.29,2.26,46.87545,-114.00033,22248.11,6514.89,ST PATRICK HOSPITAL
4.77,2.38,45.79337,-108.51928,19548.00,7111.73,ST VINCENT HEALTHCARE
6.28,2.27,48.21465,-114.32386,27357.79,6586.12,KALISPELL REGIONAL MEDICAL CENTER
5.78,2.28,40.78318,-96.63709,24769.80,6617.24,BRYANLGH MEDICAL CENTER
5.57,2.60,40.70646,-99.08136,23665.04,8283.71,GOOD SAMARITAN HOSPITAL
7.62,2.68,41.25522,-95.97892,34306.20,8669.94,THE NEBRASKA MEDICAL CENTER
5.97,2.28,40.80816,-96.62689,25735.81,6598.91,SAINT ELIZABETH REGIONAL MEDICAL CENTER
5.31,2.18,40.92425,-98.37053,22355.15,6075.10,ST FRANCIS MEDICAL CENTER
13.50,2.88,41.26509,-95.95494,64827.52,9742.26,CREIGHTON UNIVERSITY MEDICAL CENTER - SAINT JOSEPH
4.63,2.19,40.59160,-98.38755,18827.42,6123.50,MARY LANNING MEMORIAL HOSPITAL
7.37,2.23,41.25797,-96.04164,32993.81,6333.69,THE NEBRASKA METHODIST HOSPITAL
8.52,2.26,41.23897,-96.03162,38985.24,6487.07,ALEGENT HEALTH BERGAN MERCY MEDICAL CENTER
6.61,2.80,41.88690,-103.66400,29072.67,9292.50,REGIONAL WEST MEDICAL CENTER
5.07,2.29,41.12081,-100.77062,21104.00,6661.50,GREAT PLAINS REGIONAL MEDICAL CENTER
6.13,2.44,41.45152,-96.49184,26588.48,7416.72,FREMONT AREA MEDICAL CENTER
7.78,2.45,41.32182,-96.02133,35158.15,7494.60,ALEGENT HEALTH IMMANUEL MEDICAL CENTER
9.10,2.08,41.13585,-96.04011,41986.91,5566.73,ALEGENT HEALTH MIDLANDS HOSPITAL
6.98,2.45,42.03257,-97.45100,30970.27,7492.62,FAITH REGIONAL HEALTH SERVICES
3.30,2.18,40.73657,-96.59332,11913.09,6082.62,NEBRASKA HEART HOSPITAL
8.57,2.14,41.23771,-96.18052,39254.00,5888.00,ALEGENT HEALTH LAKESIDE HOSPITAL
7.42,2.06,41.13699,-95.94815,33297.35,5469.88,BELLEVUE MEDICAL CENTER
7.39,2.44,39.52637,-119.79456,33143.57,7420.66,RENOWN REGIONAL MEDICAL CENTER
14.71,2.63,36.13459,-115.13576,71111.87,8431.87,SUNRISE HOSPITAL AND MEDICAL CENTER
13.95,2.64,36.19568,-115.12284,67142.86,8496.57,NORTH VISTA HOSPITAL
8.80,2.90,36.15896,-115.16558,40423.95,9819.89,UMC OF SOUTHERN NEVADA
5.98,2.25,39.53066,-119.82067,25790.72,6482.40,SAINT MARY'S REGIONAL MEDICAL CENTER
13.01,2.40,36.03931,-114.98259,62257.76,7225.00,SAINT ROSE DOMINICAN HOSPITAL - DE LIMA
8.73,2.59,39.20247,-119.78446,40088.12,8206.79,CARSON TAHOE REGIONAL MEDICAL CENTER
15.06,2.72,36.16380,-115.16574,72884.06,8915.03,VALLEY HOSPITAL MEDICAL CENTER
9.63,2.39,36.11363,-115.12573,44752.26,7165.06,DESERT SPRINGS HOSPITAL
9.37,2.40,39.54241,-119.69736,43399.62,7229.56,NORTHERN NEVADA MEDICAL CENTER
13.94,2.40,36.21599,-115.25095,67118.04,7233.33,MOUNTAINVIEW HOSPITAL
14.12,2.50,36.16586,-115.32436,68030.77,7763.20,SUMMERLIN HOSPITAL MEDICAL CENTER
11.78,2.38,36.00527,-115.11618,55897.60,7144.62,SAINT ROSE DOMINICAN HOSPITAL - SIENA CAMPUS
14.79,2.50,36.09056,-115.24058,71495.38,7752.69,SPRING VALLEY HOSPITAL MEDICAL CENTER
10.57,2.46,36.07216,-115.29538,49598.87,7547.20,SOUTHERN HILLS HOSPITAL AND MEDICAL CENTER
11.92,2.34,36.05712,-115.27116,56644.92,6900.44,SAINT ROSE DOMINICAN HOSPITAL - SAN MARTIN CAMPUS
12.15,2.26,36.28588,-115.28772,57821.39,6487.10,CENTENNIAL HILLS HOSPITAL MEDICAL CENTER
6.91,2.46,43.19846,-71.56230,30616.71,7550.38,CONCORD HOSPITAL
6.18,2.96,43.67286,-72.27232,26867.44,10134.36,MARY HITCHCOCK MEMORIAL HOSPITAL
5.89,2.24,42.75004,-71.48100,25355.20,6380.20,ST JOSEPH HOSPITAL
4.90,2.41,43.00792,-71.46807,20180.64,7274.60,ELLIOT HOSPITAL
5.53,2.27,43.29811,-70.96148,23453.10,6545.24,FRISBIE MEMORIAL HOSPITAL
8.45,2.30,42.87652,-71.31722,38621.07,6703.00,PARKLAND MEDICAL CENTER
6.77,2.32,43.21231,-70.87499,29898.08,6832.70,WENTWORTH-DOUGLASS HOSPITAL
5.03,2.32,42.75623,-71.46059,20902.05,6795.20,SOUTHERN NH MEDICAL CENTER
6.35,2.31,42.98369,-70.93511,27734.19,6744.23,EXETER HOSPITAL INC
5.88,2.26,43.06469,-70.78916,25267.50,6504.93,PORTSMOUTH REGIONAL HOSPITAL
6.64,2.28,42.99121,-71.47426,29214.17,6628.69,CATHOLIC MEDICAL CENTER
11.12,2.65,40.88346,-74.05564,52447.03,8512.17,HACKENSACK UNIVERSITY MEDICAL CENTER
16.30,3.43,40.71011,-74.21368,79341.29,12572.22,NEWARK BETH ISRAEL MEDICAL CENTER
7.32,2.36,40.53142,-74.86080,32740.97,7049.03,HUNTERDON MEDICAL CENTER
10.97,2.71,40.84945,-74.13768,51670.52,8818.67,ST MARY'S HOSPITAL, PASSAIC
8.32,2.46,40.88275,-74.01021,37923.96,7539.92,HOLY NAME MEDICAL CENTER
13.13,2.57,40.78556,-74.17598,62893.73,8111.12,CLARA MAASS MEDICAL CENTER
11.90,2.38,40.35684,-74.66166,56521.63,7116.59,UNIVERSITY MEDICAL CENTER AT PRINCETON
6.54,2.34,39.08752,-74.81657,28692.21,6918.33,CAPE REGIONAL MEDICAL CENTER INC
8.34,2.51,40.98359,-74.10047,38057.22,7828.51,VALLEY HOSPITAL
12.77,3.06,39.94152,-75.11680,61017.51,10675.91,COOPER UNIVERSITY HOSPITAL
8.91,2.66,40.78883,-74.46620,41026.92,8562.38,MORRISTOWN MEMORIAL HOSPITAL
16.71,2.80,40.73417,-74.04977,81468.50,9298.66,CHRIST HOSPITAL
9.76,2.38,40.95858,-74.31000,45395.48,7116.52,CHILTON HOSPITAL
11.73,2.95,40.90215,-74.16634,55655.77,10107.48,ST JOSEPH'S REGIONAL MEDICAL CENTER
11.79,2.69,40.21634,-74.74143,55957.49,8721.29,ST FRANCIS MEDICAL CENTER
12.72,2.38,39.78261,-74.91670,60746.23,7147.40,VIRTUA WEST JERSEY HOSPITALS BERLIN
16.56,2.31,40.61288,-74.29092,80699.54,6786.44,ROBERT WOOD JOHNSON UNIVERSITY HOSPITAL AT RAHWAY
22.83,2.46,40.66805,-74.11334,113226.03,7545.44,BAYONNE HOSPITAL CENTER
10.38,2.71,40.66005,-74.21417,48641.39,8822.95,TRINITAS REGIONAL MEDICAL CENTER
12.65,2.40,41.05754,-74.76857,60397.68,7233.32,NEWTON MEMORIAL HOSPITAL
9.31,2.60,39.92695,-75.09537,43080.18,8281.76,OUR LADY OF LOURDES MEDICAL CENTER
9.79,2.58,39.97776,-74.58456,45585.82,8164.81,DEBORAH HEART AND LUNG CENTER
13.43,2.48,39.44743,-75.05838,64462.39,7634.61,SOUTH JERSEY HEALTHCARE REGIONAL MEDICAL CENTER
12.08,2.30,40.35309,-74.06484,57467.84,6719.07,RIVERVIEW MEDICAL CENTER
13.78,2.82,40.49581,-74.44980,66275.58,9407.67,ROBERT WOOD JOHNSON UNIVERSITY HOSPITAL
13.42,2.61,40.51891,-74.28183,64392.79,8339.85,RARITAN BAY MEDICAL CENTER
12.48,2.28,39.96484,-74.21708,59516.29,6631.56,COMMUNITY MEDICAL CENTER
17.59,2.68,40.29209,-74.80327,86028.33,8710.07,CAPITAL HEALTH MEDICAL CENTER - HOPEWELL
9.74,2.64,40.90400,-73.96847,45335.19,8479.63,ENGLEWOOD HOSPITAL AND MEDICAL CENTER
13.22,2.26,39.31464,-74.59391,63370.80,6516.36,SHORE MEDICAL CENTER
18.50,2.43,40.56804,-74.59579,90766.44,7394.55,SOMERSET MEDICAL CENTER
11.09,2.36,40.89538,-74.46479,52340.42,7037.25,SAINT CLARE'S HOSPITAL
8.76,2.59,40.71264,-74.35460,40209.21,8208.41,OVERLOOK HOSPITAL
12.72,2.29,40.07832,-74.13009,60796.68,6660.39,OCEAN MEDICAL CENTER
12.52,2.71,40.81058,-74.20459,59757.88,8859.22,MOUNTAINSIDE HOSPITAL
12.52,2.55,39.98588,-74.79393,59713.73,8005.29,VIRTUA MEMORIAL HOSPITAL OF BURLINGTON COUNTY
12.56,2.48,40.70180,-75.17825,59951.06,7674.41,ST LUKE'S WARREN HOSPITAL
15.64,2.55,39.35775,-74.43449,75934.60,8026.77,ATLANTICARE REGIONAL MEDICAL CENTER - CITY DIV
17.41,2.81,40.50214,-74.46015,85093.09,9355.70,SAINT PETER'S UNIVERSITY HOSPITAL
11.99,2.56,40.21065,-74.03566,56988.08,8082.71,JERSEY SHORE UNIVERSITY MEDICAL CENTER
14.51,3.13,40.71663,-74.05013,70073.33,11001.26,LIBERTYHEALTH-JERSEY CITY MEDICAL CENTER CAMPUS
15.20,2.75,40.29563,-73.98518,73616.37,9052.04,MONMOUTH MEDICAL CENTER
13.00,2.83,40.76190,-74.30335,62240.39,9445.27,SAINT BARNABAS MEDICAL CENTER
14.62,2.36,39.84392,-75.14985,70648.89,7004.27,UNDERWOOD - MEMORIAL HOSPITAL
12.05,2.40,40.07503,-74.21832,57289.21,7241.64,KIMBALL MEDICAL CENTER
7.95,2.53,39.82811,-75.00895,36004.45,7910.73,KENNEDY UNIVERSITY HOSPITAL - STRATFORD DIV
11.01,2.89,40.74323,-74.17431,51888.79,9775.27,SAINT MICHAEL'S MEDICAL CENTER, INC
11.14,2.48,40.55784,-74.34970,52555.60,7654.88,JFK MEDICAL CTR - ANTHONY M. YELENCSICS COMMUNITY
13.86,2.27,40.21575,-74.67273,66698.22,6558.89,ROBERT WOOD JOHNSON UNIVERSITY HOSPITAL HAMILTON
9.65,2.35,40.23861,-74.31289,44822.69,6996.80,CENTRASTATE MEDICAL CENTER
12.77,2.26,40.40516,-74.19203,61053.99,6491.85,BAYSHORE COMMUNITY HOSPITAL
7.67,2.26,39.66213,-74.26392,34553.30,6492.95,SOUTHERN OCEAN MEDICAL CENTER
11.23,3.63,40.73925,-74.19276,53052.07,13637.50,UMDNJ UNIVERSITY HOSPITAL
4.41,3.06,35.08838,-106.61590,17641.30,10663.00,UNM HOSPITAL
6.03,2.75,35.65960,-105.94578,26060.58,9046.47,ST VINCENT HOSPITAL
5.69,2.60,36.72387,-108.21749,24299.29,8265.10,SAN JUAN REGIONAL MEDICAL CENTER
10.41,2.53,35.08603,-106.63950,48767.64,7894.39,LOVELACE MEDICAL CENTER
7.15,2.49,32.29186,-106.73470,31897.03,7685.42,MEMORIAL MEDICAL CENTER INC
4.69,2.42,35.08102,-106.63392,19112.23,7313.89,PRESBYTERIAN HOSPITAL
6.66,2.23,35.08729,-106.63687,29313.02,6327.57,HEART HOSPITAL OF NEW MEXICO
8.83,2.24,32.32310,-106.72900,40580.91,6420.07,MOUNTAIN VIEW REGIONAL MEDICAL CENTER
6.45,2.51,41.92720,-73.99535,28256.17,7809.22,KINGSTON HOSPITAL
3.17,2.63,42.87482,-78.84942,11254.53,8410.89,KALEIDA HEALTH
3.90,4.05,40.83139,-73.90306,15011.78,15787.09,BRONX-LEBANON HOSPITAL CENTER
9.02,2.71,42.65345,-73.77543,41576.69,8854.48,ALBANY MEDICAL CENTER HOSPITAL
4.72,3.45,40.70141,-73.81630,19290.60,12668.73,JAMAICA HOSPITAL MEDICAL CENTER
7.88,2.53,41.69441,-73.93432,35646.55,7904.45,VASSAR BROTHERS MEDICAL CENTER
7.16,3.44,40.79041,-73.95386,31935.65,12643.30,MOUNT SINAI HOSPITAL
6.04,3.57,40.72548,-73.55287,26120.07,13282.00,NASSAU UNIVERSITY MEDICAL CENTER
9.41,3.15,40.63588,-74.10556,43607.84,11110.25,RICHMOND UNIVERSITY MEDICAL CENTER
6.37,2.73,40.72567,-73.24189,27846.89,8924.96,SOUTHSIDE HOSPITAL
4.73,2.17,43.09840,-75.27819,19345.20,6017.39,FAXTON-ST LUKE'S HEALTHCARE
8.42,2.40,40.87946,-73.41621,38458.52,7252.58,HUNTINGTON HOSPITAL
8.84,3.55,40.80556,-73.96131,40660.48,13187.79,ST LUKE'S ROOSEVELT HOSPITAL
6.02,3.21,40.74722,-73.82521,25994.76,11417.80,NEW YORK HOSPITAL MEDICAL CENTER OF QUEENS
6.04,3.61,40.68983,-73.97794,26129.33,13533.48,BROOKLYN HOSPITAL CENTER AT DOWNTOWN CAMPUS
5.76,2.15,42.65583,-73.80372,24671.71,5913.93,ST PETER'S HOSPITAL
10.09,3.61,40.87987,-73.87996,47150.33,13487.32,MONTEFIORE MEDICAL CENTER
3.81,2.34,42.92866,-78.84819,14550.47,6923.60,SISTERS OF CHARITY HOSPITAL
4.41,2.37,42.10076,-76.82800,17667.31,7064.38,ARNOT OGDEN MEDICAL CENTER
8.92,3.55,40.76487,-73.95398,41040.36,13204.27,NEW YORK-PRESBYTERIAN HOSPITAL
8.83,3.06,40.77686,-73.70212,40593.20,10658.33,NORTH SHORE UNIVERSITY HOSPITAL
9.76,2.94,40.77362,-73.96093,45440.02,10056.42,LENOX HILL HOSPITAL
3.37,2.31,43.19244,-77.58590,12287.90,6747.02,ROCHESTER GENERAL HOSPITAL
8.19,2.52,41.44138,-74.36821,37279.29,7855.00,ORANGE REGIONAL MEDICAL CENTER
7.79,4.70,40.85407,-73.84688,35181.69,19188.44,JACOBI MEDICAL CENTER
3.62,3.69,40.74465,-73.88620,13588.14,13914.54,ELMHURST HOSPITAL CENTER
5.35,2.93,42.69590,-74.92278,22530.50,9987.96,MARY IMOGENE BASSETT HOSPITAL
3.38,2.42,43.05571,-76.14981,12334.31,7342.60,ST JOSEPH'S HOSPITAL HEALTH CENTER
11.32,2.57,40.78000,-72.97763,53532.04,8115.33,BROOKHAVEN MEMORIAL HOSPITAL MEDICAL CENTER
6.35,3.39,40.68964,-73.99657,27738.02,12361.07,LONG ISLAND COLLEGE HOSPITAL
5.29,2.24,42.81963,-73.91653,22251.00,6410.98,ELLIS HOSPITAL
11.24,2.63,41.11299,-74.13732,53114.30,8412.24,GOOD SAMARITAN HOSPITAL OF SUFFERN
9.06,3.05,40.58440,-74.08507,41777.17,10609.09,STATEN ISLAND UNIVERSITY HOSPITAL
10.54,2.97,40.74083,-73.64306,49458.63,10213.15,WINTHROP-UNIVERSITY HOSPITAL
7.38,3.35,40.73265,-73.98162,33089.67,12162.05,BETH ISRAEL MEDICAL CENTER
5.89,2.18,42.73354,-73.67249,25338.86,6111.07,SAMARITAN HOSPITAL
9.13,2.57,40.80462,-73.67023,42171.92,8109.16,ST FRANCIS HOSPITAL, ROSLYN
4.08,2.10,43.30652,-73.64663,15953.86,5684.68,GLENS FALLS HOSPITAL
9.77,3.70,40.63937,-73.99851,45488.87,13971.77,MAIMONIDES MEDICAL CENTER
7.34,3.33,40.75332,-73.70899,32841.12,12042.03,LONG ISLAND JEWISH MEDICAL CENTER
3.65,3.49,40.58549,-73.96558,13722.82,12877.03,CONEY ISLAND HOSPITAL
6.14,2.52,40.65189,-73.63096,26623.45,7847.98,SOUTH NASSAU COMMUNITIES HOSPITAL
4.93,3.96,40.65660,-73.94468,20357.75,15311.25,KINGS COUNTY HOSPITAL CENTER
6.32,2.60,43.04139,-76.13803,27545.15,8262.44,CROUSE HOSPITAL
5.16,3.90,40.74178,-73.98236,21558.80,14993.00,BELLEVUE HOSPITAL CENTER
7.03,2.96,40.96967,-73.88447,31238.05,10142.17,ST JOHN'S RIVERSIDE HOSPITAL
7.48,3.00,40.74335,-73.97408,33584.10,10348.56,NYU HOSPITALS CENTER
4.42,2.84,42.92531,-78.83111,17693.26,9498.84,ERIE COUNTY MEDICAL CENTER
7.74,3.52,40.70419,-73.91754,34920.45,13051.60,WYCKOFF HEIGHTS MEDICAL CENTER
5.34,2.26,43.08561,-73.79712,22467.50,6489.11,SARATOGA HOSPITAL
3.98,2.26,43.19054,-77.70177,15423.37,6513.05,UNITY HOSPITAL OF ROCHESTER
4.45,2.24,42.74285,-73.67673,17861.57,6380.00,SETON HEALTH SYSTEM-ST MARY'S CAMPUS
5.39,3.48,40.65533,-73.91221,22737.28,12820.67,BROOKDALE HOSPITAL MEDICAL CENTER
10.35,3.44,41.08773,-73.80395,48480.18,12611.99,WESTCHESTER MEDICAL CENTER
4.89,3.21,40.66762,-73.97850,20152.62,11446.22,NEW YORK METHODIST HOSPITAL
4.29,2.13,42.08997,-79.23058,17052.83,5823.17,WOMAN'S CHRISTIAN ASSOCIATION
5.07,2.90,43.04269,-76.14043,21089.85,9845.46,UNIVERSITY HOSPITAL S U N Y HEALTH SCIENCE CENTER
5.03,2.29,43.08176,-75.26587,20852.83,6680.99,ST ELIZABETH MEDICAL CENTER
5.69,2.73,44.70022,-73.47100,24303.03,8964.68,CHAMPLAIN VALLEY PHYSICIANS HOSPITAL MEDICAL CTR
9.36,2.63,40.68896,-73.63259,43336.88,8403.18,MERCY MEDICAL CENTER
7.03,2.51,41.50307,-74.01517,31260.54,7785.82,ST LUKE'S CORNWALL HOSPITAL
3.82,2.22,42.84782,-78.81264,14616.33,6298.17,MERCY HOSPITAL
4.16,2.94,43.12266,-77.62360,16352.36,10035.28,STRONG MEMORIAL HOSPITAL
8.26,2.63,40.69327,-73.29412,37653.00,8437.82,GOOD SAMARITAN HOSPITAL MEDICAL CENTER
7.44,2.40,41.02614,-73.76978,33390.20,7239.84,WHITE PLAINS HOSPITAL CENTER
6.78,3.59,40.64666,-74.02049,29969.56,13428.08,LUTHERAN MEDICAL CENTER
3.73,2.26,42.47286,-76.53849,14132.41,6489.90,CAYUGA MEDICAL CENTER AT ITHACA
4.56,3.67,40.65508,-73.94521,18432.01,13812.93,UNIVERSITY HOSPITAL OF BROOKLYN ( DOWNSTATE )
6.30,3.14,40.90922,-73.11520,27457.75,11099.17,UNIVERSITY HOSPITAL ( STONY BROOK )
4.67,2.42,42.11422,-75.95851,19003.12,7340.38,UNITED HEALTH SERVICES HOSPITALS, INC
6.67,3.62,40.67816,-73.93768,29380.37,13552.00,INTERFAITH MEDICAL CENTER
7.19,4.03,40.85263,-73.89184,32094.36,15683.82,ST BARNABAS HOSPITAL
9.90,2.42,40.85738,-73.18681,46134.00,7342.80,ST CATHERINE OF SIENA HOSPITAL
5.24,2.33,35.43754,-80.60147,21983.81,6864.29,CAROLINAS MEDICAL CENTER-NORTHEAST
6.06,2.47,35.57658,-82.54922,26218.35,7580.26,MEMORIAL MISSION HOSPITAL AND ASHEVILLE SURGERY CE
4.40,2.25,35.95000,-80.00000,17612.06,6433.98,HIGH POINT REGIONAL HOSPITAL
5.27,2.28,34.75124,-79.46789,22148.82,6589.91,SCOTLAND MEMORIAL HOSPITAL
4.39,2.28,35.39772,-77.95250,17540.74,6588.41,WAYNE MEMORIAL HOSPITAL
6.05,2.29,35.36251,-81.96692,26185.67,6672.33,RUTHERFORD HOSPITAL INC
4.91,2.39,36.07581,-80.29779,20264.66,7181.89,FORSYTH MEMORIAL HOSPITAL
5.20,2.23,35.68172,-80.47072,21766.79,6363.95,ROWAN REGIONAL MEDICAL CENTER
3.99,2.16,35.32080,-82.46812,15501.33,6002.83,MARGARET R PARDEE MEMORIAL HOSPITAL
6.77,2.22,35.46894,-79.18668,29924.31,6295.44,CENTRAL CAROLINA HOSPITAL
6.42,2.29,35.30288,-81.53571,28099.83,6686.10,CLEVELAND REGIONAL MEDICAL CENTER
5.12,2.35,35.29053,-77.58307,21330.07,6981.43,LENOIR MEMORIAL HOSPITAL
8.25,2.50,35.03156,-78.93205,37600.01,7735.02,CAPE FEAR VALLEY MEDICAL CENTER
7.88,3.05,36.00850,-78.94006,35650.40,10625.97,DUKE UNIVERSITY HOSPITAL
6.15,2.37,35.27341,-81.13688,26663.97,7076.66,GASTON MEMORIAL HOSPITAL
6.06,2.22,35.79986,-80.87863,26224.08,6284.63,IREDELL MEMORIAL HOSPITAL INC
5.94,2.71,35.60726,-77.40477,25591.19,8839.28,PITT COUNTY MEMORIAL HOSPITAL
4.49,2.92,36.09062,-80.27161,18070.79,9931.54,NORTH CAROLINA BAPTIST HOSPITAL
8.08,2.61,34.63723,-79.01213,36683.38,8327.60,SOUTHEASTERN REGIONAL MEDICAL CENTER
6.72,2.33,35.22196,-80.83287,29649.55,6877.41,PRESBYTERIAN HOSPITAL
4.58,3.11,35.90529,-79.04963,18564.22,10911.59,UNIVERSITY OF NORTH CAROLINA HOSPITAL
6.02,2.51,35.78523,-78.58836,26028.31,7817.71,WAKEMED, RALEIGH CAMPUS
4.14,2.32,36.06347,-79.50208,16266.06,6833.35,ALAMANCE REGIONAL MEDICAL CENTER
7.33,2.19,35.82915,-78.61922,32807.88,6170.82,DUKE HEALTH RALEIGH HOSPITAL
7.37,2.49,35.72399,-81.65874,33031.00,7725.86,GRACE HOSPITAL INC
7.99,2.42,35.50624,-78.32511,36217.07,7331.72,JOHNSTON MEMORIAL HOSPITAL
4.47,2.41,36.09251,-79.78855,17988.63,7265.79,MOSES H CONE MEMORIAL HOSPITAL, THE
6.34,2.35,35.21029,-80.82084,27670.90,6990.60,CAROLINAS MED CENTER-MERCY
5.20,2.47,36.32690,-76.22370,21749.43,7578.48,ALBEMARLE HOSPITAL AUTHORITY
5.86,2.73,35.20397,-80.83908,25159.54,8927.42,CAROLINAS MEDICAL CENTER/BEHAV HEALTH
5.61,2.18,35.81801,-78.70283,23871.07,6092.94,REX HOSPITAL
4.80,2.32,35.20554,-79.45645,19673.04,6845.23,FIRSTHEALTH MOORE REGIONAL HOSPITAL
7.12,2.24,35.73751,-81.33702,31705.14,6389.79,FRYE REGIONAL MEDICAL CENTER
5.83,2.30,35.71850,-77.94518,25036.14,6714.31,WILSON MEDICAL CENTER
4.81,2.32,34.97382,-80.52250,19742.22,6808.18,CAROLINAS MEDICAL CENTER-UNION
4.43,2.44,35.11420,-77.06568,17744.58,7427.54,CAROLINA EAST MEDICAL CENTER
5.16,2.42,34.23786,-77.94764,21545.45,7350.46,NEW HANOVER REGIONAL MEDICAL CENTER
5.36,2.27,35.71664,-81.26661,22601.16,6578.39,CATAWBA VALLEY MEDICAL CENTER
5.70,2.32,35.81875,-80.82896,24330.30,6844.11,DAVIS REGIONAL MEDICAL CENTER
5.40,2.43,35.97538,-77.85012,22782.26,7396.09,NASH GENERAL HOSPITAL
6.90,2.37,36.04960,-78.90617,30569.62,7057.73,DURHAM REGIONAL HOSPITAL
6.31,2.18,35.11432,-80.71971,27506.69,6101.94,PRESBYTERIAN HOSPITAL MATTHEWS
6.62,2.22,35.74046,-78.78127,29142.59,6290.32,WAKEMED, CARY HOSPITAL
5.69,2.20,35.52586,-82.94351,24305.86,6183.35,MEDWEST HAYWOOD
4.60,2.25,46.80739,-100.77773,18672.06,6461.38,ST ALEXIUS MEDICAL CENTER
4.56,2.31,48.23258,-101.28843,18430.10,6787.26,TRINITY HOSPITALS
5.21,2.37,46.88496,-96.78609,21820.60,7077.28,SANFORD MEDICAL CENTER FARGO
4.02,2.37,46.80798,-100.78229,15620.00,7069.00,MEDCENTER ONE
4.73,2.41,47.91045,-97.06742,19308.33,7294.94,ALTRU HOSPITAL
4.91,2.26,46.83250,-96.82805,20245.97,6534.06,ESSENTIA HEALTH-FARGO
5.97,2.29,39.08582,-84.34886,25733.06,6639.08,MERCY HOSPITAL ANDERSON
7.91,3.12,39.13707,-84.50392,35816.77,10975.03,UNIVERSITY HOSPITAL, INC
6.07,2.39,40.03064,-83.03440,26255.61,7174.52,RIVERSIDE METHODIST HOSPITAL
6.22,2.45,38.75320,-82.97800,27066.34,7481.60,SOUTHERN OHIO MEDICAL CENTER
5.40,2.23,40.73578,-84.08630,22816.06,6367.94,LIMA MEMORIAL HEALTH SYSTEM
4.97,2.29,40.57098,-83.12972,20548.56,6670.04,MARION GENERAL HOSPITAL
5.31,2.38,40.11479,-82.94677,22346.38,7144.34,MOUNT CARMEL ST ANN'S HOSPITAL
6.15,2.50,39.20680,-84.38093,26709.03,7736.62,JEWISH HOSPITAL, LLC
5.25,2.65,39.96098,-82.99077,22014.50,8518.51,GRANT MEDICAL CENTER
7.69,2.31,41.01476,-81.58913,34657.55,6749.02,SUMMA HEALTH SYSTEM BARBERTON HOSPITAL
8.34,2.42,41.08161,-81.50007,38031.47,7328.09,SUMMA HEALTH SYSTEMS HOSPITALS
5.75,2.22,41.44642,-82.70864,24590.25,6294.89,FIRELANDS REGIONAL MEDICAL CENTER
6.39,2.34,41.07747,-81.53042,27923.06,6936.74,AKRON GENERAL MEDICAL CENTER
5.18,2.38,39.95805,-83.02191,21644.88,7114.31,MOUNT CARMEL HEALTH
5.51,2.67,41.49640,-81.67376,23376.72,8622.96,ST VINCENT CHARITY MEDICAL CENTER
5.09,2.34,39.97510,-82.01812,21177.22,6901.86,GENESIS HEALTHCARE SYSTEM
5.66,2.30,40.39967,-82.44822,24146.38,6695.44,KNOX COMMUNITY HOSPITAL
4.47,2.12,41.38265,-81.73127,17996.64,5779.47,PARMA COMMUNITY GENERAL HOSPITAL
5.63,2.76,41.61788,-83.61632,23979.65,9127.06,UNIVERSITY OF TOLEDO MEDICAL CENTER
13.11,2.52,39.74547,-84.18523,62797.84,7861.02,MIAMI VALLEY HOSPITAL
13.32,2.35,39.78778,-84.23493,63859.62,6951.58,GOOD SAMARITAN HOSPITAL
4.84,2.23,38.84439,-82.23902,19873.49,6374.10,HOLZER MEDICAL CENTER
7.88,2.16,41.23549,-80.79865,35669.82,5964.45,TRUMBULL MEMORIAL HOSPITAL
5.84,2.49,39.31257,-84.51774,25057.59,7683.32,MERCY HOSPITAL FAIRFIELD
4.86,3.03,41.46088,-81.69763,20011.79,10514.95,METRO HEALTH MEDICAL CENTER
6.20,2.30,41.11441,-80.65565,26968.30,6708.48,ST ELIZABETH HEALTH CENTER
5.99,2.26,40.74115,-84.11804,25880.85,6532.34,ST RITA'S MEDICAL CENTER
7.99,2.37,41.67775,-83.59589,36241.29,7076.78,TOLEDO HOSPITAL THE
3.86,2.29,40.81219,-81.39625,14799.94,6642.44,MERCY MEDICAL CENTER
4.47,2.32,39.71750,-82.57772,17995.25,6803.03,FAIRFIELD MEDICAL CENTER
8.79,2.25,39.49896,-84.31496,40365.69,6451.20,ATRIUM MEDICAL CENTER
7.63,2.30,41.45013,-81.82397,34384.34,6691.01,FAIRVIEW HOSPITAL
5.74,2.16,41.17554,-81.24915,24538.00,5989.12,ROBINSON MEMORIAL HOSPITAL
9.25,2.34,39.69724,-84.19232,42794.28,6907.69,KETTERING MEDICAL CENTER
6.06,2.16,40.09873,-80.72072,26209.31,5978.00,EAST OHIO REGIONAL HOSPITAL
3.94,2.32,40.79609,-81.40360,15236.62,6797.79,AULTMAN HOSPITAL
8.98,2.83,39.99445,-83.01872,41385.95,9461.99,OHIO STATE UNIVERSITY HOSPITALS
5.90,2.37,39.92755,-83.81573,25393.02,7089.88,SPRINGFIELD REGIONAL MEDICAL CENTER
5.26,2.19,41.55725,-83.68141,22087.61,6149.42,ST LUKE'S HOSPITAL
4.14,2.28,41.01785,-83.65165,16235.81,6592.67,BLANCHARD VALLEY HOSPITAL
6.79,2.11,41.66317,-81.24696,29985.52,5747.03,LAKE HEALTH
8.04,2.74,41.66810,-83.54275,36469.54,9001.51,MERCY ST VINCENT MEDICAL CENTER
7.52,2.10,41.39496,-81.53484,33817.28,5670.17,UHHS BEDFORD MEDICAL CENTER
5.65,2.25,40.75264,-82.52803,24111.24,6477.89,MEDCENTRAL HEALTH SYSTEM
5.23,2.25,41.43653,-81.94451,21937.95,6463.90,ST JOHN MEDICAL CENTER
5.05,2.31,41.88034,-80.79553,20987.05,6775.84,ASHTABULA COUNTY MEDICAL CENTER
8.35,2.22,39.41551,-84.57263,38124.89,6302.29,FORT HAMILTON HUGHES MEMORIAL HOSPITAL
10.15,2.52,39.76950,-84.20285,47441.26,7842.19,GRANDVIEW HOSPITAL & MEDICAL CENTER
6.08,2.51,39.13975,-84.52173,26324.63,7802.96,GOOD SAMARITAN HOSPITAL
8.08,3.01,41.50772,-81.60592,36701.90,10423.36,UNIVERSITY HOSPITALS OF CLEVELAND
7.93,2.45,41.13385,-80.65678,35934.92,7475.12,NORTHSIDE MEDICAL CENTER
7.63,2.12,41.42112,-81.59808,34340.76,5795.32,MARYMOUNT HOSPITAL
4.43,2.16,41.36649,-82.09708,17791.50,5985.18,EMH REGIONAL MEDICAL CENTER
6.40,2.14,39.43061,-81.46454,28009.04,5862.57,MARIETTA MEMORIAL HOSPITAL
5.91,2.17,40.80656,-81.51633,25438.81,6019.78,AFFINITY MEDICAL CENTER
6.71,2.83,39.95311,-83.13803,29614.49,9459.51,DOCTORS HOSPITAL
6.81,2.11,41.37028,-81.83189,30109.90,5722.78,SOUTHWEST GENERAL HEALTH CENTER
5.12,2.40,39.39463,-82.96979,21357.39,7230.51,ADENA REGIONAL MEDICAL CENTER
5.87,2.38,39.12105,-84.51059,25238.95,7156.31,CHRIST HOSPITAL
6.54,2.21,41.43688,-82.23761,28709.64,6242.88,MERCY REGIONAL MEDICAL CENTER
6.38,2.29,39.25076,-84.34341,27906.02,6658.24,BETHESDA NORTH HOSPITAL
9.46,2.63,41.50248,-81.62110,43861.57,8451.61,CLEVELAND CLINIC
7.22,2.14,41.50892,-81.18887,32233.52,5900.30,UH GEAUGA MEDICAL CENTER
4.88,2.41,40.04115,-81.57789,20099.29,7308.79,SOUTHEASTERN OHIO REGIONAL MEDICAL CENTER
4.50,2.15,40.35601,-80.62502,18149.31,5943.17,TRINITY MEDICAL CTR EAST&TRINITY MEDICAL CTR WEST
8.02,2.18,41.48479,-81.79649,36399.62,6096.19,LAKEWOOD HOSPITAL
4.81,2.47,40.04876,-82.45029,19755.31,7607.38,LICKING MEMORIAL HOSPITAL
6.94,2.11,41.52013,-81.43291,30809.26,5735.42,HILLCREST HOSPITAL
7.84,2.00,39.35830,-84.36785,35474.15,5172.35,WEST CHESTER MEDICAL CENTER
8.68,2.05,41.45231,-81.49517,39817.25,5408.17,UNIVERSITY HOSPITALS AHUJA MEDICAL CENTER
8.57,2.68,36.14687,-95.96841,39252.42,8675.00,HILLCREST MEDICAL CENTER
7.89,2.18,35.22999,-97.44074,35732.77,6072.12,NORMAN REGIONAL HEALTH SYSTEM
11.31,2.34,34.00655,-96.39398,53457.59,6920.86,MEDICAL CENTER OF SOUTHEASTERN OKLAHOMA
9.01,2.54,36.39005,-97.88781,41501.68,7936.60,INTEGRIS BASS BAPTIST HEALTH CENTER
6.50,2.22,35.75351,-95.40612,28482.16,6315.32,MUSKOGEE REGIONAL MEDICAL CENTER
8.85,2.19,36.39385,-97.87094,40668.92,6120.95,ST MARY'S REGIONAL MEDICAL CENTER
9.69,2.52,35.52960,-97.57496,45045.78,7866.77,INTEGRIS BAPTIST MEDICAL CENTER
7.59,2.16,35.52531,-97.58461,34153.80,6014.92,DEACONESS HOSPITAL
5.50,2.12,34.93621,-95.74888,23330.17,5803.33,MCALESTER REGIONAL HEALTH CENTER
5.77,2.60,35.47800,-97.52352,24705.58,8260.30,ST ANTHONY HOSPITAL
7.45,2.24,36.32303,-95.60538,33452.96,6426.83,CLAREMORE REGIONAL HOSPITAL
7.34,2.28,34.18908,-97.14128,32876.78,6620.00,MERCY MEMORIAL HEALTH CENTER
4.74,2.38,34.60992,-98.43419,19357.86,7119.16,COMANCHE COUNTY MEMORIAL HOSPITAL
6.00,2.65,36.14675,-95.99969,25903.92,8509.54,OKLAHOMA STATE UNIVERSITY MEDICAL CENTER
3.45,2.16,35.91530,-94.94996,12665.00,5978.50,TAHLEQUAH CITY HOSPITAL
5.53,2.29,36.06135,-95.95154,23478.22,6645.57,SAINT FRANCIS HOSPITAL, INC
7.48,2.83,35.48138,-97.49624,33603.43,9464.09,O U MEDICAL CENTER
12.09,2.15,35.46721,-97.39370,57521.46,5925.15,MIDWEST REGIONAL MEDICAL CENTER
9.23,2.36,35.42168,-97.53306,42649.05,7036.66,INTEGRIS SOUTHWEST MEDICAL CENTER
5.63,2.18,36.58133,-94.75864,23981.12,6087.04,INTEGRIS GROVE HOSPITAL
4.89,2.22,36.13393,-95.96718,20147.25,6276.76,ST JOHN MEDICAL CENTER, INC
5.29,2.29,35.36359,-96.93791,22222.00,6685.58,UNITY HEALTH CENTER
8.10,2.30,36.03590,-95.86511,36805.50,6709.55,SOUTHCREST HOSPITAL
5.72,2.11,35.60901,-97.59429,24472.04,5743.92,OKLAHOMA HEART HOSPITAL
6.21,2.06,35.38969,-97.42688,27020.76,5492.83,OKLAHOMA HEART HOSPITAL SOUTH
5.10,2.62,45.50973,-122.77368,21238.42,8388.63,PROVIDENCE ST VINCENT MEDICAL CENTER
7.10,2.76,45.54248,-122.66972,31641.57,9105.00,LEGACY EMANUEL MEDICAL CENTER
6.04,3.13,45.49956,-122.68802,26134.84,11008.74,OHSU HOSPITAL AND CLINICS
5.07,2.39,44.60322,-123.25312,21073.38,7192.16,GOOD SAMARITAN REGIONAL MEDICAL CENTER
7.27,2.75,45.53028,-122.69692,32486.39,9026.78,LEGACY GOOD SAMARITAN MEDICAL CENTER
5.88,2.44,42.31769,-122.83333,25284.78,7454.42,ROGUE VALLEY MEDICAL CENTER
5.27,2.45,44.06773,-121.26817,22102.89,7472.46,ST CHARLES MEDICAL CENTER - BEND
6.39,2.63,42.25296,-121.78512,27945.12,8451.71,SKY LAKES MEDICAL CENTER
5.54,2.49,44.93267,-123.03418,23513.60,7707.97,SALEM HOSPITAL
5.50,2.45,45.51288,-122.55630,23337.89,7505.04,ADVENTIST MEDICAL CENTER
4.79,2.58,45.52677,-122.61469,19608.58,8191.63,PROVIDENCE PORTLAND MEDICAL CENTER
5.61,2.37,45.19897,-123.16482,23911.16,7058.80,WILLAMETTE VALLEY MEDICAL CENTER
6.58,2.28,42.34086,-122.86108,28925.33,6625.71,PROVIDENCE MEDFORD MEDICAL CENTER
4.88,2.24,45.37908,-122.74083,20093.00,6384.47,LEGACY MERIDIAN PARK MEDICAL CENTER
5.04,2.51,44.08146,-123.02694,20954.13,7801.33,SACRED HEART MEDICAL CENTER - RIVERBEND
5.03,2.23,41.40075,-75.64594,20874.68,6355.91,COMMUNITY MEDICAL CENTER
6.87,2.83,40.35127,-79.84949,30442.44,9452.38,UPMC MCKEESPORT
4.94,2.13,40.25296,-76.92151,20427.30,5859.69,HOLY SPIRIT HOSPITAL
7.60,2.82,40.96789,-76.60506,34234.92,9429.30,GEISINGER MEDICAL CENTER
7.89,2.34,42.11102,-80.07912,35696.49,6918.43,SAINT VINCENT HEALTH CENTER
4.21,2.07,40.97877,-76.88593,16606.07,5508.36,EVANGELICAL COMMUNITY HOSPITAL
4.56,2.26,41.01409,-80.35398,18415.27,6483.53,JAMESON MEMORIAL HOSPITAL
22.05,3.61,40.00504,-75.15155,109189.77,13531.88,TEMPLE UNIVERSITY HOSPITAL
6.80,2.78,40.43609,-79.98537,30038.25,9196.31,UPMC MERCY
3.68,2.21,40.71251,-80.32136,13891.88,6259.77,HERITAGE VALLEY BEAVER
3.07,2.24,39.90180,-79.73854,10718.44,6400.48,UNIONTOWN HOSPITAL
3.84,2.31,40.18302,-80.24767,14706.75,6785.07,WASHINGTON HOSPITAL, THE
6.37,2.49,40.33271,-75.95020,27853.11,7702.36,READING HOSPITAL MEDICAL CENTER
4.60,2.26,41.24548,-77.01438,18672.49,6508.02,WILLIAMSPORT REGIONAL MEDICAL CENTER
4.73,2.60,39.94604,-76.71884,19300.67,8258.71,YORK HOSPITAL
10.03,2.44,40.60811,-75.39260,46808.75,7462.59,ST LUKE'S HOSPITAL BETHLEHEM
7.38,2.70,40.45705,-80.00363,33070.30,8784.23,ALLEGHENY GENERAL HOSPITAL
6.35,2.25,40.36358,-75.32621,27724.81,6451.35,GRAND VIEW HOSPITAL
7.34,2.20,40.04093,-76.32139,32844.69,6202.46,LANCASTER REGIONAL MEDICAL CENTER
10.46,2.85,42.13338,-80.08703,49039.78,9592.84,UPMC HAMOT
4.67,2.47,39.82440,-77.23455,19034.82,7600.18,GETTYSBURG HOSPITAL
5.01,2.22,40.32799,-76.44588,20753.85,6294.33,GOOD SAMARITAN HOSPITAL
4.24,2.50,40.25661,-76.87572,16786.10,7777.95,PINNACLE HEALTH HOSPITALS
17.70,2.33,40.10226,-74.86338,86591.12,6861.38,LOWER BUCKS HOSPITAL
13.73,2.17,41.07113,-76.23177,66000.50,6041.00,BERWICK HOSPITAL CENTER
5.08,2.19,40.52204,-78.39824,21125.15,6127.92,ALTOONA REGIONAL HEALTH SYSTEM
13.50,2.29,40.00955,-75.78622,64793.24,6666.02,BRANDYWINE HOSPITAL
4.25,2.34,41.98012,-76.52072,16809.51,6937.87,ROBERT PACKER HOSPITAL
16.41,2.41,40.06986,-75.08748,79927.37,7289.58,JEANES HOSPITAL
4.02,2.29,41.11492,-78.77515,15651.69,6680.53,DUBOIS REGIONAL MEDICAL CENTER
5.77,2.47,40.37587,-75.97750,24723.12,7594.45,ST JOSEPH MEDICAL CENTER
15.35,2.35,40.11139,-75.09250,74432.67,6949.92,HOLY REDEEMER HOSPITAL AND MEDICAL CENTER
7.35,2.43,40.04740,-76.30540,32922.72,7365.18,LANCASTER GENERAL HOSPITAL
5.13,2.37,39.96260,-76.72774,21409.73,7068.77,MEMORIAL HOSPITAL YORK
7.66,2.49,40.48928,-79.89596,34525.15,7685.23,UPMC ST MARGARET
8.97,2.42,40.57319,-80.01455,41292.60,7345.08,UPMC PASSAVANT
13.17,2.46,40.12453,-75.33533,63106.97,7548.03,MONTGOMERY HOSPITAL
4.76,2.37,40.32674,-78.92197,19462.01,7057.72,CONEMAUGH VALLEY MEMORIAL HOSPITAL
16.93,3.23,39.95045,-75.19259,82604.11,11536.94,HOSPITAL OF UNIV OF PENNSYLVANIA
5.57,2.28,41.64205,-80.14579,23681.47,6609.07,MEADVILLE MEDICAL CENTER
9.37,2.56,40.07160,-74.98341,43400.28,8060.62,ARIA HEALTH
15.45,2.24,40.12344,-75.51493,74932.87,6415.96,PHOENIXVILLE HOSPITAL
9.05,2.51,40.60000,-75.47000,41733.01,7785.84,LEHIGH VALLEY HOSPITAL
6.41,2.24,41.25860,-75.86729,28012.69,6379.47,WILKES-BARRE GENERAL HOSPITAL
10.21,2.39,40.01883,-75.32115,47753.89,7169.11,MAIN LINE HOSPITAL BRYN MAWR CAMPUS
11.59,3.52,40.03678,-75.14351,54917.33,13035.58,ALBERT EINSTEIN MEDICAL CENTER
4.94,2.16,40.30103,-79.55505,20424.46,5989.12,EXCELA HEALTH WESTMORELAND REGIONAL HOSPITAL
5.59,2.33,39.93492,-77.64744,23807.60,6891.49,CHAMBERSBURG HOSPITAL
9.04,2.25,40.04475,-75.50425,41663.83,6470.12,MAIN LINE HOSPITAL PAOLI
13.85,2.82,39.92871,-75.26873,66648.42,9400.33,MERCY FITZGERALD HOSPITAL
11.83,2.42,40.68708,-75.24272,56139.34,7322.64,EASTON HOSPITAL
13.04,3.01,40.44190,-79.96044,62452.31,10400.84,UPMC PRESBYTERIAN SHADYSIDE
5.96,2.14,40.86656,-79.88351,25695.39,5869.38,BUTLER MEMORIAL HOSPITAL
12.27,3.17,39.94969,-75.15712,58438.76,11221.26,THOMAS JEFFERSON UNIVERSITY HOSPITAL
5.64,2.28,39.97024,-75.60259,24050.59,6606.83,CHESTER COUNTY HOSPITAL
20.99,2.61,39.85598,-75.36791,103684.03,8341.34,CROZER CHESTER MEDICAL CENTER
10.08,2.51,39.98905,-75.27707,47099.63,7797.26,MAIN LINE HOSPITAL LANKENAU
4.22,2.48,42.07400,-80.09368,16651.54,7654.38,MILLCREEK COMMUNITY HOSPITAL
6.33,2.51,40.99225,-75.17466,27605.29,7815.68,POCONO MEDICAL CENTER
8.05,2.24,40.30531,-75.14763,36545.04,6421.50,DOYLESTOWN HOSPITAL
9.42,2.29,40.05931,-75.04140,43650.29,6685.00,NAZARETH HOSPITAL
5.12,2.28,41.23235,-80.49626,21357.09,6589.40,SHARON REGIONAL HEALTH SYSTEM
9.99,2.20,39.91254,-75.43047,46610.50,6209.35,RIDDLE MEMORIAL HOSPITAL
13.06,2.77,39.95825,-75.19909,62554.65,9154.41,PENN PRESBYTERIAN MEDICAL CENTER
7.51,2.24,40.18739,-76.18224,33769.22,6396.59,EPHRATA COMMUNITY HOSPITAL
10.63,2.66,39.94560,-75.15561,49918.84,8596.33,PENNSYLVANIA HOSP OF THE UNIV OF PA HEALTH SYS
4.82,2.10,40.37782,-80.06589,19782.27,5671.76,ST CLAIR MEMORIAL HOSPITAL
12.74,2.49,40.12077,-75.11818,60886.41,7724.93,ABINGTON MEMORIAL HOSPITAL
6.41,2.19,41.41276,-75.65399,28054.14,6135.95,REGIONAL HOSPITAL OF SCRANTON
6.23,3.05,40.26468,-76.67582,27123.11,10599.71,MILTON S HERSHEY MEDICAL CENTER
7.39,2.28,40.20064,-74.92952,33101.40,6615.17,ST MARY MEDICAL CENTER
9.22,2.43,40.64463,-75.40842,42591.43,7414.89,LEHIGH VALLEY HOSPITAL - MUHLENBERG
4.19,2.07,40.31802,-79.93494,16526.45,5535.20,JEFFERSON REGIONAL MEDICAL CENTER
5.13,2.19,40.42897,-79.74808,21406.14,6146.86,WESTERN PENNSYLVANIA HOSP FORBES REGIONAL CAMPUS
6.11,2.04,40.81936,-77.84273,26456.11,5389.89,MOUNT NITTANY MEDICAL CENTER
8.63,2.47,41.25855,-75.81041,39576.98,7621.62,GEISINGER WYOMING VALLEY MEDICAL CENTER
21.48,3.24,39.95658,-75.16249,106189.23,11576.83,HAHNEMANN UNIVERSITY HOSPITAL
7.74,2.99,41.81254,-71.40760,34921.15,10316.23,RHODE ISLAND HOSPITAL
4.94,2.20,41.43145,-71.49507,20392.19,6206.88,SOUTH COUNTY HOSPITAL INC
7.61,2.53,41.70541,-71.47790,34237.94,7925.39,KENT COUNTY MEMORIAL HOSPITAL
7.89,2.35,42.00497,-71.49561,35736.08,6960.35,LANDMARK MEDICAL CENTER,  INC
6.89,2.70,41.85172,-71.39826,30521.85,8769.60,MIRIAM HOSPITAL
6.02,2.33,34.95535,-81.05137,25991.52,6847.60,PIEDMONT MEDICAL CENTER
6.40,3.11,32.78272,-79.94543,27996.93,10927.80,MUSC MEDICAL CENTER
5.17,2.45,34.96733,-81.94021,21621.87,7488.17,SPARTANBURG REGIONAL MEDICAL CENTER
6.10,2.18,34.69403,-82.98884,26423.73,6086.42,OCONEE MEDICAL CENTER
5.72,2.28,34.84108,-82.60683,24465.38,6588.88,BAPTIST EASLEY HOSPITAL
7.76,2.66,34.02839,-81.03539,35065.38,8585.94,PALMETTO HEALTH RICHLAND
6.95,2.46,33.37683,-79.29450,30815.38,7545.18,GEORGETOWN MEMORIAL HOSPITAL
8.93,2.21,34.83965,-82.42147,41128.80,6229.66,ST FRANCIS-DOWNTOWN
5.16,2.15,34.01469,-81.01343,21528.66,5937.35,SISTERS OF CHARITY PROVIDENCE HOSPITALS
7.57,2.43,34.51119,-82.64683,34039.62,7414.63,ANMED HEALTH
12.16,2.29,34.71787,-80.78844,57860.77,6688.49,SPRINGS MEMORIAL HOSPITAL
5.49,2.18,34.24654,-80.60702,23242.62,6086.35,KERSHAW HEALTH
6.43,2.29,33.78555,-79.00178,28131.38,6659.03,CONWAY MEDICAL CENTER
7.62,2.44,34.19543,-79.76256,34321.90,7466.89,MCLEOD REGIONAL MEDICAL CENTER-PEE DEE
5.49,2.39,32.33977,-80.68817,23284.53,7206.00,BEAUFORT COUNTY MEMORIAL HOSPITAL
6.98,2.41,33.62185,-80.74922,31015.48,7270.76,TRMC OF ORANGEBURG & CALHOUN
8.81,3.00,34.17571,-82.15791,40504.15,10361.02,SELF REGIONAL HEALTHCARE
6.58,2.28,34.00533,-81.11393,28932.99,6617.42,LEXINGTON MEDICAL CENTER
6.37,2.60,34.81904,-82.41308,27838.81,8295.45,GREENVILLE MEMORIAL HOSPITAL
9.79,2.38,32.97605,-80.07302,45546.55,7138.72,TRIDENT MEDICAL CENTER
7.31,2.63,32.22325,-80.71444,32703.10,8440.72,HILTON HEAD REGIONAL MEDICAL CENTER
5.06,2.37,33.57070,-81.76332,21027.84,7076.09,AIKEN REGIONAL MEDICAL CENTER
10.09,2.23,34.94957,-81.93205,47118.18,6374.12,MARY BLACK MEMORIAL HOSPITAL
8.65,2.21,33.70704,-78.89487,39665.66,6264.39,GRAND STRAND REG MED CENTER
8.58,2.91,34.00754,-81.03270,39291.90,9884.97,PALMETTO HEALTH BAPTIST
7.34,2.35,32.78211,-79.95018,32866.74,6969.99,ROPER HOSPITAL
9.98,2.25,34.19543,-79.76256,46581.67,6445.46,CAROLINAS HOSPITAL SYSTEM
6.57,2.05,33.59553,-79.02412,28846.00,5425.06,WACCAMAW COMMUNITY HOSPITAL
4.16,2.23,44.91113,-97.12063,16358.74,6337.79,PRAIRIE LAKES HOSPITAL
4.28,2.38,45.46141,-98.47929,17012.39,7143.18,AVERA ST LUKES
