size_charge,size_pay,lat,lon,state,charge,pay,AcquiredInfect,AcquiredConditions,PatientSafetySummary,name
6.00,2.43,31.21673,-85.36307,AL,55000,18000,50,51,21,Southeast Alabama Medical Center
8.63,2.34,34.80175,-87.67514,AL,82000,17000,50,65,2,Eliza Coffee Memorial Hospital
5.17,2.30,33.59616,-86.66750,AL,46000,16000,66,78,1,St Vincent'S East
9.63,2.44,33.25607,-86.81035,AL,92000,18000,83,70,63,Shelby Baptist Medical Center
6.39,2.66,32.32785,-86.27750,AL,59000,20000,50,67,54,Baptist Medical Center South
4.43,2.31,32.63806,-85.40413,AL,38000,16000,50,80,13,East Alabama Medical Center And Snf
9.11,2.86,33.50619,-86.80210,AL,87000,22000,66,45,11,University Of Alabama Hospital
10.93,2.53,34.72007,-86.58108,AL,106000,19000,50,65,44,Huntsville Hospital
10.28,2.29,31.23767,-85.45625,AL,99000,16000,50,55,79,Flowers Hospital
5.98,2.27,33.50734,-86.78958,AL,55000,16000,50,72,21,St Vincent'S Birmingham
10.36,2.43,33.65640,-85.82284,AL,100000,18000,50,60,5,Northeast Alabama Regional Med Center
5.44,2.42,30.68199,-88.19897,AL,49000,18000,83,86,0,Providence Hospital
6.55,2.62,33.20521,-87.52546,AL,60000,20000,66,66,21,D C H Regional Medical Center
9.00,2.45,33.49854,-86.84633,AL,86000,18000,66,70,8,Baptist Medical Center-Princeton
12.25,2.45,33.51420,-86.74859,AL,120000,18000,66,27,11,Trinity Medical Center
5.34,2.26,30.69697,-88.08081,AL,48000,16000,66,55,24,Mobile Infirmary
11.42,2.22,33.46420,-86.77409,AL,111000,16000,50,65,29,Brookwood Medical Center
5.55,2.13,30.68546,-88.13170,AL,50000,15000,50,81,6,Springhill Medical Center
8.89,3.25,60.94901,-149.17033,AK,85000,26000,50,81,90,Providence Alaska Medical Center
11.67,3.91,61.21082,-149.82866,AK,114000,33000,50,90,43,Alaska Regional Hospital
8.34,3.04,33.46514,-112.05797,AZ,79000,24000,50,48,69,Banner Good Samaritan Medical Center
7.25,2.75,32.25294,-110.88135,AZ,68000,21000,50,48,3,Tucson Medical Center
9.10,3.31,34.73471,-112.03149,AZ,87000,27000,50,73,82,Verde Valley Medical Center
8.17,2.45,32.22685,-110.85520,AZ,77000,18000,66,55,21,Carondelet St Josephs Hospital
7.88,2.73,32.68274,-114.63506,AZ,74000,21000,50,63,69,Yuma Regional Medical Center
13.30,3.27,33.48073,-112.07948,AZ,131000,26000,33,52,11,St Joseph'S Hospital And Medical Center
8.65,3.01,33.52511,-112.10189,AZ,82000,24000,50,71,56,Phoenix Baptist Hospital
10.76,2.85,33.48885,-111.92387,AZ,104000,22000,66,76,54,Scottsdale Healthcare-Osborn Medical Center
9.29,2.89,35.22024,-114.03585,AZ,89000,22000,66,66,54,Kingman Regional Medical Center
8.19,2.49,33.60432,-112.28378,AZ,78000,18000,83,75,95,Banner Boswell Medical Center
7.35,3.53,34.20195,-110.01913,AZ,69000,29000,50,78,74,Summit Healthcare Regional Medical Center
9.82,3.45,32.24152,-110.94631,AZ,94000,28000,50,37,39,University Of Arizona Medical Ctr-Universit The
8.35,2.83,33.39097,-111.87638,AZ,79000,22000,66,80,56,Banner Desert Medical Center
10.89,2.65,34.47988,-114.33938,AZ,106000,20000,50,70,56,Havasu Regional Medical Center
12.02,2.49,32.32103,-111.01102,AZ,117000,18000,50,71,20,Northwest Medical Center
9.80,2.56,33.58235,-111.88527,AZ,94000,19000,66,68,63,Scottsdale Healthcare-Shea Medical Center
9.04,2.82,33.60949,-112.18129,AZ,86000,22000,66,73,76,Banner Thunderbird Medical Center
9.22,2.36,33.65965,-112.37283,AZ,88000,17000,50,77,97,Banner Del E Webb Medical Center
8.30,2.35,32.29456,-110.97041,AZ,79000,17000,50,83,13,Carondelet Heart And Vascular Institute
12.45,2.68,35.11068,-114.55505,AZ,122000,20000,50,87,63,Western Arizona Regional Medical Ctr
6.86,2.92,33.65947,-111.95626,AZ,64000,23000,66,53,95,Mayo Clinic Hospital
11.78,2.48,33.41128,-111.68579,AZ,115000,18000,50,77,69,Banner Heart Hospital
11.02,2.72,33.39128,-111.61125,AZ,107000,21000,50,60,11,Mountain Vista Medical Center Lp
11.76,2.62,33.42537,-111.82251,AZ,115000,20000,50,82,8,Arizona Regional Medical Center
7.21,2.47,36.10940,-94.16036,AR,67000,18000,33,77,74,Washington Regional Med Ctr At North Hills
7.45,2.48,34.75031,-92.33897,AR,70000,18000,66,63,82,St Vincent Infirmary Medical Center
5.63,2.37,36.31007,-94.18471,AR,51000,17000,50,67,44,Mercy Medical Center
6.88,2.59,35.25046,-91.70056,AR,64000,19000,50,61,63,White County Medical Center
6.17,3.07,34.74866,-92.35422,AR,56000,24000,50,51,33,Uams Medical Center
4.22,2.54,35.83746,-90.70386,AR,36000,19000,50,75,2,St Bernards Medical Ctr
9.01,2.43,36.18082,-94.13644,AR,86000,18000,50,68,29,Nw Arkansas Hospitals Llc
5.86,2.41,34.46784,-93.06667,AR,53000,17000,66,66,85,St Josephs Mercy Health Center Inc
5.63,2.30,36.34295,-92.39442,AR,51000,16000,50,65,57,Baxter Regional Medical Center
6.44,2.45,34.77770,-92.12539,AR,59000,18000,50,60,13,Baptist Health Medical Center North Little Rock
6.54,2.43,35.35395,-94.35262,AR,60000,18000,50,66,11,St Edward Mercy Medical Center
8.63,2.64,34.18894,-92.01886,AR,82000,20000,50,75,4,Jefferson Regional Medical Center
8.33,2.45,33.22053,-92.67102,AR,79000,18000,50,70,13,Medical Center South Arkansas
6.35,2.45,34.74866,-92.35422,AR,58000,18000,50,43,21,Baptist Health Medical Center-Little Rock
7.24,2.51,35.80838,-90.66658,AR,68000,19000,50,57,69,Nea Baptist Memorial Hospital
7.41,2.30,34.73868,-92.39307,AR,69000,16000,75,86,79,Arkansas Heart Hospital
10.47,3.14,40.78366,-124.14246,CA,101000,25000,50,63,63,St Joseph Hospital
22.86,4.01,38.54384,-122.47401,CA,230000,34000,50,75,33,St Helena Hospital
16.66,3.18,38.57053,-121.45216,CA,165000,25000,83,53,27,Mercy General Hospital
13.90,3.62,33.97659,-117.38184,CA,137000,30000,50,65,57,Riverside Community Hospital
14.56,2.92,32.77495,-117.01467,CA,144000,23000,83,71,33,Grossmont Hospital
13.35,3.02,35.38736,-119.01690,CA,131000,24000,33,85,79,Bakersfield Memorial Hospital
11.88,2.77,39.74221,-121.85000,CA,116000,21000,83,71,48,Enloe Medical Center
15.19,3.74,37.82206,-122.26275,CA,150000,31000,50,63,32,Alta Bates Summit Medical Center
7.57,3.22,34.67486,-118.15771,CA,71000,26000,50,67,44,Antelope Valley Hospital Med Center
8.65,3.06,36.32737,-119.29548,CA,82000,24000,50,56,12,Kaweah Delta Medical Center
17.10,3.93,34.12834,-118.25777,CA,170000,33000,50,72,44,Glendale Mem Hospital & Hlth Center
10.19,3.65,36.73000,-119.78000,CA,98000,30000,50,71,0,Community Regional Medical Center
9.67,2.86,33.78036,-117.86495,CA,93000,22000,50,60,88,St Joseph Hospital
16.94,3.33,32.75143,-117.16083,CA,168000,27000,33,62,69,Scripps Mercy Hospital
17.72,3.64,34.21674,-119.15631,CA,176000,30000,50,63,6,St Johns Regional Medical Center
13.65,3.24,37.96987,-121.28873,CA,134000,26000,83,68,97,St Josephs Med Center Of Stockton
9.79,2.89,36.83532,-119.76562,CA,94000,23000,50,66,57,Saint Agnes Medical Center
15.22,3.15,32.79949,-117.15394,CA,150000,25000,66,62,11,Sharp Memorial Hospital
14.20,3.65,38.57155,-121.46874,CA,140000,30000,83,77,79,Sutter General Hospital
10.22,3.07,33.12535,-117.07336,CA,99000,24000,50,55,69,Palomar Medical Center
16.29,3.39,34.22014,-118.53410,CA,162000,28000,33,56,44,Northridge Hospital Medical Center
11.21,3.52,34.19494,-118.46319,CA,109000,29000,50,77,76,Valley Presbyterian Hospital
11.73,2.95,33.18402,-117.29661,CA,114000,23000,50,57,21,Tri-City Medical Center
11.74,3.32,39.13822,-121.59436,CA,114000,27000,50,51,21,Rideout Memorial Hospital
18.46,3.56,37.32710,-121.93863,CA,184000,29000,66,71,37,O'Connor Hospital
9.38,2.66,33.89465,-117.92716,CA,90000,20000,66,71,90,St Jude Medical Center
19.75,3.49,38.44369,-122.70138,CA,198000,29000,66,86,57,Santa Rosa Memorial Hospital
30.00,4.25,37.55717,-121.98126,CA,304000,37000,50,53,88,Washington Hospital
18.69,3.14,37.48000,-122.25441,CA,186000,25000,0,0,0,Sequoia Hospital
10.41,2.76,33.62229,-117.92995,CA,101000,21000,50,70,51,Hoag Memorial Hospital Presbyterian
18.70,3.10,33.84780,-117.93661,CA,187000,25000,50,73,57,Ahmc Anaheim Regional Medical Center
18.27,3.06,34.15601,-118.32834,CA,182000,24000,50,80,97,Providence Saint Joseph Medical Ctr
11.15,2.99,34.13973,-118.03534,CA,108000,24000,50,45,10,Methodist Hospital Of Southern Ca
15.92,3.58,34.14987,-118.23117,CA,158000,30000,66,75,88,Glendale Adventist Medical Center
9.64,4.12,34.06675,-118.44613,CA,93000,35000,50,27,33,Ronald Reagan Ucla Medical Center
18.56,3.06,34.27915,-118.46006,CA,185000,24000,50,80,24,Providence Holy Cross Medical Center
10.62,3.21,40.58654,-122.39168,CA,103000,26000,83,71,44,Mercy Medical Center Redding
17.37,3.17,37.36934,-122.08047,CA,173000,25000,66,48,6,El Camino Hospital
13.14,2.78,32.88461,-117.22244,CA,129000,21000,50,63,29,Scripps Memorial Hospital La Jolla
11.36,3.77,34.05076,-117.26395,CA,110000,32000,50,55,16,Loma Linda University Medical Center
11.56,4.73,36.65910,-121.64630,CA,113000,42000,50,70,37,Salinas Valley Memorial Hospital
20.93,4.46,33.78798,-117.89026,CA,210000,39000,66,56,11,University Of California Irvine Med Center
10.15,2.76,33.81131,-118.34364,CA,98000,21000,66,67,88,Torrance Memorial Medical Center
12.00,2.88,33.83891,-118.35677,CA,117000,22000,50,86,94,Providence Little Company Of Mary Med Ctr Torrance
18.85,3.58,37.94748,-122.53677,CA,188000,30000,50,63,16,Marin General Hospital
17.37,3.20,37.25153,-121.94684,CA,173000,26000,33,63,3,Good Samaritan Hospital
15.49,2.76,34.27459,-119.25812,CA,153000,21000,50,53,8,Community Memorial Hospital San Buenaventura
9.52,2.96,34.42951,-119.72333,CA,91000,23000,66,72,32,Santa Barbara Cottage Hospital
12.28,3.32,32.89810,-117.24217,CA,120000,27000,50,75,37,Scripps Green Hospital
13.30,3.02,34.13364,-118.15275,CA,131000,24000,66,65,57,Huntington Memorial Hospital
18.39,4.37,37.43436,-122.18013,CA,183000,38000,50,58,27,Stanford Hospital
16.87,4.81,37.76421,-122.45716,CA,168000,42000,66,52,90,Ucsf Medical Center
15.42,3.55,37.77449,-122.45429,CA,153000,29000,50,87,3,St Mary'S Medical Center
17.34,3.22,37.66540,-120.99743,CA,172000,26000,66,66,9,Doctors Medical Center
13.14,3.53,34.05336,-118.26558,CA,129000,29000,50,68,79,Good Samaritan Hospital
13.09,3.17,33.80861,-118.18661,CA,128000,25000,66,65,27,Long Beach Memorial Medical Center
23.38,3.58,37.98396,-122.03464,CA,235000,30000,50,76,97,John Muir Medical Center - Concord Campus
16.75,3.54,34.06389,-118.27347,CA,166000,29000,50,80,98,Saint Vincent Medical Center
15.42,2.91,35.29188,-120.66635,CA,153000,23000,50,86,81,Sierra Vista Regional Medical Center
15.69,4.60,38.66956,-121.31378,CA,155000,40000,66,66,29,Mercy San Juan Medical Center
16.33,3.01,34.20777,-118.88305,CA,162000,24000,50,51,69,Los Robles Hospital & Medical Center
15.08,3.36,37.66867,-120.97339,CA,149000,27000,66,80,54,Memorial  Medical Center
17.39,3.48,33.71466,-117.93322,CA,173000,29000,50,86,33,Fountain Valley Regional Hospital & Medical Center
14.42,2.64,33.76335,-116.40628,CA,142000,20000,50,56,39,Eisenhower Medical Center
21.39,4.23,38.55484,-121.45628,CA,215000,36000,50,50,3,University Of California Davis Medical Center
8.99,2.71,33.60883,-117.70881,CA,86000,21000,50,70,90,Saddleback Memorial Medical Center
21.24,3.73,34.07664,-118.37955,CA,213000,31000,100,58,48,Cedars-Sinai Medical Center
16.02,3.54,34.06193,-118.20157,CA,159000,29000,33,71,3,Keck Hospital Of Usc
6.77,2.67,36.85992,-119.78858,CA,63000,20000,0,0,0,Fresno Heart And Surgical Hospital
15.46,2.80,34.17067,-118.53200,CA,153000,22000,50,57,63,Providence Tarzana Medical Center
10.62,2.69,40.41481,-104.70890,CO,103000,20000,50,73,57,North Colorado Medical Center
14.35,3.17,39.74615,-104.96682,CO,141000,25000,66,47,17,Presbyterian/St Luke'S Medical Center
16.81,2.79,39.71712,-105.12874,CO,167000,21000,33,67,16,Centura Health-St Anthony Hospital
11.05,2.55,38.28184,-104.61256,CO,107000,19000,66,68,29,Parkview Medical Center Inc
7.10,2.60,38.83903,-104.80024,CO,66000,19000,66,68,33,Memorial Hospital Central
6.39,2.78,39.09046,-108.56190,CO,59000,21000,50,48,57,St Marys Hospital And Medical Center
14.23,3.59,39.74234,-104.84156,CO,140000,30000,66,66,69,University Of Colorado Hospital Anschutz Inpatient
15.20,3.56,39.74601,-104.96909,CO,150000,29000,66,71,90,Exempla Saint Joseph Hospital
11.02,2.72,38.86559,-104.82182,CO,107000,21000,50,70,37,Centura Health-Penrose St Francis Health Services
12.33,2.70,39.73231,-104.93396,CO,120000,20000,75,50,32,Rose Medical Center
9.93,2.56,39.65399,-104.98116,CO,96000,19000,33,47,17,Swedish Medical Center
10.40,2.52,39.67005,-104.97490,CO,100000,19000,50,75,79,Centura Health-Porter Adventist Hospital
14.04,2.74,39.68859,-104.83205,CO,138000,21000,50,61,13,Medical Center Of Aurora The
10.62,2.91,40.45184,-105.19608,CO,103000,23000,50,78,44,Medical Center Of The Rockies
5.97,3.14,41.30978,-72.93806,CT,54000,25000,66,57,8,Hospital Of St Raphael
5.44,3.14,41.77507,-72.69941,CT,49000,25000,50,53,85,St Francis Hospital & Medical Center
10.67,3.26,41.05562,-73.55390,CT,103000,26000,50,52,10,Stamford Hospital
8.12,3.53,41.18881,-73.16645,CT,77000,29000,50,51,21,Bridgeport Hospital
4.70,2.67,41.86708,-72.45056,CT,41000,20000,50,90,13,Rockville General Hospital
7.11,3.17,41.55241,-73.03554,CT,66000,25000,50,56,39,Saint Marys Hospital
6.99,2.87,41.54874,-72.80148,CT,65000,22000,50,60,79,Midstate Medical Center
7.20,2.63,41.55473,-72.64872,CT,67000,20000,33,61,92,Middlesex Hospital
10.43,3.77,41.30400,-72.93502,CT,101000,32000,66,41,3,Yale-New Haven Hospital
6.89,3.31,41.75412,-72.67927,CT,64000,27000,50,47,9,Hartford Hospital
7.26,3.00,41.20049,-73.20281,CT,68000,24000,66,78,63,St Vincent'S Medical Center
7.48,3.15,41.40474,-73.44739,CT,70000,25000,50,66,57,Danbury Hospital
7.01,3.03,41.11147,-73.42010,CT,65000,24000,50,72,92,Norwalk Hospital Association
4.78,4.09,41.73545,-72.79489,CT,42000,35000,25,60,8,John Dempsey Hospital
7.05,3.27,39.69005,-75.68408,DE,66000,26000,66,58,39,Christiana Care Health Services Inc.
7.47,2.95,39.15135,-75.52309,DE,70000,23000,50,58,90,Bayhealth - Kent General Hospital
7.47,2.64,38.77159,-75.14210,DE,70000,20000,50,90,81,Beebe Medical Center
11.17,3.45,38.90106,-77.05079,DC,108000,28000,50,50,13,George Washington Univ Hospital
8.77,3.34,38.91221,-77.07588,DC,84000,27000,66,65,0,Georgetown University Hospital
9.44,3.27,38.92944,-77.01473,DC,91000,26000,33,58,1,Washington Hospital Center
10.06,3.14,30.34913,-81.66391,FL,97000,25000,50,62,0,Shands Jacksonville Medical Center
7.97,2.68,26.50479,-80.06979,FL,75000,20000,50,53,99,Bethesda Memorial Hospital
11.64,2.91,28.52517,-81.37729,FL,113000,23000,66,47,29,Orlando Health
11.56,2.80,28.57345,-81.36990,FL,112000,22000,83,66,24,Florida Hospital
14.35,3.17,25.68309,-80.34038,FL,141000,25000,50,62,85,Baptist Hospital Of Miami Inc
15.94,3.31,25.78846,-80.21644,FL,158000,27000,83,56,0,University Of Miami Hospital
10.79,2.57,26.62849,-81.87423,FL,105000,19000,66,52,16,Lee Memorial Hospital
7.56,2.96,29.20117,-81.05828,FL,71000,23000,66,76,79,Halifax Health Medical Center
7.00,2.49,26.15053,-81.79919,FL,65000,18000,66,62,39,Naples Community Hospital
9.66,2.44,28.08771,-80.61362,FL,93000,18000,66,58,17,Holmes Regional Medical Center
10.23,4.11,25.79143,-80.21250,FL,99000,35000,83,48,4,Jackson Memorial Hospital
9.76,2.29,28.83363,-82.33561,FL,94000,16000,50,55,44,Citrus Memorial Hospital
8.59,2.68,30.47650,-87.21219,FL,82000,20000,50,41,39,Sacred Heart Hospital
7.00,2.40,30.15963,-85.64818,FL,65000,17000,66,73,43,Bay Medical Center
10.19,2.80,27.76332,-82.64325,FL,98000,22000,50,82,20,Bayfront Medical Center Inc
9.34,2.98,25.81317,-80.13996,FL,89000,23000,66,47,24,Mount Sinai Medical Center
13.58,2.98,27.49789,-82.56220,FL,133000,23000,50,55,29,Manatee Memorial Hospital
11.69,2.87,26.01867,-80.17981,FL,114000,22000,83,63,76,Memorial Regional Hospital
9.70,2.54,30.30835,-81.68919,FL,93000,19000,50,68,82,St Vincent'S Medical Center
9.73,2.48,27.19837,-80.24306,FL,93000,18000,66,70,57,Martin Memorial Medical Center
12.33,2.64,28.26092,-82.18802,FL,120000,20000,50,62,88,Florida Hospital Zephyrhills
11.01,2.42,28.02768,-81.72466,FL,107000,18000,50,62,2,Winter Haven Hospital
8.44,2.37,28.82358,-81.71133,FL,80000,17000,50,71,48,Florida Hospital Waterman
9.91,2.35,29.17594,-82.13898,FL,95000,17000,50,60,94,Munroe Regional Medical Center
9.13,2.48,27.78088,-82.65126,FL,87000,18000,50,68,57,St Anthony'S Hospital
7.22,2.36,29.24333,-81.10760,FL,67000,17000,50,67,95,Florida Hospital Memorial Medical Center
16.88,2.77,27.09043,-82.44499,FL,168000,21000,50,76,48,Venice Regional Medical Center
7.40,2.36,28.91403,-81.28480,FL,69000,17000,83,75,5,Florida Hospital Fish Memorial
13.26,2.48,26.18711,-80.11941,FL,130000,18000,83,57,37,Holy Cross Hospital Inc
9.60,2.80,27.98242,-82.49025,FL,92000,21000,66,60,29,St Joseph'S Hospital
15.41,2.52,26.98905,-82.09559,FL,152000,19000,50,68,43,Peace River Regional Medical Center
15.78,2.61,26.59805,-80.09271,FL,156000,20000,100,60,27,Jfk Medical Center
6.49,2.37,28.80659,-81.86906,FL,60000,17000,33,67,24,Leesburg Regional Medical Center
10.40,2.47,27.31827,-82.53140,FL,100000,18000,33,37,69,Sarasota Memorial Hospital
9.28,2.73,30.31525,-81.66398,FL,89000,21000,66,47,12,Baptist Medical Center
10.31,2.63,29.86371,-81.31749,FL,99000,20000,66,76,29,Flagler Hospital
9.29,2.46,28.33522,-80.72319,FL,89000,18000,50,63,97,Wuesthoff Medical Center  Rockledge
8.40,2.48,30.43066,-87.23191,FL,80000,18000,50,72,17,Baptist Hospital
4.92,2.54,27.65832,-80.39307,FL,44000,19000,66,76,99,Indian River Medical Center
13.68,2.90,28.29946,-81.41021,FL,134000,23000,50,63,51,Osceola Regional Medical Center
8.46,3.40,29.64155,-82.34844,FL,80000,28000,66,53,29,Shands Hospital At The University Of Florida
8.65,2.68,29.47897,-81.18915,FL,82000,20000,50,51,39,Florida Hospital Flagler
13.07,2.39,30.73540,-86.56171,FL,128000,17000,50,90,97,North Okaloosa Medical Center
9.09,2.44,27.95192,-82.80379,FL,87000,18000,66,62,9,Morton Plant Hospital
12.23,3.07,27.93740,-82.45927,FL,119000,24000,66,66,0,Tampa General Hospital
11.37,2.57,25.96994,-80.14533,FL,111000,19000,50,63,79,Aventura Hospital And Medical Center
8.37,2.70,30.45726,-84.26175,FL,79000,20000,66,57,63,Tallahassee Memorial Healthcare
6.72,2.79,30.26389,-81.44283,FL,62000,21000,83,62,90,Mayo Clinic
14.25,3.45,25.70328,-80.29391,FL,140000,28000,50,65,69,South Miami Hospital Inc
9.56,2.50,28.06172,-81.95304,FL,92000,18000,50,52,3,Lakeland Regional Medical Center
12.33,2.52,28.81611,-81.28351,FL,120000,19000,50,56,97,Central Florida Regional Hospital
14.90,2.54,27.30187,-82.45428,FL,147000,19000,33,67,95,Doctors Hospital Of Sarasota
9.53,2.51,26.35875,-80.10203,FL,91000,19000,66,46,43,Boca Raton Regional Hospital
13.52,2.48,28.07111,-82.42342,FL,133000,18000,50,68,37,Florida Hospital Tampa
11.03,2.43,26.83035,-80.08655,FL,107000,18000,100,56,37,Palm Beach Gardens Medical Center
12.57,2.45,30.28793,-81.60103,FL,123000,18000,33,48,24,Memorial Hospital Jacksonville
13.43,3.16,25.88563,-80.32635,FL,132000,25000,66,78,90,Palmetto General Hospital
14.80,2.73,26.26259,-80.20292,FL,146000,21000,50,51,97,Northwest Medical Center
10.76,2.54,29.66085,-82.41172,FL,104000,19000,33,52,17,North Florida Regional Medical Center
10.38,2.29,29.17550,-82.13680,FL,100000,16000,83,55,85,Ocala Regional Medical Center
12.74,2.43,27.48213,-82.62126,FL,125000,18000,50,75,69,Blake Medical Center
11.55,2.84,26.52735,-81.83337,FL,112000,22000,50,58,63,Gulf Coast Medical Center Lee Mem Health System
16.26,2.34,30.45448,-86.63362,FL,161000,17000,50,72,63,Fort Walton Beach Medical Center
13.92,2.48,30.16550,-81.73775,FL,137000,18000,33,68,57,Orange Park Medical Center
12.00,2.40,30.51624,-87.21856,FL,117000,17000,50,65,4,West Florida Hospital
13.48,2.28,26.98884,-82.09877,FL,132000,16000,50,80,57,Fawcett Memorial Hospital
15.81,2.63,27.82545,-82.70122,FL,157000,20000,50,65,33,Northside Hospital
15.68,2.50,30.18657,-85.66513,FL,155000,18000,50,63,99,Gulf Coast Medical Center
14.63,2.53,27.93259,-82.28759,FL,144000,19000,66,67,21,Brandon Regional Hospital
11.45,2.73,27.43392,-80.34350,FL,111000,21000,83,53,29,Lawnwood Regional Medical Center & Heart Institute
12.98,2.46,27.91458,-82.80382,FL,127000,18000,50,48,24,Largo Medical Center
13.44,2.53,28.95195,-82.62421,FL,132000,19000,50,72,21,Seven Rivers Regional Medical Center
11.17,2.52,26.92138,-80.09708,FL,108000,19000,50,61,54,Jupiter Medical Center
14.23,2.46,28.36128,-82.68883,FL,140000,18000,66,67,90,Regional Medical Center Bayonet Point
10.21,2.42,26.43709,-80.12728,FL,98000,18000,83,72,92,Delray Medical Center
11.45,2.53,27.28861,-80.29431,FL,111000,19000,50,65,54,St Lucie Medical Center
17.73,2.29,28.53585,-82.53404,FL,177000,16000,66,71,57,Oak Hill Hospital
7.84,2.23,28.03957,-82.70875,FL,74000,16000,66,66,54,Mease Countryside Hospital
10.60,2.68,26.68337,-80.25269,FL,102000,20000,66,67,37,Palms West Hospital
11.59,2.47,26.21388,-81.73257,FL,113000,18000,33,80,33,Physicians Regional Medical Center - Pine Ridge
10.65,2.56,26.70181,-80.05055,FL,103000,19000,50,58,63,Good Samaritan Medical Center
8.37,2.47,26.08155,-80.36449,FL,79000,18000,100,57,48,Cleveland Clinic Hospital
7.04,2.27,28.94952,-81.95843,FL,66000,16000,33,80,94,Villages Regional Hospital The
6.59,2.80,31.59023,-84.15756,GA,61000,22000,50,53,11,Phoebe Putney Memorial Hospital
7.63,3.05,33.79230,-84.32107,GA,72000,24000,50,41,8,Emory University Hospital
8.43,2.74,33.56970,-85.07276,GA,80000,21000,25,78,90,Tanner Medical Center - Carrollton
5.67,2.93,31.17425,-81.48459,GA,51000,23000,50,61,17,Southeast Georgia Health System- Brunswick Campus
6.89,2.63,33.47096,-81.98176,GA,64000,20000,50,51,21,University Hospital
9.23,2.68,34.30335,-83.81737,GA,88000,20000,66,58,44,Northeast Georgia Medical Center Inc
8.10,3.48,33.47091,-81.98988,GA,77000,29000,66,45,37,Medical College Of Ga Hospitals And Clinics
7.64,2.61,33.96770,-84.55011,GA,72000,20000,66,62,44,Wellstar Kennestone Hospital
10.46,2.90,32.03185,-81.09158,GA,101000,23000,66,61,24,Memorial Health Univ Med Cen Inc
7.64,2.46,30.82614,-83.97393,GA,72000,18000,50,75,48,John D Archbold Memorial Hospital
8.22,2.31,31.98515,-81.15475,GA,78000,16000,66,72,33,St Joseph'S Hospital - Savannah
9.95,3.26,34.26000,-85.17000,GA,96000,26000,50,67,88,Floyd Medical Center
8.88,2.79,33.96117,-83.39832,GA,85000,21000,50,68,92,Athens Regional Medical Center
8.43,2.86,33.78956,-84.28077,GA,80000,22000,50,83,11,Dekalb Medical Center
6.11,2.94,33.76810,-84.38616,GA,56000,23000,33,45,9,Emory University Hospital Midtown
6.49,2.37,33.90877,-84.35180,GA,60000,17000,50,55,3,Saint Joseph'S Hospital Of Atlanta Inc
8.70,2.61,33.81003,-84.39568,GA,83000,20000,33,57,44,Piedmont Hospital
6.58,2.61,33.96351,-84.01769,GA,61000,20000,50,90,44,Gwinnett Medical Center
7.95,2.49,31.47069,-83.50473,GA,75000,18000,16,80,32,Tift Regional Medical Center
8.78,2.94,32.83041,-83.63476,GA,84000,23000,66,48,44,Medical Center Of Central Georgia
5.43,2.32,32.50679,-84.95933,GA,49000,17000,83,67,69,St Francis Hospital Inc
7.32,2.53,33.85638,-84.60446,GA,69000,19000,50,56,33,Wellstar Cobb Hospital
9.92,3.04,33.57843,-84.38897,GA,95000,24000,50,78,24,Southern Regional Medical Center
9.65,2.45,34.25704,-85.16467,GA,93000,18000,50,87,24,Redmond Regional Medical Center
7.68,2.23,33.45252,-84.50697,GA,72000,16000,50,60,33,Piedmont Fayette Hospital
6.80,3.27,21.30780,-157.85505,HI,63000,26000,66,68,44,The Queens Medical Center
9.92,2.87,21.30226,-157.85092,HI,95000,22000,75,83,16,Straub Clinic And Hospital
3.82,2.47,42.59072,-114.49627,ID,32000,18000,50,63,29,St Lukes Magic Valley Rmc
5.53,2.67,43.61218,-116.19234,ID,50000,20000,66,61,16,St Lukes Regional Medical Center
6.28,2.52,43.61359,-116.25484,ID,58000,19000,66,78,24,St Alphonsus Regional Medical Center
8.06,3.13,42.87331,-112.42180,ID,76000,25000,33,76,39,Portneuf Medical Center
5.52,2.75,47.69645,-116.79476,ID,50000,21000,50,71,48,Kootenai Medical Center
11.76,3.02,41.52896,-88.13550,IL,115000,24000,50,75,82,Provena St Joseph Medical Center
10.88,2.50,41.91082,-87.84451,IL,105000,18000,33,81,57,Loyola Gottlieb Memorial Hospital
9.02,2.90,42.06550,-87.68428,IL,86000,23000,33,55,57,Evanston Hospital
7.05,2.47,40.75318,-89.59321,IL,66000,18000,50,75,56,Proctor Hospital
5.56,2.50,39.93563,-91.39833,IL,50000,18000,50,55,92,Blessing Hospital
9.94,2.95,41.72930,-88.26976,IL,96000,23000,50,90,63,Copley Memorial Hospital
9.16,2.61,42.07012,-88.33180,IL,88000,20000,50,82,24,Sherman Hospital
8.90,2.78,42.05624,-87.74012,IL,85000,21000,50,75,85,Skokie Hospital
9.15,2.88,39.80726,-89.64496,IL,87000,22000,50,58,79,St Johns Hospital
9.39,2.47,41.66900,-87.81414,IL,90000,18000,50,72,95,Palos Community Hospital
12.47,2.59,41.79660,-87.88627,IL,122000,19000,83,63,37,Adventist La Grange Memorial Hospital
12.17,3.04,40.70200,-89.59222,IL,119000,24000,66,57,3,Saint Francis Medical Center
11.42,4.34,42.02578,-87.68371,IL,111000,38000,50,75,37,Rhc St Francis Hospital
12.36,3.70,41.78829,-87.60485,IL,121000,31000,66,66,11,The University Of Chicago Medical Center
12.11,2.93,40.11696,-88.21506,IL,118000,23000,33,63,13,Carle Foundation Hospital
10.99,2.80,40.11739,-88.22714,IL,107000,22000,50,62,21,Provena Covenant Medical Center- Urbana
10.40,2.98,41.97532,-87.69958,IL,100000,23000,50,85,51,Swedish Covenant Hospital
7.59,2.89,42.31832,-88.27920,IL,71000,23000,50,83,24,Centegra Health System - Mc Henry Hospital
8.74,2.77,41.98743,-87.81440,IL,83000,21000,66,62,69,Resurrection Medical Center
11.33,2.79,41.65880,-87.67729,IL,110000,21000,50,65,94,Metrosouth Medical Center
12.49,4.34,41.87497,-87.66927,IL,122000,38000,50,42,33,Rush University Medical Center
8.07,2.43,39.86644,-88.96090,IL,76000,18000,50,60,69,Decatur Memorial Hospital
8.15,2.58,39.80893,-89.65530,IL,77000,19000,83,57,11,Memorial Medical Center
8.57,3.58,41.84639,-87.62345,IL,81000,30000,25,46,39,Mercy Hospital And Medical Center
10.16,2.42,40.48254,-88.95519,IL,98000,18000,50,91,29,St Joseph Medical Center
5.75,2.50,37.72790,-89.22058,IL,52000,18000,50,63,90,Memorial Hospital Of Carbondale
7.82,2.87,41.52283,-87.71111,IL,74000,22000,50,75,33,Franciscan St James Health
13.76,2.70,41.78566,-88.32886,IL,135000,20000,50,72,48,Provena Mercy Medical Center
12.19,2.80,37.74480,-88.99329,IL,119000,22000,50,62,92,Heartland Regional Medical Center
5.22,2.39,38.55020,-90.02146,IL,47000,17000,66,81,21,Memorial Hospital
8.09,3.27,41.12572,-87.88526,IL,76000,26000,50,72,81,Riverside Medical Center
7.06,2.41,38.51081,-89.99014,IL,66000,17000,50,65,6,St Elizabeth Hospital
12.35,2.75,41.86362,-87.93567,IL,121000,21000,50,76,92,Elmhurst Memorial Hospital
10.89,2.70,42.27447,-87.95764,IL,106000,20000,50,70,79,Advocate Condell Medical Center
8.49,3.40,41.72031,-87.73249,IL,81000,28000,50,57,74,Advocate Christ Hospital & Medical Center
11.77,2.65,40.70065,-89.59505,IL,115000,20000,50,78,48,Methodist Medical Center Of Illinois
8.01,3.47,42.03837,-87.84820,IL,76000,28000,83,77,69,Advocate Lutheran General Hospital
11.88,2.77,42.26584,-89.07428,IL,116000,21000,50,65,76,Swedish American Hospital
9.90,2.79,41.76076,-88.15016,IL,95000,21000,50,68,29,Edward Hospital
9.85,2.89,42.26634,-89.00900,IL,95000,23000,50,50,29,Saint Anthony Medical Center
8.54,2.90,42.29844,-89.09897,IL,81000,23000,50,87,56,Rockford Memorial Hospital
12.25,3.25,41.87269,-88.15684,IL,120000,26000,66,62,88,Central Dupage Hospital
7.20,2.44,42.06732,-87.99368,IL,67000,18000,66,67,57,Northwest Community Hospital
10.84,2.74,42.00413,-88.01745,IL,105000,21000,66,78,88,Alexian Brothers Medical Center
7.54,3.31,41.86110,-87.83404,IL,71000,27000,66,46,4,Loyola University Medical Center
6.32,2.46,41.48200,-90.57158,IL,58000,18000,50,58,63,Trinity Rock Island
10.30,3.11,41.89477,-87.62131,IL,99000,25000,50,61,94,Northwestern Memorial Hospital
13.47,3.29,41.81791,-88.00907,IL,132000,27000,50,86,95,Advocate Good Samaritan Hospital
9.55,2.54,42.05260,-88.14173,IL,92000,19000,50,80,57,St Alexius Medical Center
8.28,2.88,42.19586,-88.17286,IL,78000,22000,50,80,95,Advocate Good Shepherd Hospital
8.07,2.82,41.59920,-87.35764,IN,76000,22000,50,65,94,Methodist Hospitals Inc
8.75,2.46,41.61055,-86.72511,IN,83000,18000,0,0,0,Indiana University Health La Porte Hospital
8.03,2.67,40.44665,-86.12707,IN,76000,20000,50,80,54,Howard Regional Health System
5.02,2.47,38.28244,-85.74923,IN,45000,18000,50,83,48,Clark Memorial Hospital
8.09,2.71,41.70877,-86.17026,IN,76000,21000,50,88,57,Saint Joseph Regional Medical Center
5.60,2.54,41.70639,-86.89936,IN,51000,19000,0,0,0,Franciscan St Anthony Health - Michigan City
10.28,2.73,41.03874,-85.24876,IN,99000,21000,66,63,32,Lutheran Hospital Of Indiana
11.19,2.79,41.04659,-85.10906,IN,109000,21000,83,60,44,Parkview Regional Medical Center
5.85,2.52,39.48518,-87.40893,IN,53000,19000,50,62,33,Union Hospital Inc
7.59,2.76,41.56352,-85.83039,IN,71000,21000,25,82,13,Iu Health Goshen Hospital
6.21,2.55,41.51266,-87.26125,IN,57000,19000,50,78,85,St Mary Medical Center Inc
11.31,2.71,41.46729,-87.05130,IN,110000,21000,50,75,63,Porter Valparaiso Hospital
5.65,2.35,38.30195,-85.83409,IN,51000,17000,66,85,85,Floyd Memorial Hospital And Health Services
10.27,2.75,39.41951,-87.40898,IN,99000,21000,50,92,9,Terre Haute Regional Hospital
5.38,2.73,39.86405,-84.88413,IN,48000,21000,100,63,27,Reid Hospital & Health Care Services
7.52,2.68,39.16006,-86.54038,IN,71000,20000,50,56,24,Indiana University Health Bloomington Hospital
9.83,3.45,39.79009,-86.16260,IN,95000,28000,50,51,79,Indiana University Health
10.56,2.76,41.68479,-86.25217,IN,102000,21000,66,60,8,Memorial Hospital Of South Bend
6.05,2.48,40.04526,-86.02297,IN,55000,18000,50,88,82,Riverview Hospital
6.62,2.43,37.98293,-87.57072,IN,61000,18000,83,66,13,Deaconess Hospital Inc
7.82,2.88,39.91001,-86.19660,IN,74000,22000,66,47,88,St Vincent Hospital & Health Services
8.00,2.70,40.19679,-85.41573,IN,76000,20000,66,62,85,Indiana University Health Ball Memorial Hospital
6.40,2.37,37.96320,-87.50292,IN,59000,17000,66,67,32,St Mary'S Medical Center Of Evansville Inc
5.26,2.80,39.21585,-85.89683,IN,47000,22000,50,76,95,Columbus Regional Hospital
6.45,2.53,41.55065,-87.50619,IN,59000,19000,50,75,85,Community Hospital
6.96,2.55,41.39576,-87.36689,IN,65000,19000,50,83,51,Franciscan St Anthony Health - Crown Point
8.32,2.36,39.94017,-86.15975,IN,79000,17000,50,81,94,St Vincent Heart Center Of Indiana Llc
7.75,2.73,39.90201,-86.04478,IN,73000,21000,0,0,0,Indiana Heart Hospital The
6.41,2.55,39.64935,-86.07960,IN,59000,19000,66,80,90,Franciscan St Francis Health - Indianapolis
7.85,2.65,40.40296,-86.80885,IN,74000,20000,50,83,97,Indiana University Health Arnett Hospital
7.94,2.87,41.66411,-91.52841,IA,75000,22000,50,65,48,Mercy Hospital
10.02,2.71,41.54190,-90.55691,IA,96000,21000,66,58,97,Genesis Medical Center-Davenport
7.87,2.49,41.98570,-91.66093,IA,74000,18000,66,75,90,St Lukes Hospital
7.83,3.31,41.66092,-91.54800,IA,74000,27000,16,38,63,University Of Iowa Hospital & Clinics
6.29,2.56,43.15063,-93.21718,IA,58000,19000,50,82,63,Mercy Medical Center-North Iowa
5.84,2.40,42.46407,-92.34532,IA,53000,17000,0,0,0,Covenant Medical Center
6.79,2.24,42.49227,-90.67404,IA,63000,16000,50,75,95,Mercy Medical Center-Dubuque
7.85,2.36,41.97864,-91.65507,IA,74000,17000,50,80,99,Mercy Medical Center - Cedar Rapids
8.43,2.62,41.58955,-93.63248,IA,80000,20000,66,37,82,Iowa Methodist Medical Center
7.07,2.61,41.59886,-93.62344,IA,66000,20000,83,75,29,Mercy Medical Center-Des Moines
4.81,2.40,42.52665,-92.33957,IA,42000,17000,50,81,6,Allen Memorial Hospital
5.84,2.35,42.49250,-96.39975,IA,53000,17000,66,71,54,Mercy Medical Center-Sioux City
7.22,2.51,38.83324,-97.61028,KS,67000,19000,50,85,27,Salina Regional Health Center
7.11,2.89,38.87847,-99.29923,KS,66000,22000,50,58,11,Hays Medical Center
8.00,2.51,39.05660,-95.69599,KS,76000,19000,33,51,33,St Francis Health Center Inc
8.27,2.93,38.07731,-97.89183,KS,78000,23000,50,80,90,Hutchinson Regional Medical Center Inc
8.29,2.85,39.05583,-94.60912,KS,79000,22000,66,53,63,University Of Kansas Hospital
5.06,2.34,38.85279,-94.82413,KS,45000,17000,50,58,62,Olathe Medical Center
13.02,3.19,39.05128,-95.69572,KS,128000,26000,66,71,10,Stormont-Vail Healthcare
8.84,2.54,38.99549,-94.69061,KS,84000,19000,66,46,21,Shawnee Mission Medical Center
8.34,2.54,37.70405,-97.31386,KS,79000,19000,66,68,21,Via Christi Hospitals Wichita Inc
10.35,2.60,37.69556,-97.29785,KS,100000,19000,66,52,5,Wesley Medical Center
10.75,2.40,38.91047,-94.65205,KS,104000,17000,50,66,11,Menorah Medical Center
4.59,2.31,37.74995,-97.22652,KS,40000,16000,0,0,0,Kansas Heart Hospital
4.16,2.26,37.73142,-97.26078,KS,36000,16000,0,0,0,Galichia Heart Hospital Llc
8.42,2.36,38.93265,-94.65100,KS,80000,17000,0,0,0,Heartland Surgical Spec Hospital
4.88,2.25,37.72341,-97.14628,KS,43000,16000,0,0,0,Kansas Medical Center Llc
5.55,2.57,38.47021,-82.63498,KY,50000,19000,66,60,54,King'S Daughters' Medical Center
5.32,2.32,38.03140,-84.52194,KY,48000,17000,83,67,79,Saint Joseph Hospital
5.93,2.58,37.11784,-84.10910,KY,54000,19000,50,75,63,Saint Joseph Hospital London
4.09,2.44,37.71183,-85.87623,KY,35000,18000,83,78,39,Hardin Memorial Hospital
6.12,2.77,36.99641,-86.43006,KY,56000,21000,66,52,33,The Medical Center At Bowling Green
6.71,2.60,39.06704,-84.49946,KY,62000,19000,33,58,79,St Elizabeth Medical Center North
7.78,3.22,37.76518,-87.10197,KY,73000,26000,50,66,29,Owensboro Medical Health System
9.42,2.80,38.24927,-85.75081,KY,90000,22000,66,51,8,Jewish Hospital & St Mary'S Healthcare
8.34,2.88,37.47264,-82.52605,KY,79000,22000,75,86,9,Pikeville Medical Center
6.82,2.73,37.64378,-84.77272,KY,63000,21000,0,0,0,Ephraim Mcdowell Regional Medical Center
8.90,3.41,38.03282,-84.50674,KY,85000,28000,33,62,33,University Of Kentucky Hospital
9.98,2.82,38.24806,-85.75125,KY,96000,22000,50,35,39,Norton Hospitals Inc
6.17,2.48,37.33959,-87.48988,KY,57000,18000,50,86,17,Regional Medical Center Of Hopkins County
6.51,2.41,37.06431,-88.67523,KY,60000,18000,50,42,20,Lourdes Hospital
8.90,2.62,38.01849,-84.51236,KY,85000,20000,50,71,57,Central Baptist Hospital
7.54,2.32,37.07404,-88.62685,KY,71000,17000,50,80,39,Western Baptist Hospital
6.66,2.34,38.23898,-85.63941,KY,62000,17000,66,57,74,Baptist Hospital East
9.55,2.60,37.08724,-84.61828,KY,92000,19000,66,60,17,Lake Cumberland Regional Hospital
7.74,3.00,30.20227,-92.01906,LA,73000,24000,50,73,29,Lafayette General Medical Center
6.99,2.29,29.77956,-90.80568,LA,65000,16000,50,73,92,Thibodaux Regional Medical Center
8.69,2.68,29.59851,-90.71397,LA,83000,20000,25,68,69,Terrebonne General Medical Center
13.14,2.98,30.46813,-90.45814,LA,129000,23000,75,71,74,North Oaks Medical Center Llc
5.96,2.64,30.54354,-92.07608,LA,54000,20000,33,73,3,Opelousas General Health System
7.97,2.39,31.28258,-92.46060,LA,75000,17000,50,65,79,Christus St Frances Cabrini Hospital
9.27,2.59,31.31451,-92.44997,LA,89000,19000,66,40,39,Rapides Regional Medical Center
10.08,2.40,30.21521,-93.22682,LA,97000,17000,50,63,63,Christus St Patrick Hospital
9.91,2.77,30.01875,-90.19452,LA,95000,21000,66,61,62,Ochsner Foundation Hospital
8.90,2.61,29.89089,-90.09395,LA,85000,20000,50,65,85,West Jefferson Medical Center
10.19,2.59,32.49443,-93.75011,LA,98000,19000,50,68,13,Christus Schumpert Health System
12.93,2.81,30.46834,-90.11383,LA,127000,22000,50,70,8,St Tammany Parish Hospital
7.82,2.59,30.20458,-93.19774,LA,74000,19000,50,80,6,Lake Charles Memorial Hospital
5.79,2.54,30.40118,-91.11160,LA,53000,19000,83,51,33,Our Lady Of The Lake Regional Medical Center
6.21,2.85,30.45015,-91.15273,LA,57000,22000,33,76,37,Baton Rouge General Medical Center
8.13,2.49,30.15052,-92.03698,LA,77000,18000,50,71,57,Our Lady Of Lourdes Regional Medical Center Inc
7.00,2.46,32.48393,-93.77884,LA,65000,18000,50,63,62,Willis Knighton Medical Center
6.95,2.60,32.49997,-92.11359,LA,65000,19000,66,62,98,St Francis Medical Center
7.97,2.61,30.01438,-90.18155,LA,75000,20000,66,68,74,East Jefferson General Hospital
10.30,2.42,32.51315,-92.15713,LA,99000,18000,0,0,0,Glenwood Regional Medical Center
13.54,2.50,30.47547,-90.10091,LA,133000,18000,50,67,37,Lakeview Regional Medical Center
10.71,2.68,30.19775,-92.07724,LA,104000,20000,50,88,74,The Regional Medical Center Of Acadiana
7.06,2.30,30.35437,-89.91917,LA,66000,16000,50,86,54,Louisiana Medical Center And Heart Hospital Llc
5.48,2.23,30.17316,-92.02697,LA,49000,16000,0,0,0,Heart Hospital Of Lafayette
6.27,2.93,43.65325,-70.27533,ME,58000,23000,16,47,0,Maine Medical Center
5.02,2.57,44.10107,-70.21432,ME,45000,19000,66,70,57,Central Maine Medical Center
5.01,2.75,44.80988,-68.74929,ME,45000,21000,50,58,37,Eastern Maine Medical Center
3.42,3.29,39.62183,-77.68219,MD,28000,27000,0,0,0,Meritus Medical Center
6.30,5.99,39.28817,-76.62438,MD,58000,55000,0,0,0,University Of Maryland Medical Center
3.21,3.06,39.01578,-77.03591,MD,26000,24000,0,0,0,Holy Cross Hospital
3.66,3.48,39.42366,-77.41386,MD,30000,29000,0,0,0,Frederick Memorial Hospital
3.52,3.35,39.38813,-76.61068,MD,29000,27000,0,0,0,Saint Joseph Medical Center
4.87,4.62,39.29297,-76.61314,MD,43000,40000,0,0,0,Mercy Medical Center Inc
4.45,4.23,39.29688,-76.59242,MD,39000,36000,0,0,0,Johns Hopkins Hospital The
3.52,3.35,39.27352,-76.67219,MD,29000,27000,0,0,0,Saint Agnes Hospital
3.18,3.04,39.35169,-76.47919,MD,25000,24000,0,0,0,Franklin Square Hospital Center
3.28,3.13,38.98482,-77.00139,MD,27000,25000,0,0,0,Washington Adventist Hospital
3.92,3.73,38.36248,-75.59799,MD,33000,31000,0,0,0,Peninsula Regional Medical Center
4.03,3.85,38.99743,-77.11048,MD,34000,32000,0,0,0,Suburban Hospital
2.89,2.77,38.99014,-76.53398,MD,22000,21000,0,0,0,Anne Arundel Medical Center
4.10,3.91,39.32930,-76.61432,MD,35000,33000,0,0,0,Union Memorial Hospital
4.70,4.50,39.64928,-78.73206,MD,41000,39000,0,0,0,Western Maryland Regional Medical Center
4.09,3.91,39.29100,-76.54623,MD,35000,33000,0,0,0,Johns Hopkins Bayview Medical Center
5.00,4.74,39.55808,-76.99107,MD,44000,42000,0,0,0,Carroll Hospital Center
3.37,3.23,39.13732,-76.62228,MD,27000,26000,0,0,0,Baltimore Washington  Medical Center
3.77,3.60,39.39017,-76.62216,MD,32000,30000,0,0,0,Greater Baltimore Medical Center
3.25,3.10,39.21273,-76.88526,MD,26000,25000,0,0,0,Howard County General Hospital
3.06,2.93,39.51870,-76.34688,MD,24000,23000,0,0,0,Upper Chesapeake Medical Center
3.56,3.39,38.74827,-76.87590,MD,29000,28000,0,0,0,Southern Maryland Hospital Center
3.07,2.93,39.35962,-76.58851,MD,24000,23000,0,0,0,Good Samaritan Hospital
4.28,4.08,39.09796,-77.19799,MD,37000,35000,0,0,0,Shady Grove Adventist Hospital
6.06,3.26,41.65298,-70.27484,MA,55000,26000,50,56,95,Cape Cod Hospital
5.16,4.14,42.35843,-71.05977,MA,46000,35000,66,51,0,Boston Medical Center Corporation
8.09,3.11,42.51078,-70.90712,MA,76000,25000,33,47,69,North Shore Medical Center
6.48,3.68,42.34896,-71.14768,MA,60000,31000,50,68,57,St Elizabeth'S Medical Center
6.61,3.50,51.46599,-1.28140,MA,61000,29000,50,76,20,Berkshire Medical Center Inc
6.65,3.02,42.64636,-71.34118,MA,61000,24000,50,87,95,Lowell General Hospital
5.82,3.04,42.46049,-71.06203,MA,53000,24000,50,52,76,Hallmark Health System
11.42,3.74,42.36227,-71.06941,MA,111000,31000,50,43,16,Massachusetts General Hospital
6.94,2.83,41.70928,-71.14519,MA,65000,22000,25,51,88,Southcoast Hospital Group Inc
6.51,3.28,42.12077,-72.60525,MA,60000,27000,33,61,82,Baystate Medical Center
4.66,2.74,42.72846,-71.16830,MA,41000,21000,50,73,33,Holy Family Hospital
6.88,2.85,42.64529,-71.30052,MA,64000,22000,0,0,0,Saints  Medical Center Inc
4.78,2.62,42.43082,-71.37554,MA,42000,20000,50,43,57,Emerson Hospital
6.07,3.65,42.33719,-71.10939,MA,55000,30000,33,71,33,Beth Israel Deaconess Medical Center
3.73,2.42,42.17644,-70.95398,MA,31000,18000,66,70,48,South Shore Hospital
4.01,2.61,42.46581,-71.12210,MA,34000,20000,50,58,24,Winchester Hospital
11.25,3.55,42.33600,-71.10704,MA,109000,29000,66,40,20,Brigham And Women'S Hospital
6.18,2.93,42.09864,-71.06607,MA,57000,23000,50,58,92,Good Samaritan Medical Center
7.75,3.86,42.34951,-71.06331,MA,73000,33000,50,63,85,Tufts Medical Center
5.97,2.78,41.56412,-70.62200,MA,54000,21000,50,68,94,Falmouth Hospital
7.14,3.55,42.27720,-71.75922,MA,67000,29000,50,36,29,Umass Memorial Medical Center Inc
4.24,2.95,42.48585,-71.20686,MA,37000,23000,66,76,16,Lahey Clinic Hospital
5.02,2.86,42.28385,-71.41896,MA,45000,22000,50,76,85,Metrowest Medical Center
3.76,3.10,42.26633,-71.79760,MA,31000,25000,33,75,57,St Vincent Hospital
5.77,2.46,42.39466,-83.40537,MI,52000,18000,50,60,63,St Mary Mercy Hospital
4.29,2.59,43.20588,-86.20839,MI,37000,19000,50,76,57,Mercy Health Partners Mercy Campus
6.36,2.96,42.28551,-85.58042,MI,59000,23000,66,82,13,Bronson Methodist Hospital
6.53,2.88,42.45741,-83.20513,MI,60000,22000,83,57,48,Providence Hospital And Medical Centers
8.67,3.20,42.29077,-83.21504,MI,82000,26000,33,48,69,Oakwood Hospital And Medical Center
6.45,3.06,42.08955,-86.47781,MI,59000,24000,33,68,88,Lakeland Hospital St Joseph
7.74,2.95,42.61425,-83.27602,MI,73000,23000,66,52,79,St Joseph Mercy Oakland
5.85,2.97,42.96881,-85.66649,MI,53000,23000,33,66,82,Spectrum Health - Butterworth Campus
5.13,2.42,43.58941,-83.86908,MI,46000,18000,33,55,98,Mclaren Bay Region
8.80,3.65,42.28388,-83.72960,MI,84000,30000,50,61,43,University Of Michigan Health System
6.15,2.55,42.61490,-82.96060,MI,56000,19000,50,66,54,Henry Ford Macomb Hospital
9.90,3.52,42.36762,-83.08461,MI,95000,29000,66,47,8,Henry Ford Hospital
5.57,2.59,43.42857,-83.95556,MI,50000,19000,83,61,63,Covenant Medical Center Inc
6.86,2.58,42.33111,-85.17817,MI,64000,19000,50,83,63,Bronson Battle Creek Hospital
6.19,2.65,43.42612,-83.94185,MI,57000,20000,66,63,57,St Mary'S Of Michigan Medical Center
7.90,2.75,42.38392,-82.91480,MI,74000,21000,50,62,51,Beaumont Hospital Grosse Pointe
6.80,2.49,42.25117,-84.39240,MI,63000,18000,50,85,98,Allegiance Health
5.96,2.85,44.76156,-85.64143,MI,54000,22000,50,41,57,Munson Medical Center
7.44,3.77,42.35230,-83.05676,MI,70000,32000,66,62,63,Harper University Hospital
5.98,2.76,45.37209,-84.97065,MI,55000,21000,50,77,24,Northern Michigan Regional Hospital
7.95,2.78,42.30489,-85.56152,MI,75000,21000,66,47,76,Borgess Medical Center
6.02,2.87,42.51418,-83.19259,MI,55000,22000,66,60,16,William Beaumont Hospital
8.88,2.89,43.01399,-83.73250,MI,85000,23000,50,60,33,Mclaren Flint
5.48,3.15,42.46176,-83.37629,MI,49000,25000,50,78,24,Botsford Hospital
6.20,2.78,42.26181,-83.66003,MI,57000,21000,66,62,33,St Joseph Mercy Hospital
6.76,3.06,42.41975,-82.91442,MI,63000,24000,66,72,9,St John Hospital And Medical Center
6.48,2.72,42.70417,-84.55488,MI,60000,21000,33,76,21,Mclaren - Greater Lansing
9.03,2.61,42.11695,-83.21365,MI,86000,20000,33,70,79,Oakwood Southshore Medical Center
7.06,2.68,42.50514,-83.00422,MI,66000,20000,66,56,85,St John Macomb-Oakland Hospital-Macomb Center
6.41,2.95,42.89254,-83.63621,MI,59000,23000,66,70,13,Genesys Regional Medical Center - Health Park
6.64,2.73,43.63618,-84.26187,MI,61000,21000,50,72,69,Midmichigan Medical Center-Midland
7.31,2.71,42.58900,-82.89799,MI,68000,21000,66,61,63,Mount Clemens Regional Medical Center
8.11,3.01,42.73767,-84.51698,MI,77000,24000,83,68,1,Edward W Sparrow Hospital
7.21,3.33,42.85736,-85.71774,MI,67000,27000,50,66,48,Metro Health Hospital
6.06,2.73,42.33215,-83.31195,MI,55000,21000,50,82,37,Garden City Hospital
6.50,2.61,42.61826,-83.09239,MI,60000,20000,83,60,62,William Beaumont Hospital-Troy
6.98,2.95,42.59290,-83.49920,MI,65000,23000,66,48,54,Huron Valley-Sinai Hospital
10.33,2.73,45.01403,-93.32177,MN,100000,21000,66,68,82,North Memorial Medical Center
7.74,2.75,46.79380,-92.09573,MN,73000,21000,83,75,79,Essentia Health St Mary'S Medical Center
6.97,3.21,44.02052,-92.48292,MN,65000,26000,83,42,32,Mayo Clinic - Saint Marys Hospital
7.34,3.01,45.57390,-94.16942,MN,69000,24000,50,61,37,St Cloud Hospital
10.83,2.73,44.94214,-93.10858,MN,105000,21000,50,86,33,United Hospital
7.50,2.69,46.79634,-92.08793,MN,70000,20000,50,71,29,St Lukes Hospital
4.80,2.70,44.93031,-93.36276,MN,42000,20000,66,72,94,Park Nicollet Methodist Hospital
9.29,2.79,44.95248,-93.26196,MN,89000,21000,50,70,63,Abbott Northwestern Hospital
8.68,2.69,44.94898,-93.10016,MN,83000,20000,33,66,57,St Joseph'S Hospital
6.65,2.69,44.88645,-93.32693,MN,62000,20000,66,62,94,Fairview Southdale Hospital
7.07,3.54,44.96766,-93.23640,MN,66000,29000,66,56,57,University Of Minnesota  Medical Center Fairview
7.23,2.68,47.50390,-94.89776,MN,67000,20000,0,0,0,Sanford Bemidji Medical Center
10.02,3.25,44.95570,-93.09429,MN,96000,26000,50,78,17,Regions Hospital
8.54,2.79,45.18355,-93.36789,MN,81000,21000,50,73,95,Mercy Hospital
8.47,3.25,32.33069,-90.17030,MS,80000,26000,66,51,6,University Of Mississippi Med Center
5.49,2.55,34.24336,-88.71753,MS,49000,19000,66,61,48,North Mississippi Medical Center
6.69,2.44,34.93596,-88.55955,MS,62000,18000,50,72,79,Magnolia Regional Health Center
11.14,2.77,30.36674,-89.11535,MS,108000,21000,50,66,69,Memorial Hospital At Gulfport
5.14,2.50,34.34899,-89.52062,MS,46000,18000,50,68,24,Baptist Memorial Hospital North Ms
10.80,2.70,30.37516,-88.53226,MS,105000,21000,50,70,3,Singing River Hospital
5.94,2.44,32.33616,-90.15652,MS,54000,18000,50,60,44,St Dominic-Jackson Memorial Hospital
3.93,2.42,31.69405,-89.13061,MS,33000,18000,50,72,16,South Central Reg Med Ctr
5.71,2.55,32.36983,-88.69702,MS,52000,19000,50,83,4,Rush Foundation Hospital
6.08,2.59,31.31872,-89.32955,MS,56000,19000,50,57,54,Forrest General Hospital
8.73,2.58,31.32573,-89.36670,MS,83000,19000,50,56,20,Wesley Medical Center
5.04,2.58,31.24000,-90.45000,MS,45000,19000,50,83,81,Southwest Ms Regional Medical Center
5.97,2.30,32.31643,-90.17922,MS,54000,16000,66,43,85,Mississippi Baptist Medical Center
9.13,2.47,32.37280,-88.69954,MS,87000,18000,50,77,39,Anderson Regional Medical Center
6.01,2.71,34.96927,-89.99709,MS,55000,21000,50,68,11,Baptist Memorial Hospital Desoto
4.84,2.37,37.06032,-94.52747,MO,43000,17000,0,0,0,St John'S Regional Medical Center
5.95,2.48,38.78060,-90.48379,MO,54000,18000,50,76,37,Ssm St Joseph Health Center
6.73,3.31,39.77393,-94.77089,MO,62000,27000,50,58,51,Heartland Regional Medical Center
5.18,2.24,38.57670,-92.17352,MO,46000,16000,50,86,0,St Marys Health Center
6.28,2.46,38.64281,-90.44448,MO,58000,18000,83,57,74,Mercy Hospital St Louis
4.96,2.36,38.16498,-90.38082,MO,44000,17000,50,83,82,Jefferson Regional Medical Center
11.11,2.90,39.00717,-94.55925,MO,108000,23000,33,82,5,Research Medical Center
6.35,3.06,38.63524,-90.26508,MO,58000,24000,50,56,12,Barnes Jewish Hospital
7.45,2.51,37.14560,-93.28037,MO,70000,19000,50,61,85,Cox Medical Center
5.27,2.60,38.56571,-92.18204,MO,47000,19000,50,83,57,Capital Region Medical Center
8.28,2.56,37.17999,-93.27409,MO,78000,19000,66,61,24,St John'S Regional Health Center
5.18,2.23,38.94903,-92.31563,MO,46000,16000,66,73,43,Boone Hospital Center
5.80,2.37,38.50661,-90.38025,MO,53000,17000,66,57,13,St Anthony'S Medical Center
4.91,2.41,38.52738,-90.47501,MO,43000,17000,50,65,44,Ssm St Clare Health Center
7.69,2.48,38.93592,-94.60376,MO,72000,18000,50,75,88,St Joseph Medical Center
9.95,2.41,39.04749,-94.34105,MO,96000,18000,50,72,39,Centerpoint Medical Center Of Independence Llc
7.17,2.47,39.14957,-94.55148,MO,67000,18000,50,58,63,North Kansas City Hospital
12.22,3.39,38.62280,-90.24049,MO,119000,28000,50,46,5,St Louis University Hospital
6.25,2.42,38.63702,-90.44699,MO,57000,18000,66,68,48,Missouri Baptist Medical Center
13.10,2.74,37.31072,-89.53990,MO,129000,21000,50,72,8,Southeast Missouri Hospital
13.20,2.90,36.78510,-90.42779,MO,130000,23000,50,60,39,Poplar Bluff Regional Medical Center
7.46,2.58,37.05238,-94.52777,MO,70000,19000,83,67,85,Freeman Health System - Freeman West
9.43,2.80,39.04761,-94.59037,MO,90000,22000,66,50,17,St Lukes Hospital Of Kansas City
7.54,3.09,38.95171,-92.33407,MO,71000,25000,66,60,63,University Of Missouri Health Care
10.09,2.53,38.58103,-90.45144,MO,97000,19000,50,70,43,Des Peres Hospital
6.98,2.46,39.27591,-94.42572,MO,65000,18000,33,60,33,Liberty Hospital
5.36,2.51,38.65123,-90.50301,MO,48000,19000,66,67,12,St Lukes Hospital
9.94,2.57,37.30401,-89.57190,MO,96000,19000,50,65,11,St Francis Medical Center
5.96,2.67,45.78958,-108.51283,MT,54000,20000,50,86,88,Billings Clinic Hospital
8.73,2.99,47.49139,-111.26255,MT,83000,24000,50,61,57,Benefis Hospitals Inc
5.31,2.39,46.87545,-114.00033,MT,48000,17000,50,77,69,St Patrick Hospital
8.86,2.98,45.79337,-108.51928,MT,84000,23000,50,81,54,St Vincent Healthcare
6.14,2.87,48.21465,-114.32386,MT,56000,22000,50,83,57,Kalispell Regional Medical Center
8.99,2.88,40.78318,-96.63709,NE,86000,22000,66,70,63,Bryanlgh Medical Center
5.70,2.83,40.70646,-99.08136,NE,52000,22000,50,68,51,Good Samaritan Hospital
7.84,3.08,41.25522,-95.97892,NE,74000,24000,50,52,51,The Nebraska Medical Center
5.08,2.48,40.80816,-96.62689,NE,45000,18000,50,66,20,Saint Elizabeth Regional Medical Center
5.70,2.48,41.25797,-96.04164,NE,52000,18000,50,73,33,The Nebraska Methodist Hospital
7.69,2.75,41.23897,-96.03162,NE,72000,21000,50,46,82,Alegent Health Bergan Mercy Medical Center
10.04,3.03,41.88690,-103.66400,NE,97000,24000,50,58,85,Regional West Medical Center
3.77,2.37,40.73657,-96.59332,NE,32000,17000,0,0,0,Nebraska Heart Hospital
7.24,2.68,39.52637,-119.79456,NV,68000,20000,50,66,17,Renown Regional Medical Center
15.38,3.14,36.13459,-115.13576,NV,152000,25000,66,68,9,Sunrise Hospital And Medical Center
9.48,2.50,39.53066,-119.82067,NV,91000,18000,66,76,44,Saint Mary'S Regional Medical Center
8.40,2.97,39.20247,-119.78446,NV,80000,23000,50,56,69,Carson Tahoe Regional Medical Center
15.24,3.30,36.16380,-115.16574,NV,151000,27000,66,70,54,Valley Hospital Medical Center
12.06,2.53,36.11363,-115.12573,NV,118000,19000,83,70,63,Desert Springs Hospital
13.36,2.87,36.21599,-115.25095,NV,131000,22000,66,57,13,Mountainview Hospital
12.62,2.72,36.16586,-115.32436,NV,124000,21000,83,72,27,Summerlin Hospital Medical Center
14.27,2.76,36.09056,-115.24058,NV,141000,21000,66,78,12,Spring Valley Hospital Medical Center
14.59,2.93,36.05712,-115.27116,NV,144000,23000,50,78,18,Saint Rose Dominican Hospital - San Martin Campus
9.30,2.95,43.19846,-71.56230,NH,89000,23000,33,63,94,Concord Hospital
6.52,3.38,43.67286,-72.27232,NH,60000,28000,50,38,0,Mary Hitchcock Memorial Hospital
9.48,3.31,43.52835,-71.46291,NH,91000,27000,0,0,0,Lakes Region General Hospital
5.42,2.62,43.00792,-71.46807,NH,49000,20000,50,57,21,Elliot Hospital
7.81,2.65,43.21231,-70.87499,NH,74000,20000,50,73,3,Wentworth-Douglass Hospital
4.73,2.27,42.98369,-70.93511,NH,42000,16000,0,0,0,Exeter Hospital Inc
10.49,2.78,43.06469,-70.78916,NH,101000,21000,50,76,48,Portsmouth Regional Hospital
9.37,2.64,42.99121,-71.47426,NH,90000,20000,33,63,92,Catholic Medical Center
10.47,3.03,40.88346,-74.05564,NJ,101000,24000,50,58,85,Hackensack University Medical Center
11.03,3.76,40.71011,-74.21368,NJ,107000,31000,66,56,11,Newark Beth Israel Medical Center
7.78,2.74,40.88275,-74.01021,NJ,73000,21000,66,67,57,Holy Name Medical Center
7.92,2.90,40.78556,-74.17598,NJ,75000,23000,66,83,95,Clara Maass Medical Center
9.74,2.74,40.35684,-74.66166,NJ,94000,21000,50,56,21,University Medical Center At Princeton
8.45,2.88,40.98359,-74.10047,NJ,80000,22000,50,78,21,Valley Hospital
13.14,3.45,39.94152,-75.11680,NJ,129000,28000,66,42,2,Cooper University Hospital
8.85,3.04,40.78883,-74.46620,NJ,84000,24000,66,43,39,Morristown Memorial Hospital
6.60,2.72,40.95858,-74.31000,NJ,61000,21000,50,62,1,Chilton Hospital
10.29,3.41,40.90215,-74.16634,NJ,99000,28000,16,53,94,St Joseph'S Regional Medical Center
11.55,2.71,39.78261,-74.91670,NJ,112000,21000,50,52,74,Virtua West Jersey Hospitals Berlin
25.10,3.23,39.92695,-75.09537,NJ,253000,26000,50,70,10,Our Lady Of Lourdes Medical Center
13.09,2.89,39.97776,-74.58456,NJ,128000,22000,50,65,87,Deborah Heart And Lung Center
9.60,2.53,40.35309,-74.06484,NJ,92000,19000,33,61,69,Riverview Medical Center
10.17,3.18,40.49581,-74.44980,NJ,98000,25000,66,51,1,Robert Wood Johnson University Hospital
8.65,2.46,39.96484,-74.21708,NJ,82000,18000,50,47,88,Community Medical Center
8.73,2.91,40.90400,-73.96847,NJ,83000,23000,66,81,54,Englewood Hospital And Medical Center
11.34,2.61,39.31464,-74.59391,NJ,110000,20000,16,72,82,Shore Medical Center
8.94,2.56,40.56804,-74.59579,NJ,85000,19000,50,67,29,Somerset Medical Center
7.00,2.92,40.71264,-74.35460,NJ,65000,23000,50,52,57,Overlook Hospital
7.90,2.54,40.07832,-74.13009,NJ,75000,19000,50,57,48,Ocean Medical Center
10.92,3.04,40.81058,-74.20459,NJ,106000,24000,50,68,43,Mountainside Hospital
12.83,2.59,39.98588,-74.79393,NJ,126000,19000,66,55,54,Virtua Memorial Hospital Of Burlington County
16.18,2.83,39.35775,-74.43449,NJ,160000,22000,66,65,88,Atlanticare Regional Medical Center - City Div
11.06,3.22,40.50214,-74.46015,NJ,107000,26000,50,53,29,Saint Peter'S University Hospital
10.23,2.76,40.21065,-74.03566,NJ,99000,21000,50,58,6,Jersey Shore University Medical Center
10.83,3.07,40.29563,-73.98518,NJ,105000,24000,50,50,85,Monmouth Medical Center
7.73,3.11,40.76190,-74.30335,NJ,73000,25000,83,53,2,Saint Barnabas Medical Center
9.27,2.61,39.84392,-75.14985,NJ,89000,20000,50,70,33,Underwood - Memorial Hospital
8.58,2.98,39.82811,-75.00895,NJ,82000,23000,66,60,69,Kennedy University Hospital - Stratford Div
8.59,2.81,40.55784,-74.34970,NJ,82000,22000,50,71,57,Jfk Medical Ctr - Anthony M. Yelencsics Community
6.78,2.61,40.23861,-74.31289,NJ,63000,20000,33,68,13,Centrastate Medical Center
6.84,3.57,35.08838,-106.61590,NM,64000,30000,83,46,11,Unm Hospital
9.11,2.89,35.08603,-106.63950,NM,87000,22000,66,62,54,Lovelace Medical Center
8.53,2.67,32.29186,-106.73470,NM,81000,20000,50,63,3,Memorial Medical Center Inc
7.99,2.93,35.08102,-106.63392,NM,75000,23000,33,51,3,Presbyterian Hospital
8.64,2.53,35.08729,-106.63687,NM,82000,19000,0,0,0,Heart Hospital Of New Mexico
11.87,3.00,32.32310,-106.72900,NM,116000,24000,50,68,16,Mountain View Regional Medical Center
7.24,3.15,42.87482,-78.84942,NY,68000,25000,33,45,8,Kaleida Health
6.72,2.56,42.09299,-75.93704,NY,62000,19000,50,73,99,Our Lady Of Lourdes Memorial Hospital Inc
7.11,3.00,42.65345,-73.77543,NY,66000,24000,66,60,63,Albany Medical Center Hospital
8.29,2.90,41.69441,-73.93432,NY,79000,23000,83,82,54,Vassar Brothers Medical Center
5.47,4.00,40.79041,-73.95386,NY,49000,34000,83,38,5,Mount Sinai Hospital
6.92,2.94,40.72567,-73.24189,NY,64000,23000,50,58,37,Southside Hospital
6.77,2.44,43.09840,-75.27819,NY,63000,18000,50,60,17,Faxton-St Luke'S Healthcare
6.98,2.73,40.87946,-73.41621,NY,65000,21000,50,66,39,Huntington Hospital
5.23,3.97,40.80556,-73.96131,NY,47000,34000,33,56,5,St Luke'S Roosevelt Hospital
5.32,3.59,40.74722,-73.82521,NY,48000,30000,66,63,79,New York Hospital Medical Center Of Queens
7.11,2.28,42.65583,-73.80372,NY,66000,16000,33,47,54,St Peter'S Hospital
8.53,4.22,40.87987,-73.87996,NY,81000,36000,50,38,44,Montefiore Medical Center
4.55,2.62,42.92866,-78.84819,NY,40000,20000,50,55,29,Sisters Of Charity Hospital
4.98,2.48,42.10076,-76.82800,NY,44000,18000,50,65,33,Arnot Ogden Medical Center
6.64,4.05,40.76487,-73.95398,NY,61000,35000,33,32,74,New York-Presbyterian Hospital
10.40,3.76,40.77686,-73.70212,NY,100000,31000,33,61,69,North Shore University Hospital
8.92,3.53,40.77362,-73.96093,NY,85000,29000,33,46,11,Lenox Hill Hospital
6.26,2.70,43.19244,-77.58590,NY,58000,21000,66,46,17,Rochester General Hospital
5.68,3.33,42.69590,-74.92278,NY,51000,27000,50,83,76,Mary Imogene Bassett Hospital
5.22,2.67,43.05571,-76.14981,NY,47000,20000,83,37,20,St Joseph'S Hospital Health Center
12.11,3.02,41.11299,-74.13732,NY,118000,24000,66,82,82,Good Samaritan Hospital Of Suffern
8.55,3.47,40.58440,-74.08507,NY,81000,29000,66,71,37,Staten Island University Hospital
9.39,3.45,40.74083,-73.64306,NY,90000,28000,66,50,74,Winthrop-University Hospital
9.56,4.06,40.73265,-73.98162,NY,92000,35000,50,60,39,Beth Israel Medical Center
9.06,2.96,40.80462,-73.67023,NY,87000,23000,83,72,94,St Francis Hospital Roslyn
8.54,2.67,40.94000,-73.05510,NY,81000,20000,50,63,63,John T Mather Memorial Hospital  Of Port Jefferson
8.01,4.37,40.63937,-73.99851,NY,76000,38000,50,45,54,Maimonides Medical Center
9.99,3.96,40.75332,-73.70899,NY,96000,34000,50,45,90,Long Island Jewish Medical Center
5.27,2.90,43.04139,-76.13803,NY,47000,23000,50,41,1,Crouse Hospital
12.80,3.76,40.74335,-73.97408,NY,125000,32000,33,63,21,Nyu Hospitals Center
4.52,2.62,41.92101,-74.00007,NY,39000,20000,0,0,0,Benedictine Hospital
4.38,2.53,43.19054,-77.70177,NY,38000,19000,50,45,82,Unity Hospital Of Rochester
15.64,4.40,41.08773,-73.80395,NY,155000,38000,50,42,63,Westchester Medical Center
7.41,3.74,43.04269,-76.14043,NY,69000,31000,66,41,3,University Hospital S U N Y Health Science Center
4.79,2.49,43.08176,-75.26587,NY,42000,18000,66,62,24,St Elizabeth Medical Center
5.73,3.16,44.70022,-73.47100,NY,52000,25000,50,55,0,Champlain Valley Physicians Hospital Medical Ctr
7.60,2.79,41.50307,-74.01517,NY,71000,21000,33,81,95,St Luke'S Cornwall Hospital
4.12,2.42,42.84782,-78.81264,NY,35000,18000,50,68,13,Mercy Hospital
4.33,3.10,43.12266,-77.62360,NY,37000,25000,50,55,21,Strong Memorial Hospital
7.10,2.68,40.69327,-73.29412,NY,66000,20000,50,70,74,Good Samaritan Hospital Medical Center
7.19,2.68,41.02614,-73.76978,NY,67000,20000,50,62,44,White Plains Hospital Center
6.37,3.63,40.90922,-73.11520,NY,59000,30000,50,60,44,University Hospital ( Stony Brook )
7.76,2.82,42.11422,-75.95851,NY,73000,22000,66,48,92,United Health Services Hospitals Inc
6.76,2.71,35.43754,-80.60147,NC,63000,21000,66,65,16,Carolinas Medical Center-Northeast
5.95,2.78,35.57658,-82.54922,NC,54000,21000,66,40,81,Memorial Mission Hospital And Asheville Surgery Ce
6.09,2.51,35.95000,-80.00000,NC,56000,18000,50,66,39,High Point Regional Hospital
5.95,2.66,36.07581,-80.29779,NC,54000,20000,50,52,39,Forsyth Memorial Hospital
7.63,2.87,35.03156,-78.93205,NC,72000,22000,50,50,18,Cape Fear Valley Medical Center
9.05,3.38,36.00850,-78.94006,NC,86000,28000,66,43,76,Duke University Hospital
8.24,2.67,35.27341,-81.13688,NC,78000,20000,50,70,69,Gaston Memorial Hospital
7.71,3.01,35.60726,-77.40477,NC,72000,24000,50,46,1,Pitt County Memorial Hospital
7.30,3.36,36.09062,-80.27161,NC,68000,27000,83,55,57,North Carolina Baptist Hospital
9.72,2.81,35.22196,-80.83287,NC,93000,22000,50,63,13,Presbyterian Hospital
7.27,3.67,35.90529,-79.04963,NC,68000,31000,66,41,1,University Of North Carolina Hospital
7.56,2.80,35.78523,-78.58836,NC,71000,22000,33,50,79,Wakemed Raleigh Campus
4.85,2.51,36.06347,-79.50208,NC,43000,18000,33,60,16,Alamance Regional Medical Center
8.75,2.58,35.82915,-78.61922,NC,83000,19000,50,81,79,Duke Health Raleigh Hospital
4.60,2.62,36.09251,-79.78855,NC,40000,20000,66,66,51,Moses H Cone Memorial Hospital The
5.21,2.72,36.32690,-76.22370,NC,47000,21000,50,76,54,Albemarle Hospital Authority
9.94,3.13,35.20397,-80.83908,NC,96000,25000,66,63,24,Carolinas Medical Center/Behav Health
6.55,2.50,35.81801,-78.70283,NC,60000,18000,50,65,54,Rex Hospital
6.51,2.63,35.20554,-79.45645,NC,60000,20000,66,60,44,Firsthealth Moore Regional Hospital
8.22,2.37,35.73751,-81.33702,NC,78000,17000,50,67,17,Frye Regional Medical Center
7.25,2.80,35.11420,-77.06568,NC,68000,22000,33,73,90,Carolina East Medical Center
6.07,2.67,34.23786,-77.94764,NC,55000,20000,83,70,57,New Hanover Regional Medical Center
6.05,2.51,35.71664,-81.26661,NC,55000,19000,50,72,63,Catawba Valley Medical Center
8.47,2.55,46.80739,-100.77773,ND,80000,19000,50,72,76,St Alexius Medical Center
6.73,2.57,48.23258,-101.28843,ND,62000,19000,50,72,48,Trinity Hospitals
6.57,2.64,46.88496,-96.78609,ND,61000,20000,66,61,48,Sanford Medical Center Fargo
4.72,2.55,46.80798,-100.78229,ND,41000,19000,50,77,5,Medcenter One
7.08,2.72,47.91045,-97.06742,ND,66000,21000,83,53,1,Altru Hospital
5.90,2.50,46.83250,-96.82805,ND,54000,18000,33,77,20,Essentia Health-Fargo
9.36,3.71,39.13707,-84.50392,OH,90000,31000,66,45,21,University Hospital Inc
8.45,2.73,40.03064,-83.03440,OH,80000,21000,83,71,21,Riverside Methodist Hospital
8.94,3.01,38.75320,-82.97800,OH,85000,24000,50,61,69,Southern Ohio Medical Center
7.81,2.37,40.73578,-84.08630,OH,74000,17000,75,61,13,Lima Memorial Health System
6.29,2.66,40.57098,-83.12972,OH,58000,20000,50,91,48,Marion General Hospital
5.95,2.66,40.11479,-82.94677,OH,54000,20000,50,66,12,Mount Carmel St Ann'S Hospital
9.27,3.05,39.96098,-82.99077,OH,89000,24000,66,78,21,Grant Medical Center
9.59,2.71,41.08161,-81.50007,OH,92000,21000,66,63,33,Summa Health Systems Hospitals
8.96,2.71,41.44642,-82.70864,OH,86000,21000,50,86,18,Firelands Regional Medical Center
8.89,2.89,41.07747,-81.53042,OH,85000,23000,66,70,63,Akron General Medical Center
7.69,2.70,39.95805,-83.02191,OH,72000,21000,66,42,1,Mount Carmel Health
5.32,2.67,39.97510,-82.01812,OH,48000,20000,50,78,92,Genesis Healthcare System
6.02,2.42,41.38265,-81.73127,OH,55000,18000,50,75,94,Parma Community General Hospital
8.19,3.07,41.61788,-83.61632,OH,78000,24000,66,68,6,University Of Toledo Medical Center
9.44,2.71,39.74547,-84.18523,OH,91000,21000,66,45,1,Miami Valley Hospital
12.22,2.66,39.78778,-84.23493,OH,119000,20000,66,56,16,Good Samaritan Hospital
6.48,2.39,39.31257,-84.51774,OH,60000,17000,50,90,69,Mercy Hospital Fairfield
5.29,3.52,41.46088,-81.69763,OH,47000,29000,50,60,24,Metro Health Medical Center
7.26,2.55,41.11441,-80.65565,OH,68000,19000,83,48,21,St Elizabeth Health Center
9.10,2.51,40.74115,-84.11804,OH,87000,18000,66,73,6,St Rita'S Medical Center
10.24,2.73,41.67775,-83.59589,OH,99000,21000,33,70,57,Toledo Hospital The
4.13,2.68,40.81219,-81.39625,OH,35000,20000,50,62,43,Mercy Medical Center
7.23,2.57,39.71750,-82.57772,OH,68000,19000,50,82,90,Fairfield Medical Center
8.68,2.68,41.45013,-81.82397,OH,83000,20000,66,60,18,Fairview Hospital
9.25,2.48,39.69724,-84.19232,OH,88000,18000,66,80,57,Kettering Medical Center
3.95,2.43,40.79609,-81.40360,OH,33000,18000,50,63,17,Aultman Hospital
10.45,3.21,39.99445,-83.01872,OH,101000,26000,66,50,2,Ohio State University Hospitals
5.68,2.83,39.92755,-83.81573,OH,51000,22000,50,67,48,Springfield Regional Medical Center
5.53,2.31,41.66317,-81.24696,OH,50000,16000,50,73,39,Lake Health
11.83,3.12,41.66810,-83.54275,OH,115000,25000,50,70,5,Mercy St Vincent Medical Center
5.11,2.39,40.75264,-82.52803,OH,45000,17000,83,81,92,Medcentral Health System
7.93,2.70,41.43653,-81.94451,OH,75000,20000,50,72,76,St John Medical Center
9.76,2.86,39.76950,-84.20285,OH,94000,22000,66,65,90,Grandview Hospital & Medical Center
9.13,2.84,39.13975,-84.52173,OH,87000,22000,66,83,69,Good Samaritan Hospital
9.36,3.54,41.50772,-81.60592,OH,90000,29000,83,46,44,University Hospitals Of Cleveland
9.63,2.29,41.42112,-81.59808,OH,92000,16000,50,82,21,Marymount Hospital
4.26,2.37,41.36649,-82.09708,OH,37000,17000,66,75,98,Emh Regional Medical Center
8.42,3.22,39.95311,-83.13803,OH,80000,26000,50,48,48,Doctors Hospital
7.68,2.30,41.37028,-81.83189,OH,72000,16000,50,71,74,Southwest General Health Center
5.60,2.60,39.39463,-82.96979,OH,51000,19000,50,50,24,Adena Regional Medical Center
8.57,2.64,39.12105,-84.51059,OH,81000,20000,83,46,88,Christ Hospital
5.93,2.33,41.43688,-82.23761,OH,54000,17000,50,82,69,Mercy Regional Medical Center
7.42,2.54,39.25076,-84.34341,OH,69000,19000,50,62,99,Bethesda North Hospital
10.97,3.32,41.50248,-81.62110,OH,106000,27000,33,32,24,Cleveland Clinic
5.44,2.63,40.04876,-82.45029,OH,49000,20000,50,76,97,Licking Memorial Hospital
6.80,2.36,41.52013,-81.43291,OH,63000,17000,66,45,37,Hillcrest Hospital
7.27,2.86,36.14687,-95.96841,OK,68000,22000,83,76,32,Hillcrest Medical Center
14.97,2.75,35.22999,-97.44074,OK,148000,21000,50,73,21,Norman Regional Health System
10.84,2.77,35.52960,-97.57496,OK,105000,21000,100,76,90,Integris Baptist Medical Center
6.59,3.10,35.47800,-97.52352,OK,61000,25000,66,58,33,St Anthony Hospital
7.97,2.61,34.18908,-97.14128,OK,75000,20000,50,51,24,Mercy Memorial Health Center
5.31,2.41,34.60992,-98.43419,OK,48000,18000,50,62,48,Comanche County Memorial Hospital
7.97,2.95,36.14675,-95.99969,OK,75000,23000,50,75,5,Oklahoma State University Medical Center
4.47,2.39,35.91530,-94.94996,OK,39000,17000,50,68,63,Tahlequah City Hospital
6.26,2.51,36.06135,-95.95154,OK,57000,19000,83,61,44,Saint Francis Hospital Inc
15.19,3.49,35.48138,-97.49624,OK,150000,29000,66,45,1,O U Medical Center
11.73,2.36,35.46721,-97.39370,OK,114000,17000,50,76,92,Midwest Regional Medical Center
7.88,2.58,36.13393,-95.96718,OK,74000,19000,50,51,11,St John Medical Center Inc
6.42,2.36,35.60901,-97.59429,OK,59000,17000,75,96,29,Oklahoma Heart Hospital
5.73,2.25,35.38969,-97.42688,OK,52000,16000,50,100,90,Oklahoma Heart Hospital South
6.84,3.06,45.50973,-122.77368,OR,63000,24000,33,55,13,Providence St Vincent Medical Center
8.08,3.17,45.54248,-122.66972,OR,76000,25000,50,62,21,Legacy Emanuel Medical Center
7.66,3.59,45.49956,-122.68802,OR,72000,30000,66,47,6,Ohsu Hospital And Clinics
7.14,2.77,44.60322,-123.25312,OR,67000,21000,33,58,5,Good Samaritan Regional Medical Center
7.26,2.62,42.31769,-122.83333,OR,68000,20000,66,61,90,Rogue Valley Medical Center
7.82,2.78,44.06773,-121.26817,OR,74000,21000,66,70,37,St Charles Medical Center - Bend
7.21,3.05,44.93267,-123.03418,OR,67000,24000,66,72,24,Salem Hospital
7.26,2.71,45.51288,-122.55630,OR,68000,21000,50,86,16,Adventist Medical Center
7.72,2.97,45.52677,-122.61469,OR,73000,23000,66,75,0,Providence Portland Medical Center
6.36,2.85,42.34086,-122.86108,OR,59000,22000,50,61,54,Providence Medford Medical Center
6.49,2.79,44.08146,-123.02694,OR,60000,21000,50,60,24,Sacred Heart Medical Center - Riverbend
7.97,2.51,41.40075,-75.64594,PA,75000,18000,50,77,94,Community Medical Center
6.07,2.31,40.25296,-76.92151,PA,55000,16000,83,85,95,Holy Spirit Hospital
14.66,3.33,40.96789,-76.60506,PA,145000,27000,33,56,13,Geisinger Medical Center
10.33,2.58,42.11102,-80.07912,PA,100000,19000,50,72,57,Saint Vincent Health Center
6.01,2.39,40.71251,-80.32136,PA,55000,17000,33,66,48,Heritage Valley Beaver
9.20,2.90,40.18302,-80.24767,PA,88000,23000,50,76,94,Washington Hospital The
6.20,2.69,40.33271,-75.95020,PA,57000,20000,50,67,21,Reading Hospital Medical Center
5.94,2.50,41.24548,-77.01438,PA,54000,18000,50,57,37,Williamsport Regional Medical Center
7.01,3.11,39.94604,-76.71884,PA,65000,25000,66,45,8,York Hospital
16.02,2.80,40.60811,-75.39260,PA,159000,22000,66,53,57,St Luke'S Hospital Bethlehem
11.00,2.88,40.45705,-80.00363,PA,107000,22000,83,70,44,Allegheny General Hospital
11.94,2.70,42.13338,-80.08703,PA,116000,20000,66,50,33,Upmc Hamot
7.55,2.80,40.25661,-76.87572,PA,71000,22000,83,47,0,Pinnacle Health Hospitals
7.45,2.51,40.52204,-78.39824,PA,70000,19000,83,61,39,Altoona Regional Health System
7.10,2.70,41.98012,-76.52072,PA,66000,21000,50,65,48,Robert Packer Hospital
18.46,2.77,39.95543,-75.28181,PA,184000,21000,66,67,56,Delaware County Memorial Hospital
4.45,2.49,41.11492,-78.77515,PA,39000,18000,50,76,43,Dubois Regional Medical Center
11.54,2.57,40.11139,-75.09250,PA,112000,19000,50,72,69,Holy Redeemer Hospital And Medical Center
5.78,2.55,40.04740,-76.30540,PA,53000,19000,66,60,82,Lancaster General Hospital
4.94,2.24,40.57319,-80.01455,PA,44000,16000,50,57,48,Upmc Passavant
5.98,2.53,40.32674,-78.92197,PA,55000,19000,50,61,3,Conemaugh Valley Memorial Hospital
16.59,3.62,39.95045,-75.19259,PA,165000,30000,50,33,39,Hospital Of Univ Of Pennsylvania
10.52,2.89,40.07160,-74.98341,PA,102000,22000,33,67,5,Aria Health
14.56,3.03,40.60000,-75.47000,PA,144000,24000,66,58,54,Lehigh Valley Hospital
13.51,2.62,41.25860,-75.86729,PA,133000,20000,50,60,79,Wilkes-Barre General Hospital
8.96,2.74,40.01883,-75.32115,PA,85000,21000,50,71,85,Main Line Hospital Bryn Mawr Campus
13.50,3.99,40.03678,-75.14351,PA,133000,34000,66,62,4,Albert Einstein Medical Center
6.09,2.27,40.30103,-79.55505,PA,56000,16000,66,80,17,Excela Health Westmoreland Regional Hospital
4.99,2.41,39.93492,-77.64744,PA,44000,17000,50,58,48,Chambersburg Hospital
7.12,2.44,40.04475,-75.50425,PA,66000,18000,50,71,20,Main Line Hospital Paoli
16.95,2.73,40.68708,-75.24272,PA,168000,21000,66,68,3,Easton Hospital
16.40,2.94,40.44190,-79.96044,PA,163000,23000,83,55,11,Upmc Presbyterian Shadyside
12.46,3.29,39.94969,-75.15712,PA,122000,27000,66,41,57,Thomas Jefferson University Hospital
18.37,2.87,39.85598,-75.36791,PA,183000,22000,66,56,13,Crozer Chester Medical Center
9.02,2.80,39.98905,-75.27707,PA,86000,22000,50,53,24,Main Line Hospital Lankenau
11.39,2.73,40.60798,-75.46817,PA,111000,21000,0,0,0,Sacred Heart Hospital
6.28,2.84,40.99225,-75.17466,PA,58000,22000,50,90,63,Pocono Medical Center
12.95,3.10,39.95825,-75.19909,PA,127000,25000,66,53,54,Penn Presbyterian Medical Center
7.68,3.06,39.94560,-75.15561,PA,72000,24000,50,56,69,Pennsylvania Hosp Of The Univ Of Pa Health Sys
9.13,2.76,40.12077,-75.11818,PA,87000,21000,83,51,43,Abington Memorial Hospital
5.99,2.38,41.41276,-75.65399,PA,55000,17000,50,67,85,Regional Hospital Of Scranton
8.08,3.35,40.26468,-76.67582,PA,76000,27000,66,40,3,Milton S Hershey Medical Center
8.43,2.57,40.20064,-74.92952,PA,80000,19000,33,71,44,St Mary Medical Center
5.40,2.25,40.31802,-79.93494,PA,49000,16000,50,83,88,Jefferson Regional Medical Center
8.40,2.70,40.81936,-77.84273,PA,80000,20000,50,91,57,Mount Nittany Medical Center
10.77,2.59,41.25855,-75.81041,PA,104000,19000,66,86,2,Geisinger Wyoming Valley Medical Center
19.11,3.73,39.95658,-75.16249,PA,191000,31000,83,71,6,Hahnemann University Hospital
8.09,3.32,41.81254,-71.40760,RI,77000,27000,33,48,6,Rhode Island Hospital
6.43,2.71,41.70541,-71.47790,RI,59000,21000,50,50,39,Kent County Memorial Hospital
7.90,2.84,41.85172,-71.39826,RI,74000,22000,66,51,63,Miriam Hospital
7.20,2.75,34.95535,-81.05137,SC,67000,21000,50,75,33,Piedmont Medical Center
7.59,3.42,32.78272,-79.94543,SC,71000,28000,33,76,69,Musc Medical Center
7.16,2.62,34.96733,-81.94021,SC,67000,20000,33,60,54,Spartanburg Regional Medical Center
11.27,3.01,34.02839,-81.03539,SC,109000,24000,33,43,21,Palmetto Health Richland
15.77,2.85,34.83965,-82.42147,SC,156000,22000,66,66,11,St Francis-Downtown
8.45,2.31,34.01469,-81.01343,SC,80000,16000,50,85,29,Sisters Of Charity Providence Hospitals
13.74,2.69,34.51119,-82.64683,SC,135000,20000,50,61,94,Anmed Health
8.81,2.66,34.19543,-79.76256,SC,84000,20000,50,50,79,Mcleod Regional Medical Center-Pee Dee
9.80,3.10,34.17571,-82.15791,SC,94000,25000,66,65,20,Self Regional Healthcare
9.81,2.39,34.00533,-81.11393,SC,94000,17000,66,63,48,Lexington Medical Center
7.19,2.82,34.81904,-82.41308,SC,67000,22000,50,55,17,Greenville Memorial Hospital
14.01,2.88,32.97605,-80.07302,SC,138000,22000,50,56,48,Trident Medical Center
7.98,3.04,32.22325,-80.71444,SC,75000,24000,0,0,0,Hilton Head Regional Medical Center
8.58,2.94,33.57070,-81.76332,SC,82000,23000,50,80,8,Aiken Regional Medical Center
12.02,2.56,33.70704,-78.89487,SC,117000,19000,66,50,57,Grand Strand Reg Med Center
7.40,2.41,32.78211,-79.95018,SC,69000,18000,50,66,29,Roper Hospital
16.68,2.59,34.19543,-79.76256,SC,166000,19000,33,66,13,Carolinas Hospital System
8.76,2.61,43.53562,-96.74305,SD,83000,20000,66,82,57,Sanford Usd Medical Center
8.08,3.32,44.05563,-103.22633,SD,76000,27000,66,42,82,Rapid City Regional Hospital
8.57,2.49,43.49092,-96.78037,SD,81000,18000,0,0,0,Avera Heart Hospital Of South Dakota Llc
5.53,2.53,35.63906,-88.83207,TN,50000,19000,66,53,27,Jackson-Madison County General Hospital
8.75,2.62,36.24440,-86.75204,TN,83000,20000,50,71,85,Skyline Medical Center
6.90,2.24,35.75588,-83.95808,TN,64000,16000,50,75,48,Blount Memorial Hospital
6.38,2.38,36.58587,-82.25703,TN,59000,17000,50,62,48,Wellmont Bristol Regional Medical Center
9.43,2.78,35.93985,-83.94326,TN,90000,21000,33,62,20,University Of Tn Memorial Hospital
6.11,2.40,36.55401,-82.55483,TN,56000,17000,50,58,33,Wellmont Holston Valley Medical Center
5.91,2.39,35.91595,-86.81799,TN,54000,17000,50,58,39,Williamson Medical Center
7.56,2.25,35.98589,-84.28055,TN,71000,16000,66,62,79,Methodist Medical Center Of Oak Ridge
13.27,2.71,36.58199,-87.27050,TN,130000,21000,50,95,39,Gateway Medical Center
8.51,3.21,36.14316,-86.80048,TN,81000,26000,50,43,43,Vanderbilt University Hospital
7.50,2.70,35.12837,-89.86202,TN,70000,21000,50,43,39,Baptist Memorial Hospital
9.69,3.04,35.13640,-90.01928,TN,93000,24000,66,51,37,Methodist Healthcare Memphis Hospitals
8.16,2.43,35.86074,-86.42434,TN,77000,18000,33,87,16,Middle Tennessee Medical Center Inc
4.47,2.47,36.17121,-85.50938,TN,39000,18000,50,73,98,Cookeville Regional Medical Center
11.48,2.55,36.30767,-82.38497,TN,112000,19000,83,50,21,Johnson City Medical Center
7.27,2.63,35.60668,-87.06635,TN,68000,20000,50,72,74,Maury Regional Hospital
7.17,2.40,36.12859,-86.84559,TN,67000,17000,16,75,98,St Thomas Hospital
8.12,2.42,35.04157,-85.26037,TN,77000,18000,33,72,99,Memorial Healthcare System Inc
6.15,2.82,35.05068,-85.28823,TN,56000,22000,50,52,0,Erlanger Medical Center
7.57,2.40,35.99233,-83.92697,TN,71000,17000,50,56,85,Tennova Healthcare
6.50,2.55,35.95747,-83.93660,TN,60000,19000,33,56,44,Fort Sanders Regional Medical Center
5.66,2.24,36.29611,-88.31178,TN,51000,16000,0,0,0,Henry County Medical Center
8.31,2.51,36.15388,-86.80249,TN,79000,19000,66,66,63,Baptist Hospital
10.78,2.59,35.36202,-86.20943,TN,104000,19000,0,0,0,Harton Regional Medical Center
8.51,2.92,35.03467,-85.26735,TN,81000,23000,50,56,33,Parkridge Medical Center
8.72,2.77,36.15310,-86.80910,TN,83000,21000,66,68,81,Centennial Medical Center
9.75,2.66,35.91765,-84.10080,TN,94000,20000,33,72,82,Parkwest Medical Center
12.61,2.61,35.09925,-89.86301,TN,123000,20000,50,62,57,St Francis Hospital
11.53,2.90,33.90296,-98.50035,TX,112000,23000,66,86,48,United Regional Health Care System
8.88,2.56,30.65598,-96.34672,TX,85000,19000,50,57,32,St Joseph Regional Health Center
5.94,4.13,29.31233,-94.77317,TX,54000,35000,66,55,21,University Of Texas Medical Branch Gal
5.44,2.80,32.78994,-96.78044,TX,49000,22000,83,58,33,Baylor University Medical Center
10.19,2.37,30.08729,-94.13292,TX,98000,17000,66,86,79,Christus Hospital
9.08,2.47,32.50219,-94.73025,TX,87000,18000,50,73,85,Good Shepherd Medical Center
12.71,2.52,33.57524,-101.89272,TX,124000,19000,50,41,48,Covenant Medical Center
5.57,2.48,31.51444,-97.19927,TX,50000,18000,50,50,33,Providence Health Center
12.65,3.29,32.81224,-96.83795,TX,124000,27000,33,63,29,Ut Southwestern University Hospital
9.91,2.60,27.77751,-97.39515,TX,95000,19000,83,57,95,Christus Spohn Hospital Corpus Christi
7.15,3.01,32.76017,-96.82437,TX,67000,24000,50,40,3,Methodist Dallas Medical Center
7.05,2.82,31.07837,-97.36403,TX,66000,22000,50,56,85,Scott & White Memorial Hospital
11.42,2.63,30.30491,-97.74540,TX,111000,20000,16,56,63,Seton Medical Center Austin
9.46,2.60,29.43360,-98.49265,TX,91000,19000,66,61,24,Baptist Medical Center
9.85,2.58,32.74944,-97.11630,TX,95000,19000,66,55,63,Texas Health Arlington Memorial Hospital
12.06,3.90,29.71431,-95.39680,TX,118000,33000,66,46,13,Memorial Hermann Texas Medical Center
8.83,2.63,32.83520,-96.96101,TX,84000,20000,66,63,24,Baylor Medical Center At Irving
12.03,2.35,32.33824,-95.29122,TX,117000,17000,50,55,92,East Texas Medical Center
15.18,3.21,32.82932,-97.21399,TX,150000,26000,50,67,39,North Hills Hospital
9.58,2.32,32.34280,-95.29201,TX,92000,17000,50,60,98,Mother Frances Hospital
12.83,2.77,31.76998,-106.49897,TX,126000,21000,66,58,8,Las Palmas Medical Center
6.84,2.88,31.84507,-102.37373,TX,63000,22000,33,82,29,Medical Center Hospital
6.72,2.58,31.99616,-102.09950,TX,62000,19000,50,55,37,Midland Memorial Hospital
8.54,2.75,32.73780,-97.33899,TX,81000,21000,66,55,57,Texas Health Harris Methodist Fort Worth
7.26,2.69,32.73070,-97.34379,TX,68000,20000,66,57,74,Baylor All Saints Medical Center At Fw
7.25,2.83,29.81230,-95.43010,TX,68000,22000,66,62,69,Memorial Hermann Hospital System
9.75,3.05,29.70719,-95.40048,TX,94000,24000,66,43,1,St Lukes Episcopal Hospital
8.24,2.57,33.42875,-94.04725,TX,78000,19000,0,0,0,Wadley Regional Medical Center
6.21,2.67,35.19934,-101.92186,TX,57000,20000,83,82,24,Northwest Texas Hospital
12.76,2.52,31.33632,-94.74205,TX,125000,19000,50,71,63,Memorial Health System Of East Texas- Lufkin
11.74,2.62,30.28473,-95.46714,TX,114000,20000,33,52,48,Conroe Regional Medical Center
8.26,2.66,32.47171,-99.73315,TX,78000,20000,66,86,39,Hendrick Medical Center
7.64,2.33,35.19533,-101.91907,TX,72000,17000,66,60,21,Baptist St Anthonys Health System-Baptist Campus
10.06,3.17,29.42825,-98.49859,TX,97000,25000,50,80,20,Christus Santa Rosa Hospital
5.53,2.61,32.91949,-96.66214,TX,50000,20000,50,76,44,Baylor Medical Center At Garland
15.40,2.62,30.58113,-96.29051,TX,152000,20000,0,0,0,College Station Medical Center
8.52,2.59,33.71085,-96.58493,TX,81000,19000,50,57,21,Texoma Medical Center
11.45,2.51,31.42009,-100.47013,TX,111000,19000,50,53,82,San Angelo Community Medical Center
7.21,2.49,30.07104,-94.11927,TX,67000,18000,83,63,85,Memorial Hermann Baptist Beaumont Hospital
12.62,2.94,29.71020,-95.39956,TX,123000,23000,100,60,13,Methodist Hospitalthe
7.75,2.63,29.50795,-98.57224,TX,73000,20000,66,62,57,Methodist Hospital
8.96,2.66,29.76963,-94.97926,TX,85000,20000,50,100,82,San Jacinto Methodist Hospital
10.25,2.85,30.28957,-97.72584,TX,99000,22000,66,81,63,St Davids Medical Center
9.34,2.81,32.88076,-96.76226,TX,89000,22000,66,66,3,Texas Health Presbyterian Hospital  Dallas
9.38,2.48,33.66003,-96.59459,TX,90000,18000,50,71,62,Texas Health Presbyterian Hospital-Wnj
5.76,2.66,31.61271,-94.64926,TX,52000,20000,50,92,21,Memorial Hospital
10.99,2.49,32.40574,-99.76486,TX,107000,18000,75,57,76,Abilene Regional Medical Center
6.49,2.40,31.46574,-100.43466,TX,60000,17000,50,72,79,Shannon Medical Center
7.23,2.74,30.26290,-98.88017,TX,68000,21000,0,0,0,Hill Country Memorial Hospital Inc
6.79,2.90,29.78143,-95.54541,TX,63000,23000,83,77,92,Memorial Hermann Memorial City Medical Center
11.96,2.71,29.54043,-95.12730,TX,117000,21000,66,51,21,Clear Lake Regional Medical Center
17.07,2.96,33.17345,-97.11382,TX,170000,23000,83,72,54,Denton Regional Medical Center
8.10,2.66,30.01994,-95.44379,TX,77000,20000,50,65,69,Houston Northwest Medical Center
11.45,2.58,32.83479,-97.12428,TX,111000,19000,50,62,88,Texas Health Harris Methodist Hurst-Euless-Bedford
7.25,2.83,27.60672,-99.47945,TX,68000,22000,50,86,3,Doctors Hospital Of Laredo
17.64,3.12,32.91132,-96.77424,TX,176000,25000,83,51,6,Medical City Dallas Hospital
13.04,3.16,33.02168,-96.76621,TX,128000,25000,50,67,11,Medical Center Of Plano
9.64,2.31,31.65212,-94.65488,TX,93000,16000,0,0,0,Nacogdoches Medical Center
14.05,2.66,31.77757,-106.48060,TX,138000,20000,75,62,48,Sierra Medical Center
12.38,2.80,32.73563,-97.34483,TX,121000,22000,83,41,74,Plaza Medical Center Of Fort Worth
6.21,2.86,29.99677,-95.27641,TX,57000,22000,66,70,33,Memorial Hermann Northeast
8.07,3.13,33.58838,-101.89214,TX,76000,25000,50,50,24,University Medical Center
13.96,2.54,32.53312,-94.73022,TX,137000,19000,50,77,8,Longview Regional Medical Center
8.20,2.46,30.22723,-97.77447,TX,78000,18000,50,43,69,St David'S South Austin Medical Center
9.64,2.87,33.21746,-97.16488,TX,93000,22000,75,77,74,Texas Health Presbyterian Hospital Denton
14.94,3.04,30.05004,-95.25454,TX,148000,24000,33,62,69,Kingwood Medical Center
10.13,2.86,27.69288,-97.34476,TX,98000,22000,50,60,85,Corpus Christi Medical Centerthe
5.64,2.32,33.46323,-94.07490,TX,51000,17000,66,80,6,Christus St Michael Health System
11.26,2.57,30.41163,-97.70649,TX,109000,19000,33,65,29,North Austin Medical Center
10.72,2.47,29.58896,-95.63112,TX,104000,18000,50,66,12,Methodist Sugar Land Hospital
6.19,2.39,32.78814,-96.78083,TX,57000,17000,0,0,0,Baylor Heart And Vascular Hospital
10.59,2.79,26.15761,-97.67550,TX,102000,21000,0,0,0,Harlingen Medical Center
9.37,2.62,30.20579,-95.45830,TX,90000,20000,50,67,54,St Luke'S The Woodlands Hospital
8.77,3.17,26.25286,-98.20590,TX,83000,25000,33,66,44,Doctors Hospital At Renaissance
6.38,2.26,33.60310,-101.91587,TX,59000,16000,0,0,0,Lubbock Heart Hospital Lp
5.26,2.56,40.24999,-111.66524,UT,47000,19000,50,70,76,Utah Valley Regional Medical Center
8.46,3.15,41.22300,-111.97383,UT,80000,25000,33,70,33,Mckay Dee Hospital Center
9.59,2.56,41.16297,-111.97044,UT,92000,19000,0,0,0,Ogden Regional Medical Center
6.30,3.28,40.77170,-111.83681,UT,58000,27000,33,53,8,University Health Care/Univ Hospitals And  Clinics
6.31,2.95,40.65922,-111.89189,UT,58000,23000,33,58,54,Intermountain Medical Center
6.19,2.62,37.09986,-113.55271,UT,57000,20000,66,61,24,Dixie Regional Medical Center
9.59,3.06,40.68610,-111.85735,UT,92000,24000,66,72,8,St Marks Hospital
5.28,3.40,44.47966,-73.19412,VT,47000,28000,66,50,13,Fletcher Allen Hospital Of Vermont
6.46,2.77,38.40552,-78.85730,VA,60000,21000,50,70,92,Rockingham Memorial Hospital
6.98,2.89,39.19345,-78.19599,VA,65000,23000,66,60,74,Winchester Medical Center Inc
8.02,2.96,36.86268,-76.30355,VA,76000,23000,83,58,4,Sentara Norfolk General Hospital
11.06,3.89,38.02573,-78.51526,VA,107000,33000,33,35,24,University Of Virginia Medical Center
8.19,3.01,38.09436,-78.98659,VA,78000,24000,50,82,99,Augusta Health
6.35,2.49,37.41368,-79.16870,VA,58000,18000,50,70,57,Centra  Health Inc
7.04,2.57,38.31158,-77.48061,VA,66000,19000,66,73,17,Mary Washington Hospital Inc
7.11,2.99,37.25129,-79.94125,VA,66000,23000,50,61,1,Carilion Roanoke Memorial Center
12.60,4.91,37.54330,-77.42932,VA,123000,43000,66,48,0,Medical College Of Virginia Hospitals
8.01,2.80,38.82218,-77.10533,VA,76000,22000,66,68,57,Inova Alexandria Hospital
8.06,2.85,37.09020,-80.50370,VA,76000,22000,0,0,0,Carilion New River Valley Medical Center
6.95,2.70,39.07405,-77.47754,VA,65000,20000,50,83,79,Inova Loudoun Hospital
6.38,2.40,36.77378,-76.57856,VA,59000,17000,50,77,51,Sentara Obici Hospital
6.62,2.71,38.76723,-77.48754,VA,61000,21000,50,67,57,Prince William Hospital
12.88,2.54,37.26336,-80.03166,VA,126000,19000,50,48,8,Lewisgale Medical Center
8.86,2.77,38.88916,-77.12796,VA,84000,21000,100,57,57,Virginia Hospital Center - Arlington
5.77,2.93,37.06523,-76.48417,VA,52000,23000,50,68,44,Riverside Regional Medical Center
6.61,2.37,36.86449,-76.02844,VA,61000,17000,66,62,39,Sentara Virginia Beach General Hospital
6.91,2.43,37.58440,-77.51252,VA,64000,18000,50,66,69,Bon Secours - St Marys Hospital Of Richmond
5.95,2.99,38.85764,-77.22772,VA,54000,23000,83,53,1,Inova Fairfax Hospital
10.58,2.65,37.62931,-77.38804,VA,102000,20000,50,67,69,Bon Secours - Memorial Regional Medical
8.47,2.45,36.57812,-79.40453,VA,80000,18000,50,61,69,Danville Regional Medical Center
5.60,2.40,38.02176,-78.44530,VA,51000,17000,50,75,88,Martha Jefferson Hospital
6.10,2.37,37.05580,-76.39048,VA,56000,17000,66,66,74,Sentara Careplex Hospital
4.54,2.52,38.88483,-77.37995,VA,40000,19000,50,75,94,Inova Fair Oaks Hospital
21.80,2.77,37.51021,-77.59525,VA,219000,21000,83,52,32,Cjw Medical Center
17.99,2.70,37.60459,-77.53929,VA,179000,21000,66,63,29,Henrico Doctors' Hospital
5.06,2.30,36.74610,-76.24609,VA,45000,16000,50,62,85,Chesapeake Regional Medical Center
8.49,2.59,47.71468,-122.33762,WA,81000,19000,50,63,32,Northwest Hospital
5.67,2.97,47.60948,-122.32811,WA,51000,23000,50,48,57,Virginia Mason Medical Center
12.74,2.95,46.59643,-120.52005,WA,125000,23000,50,77,2,Yakima Regional Medical And Cardiac Center
10.27,3.30,48.00091,-122.20600,WA,99000,27000,66,56,32,Providence Regional Medical Center Everett
5.50,2.75,47.40667,-120.32000,WA,50000,21000,50,75,1,Central Washington Hospital
10.07,2.79,47.05286,-122.84707,WA,97000,21000,50,41,11,Providence St Peter Hospital
15.87,3.32,47.60648,-122.31106,WA,157000,27000,25,53,10,Swedish Medical Center/Cherry Hill
14.40,3.26,47.60869,-122.32128,WA,142000,26000,33,56,13,Swedish Medical Center
8.42,2.82,48.77371,-122.47344,WA,80000,22000,50,67,33,St Joseph Medical Center
7.42,3.30,46.59360,-120.54741,WA,70000,27000,50,75,48,Yakima Valley Memorial Hospital
10.69,2.86,47.58295,-122.62506,WA,103000,22000,66,57,33,Harrison Medical Center
7.67,3.13,46.13039,-122.94110,WA,72000,25000,50,70,21,Peachealth St John Medical Center
9.23,3.01,47.65191,-117.42329,WA,88000,24000,50,57,13,Deaconess Hospital
11.77,3.34,45.62460,-122.58145,WA,115000,27000,66,53,81,Peacehealth Southwest Medical Center
8.36,2.84,47.61943,-122.18605,WA,79000,22000,50,57,76,Overlake Hospital Medical Center
8.77,2.97,47.64936,-117.41194,WA,84000,23000,66,76,33,Providence Sacred Heart Medical Center
8.54,2.67,46.28132,-119.28218,WA,81000,20000,33,77,54,Kadlec Regional Medical Center
9.86,3.68,47.60351,-122.32305,WA,95000,31000,66,52,0,Harborview Medical Center
12.01,2.83,47.17742,-122.28943,WA,117000,22000,50,96,11,Multicare Good Samaritan Hospital
13.33,3.87,47.44243,-122.21392,WA,131000,33000,50,55,48,Valley Medical Center
11.80,2.98,47.24670,-122.44841,WA,115000,23000,66,66,21,St Joseph Medical Center
6.48,2.67,47.71603,-122.17867,WA,60000,20000,50,65,95,Evergreen Hospital Medical Center
16.93,3.64,47.25980,-122.45243,WA,168000,30000,83,50,57,Tacoma General Allenmore Hospital
10.15,2.62,47.04174,-122.95125,WA,98000,20000,0,0,0,Capital Medical Center
9.95,3.19,47.29252,-122.32729,WA,96000,26000,50,71,1,St Francis Community Hospital
8.28,3.14,39.65498,-79.95814,WV,78000,25000,83,31,5,West Virginia University Hospitals
5.95,2.48,39.32836,-80.23964,WV,54000,18000,66,61,76,United Hospital Center
6.42,2.68,38.43236,-82.40067,WV,59000,20000,66,60,17,St Mary'S Medical Center
5.51,2.51,38.34739,-81.62600,WV,50000,19000,66,58,10,Charleston Area Medical Center
3.08,2.00,40.39520,-80.52796,WV,24000,13000,0,0,0,Weirton Medical Center
3.93,2.34,40.05809,-80.68471,WV,33000,17000,66,68,29,Wheeling Hospital
6.00,2.43,39.27035,-81.56026,WV,55000,18000,50,51,10,Camden Clark Medical Center
8.16,2.70,37.78754,-81.20183,WV,77000,20000,66,73,82,Raleigh General Hospital
8.05,2.86,43.01152,-88.24308,WI,76000,22000,50,55,24,Waukesha Memorial Hospital
8.30,2.72,44.79461,-91.51111,WI,79000,21000,66,63,13,Sacred Heart Hsptl
6.84,2.58,42.57776,-87.81939,WI,64000,19000,66,65,20,United Hsptl Sys
5.22,2.50,44.96738,-89.66994,WI,47000,18000,50,67,74,Aspirus Wausau Hospital
7.14,3.03,44.67759,-90.17818,WI,67000,24000,50,57,13,Ministry Saint Joseph'S Hospital
6.55,2.53,44.50233,-88.01140,WI,60000,19000,50,61,12,Bellin Memorial Hsptl
7.18,2.87,43.06195,-87.87861,WI,67000,22000,83,67,24,Columbia St Marys Hsptl  Milw (Col & Milw Campus)
5.97,2.41,42.67269,-88.28138,WI,54000,18000,0,0,0,Aurora Memorial Hsptl Burlington
8.23,2.56,42.68685,-89.03244,WI,78000,19000,50,63,43,Mercy Hlth Sys Corp
6.50,2.48,44.81192,-91.51352,WI,60000,18000,25,55,69,Mayo Clinic Health System Eau Claire Hospital
6.39,2.79,44.50173,-88.01254,WI,59000,21000,50,71,76,St Vincent Hsptl
6.91,3.00,42.98566,-87.93565,WI,64000,24000,50,70,57,Wheaton Franciscan Healthcare- St Francis
6.97,2.84,43.05867,-89.40269,WI,65000,22000,66,77,69,St Mary'S Hospital
5.64,2.78,43.79515,-91.24798,WI,51000,21000,16,61,21,Gundersen Luth Med Ctr
7.21,2.52,43.77733,-88.42866,WI,67000,19000,50,63,37,St Agnes Hsptl
6.41,2.82,43.06432,-89.40100,WI,59000,22000,66,43,56,Meriter Hsptl
4.18,2.72,42.73444,-87.82788,WI,36000,21000,50,67,12,Wheaton Franciscan Healthcare- All Saints
9.21,3.73,43.07633,-89.43133,WI,88000,31000,50,35,16,University Of Wi  Hospitals & Clinics Authority
8.08,3.14,43.07393,-87.97612,WI,76000,25000,66,37,48,Wheaton Franciscan Inc- St Joseph
10.53,3.01,42.98958,-87.95079,WI,102000,24000,50,65,37,Aurora St Lukes Medical Center
8.33,2.50,43.00120,-88.02675,WI,79000,18000,50,71,63,Aurora West Allis Medical Center
5.10,2.51,44.27860,-88.39550,WI,45000,19000,50,81,39,Appleton Med Ctr
7.50,3.48,43.04008,-88.02523,WI,70000,29000,66,36,11,Froedtert Mem Lutheran Hsptl
9.45,3.96,42.84802,-106.30851,WY,91000,34000,50,70,8,Wyoming Medical Center
8.91,3.36,41.14037,-104.81660,WY,85000,27000,50,70,33,Cheyenne Regional Medical Center
15.02,2.63,29.92585,-95.63108,TX,148000,20000,50,81,94,North Cypress Medical Center
8.13,2.78,33.01573,-96.79031,TX,77000,21000,0,0,0,The Heart Hospital Baylor Plano
