size,lat,lon,price,name
2.35,35.83746,-90.70386,6317.82,ST BERNARDS MEDICAL CTR
3.31,34.46784,-93.06667,14103.09,ST JOSEPHS MERCY HEALTH CENTER INC
2.41,36.34295,-92.39442,6836.11,BAXTER REGIONAL MEDICAL CENTER
3.89,35.28275,-93.14901,18876.00,ST MARYS REGIONAL MEDICAL CENTER
2.94,35.37445,-94.41868,11092.67,SPARKS REGIONAL MEDICAL CENTER
4.21,34.18894,-92.01886,21426.81,JEFFERSON REGIONAL MEDICAL CENTER
3.09,34.74866,-92.35422,12381.76,BAPTIST HEALTH MEDICAL CENTER-LITTLE ROCK
3.09,35.80838,-90.66658,12359.92,NEA BAPTIST MEMORIAL HOSPITAL
3.83,35.76927,-91.63408,18414.55,WHITE RIVER MEDICAL CENTER
6.63,37.63362,-122.08802,41142.82,ST ROSE HOSPITAL
5.76,37.76862,-122.43525,34054.71,CALIFORNIA PACIFIC MEDICAL CTR-DAVIES CAMPUS HOSP
6.38,38.32472,-122.29671,39156.58,QUEEN OF THE VALLEY MEDICAL CENTER
6.41,38.54384,-122.47401,39335.93,ST HELENA HOSPITAL
5.43,38.57053,-121.45216,31375.83,MERCY GENERAL HOSPITAL
4.35,39.50528,-121.54100,22577.13,OROVILLE HOSPITAL
5.50,35.38736,-119.01690,31923.56,BAKERSFIELD MEMORIAL HOSPITAL
6.48,37.79100,-122.43125,39917.92,CALIFORNIA PACIFIC MEDICAL CTR-PACIFIC CAMPUS HOSP
5.23,36.32737,-119.29548,29724.26,KAWEAH DELTA MEDICAL CENTER
6.19,33.78036,-117.86495,37537.43,ST JOSEPH HOSPITAL
6.43,37.96987,-121.28873,39519.79,ST JOSEPHS MED CENTER OF STOCKTON
4.05,36.83532,-119.76562,20181.96,SAINT AGNES MEDICAL CENTER
5.01,32.79949,-117.15394,27938.04,SHARP MEMORIAL HOSPITAL
6.01,34.04932,-118.21746,36122.14,WHITE MEMORIAL MEDICAL CENTER
5.78,38.57155,-121.46874,34263.56,SUTTER GENERAL HOSPITAL
4.54,34.07558,-118.28424,24170.64,TEMPLE COMMUNITY HOSPITAL
5.34,34.02685,-118.48651,30633.76,SANTA MONICA - UCLA MED CTR & ORTHOPAEDIC HOSPITAL
3.75,36.32362,-119.66726,17711.74,ADVENTIST MEDICAL CENTER
5.03,39.13822,-121.59436,28097.57,RIDEOUT MEMORIAL HOSPITAL
5.23,39.22809,-121.04721,29798.82,SIERRA NEVADA MEMORIAL HOSPITAL
5.08,34.28029,-119.25410,28559.00,VENTURA COUNTY MEDICAL CENTER
7.23,33.96860,-118.04831,46071.13,PRESBYTERIAN INTERCOMMUNITY HOSPITAL
6.97,38.44369,-122.70138,43933.03,SANTA ROSA MEMORIAL HOSPITAL
12.00,37.55717,-121.98126,84846.50,WASHINGTON HOSPITAL
5.85,32.61972,-117.02278,34835.26,SHARP CHULA VISTA MEDICAL CENTER
4.08,33.62229,-117.92995,20397.46,HOAG MEMORIAL HOSPITAL PRESBYTERIAN
5.59,33.84780,-117.93661,32676.20,AHMC ANAHEIM REGIONAL MEDICAL CENTER
5.62,35.27882,-120.65047,32948.67,FRENCH HOSPITAL MEDICAL CENTER
9.08,34.15601,-118.32834,61052.25,PROVIDENCE SAINT JOSEPH MEDICAL CTR
7.94,33.83862,-116.54557,51815.77,DESERT REGIONAL MEDICAL CENTER
3.78,36.06956,-119.02748,17976.73,SIERRA VIEW DISTRICT HOSPITAL
5.70,34.06675,-118.44613,33560.32,RONALD REAGAN UCLA MEDICAL CENTER
4.29,38.00655,-122.13312,22100.06,CONTRA COSTA REGIONAL MEDICAL CENTER
5.00,40.58654,-122.39168,27914.69,MERCY MEDICAL CENTER REDDING
4.12,34.03009,-118.47833,20760.64,SAINT JOHN'S HEALTH CENTER
6.82,37.85593,-122.25730,42699.59,ALTA BATES SUMMIT MEDICAL CENTER - ALTA BATES CAMP
8.66,37.36934,-122.08047,57635.53,EL CAMINO HOSPITAL
4.99,38.76514,-121.24979,27785.67,SUTTER ROSEVILLE MEDICAL CENTER
5.30,37.74409,-121.43469,30374.83,SUTTER TRACY COMMUNITY HOSPITAL
7.19,32.88461,-117.22244,45696.82,SCRIPPS MEMORIAL HOSPITAL LA JOLLA
5.02,34.05076,-117.26395,28078.70,LOMA LINDA UNIVERSITY MEDICAL CENTER
9.14,38.12186,-121.28665,61597.00,LODI MEMORIAL HOSPITAL
3.26,34.01501,-118.10064,13699.83,BEVERLY HOSPITAL
7.05,37.94748,-122.53677,44538.32,MARIN GENERAL HOSPITAL
9.11,38.26174,-122.04662,61309.46,NORTHBAY MEDICAL CENTER
3.17,34.24018,-118.39632,13037.55,PACIFICA HOSPITAL OF THE VALLEY
9.36,37.25153,-121.94684,63347.67,GOOD SAMARITAN HOSPITAL
3.60,33.75117,-116.96028,16463.14,HEMET VALLEY MEDICAL CENTER
5.04,33.93530,-118.13030,28190.00,DOWNEY REGIONAL MEDICAL CENTER
4.16,41.77451,-124.19400,21051.46,SUTTER COAST HOSPITAL
3.79,39.20732,-122.00026,18013.29,COLUSA REGIONAL MEDICAL CENTER
5.93,34.13364,-118.15275,35446.59,HUNTINGTON MEMORIAL HOSPITAL
10.16,37.43436,-122.18013,69878.19,STANFORD HOSPITAL
8.13,37.76421,-122.45716,53398.66,UCSF MEDICAL CENTER
4.59,35.38338,-119.01969,24580.32,SAN JOAQUIN COMMUNITY HOSPITAL
6.16,34.20777,-118.88305,37358.05,LOS ROBLES HOSPITAL & MEDICAL CENTER
6.70,33.80441,-118.06665,41696.62,LOS ALAMITOS MEDICAL CENTER
5.42,33.71466,-117.93322,31349.00,FOUNTAIN VALLEY REGIONAL HOSPITAL & MEDICAL CENTER
3.73,33.84753,-118.03841,17590.92,LA PALMA INTERCOMMUNITY HOSPITAL
6.69,38.46387,-121.41645,41673.38,METHODIST HOSPITAL OF SACRAMENTO
9.17,38.55484,-121.45628,61795.00,UNIVERSITY OF CALIFORNIA DAVIS MEDICAL CENTER
4.85,33.60883,-117.70881,26639.45,SADDLEBACK MEMORIAL MEDICAL CENTER
5.81,34.24359,-119.01992,34457.73,ST JOHNS PLEASANT VALLEY HOSPITAL
8.22,34.07664,-118.37955,54071.64,CEDARS-SINAI MEDICAL CENTER
4.44,33.70167,-117.95566,23330.09,ORANGE COAST MEMORIAL MEDICAL CENTER
7.43,34.05723,-118.36025,47641.29,OLYMPIA MEDICAL CENTER
3.37,34.16028,-118.44948,14632.33,SHERMAN OAKS HOSPITAL
3.76,32.77629,-117.05730,17830.27,ALVARADO HOSPITAL MEDICAL CENTER
6.35,34.17067,-118.53200,38851.05,PROVIDENCE TARZANA MEDICAL CENTER
3.81,40.18134,-105.12769,18221.70,LONGMONT UNITED HOSPITAL
3.57,40.57315,-105.05741,16264.86,POUDRE VALLEY HOSPITAL
4.36,38.23421,-104.62292,22697.56,CENTURA HEALTH-ST MARY CORWIN MEDICAL CENTER
5.77,39.71712,-105.12874,34180.75,CENTURA HEALTH-ST ANTHONY HOSPITAL
4.27,38.28184,-104.61256,21950.12,PARKVIEW MEDICAL CENTER INC
4.45,39.74234,-104.84156,23433.71,UNIVERSITY OF COLORADO HOSPITAL ANSCHUTZ INPATIENT
4.98,40.02615,-105.28391,27713.19,BOULDER COMMUNITY HOSPITAL
3.84,40.41320,-105.05139,18456.47,MCKEE MEDICAL CENTER
3.97,38.86559,-104.82182,19529.23,CENTURA HEALTH-PENROSE ST FRANCIS HEALTH SERVICES
4.80,39.65399,-104.98116,26287.81,SWEDISH MEDICAL CENTER
4.54,39.67005,-104.97490,24179.56,CENTURA HEALTH-PORTER ADVENTIST HOSPITAL
4.52,39.84960,-105.01825,23995.08,CENTURA HEALTH-ST ANTHONY NORTH HOSPITAL
3.71,41.77507,-72.69941,17418.48,ST FRANCIS HOSPITAL & MEDICAL CENTER
4.06,41.55959,-73.05941,20274.74,WATERBURY HOSPITAL
5.72,41.05562,-73.55390,33742.63,STAMFORD HOSPITAL
2.67,41.33722,-72.10380,8956.06,LAWRENCE & MEMORIAL HOSPITAL
4.44,41.18881,-73.16645,23374.08,BRIDGEPORT HOSPITAL
2.87,41.55241,-73.03554,10573.67,SAINT MARYS HOSPITAL
3.38,41.54874,-72.80148,14697.38,MIDSTATE MEDICAL CENTER
3.49,41.03431,-73.63020,15568.70,GREENWICH HOSPITAL ASSOCIATION
3.27,41.71622,-72.22399,13850.06,WINDHAM COMM MEM HOSP & HATCH HOSP
4.01,41.75412,-72.67927,19806.76,HARTFORD HOSPITAL
3.08,41.78185,-72.52591,12300.07,MANCHESTER MEMORIAL HOSPITAL
3.83,41.20049,-73.20281,18391.00,ST VINCENT'S MEDICAL CENTER
3.27,41.40474,-73.44739,13819.96,DANBURY HOSPITAL
3.22,41.66107,-72.78671,13385.00,HOSPITAL OF CENTRAL CONNECTICUT, THE
4.69,39.15135,-75.52309,25384.40,BAYHEALTH - KENT GENERAL HOSPITAL
4.37,38.90106,-77.05079,22762.82,GEORGE WASHINGTON UNIV HOSPITAL
4.37,38.91770,-77.02193,22789.50,HOWARD UNIVERSITY HOSPITAL
3.83,38.91221,-77.07588,18338.84,GEORGETOWN UNIVERSITY HOSPITAL
3.33,38.93576,-77.10909,14307.15,SIBLEY MEMORIAL HOSPITAL
3.21,38.94397,-76.99040,13303.80,PROVIDENCE HOSPITAL
4.38,38.92944,-77.01473,22828.63,WASHINGTON HOSPITAL CENTER
4.29,30.34913,-81.66391,22133.72,SHANDS JACKSONVILLE MEDICAL CENTER
4.39,26.50479,-80.06979,22956.08,BETHESDA MEMORIAL HOSPITAL
4.46,28.52517,-81.37729,23527.52,ORLANDO HEALTH
6.28,25.68309,-80.34038,38275.26,BAPTIST HOSPITAL OF MIAMI INC
6.24,25.78846,-80.21644,37950.80,UNIVERSITY OF MIAMI HOSPITAL
3.36,29.20117,-81.05828,14554.03,HALIFAX HEALTH MEDICAL CENTER
3.47,26.15053,-81.79919,15453.67,NAPLES COMMUNITY HOSPITAL
3.70,25.79143,-80.21250,17319.07,JACKSON MEMORIAL HOSPITAL
3.28,28.83363,-82.33561,13882.15,CITRUS MEMORIAL HOSPITAL
3.08,30.47650,-87.21219,12253.24,SACRED HEART HOSPITAL
3.01,30.15963,-85.64818,11674.33,BAY MEDICAL CENTER
5.60,25.86166,-80.21398,32746.94,NORTH SHORE MEDICAL CENTER
5.42,25.81317,-80.13996,31287.10,MOUNT SINAI MEDICAL CENTER
4.53,26.01867,-80.17981,24035.22,MEMORIAL REGIONAL HOSPITAL
3.47,30.30835,-81.68919,15422.67,ST VINCENT'S MEDICAL CENTER
4.24,27.19837,-80.24306,21723.12,MARTIN MEMORIAL MEDICAL CENTER
3.95,29.04263,-81.31635,19354.45,FLORIDA HOSPITAL DELAND
4.61,28.26092,-82.18802,24691.14,FLORIDA HOSPITAL ZEPHYRHILLS
3.55,26.94042,-82.04094,16123.73,CHARLOTTE REGIONAL MEDICAL CENTER
4.06,28.55140,-81.72120,20222.77,SOUTH LAKE HOSPITAL
4.24,28.13321,-82.75839,21741.33,HELEN ELLIS MEMORIAL HOSPITAL
3.27,29.17594,-82.13898,13795.43,MUNROE REGIONAL MEDICAL CENTER
3.51,27.78088,-82.65126,15773.33,ST ANTHONY'S HOSPITAL
3.02,29.24333,-81.10760,11805.73,FLORIDA HOSPITAL MEMORIAL MEDICAL CENTER
3.56,27.09043,-82.44499,16189.68,VENICE REGIONAL MEDICAL CENTER
5.00,28.53906,-82.44193,27909.67,BROOKSVILLE REGIONAL HOSPITAL
3.99,26.18711,-80.11941,19703.59,HOLY CROSS HOSPITAL INC
4.71,26.59805,-80.09271,25555.41,JFK MEDICAL CENTER
3.76,28.80659,-81.86906,17770.44,LEESBURG REGIONAL MEDICAL CENTER
3.17,26.27623,-80.12220,12982.14,BROWARD HEALTH NORTH BROWARD MEDICAL CENTER
4.82,30.31525,-81.66398,26431.56,BAPTIST MEDICAL CENTER
3.37,28.33522,-80.72319,14655.83,WUESTHOFF MEDICAL CENTER  ROCKLEDGE
3.54,30.43066,-87.23191,16054.27,BAPTIST HOSPITAL
2.68,27.65832,-80.39307,8983.93,INDIAN RIVER MEDICAL CENTER
3.77,26.61563,-81.65945,17888.81,LEHIGH REGIONAL MEDICAL CENTER
3.55,29.64155,-82.34844,16084.00,SHANDS HOSPITAL AT THE UNIVERSITY OF FLORIDA
4.17,30.27449,-81.40071,21107.32,BAPTIST MEDICAL CENTER  BEACHES
3.62,27.91798,-81.84402,16628.06,BARTOW REGIONAL MEDICAL CENTER
3.90,28.01563,-82.13900,18932.94,SOUTH FLORIDA BAPTIST HOSPITAL
2.82,30.78675,-85.24189,10120.85,JACKSON HOSPITAL
4.32,24.58076,-81.74233,22382.80,LOWER KEYS MEDICAL CENTER
3.24,30.26389,-81.44283,13538.81,MAYO CLINIC
3.72,28.06172,-81.95304,17475.70,LAKELAND REGIONAL MEDICAL CENTER
3.79,28.81611,-81.28351,18070.00,CENTRAL FLORIDA REGIONAL HOSPITAL
3.66,28.36005,-80.62309,16974.54,CAPE CANAVERAL HOSPITAL
4.31,26.26259,-80.20292,22290.46,NORTHWEST MEDICAL CENTER
4.58,27.48213,-82.62126,24439.81,BLAKE MEDICAL CENTER
5.97,26.12354,-80.25951,35750.85,WESTSIDE REGIONAL MEDICAL CENTER
3.08,29.64481,-81.69431,12309.03,PUTNAM COMMUNITY MEDICAL CENTER
5.32,27.93259,-82.28759,30537.21,BRANDON REGIONAL HOSPITAL
5.39,27.43392,-80.34350,31065.56,LAWNWOOD REGIONAL MEDICAL CENTER & HEART INSTITUTE
4.26,26.92138,-80.09708,21836.18,JUPITER MEDICAL CENTER
4.94,28.00237,-82.57309,27421.69,TOWN & COUNTRY HOSPITAL
5.65,28.36128,-82.68883,33214.19,REGIONAL MEDICAL CENTER BAYONET POINT
4.81,26.43709,-80.12728,26341.85,DELRAY MEDICAL CENTER
4.98,27.71350,-82.36512,27725.95,SOUTH BAY HOSPITAL
5.17,27.28861,-80.29431,29312.83,ST LUCIE MEDICAL CENTER
5.21,28.53585,-82.53404,29611.19,OAK HILL HOSPITAL
3.87,28.03957,-82.70875,18687.31,MEASE COUNTRYSIDE HOSPITAL
3.63,26.35614,-80.19956,16717.41,WEST BOCA MEDICAL CENTER
5.19,26.68337,-80.25269,29456.36,PALMS WEST HOSPITAL
5.86,26.01394,-80.30980,34861.47,MEMORIAL HOSPITAL WEST
4.60,26.21388,-81.73257,24653.13,PHYSICIANS REGIONAL MEDICAL CENTER - PINE RIDGE
3.89,26.70181,-80.05055,18863.00,GOOD SAMARITAN MEDICAL CENTER
3.31,26.08155,-80.36449,14157.59,CLEVELAND CLINIC HOSPITAL
3.47,27.38993,-82.43343,15430.76,LAKEWOOD RANCH MEDICAL CENTER
3.68,34.78963,-84.98398,17154.05,HAMILTON MEDICAL CENTER
3.58,31.22516,-82.34898,16301.34,SATILLA REGIONAL MEDICAL CENTER
3.23,31.59023,-84.15756,13515.65,PHOEBE PUTNEY MEMORIAL HOSPITAL
5.51,34.24569,-84.49068,32011.14,NORTHSIDE HOSPITAL CHEROKEE
3.37,33.79230,-84.32107,14643.79,EMORY UNIVERSITY HOSPITAL
2.89,33.03204,-85.05781,10753.60,WEST GEORGIA MEDICAL CENTER
3.12,33.47096,-81.98176,12629.57,UNIVERSITY HOSPITAL
3.05,34.30335,-83.81737,12009.80,NORTHEAST GEORGIA MEDICAL CENTER, INC
4.78,34.19990,-84.79378,26131.27,CARTERSVILLE MEDICAL CENTER
3.06,33.47091,-81.98988,12148.50,MEDICAL COLLEGE OF GA HOSPITALS AND CLINICS
3.92,33.96770,-84.55011,19068.63,WELLSTAR KENNESTONE HOSPITAL
3.49,33.91929,-84.85224,15589.31,WELLSTAR PAULDING HOSPITAL
3.20,31.98515,-81.15475,13251.58,ST JOSEPH'S HOSPITAL - SAVANNAH
3.50,34.26000,-85.17000,15648.83,FLOYD MEDICAL CENTER
2.86,32.61642,-83.63065,10505.23,HOUSTON MEDICAL CENTER
3.73,33.96117,-83.39832,17594.09,ATHENS REGIONAL MEDICAL CENTER
3.29,33.78956,-84.28077,13940.08,DEKALB MEDICAL CENTER
3.14,33.76810,-84.38616,12781.83,EMORY UNIVERSITY HOSPITAL MIDTOWN
3.71,33.75205,-84.38272,17396.62,GRADY MEMORIAL HOSPITAL
2.99,33.90877,-84.35180,11512.35,SAINT JOSEPH'S HOSPITAL OF ATLANTA, INC
3.69,31.47069,-83.50473,17243.28,TIFT REGIONAL MEDICAL CENTER
3.16,32.83041,-83.63476,12929.67,MEDICAL CENTER OF CENTRAL GEORGIA
6.18,33.76372,-84.37315,37522.18,ATLANTA MEDICAL CENTER
3.11,30.86250,-83.28630,12493.65,SOUTH GEORGIA MEDICAL CENTER
2.50,31.60200,-81.89172,7545.53,WAYNE MEMORIAL HOSPITAL
4.26,33.85638,-84.60446,21833.96,WELLSTAR COBB HOSPITAL
4.19,33.90903,-84.35410,21325.18,NORTHSIDE HOSPITAL
3.99,32.84705,-83.61823,19673.04,COLISEUM MEDICAL CENTER
3.83,33.57843,-84.38897,18373.13,SOUTHERN REGIONAL MEDICAL CENTER
4.70,33.48259,-82.09038,25412.87,DOCTORS HOSPITAL
2.96,33.51144,-84.22200,11280.33,HENRY MEDICAL CENTER, INC
6.09,34.06334,-84.31976,36798.38,NORTH FULTON REGIONAL HOSPITAL
4.04,33.45252,-84.50697,20070.74,PIEDMONT FAYETTE HOSPITAL
3.28,33.70365,-84.14697,13882.73,DEKALB MEDICAL CENTER AT HILLANDALE
2.78,34.06670,-84.17643,9852.77,EMORY JOHNS CREEK HOSPITAL
4.21,21.30780,-157.85505,21457.08,THE QUEENS MEDICAL CENTER
4.11,21.38095,-157.75759,20614.45,CASTLE MEDICAL CENTER
4.21,21.32239,-157.85662,21434.23,KUAKINI MEDICAL CENTER
3.63,43.61218,-116.19234,16737.47,ST LUKES REGIONAL MEDICAL CENTER
2.97,43.55374,-116.57267,11387.50,SAINT ALPHONSUS MEDICAL CENTER - NAMPA
2.98,43.46987,-111.99208,11480.17,EASTERN IDAHO REGIONAL MEDICAL CENTER
2.40,43.82551,-111.77071,6736.10,MADISON MEMORIAL HOSPITAL
3.89,42.06550,-87.68428,18869.77,EVANSTON HOSPITAL
3.83,39.93563,-91.39833,18375.97,BLESSING HOSPITAL
4.20,41.86011,-87.69571,21420.96,MT SINAI HOSPITAL MEDICAL CENTER
5.62,41.72930,-88.26976,32945.87,COPLEY MEMORIAL HOSPITAL
2.73,39.12680,-88.55059,9441.70,ST ANTHONYS MEMORIAL HOSPITAL
3.13,38.52908,-89.11604,12664.47,ST MARYS HOSPITAL
3.77,40.95560,-90.36618,17923.40,GALESBURG COTTAGE HOSPITAL
3.93,41.80160,-89.69714,19214.93,CGH MEDICAL CENTER
3.00,38.32292,-88.91026,11586.06,GOOD SAMARITAN REGIONAL HLTH CENTER
3.17,41.72636,-87.56727,13004.06,ADVOCATE TRINITY HOSPITAL
4.01,41.89141,-87.77618,19840.11,WEST SUBURBAN MEDICAL CENTER
3.75,42.05624,-87.74012,17708.92,SKOKIE HOSPITAL
3.66,38.90787,-90.17207,16998.00,SAINT ANTHONY'S HEALTH CENTER
3.55,39.80726,-89.64496,16096.14,ST JOHNS HOSPITAL
3.52,41.83195,-87.79266,15844.94,MACNEAL  HOSPITAL
3.93,41.66900,-87.81414,19188.37,PALOS COMMUNITY HOSPITAL
4.06,40.70200,-89.59222,20238.17,SAINT FRANCIS MEDICAL CENTER
4.36,42.37840,-87.83329,22705.10,VISTA MEDICAL CENTER EAST
6.29,41.78829,-87.60485,38418.85,THE UNIVERSITY OF CHICAGO MEDICAL CENTER
3.21,40.13811,-87.64569,13289.20,PROVENA UNITED SAMARITANS MEDCTR-LOGAN
3.84,41.36897,-88.42537,18452.57,MORRIS HOSPITAL & HEALTHCARE CENTERS
3.26,41.77813,-87.63330,13763.32,ST BERNARD HOSPITAL
4.83,40.11739,-88.22714,26481.94,PROVENA COVENANT MEDICAL CENTER- URBANA
4.91,41.97532,-87.69958,27166.78,SWEDISH COVENANT HOSPITAL
3.24,41.95453,-87.65225,13577.31,THOREK MEMORIAL HOSPITAL
3.08,42.31832,-88.27920,12240.33,CENTEGRA HEALTH SYSTEM - MC HENRY HOSPITAL
4.75,41.80555,-87.92059,25870.41,HINSDALE HOSPITAL
5.64,38.70148,-90.14382,33069.64,GATEWAY REGIONAL MEDICAL CENTER
3.26,40.49639,-88.99106,13730.62,BROMENN HEALTHCARE
3.42,41.76946,-87.69239,15076.04,HOLY CROSS HOSPITAL
3.41,38.73505,-88.07708,14979.12,RICHLAND MEMORIAL HOSPITAL
3.93,41.86927,-87.67052,19182.35,UNIVERSITY OF ILLINOIS HOSPITAL
3.39,41.89006,-87.70757,14813.79,SACRED HEART HOSPITAL
4.07,41.12049,-87.87187,20305.79,PROVENA ST MARYS HOSPITAL
2.90,41.84639,-87.62345,10813.29,MERCY HOSPITAL AND MEDICAL CENTER
3.14,37.72790,-89.22058,12726.19,MEMORIAL HOSPITAL OF CARBONDALE
4.57,41.78566,-88.32886,24378.33,PROVENA MERCY MEDICAL CENTER
3.35,42.27597,-88.40019,14459.33,CENTEGRA HEALTH SYSTEM - WOODSTOCK HOSPITAL
3.83,41.72094,-87.69220,18359.16,LITTLE COMPANY OF MARY HOSPITAL
5.07,41.90414,-87.68254,28430.50,ST MARY & ELIZABETH MED CTR-DIVISION CAMPUS
3.37,41.12572,-87.88526,14632.90,RIVERSIDE MEDICAL CENTER
3.30,38.51081,-89.99014,14078.55,ST ELIZABETH HOSPITAL
2.97,39.48849,-88.27581,11338.75,SARAH BUSH LINCOLN HEALTH CENTER
4.82,41.86362,-87.93567,26464.71,ELMHURST MEMORIAL HOSPITAL
4.32,42.27447,-87.95764,22397.71,ADVOCATE CONDELL MEDICAL CENTER
3.63,41.72031,-87.73249,16775.51,ADVOCATE CHRIST HOSPITAL & MEDICAL CENTER
4.06,41.88566,-88.34311,20271.03,DELNOR COMMUNITY HOSPITAL
4.58,42.03576,-88.32575,24462.23,PROVENA - SAINT JOSEPH HOSPITAL
3.82,42.03837,-87.84820,18298.60,ADVOCATE LUTHERAN GENERAL HOSPITAL
4.10,41.93418,-87.63579,20537.47,SAINT JOSEPH HOSPITAL
3.96,42.26584,-89.07428,19422.67,SWEDISH AMERICAN HOSPITAL
3.63,42.26634,-89.00900,16753.79,SAINT ANTHONY MEDICAL CENTER
3.02,41.32878,-89.12520,11773.41,ILLINOIS VALLEY COMMUNITY HOSPITAL
3.92,42.29844,-89.09897,19106.45,ROCKFORD MEMORIAL HOSPITAL
3.50,41.56720,-87.69566,15703.35,ADVOCATE SOUTH SUBURBAN HOSPITAL
4.73,41.94560,-87.76897,25716.93,OUR LADY OF THE RESURRECTION MED CTR
3.55,41.96185,-88.72130,16102.58,KISHWAUKEE COMMUNITY HOSPITAL
3.73,41.81791,-88.00907,17587.41,ADVOCATE GOOD SAMARITAN HOSPITAL
3.33,38.73818,-89.94728,14343.14,ANDERSON HOSPITAL
2.90,39.76255,-86.50165,10794.06,HENDRICKS REGIONAL HEALTH
3.95,41.61055,-86.72511,19346.85,INDIANA UNIVERSITY HEALTH LA PORTE HOSPITAL
3.34,40.44665,-86.12707,14367.25,HOWARD REGIONAL HEALTH SYSTEM
3.24,41.63466,-87.44901,13613.71,ST CATHERINE HOSPITAL INC
3.34,41.70639,-86.89936,14416.86,FRANCISCAN ST ANTHONY HEALTH - MICHIGAN CITY
3.38,41.70568,-85.93404,14707.62,ELKHART GENERAL HOSPITAL
3.22,39.94340,-85.36306,13375.55,HENRY COUNTY MEMORIAL HOSPITAL
3.18,41.51266,-87.26125,13047.05,ST MARY MEDICAL CENTER INC
4.04,41.46729,-87.05130,20119.09,PORTER VALPARAISO HOSPITAL
4.08,39.79009,-86.16260,20435.15,INDIANA UNIVERSITY HEALTH
3.13,40.04526,-86.02297,12704.00,RIVERVIEW HOSPITAL
3.37,39.78704,-86.07673,14652.35,COMMUNITY HOSPITAL EAST
3.85,37.98293,-87.57072,18544.11,DEACONESS HOSPITAL INC
3.78,39.91001,-86.19660,17998.88,ST VINCENT HOSPITAL & HEALTH SERVICES
3.36,39.11138,-84.88343,14524.93,DEARBORN COUNTY HOSPITAL
4.32,40.19679,-85.41573,22347.58,INDIANA UNIVERSITY HEALTH BALL MEMORIAL HOSPITAL
3.33,37.96320,-87.50292,14283.47,ST MARY'S MEDICAL CENTER OF EVANSVILLE INC
3.47,39.21585,-85.89683,15426.53,COLUMBUS REGIONAL HOSPITAL
4.70,41.24786,-85.82927,25434.46,KOSCIUSKO COMMUNITY HOSPITAL
3.79,39.95930,-86.16016,18039.00,INDIANA UNIVERSITY HEALTH NORTH HOSPITAL
3.58,39.64935,-86.07960,16344.37,FRANCISCAN ST FRANCIS HEALTH - INDIANAPOLIS
4.03,40.40296,-86.80885,20029.71,INDIANA UNIVERSITY HEALTH ARNETT HOSPITAL
3.08,41.66411,-91.52841,12267.50,MERCY HOSPITAL
2.74,41.70263,-93.05510,9537.88,SKIFF MEDICAL CENTER
3.18,41.98570,-91.66093,13104.72,ST LUKES HOSPITAL
3.61,41.66092,-91.54800,16543.65,UNIVERSITY OF IOWA HOSPITAL & CLINICS
2.94,43.15063,-93.21718,11146.42,MERCY MEDICAL CENTER-NORTH IOWA
2.69,41.97864,-91.65507,9107.07,MERCY MEDICAL CENTER - CEDAR RAPIDS
3.62,41.59886,-93.62344,16700.68,MERCY MEDICAL CENTER-DES MOINES
2.97,42.49632,-90.68587,11343.11,THE FINLEY HOSPITAL
3.20,42.51846,-96.40581,13234.09,ST LUKES REGIONAL MEDICAL CENTER
3.87,42.49250,-96.39975,18698.90,MERCY MEDICAL CENTER-SIOUX CITY
3.76,38.83324,-97.61028,17829.22,SALINA REGIONAL HEALTH CENTER
2.99,38.59724,-95.26874,11518.00,RANSOM MEMORIAL HOSPITAL
2.79,39.05660,-95.69599,9911.08,ST FRANCIS HEALTH CENTER INC
3.43,38.85279,-94.82413,15095.31,OLATHE MEDICAL CENTER
4.56,37.69556,-97.29785,24326.00,WESLEY MEDICAL CENTER
3.41,39.12677,-94.78643,14990.86,PROVIDENCE MEDICAL CENTER
5.97,38.93763,-94.72630,35782.82,OVERLAND PARK REG MED CTR
4.87,38.91047,-94.65205,26819.12,MENORAH MEDICAL CENTER
4.65,38.90355,-94.66966,25044.47,SAINT LUKE'S SOUTH HOSPITAL
2.49,37.73142,-97.26078,7441.92,GALICHIA HEART HOSPITAL LLC
3.00,39.07816,-84.46695,11609.73,ST ELIZABETH FT THOMAS
3.12,38.47021,-82.63498,12594.22,KING'S DAUGHTERS' MEDICAL CENTER
3.44,37.11784,-84.10910,15216.18,SAINT JOSEPH HOSPITAL LONDON
2.84,37.01079,-85.90342,10344.13,T J SAMSON COMMUNITY HOSPITAL
3.01,38.18397,-83.43268,11667.92,ST CLAIRE REGIONAL MEDICAL CENTER
2.84,36.60798,-88.30957,10313.07,MURRAY-CALLOWAY COUNTY HOSPITAL
3.58,37.27729,-83.22802,16343.70,HAZARD ARH REGIONAL MEDICAL CENTER
3.00,39.06704,-84.49946,11625.26,ST ELIZABETH MEDICAL CENTER NORTH
2.41,37.76518,-87.10197,6858.31,OWENSBORO MEDICAL HEALTH SYSTEM
4.57,37.47264,-82.52605,24426.84,PIKEVILLE MEDICAL CENTER
3.16,38.01849,-84.51236,12893.64,CENTRAL BAPTIST HOSPITAL
2.55,36.69659,-85.13726,7982.23,CLINTON COUNTY HOSPITAL, INC
2.48,37.35762,-84.33605,7361.86,ROCKCASTLE REG HOSPITAL & RESPIRATORY CARE CTR
3.57,38.16020,-84.90519,16228.08,FRANKFORT REGIONAL MEDICAL CENTER
3.68,37.08724,-84.61828,17191.46,LAKE CUMBERLAND REGIONAL HOSPITAL
2.55,37.09412,-85.29359,7933.27,WESTLAKE REGIONAL HOSPITAL
3.29,30.20227,-92.01906,13978.65,LAFAYETTE GENERAL MEDICAL CENTER
3.29,29.59851,-90.71397,13971.90,TERREBONNE GENERAL MEDICAL CENTER
3.12,30.22981,-93.36867,12561.90,WEST CALCASIEU CAMERON HOSPITAL
5.46,30.46813,-90.45814,31667.39,NORTH OAKS MEDICAL CENTER, LLC
3.00,30.54354,-92.07608,11595.94,OPELOUSAS GENERAL HEALTH SYSTEM
3.72,31.28258,-92.46060,17505.20,CHRISTUS ST FRANCES CABRINI HOSPITAL
4.38,31.31451,-92.44997,22821.33,RAPIDES REGIONAL MEDICAL CENTER
4.30,30.28456,-89.77038,22198.75,SLIDELL MEMORIAL HOSPITAL AND MEDICAL CENTER
4.91,30.20458,-93.19774,27160.50,LAKE CHARLES MEMORIAL HOSPITAL
3.17,30.40118,-91.11160,12988.85,OUR LADY OF THE LAKE REGIONAL MEDICAL CENTER
3.22,30.45015,-91.15273,13393.05,BATON ROUGE GENERAL MEDICAL CENTER
3.92,32.51544,-92.63343,19144.12,NORTHERN LOUISIANA MEDICAL CENTER
2.56,32.48177,-93.76264,8068.70,LSU HEALTH SCIENCES CENTER - SHREVEPORT
3.66,32.48393,-93.77884,16960.83,WILLIS KNIGHTON MEDICAL CENTER
2.38,32.03593,-93.70910,6552.36,DESOTO REGIONAL HEALTH SYSTEM
2.84,32.61700,-93.28566,10290.08,MINDEN MEDICAL CENTER
3.18,30.01438,-90.18155,13068.69,EAST JEFFERSON GENERAL HOSPITAL
3.75,31.13861,-93.26892,17687.67,BYRD REGIONAL HOSPITAL
3.03,43.65159,-70.26482,11834.23,MERCY HOSPITAL
2.92,43.65325,-70.27533,10982.44,MAINE MEDICAL CENTER
2.76,44.10107,-70.21432,9648.30,CENTRAL MAINE MEDICAL CENTER
2.78,47.26827,-68.59140,9869.43,NORTHERN MAINE MEDICAL CENTER
2.90,44.14436,-69.08577,10772.53,PENOBSCOT BAY MEDICAL CENTER
2.30,39.62183,-77.68219,5958.82,MERITUS MEDICAL CENTER
2.77,39.28817,-76.62438,9772.45,UNIVERSITY OF MARYLAND MEDICAL CENTER
2.68,38.93090,-76.92161,9030.04,PRINCE GEORGES HOSPITAL CENTER
2.45,39.01578,-77.03591,7162.33,HOLY CROSS HOSPITAL
2.46,39.42366,-77.41386,7239.43,FREDERICK MEMORIAL HOSPITAL
2.19,39.54345,-76.09153,5036.46,HARFORD MEMORIAL HOSPITAL
2.44,39.38813,-76.61068,7059.39,SAINT JOSEPH MEDICAL CENTER
3.28,39.29688,-76.59242,13925.37,JOHNS HOPKINS HOSPITAL, THE
2.46,39.27352,-76.67219,7245.24,SAINT AGNES HOSPITAL
2.64,39.35262,-76.66196,8655.90,SINAI HOSPITAL OF BALTIMORE
2.32,39.35169,-76.47919,6054.42,FRANKLIN SQUARE HOSPITAL CENTER
2.33,39.15402,-77.05431,6191.90,MONTGOMERY GENERAL HOSPITAL INC
2.36,38.36248,-75.59799,6422.65,PENINSULA REGIONAL MEDICAL CENTER
2.48,38.99014,-76.53398,7411.75,ANNE ARUNDEL MEDICAL CENTER
2.51,39.32930,-76.61432,7617.88,UNION MEMORIAL HOSPITAL
2.34,38.29124,-76.63579,6288.16,SAINT MARY'S HOSPITAL
2.36,39.60859,-75.83201,6409.42,UNION HOSPITAL OF CECIL COUNTY
2.46,39.55808,-76.99107,7260.89,CARROLL HOSPITAL CENTER
2.27,38.52905,-76.97068,5673.78,CIVISTA MEDICAL CENTER
2.50,38.76970,-76.07697,7552.41,MEMORIAL HOSPITAL AT EASTON
2.60,39.29994,-76.62138,8361.71,MARYLAND GENERAL  HOSPITAL
2.47,38.55963,-76.59455,7342.72,CALVERT MEMORIAL HOSPITAL
2.41,39.35852,-76.78208,6786.34,NORTHWEST HOSPITAL CENTER
2.21,39.13732,-76.62228,5186.84,BALTIMORE WASHINGTON  MEDICAL CENTER
2.34,39.21273,-76.88526,6240.97,HOWARD COUNTY GENERAL HOSPITAL
2.15,39.51870,-76.34688,4729.12,UPPER CHESAPEAKE MEDICAL CENTER
2.45,38.74827,-76.87590,7126.99,SOUTHERN MARYLAND HOSPITAL CENTER
2.39,39.35962,-76.58851,6635.51,GOOD SAMARITAN HOSPITAL
2.37,39.09796,-77.19799,6461.15,SHADY GROVE ADVENTIST HOSPITAL
2.30,38.33876,-75.21128,5944.08,ATLANTIC GENERAL HOSPITAL
3.03,42.37441,-71.13378,11839.90,MOUNT AUBURN HOSPITAL
2.70,42.70912,-71.14877,9198.13,LAWRENCE GENERAL HOSPITAL
2.77,41.69217,-71.16474,9781.32,SAINT ANNE'S HOSPITAL
2.26,42.81476,-70.89068,5611.44,ANNA JAQUES HOSPITAL
3.20,42.16849,-72.34130,13210.23,WING MEMORIAL HOSPITAL AND MEDICAL CENTER
2.54,42.56407,-70.87543,7839.88,BEVERLY HOSPITAL CORPORATION
3.86,42.51078,-70.90712,18641.29,NORTH SHORE MEDICAL CENTER
2.70,42.34896,-71.14768,9183.62,ST ELIZABETH'S MEDICAL CENTER
2.70,42.35375,-71.55485,9207.87,MARLBOROUGH HOSPITAL
2.42,42.03597,-71.09792,6879.00,SIGNATURE HEALTHCARE BROCKTON HOSPITAL
2.32,41.94445,-70.64511,6072.71,JORDAN HOSPITAL INC
2.73,42.64636,-71.34118,9454.08,LOWELL GENERAL HOSPITAL
2.57,42.46049,-71.06203,8157.08,HALLMARK HEALTH SYSTEM
5.46,42.36227,-71.06941,31616.54,MASSACHUSETTS GENERAL HOSPITAL
2.33,41.90456,-71.09562,6148.29,MORTON HOSPITAL
2.89,41.70928,-71.14519,10766.58,SOUTHCOAST HOSPITAL GROUP, INC
3.38,42.12077,-72.60525,14709.36,BAYSTATE MEDICAL CENTER
2.52,42.72846,-71.16830,7744.28,HOLY FAMILY HOSPITAL
2.48,42.64529,-71.30052,7359.44,SAINTS  MEDICAL CENTER INC
2.61,42.58660,-71.98678,8424.61,HEYWOOD HOSPITAL
2.60,42.17644,-70.95398,8329.70,SOUTH SHORE HOSPITAL
4.48,42.33600,-71.10704,23648.02,BRIGHAM AND WOMEN'S HOSPITAL
2.40,42.09864,-71.06607,6746.03,GOOD SAMARITAN MEDICAL CENTER
2.51,42.34951,-71.06331,7670.54,TUFTS MEDICAL CENTER
2.59,42.18869,-71.20197,8274.23,NORWOOD HOSPITAL
2.44,42.63347,-83.30925,7082.36,DOCTORS' HOSPITAL OF MICHIGAN
2.48,42.76256,-71.04507,7362.23,MERRIMACK VALLEY HOSPITAL
2.67,42.28385,-71.41896,8914.26,METROWEST MEDICAL CENTER
2.84,43.20588,-86.20839,10298.53,MERCY HEALTH PARTNERS, MERCY CAMPUS
3.34,42.45741,-83.20513,14405.04,PROVIDENCE HOSPITAL AND MEDICAL CENTERS
3.17,42.29077,-83.21504,12991.46,OAKWOOD HOSPITAL AND MEDICAL CENTER
2.89,42.61425,-83.27602,10690.14,ST JOSEPH MERCY OAKLAND
2.82,42.96881,-85.66649,10146.14,SPECTRUM HEALTH - BUTTERWORTH CAMPUS
3.14,43.58941,-83.86908,12747.06,MCLAREN BAY REGION
2.74,42.61490,-82.96060,9477.19,HENRY FORD MACOMB HOSPITAL
3.47,42.36762,-83.08461,15465.36,HENRY FORD HOSPITAL
3.15,43.42857,-83.95556,12803.08,COVENANT MEDICAL CENTER, INC
3.02,42.33111,-85.17817,11775.32,BRONSON BATTLE CREEK HOSPITAL
3.31,43.42612,-83.94185,14142.44,ST MARY'S OF MICHIGAN MEDICAL CENTER
3.67,42.25117,-84.39240,17076.81,ALLEGIANCE HEALTH
2.23,44.26333,-84.24625,5319.45,WEST BRANCH REGIONAL MEDICAL CENTER
2.32,41.79423,-85.40861,6087.17,STURGIS HOSPITAL
3.81,43.02135,-83.70308,18187.87,HURLEY MEDICAL CENTER
2.95,42.21065,-83.14861,11239.44,HENRY FORD WYANDOTTE HOSPITAL
3.86,42.70417,-84.55488,18608.73,MCLAREN - GREATER LANSING
3.05,42.11695,-83.21365,11989.67,OAKWOOD SOUTHSHORE MEDICAL CENTER
3.12,42.98625,-82.42802,12631.63,PORT HURON HOSPITAL
2.66,42.33215,-83.31195,8855.82,GARDEN CITY HOSPITAL
3.21,42.67850,-83.14771,13328.30,CRITTENTON HOSPITAL MEDICAL CENTER
3.37,42.61826,-83.09239,14599.28,WILLIAM BEAUMONT HOSPITAL-TROY
3.37,42.35295,-83.05447,14626.86,DETROIT RECEIVING HOSPITAL & UNIV HEALTH CENTER
2.94,42.59290,-83.49920,11103.19,HURON VALLEY-SINAI HOSPITAL
3.36,42.35178,-83.05779,14568.65,KARMANOS CANCER CENTER
3.27,42.53914,-83.40777,13855.87,HENRY FORD WEST BLOOMFIELD HOSPITAL
3.42,46.79380,-92.09573,15030.41,ESSENTIA HEALTH ST MARY'S MEDICAL CENTER
3.51,44.97210,-93.26240,15803.47,HENNEPIN COUNTY MEDICAL CENTER
3.34,45.57390,-94.16942,14382.30,ST CLOUD HOSPITAL
3.43,47.41117,-92.93183,15148.29,UNIVERSITY MEDICAL CENTER-MESABI/ MESABA CLINICS
2.63,44.03521,-91.62181,8606.27,WINONA HEALTH SERVICES
3.02,46.79634,-92.08793,11804.67,ST LUKES HOSPITAL
3.30,46.27712,-96.07244,14092.92,LAKE REGION HEALTHCARE CORPORATION
4.19,44.95248,-93.26196,21331.34,ABBOTT NORTHWESTERN HOSPITAL
3.71,44.02354,-92.46588,17411.38,MAYO CLINIC METHODIST HOSPITAL
3.14,46.36166,-94.20573,12765.59,ESSENTIA HEALTH ST JOSEPH'S MEDICAL CENTER
3.78,44.88645,-93.32693,17947.50,FAIRVIEW SOUTHDALE HOSPITAL
3.17,44.77252,-93.50323,13016.05,ST FRANCIS REGIONAL MEDICAL CENTER
3.87,44.95570,-93.09429,18675.88,REGIONS HOSPITAL
3.92,45.18355,-93.36789,19133.31,MERCY HOSPITAL
4.27,45.10789,-93.25685,21929.95,UNITY HOSPITAL
3.93,44.74846,-93.27289,19226.21,FAIRVIEW RIDGES HOSPITAL
2.88,34.24336,-88.71753,10663.83,NORTH MISSISSIPPI MEDICAL CENTER
3.17,34.49648,-89.03326,13031.07,BAPTIST MEMORIAL HOSPITAL UNION COUNTY
3.14,34.34899,-89.52062,12775.92,BAPTIST MEMORIAL HOSPITAL NORTH MS
2.49,31.24000,-90.45000,7473.53,SOUTHWEST MS REGIONAL MEDICAL CENTER
3.72,33.51824,-90.19832,17510.18,GREENWOOD LEFLORE HOSPITAL
3.20,32.31643,-90.17922,13258.85,MISSISSIPPI BAPTIST MEDICAL CENTER
3.96,32.37280,-88.69954,19429.00,ANDERSON REGIONAL MEDICAL CENTER
2.68,30.52996,-89.68782,9002.58,HIGHLAND COMMUNITY  HOSPITAL
5.29,31.56044,-91.40317,30260.63,NATCHEZ COMMUNITY HOSPITAL/SWING BED
3.37,30.31288,-89.35571,14667.12,HANCOCK MEDICAL CENTER
3.84,37.06032,-94.52747,18458.92,ST JOHN'S REGIONAL MEDICAL CENTER
4.02,37.95144,-91.75940,19930.00,PHELPS COUNTY REGIONAL MEDICAL CENTER
2.61,38.16498,-90.38082,8488.53,JEFFERSON REGIONAL MEDICAL CENTER
2.83,39.71116,-91.45071,10254.53,HANNIBAL REGIONAL HOSPITAL
6.01,39.00717,-94.55925,36081.28,RESEARCH MEDICAL CENTER
3.41,38.63524,-90.26508,14982.13,BARNES JEWISH HOSPITAL
3.83,38.24953,-94.34075,18355.95,BATES COUNTY MEMORIAL HOSPITAL
3.21,39.08401,-94.57591,13300.30,TRUMAN MEDICAL CENTER HOSPITAL HILL
3.24,39.73178,-94.23067,13608.41,CAMERON REGIONAL MEDICAL CENTER
3.73,37.17999,-93.27409,17527.95,ST JOHN'S REGIONAL HEALTH CENTER
3.00,38.94903,-92.31563,11583.68,BOONE HOSPITAL CENTER
2.82,38.50661,-90.38025,10162.71,ST ANTHONY'S MEDICAL CENTER
4.78,38.63268,-90.31089,26074.53,SSM ST MARYS HEALTH CENTER
3.22,36.64970,-93.22138,13417.68,SKAGGS REGIONAL MEDICAL CENTER
4.24,39.04749,-94.34105,21718.52,CENTERPOINT MEDICAL CENTER OF INDEPENDENCE, LLC
3.54,38.75097,-90.43255,16022.29,SSM DEPAUL HEALTH CENTER
4.22,38.62280,-90.24049,21530.31,ST LOUIS UNIVERSITY HOSPITAL
4.65,37.31072,-89.53990,25017.33,SOUTHEAST MISSOURI HOSPITAL
3.05,37.79962,-90.44045,12011.04,MINERAL AREA REGIONAL MEDICAL CENTER
5.03,36.78510,-90.42779,28134.43,POPLAR BLUFF REGIONAL MEDICAL CENTER
3.50,37.05238,-94.52777,15690.83,FREEMAN HEALTH SYSTEM - FREEMAN WEST
4.50,39.04761,-94.59037,23836.96,ST LUKES HOSPITAL OF KANSAS CITY
3.40,38.95171,-92.33407,14864.68,UNIVERSITY OF MISSOURI HEALTH CARE
2.77,38.05155,-93.68915,9771.75,SAC-OSAGE HOSPITAL
3.27,39.27591,-94.42572,13788.52,LIBERTY HOSPITAL
3.39,38.77576,-90.23906,14810.84,CHRISTIAN HOSPITAL NORTHEAST
3.57,38.12027,-92.68146,16268.72,LAKE REGIONAL HEALTH SYSTEM
4.87,38.90359,-94.33308,26833.50,LEE'S SUMMIT MEDICAL CENTER
4.25,38.94062,-94.37842,21794.68,SAINT LUKE'S EAST LEE'S SUMMIT HOSPITAL
2.65,46.58297,-111.99684,8748.72,ST PETER'S HOSPITAL
3.48,46.00924,-112.54613,15545.75,ST JAMES HEALTHCARE
3.67,40.70646,-99.08136,17063.73,GOOD SAMARITAN HOSPITAL
3.67,41.25522,-95.97892,17066.25,THE NEBRASKA MEDICAL CENTER
3.43,40.80816,-96.62689,15099.77,SAINT ELIZABETH REGIONAL MEDICAL CENTER
3.57,40.92425,-98.37053,16294.46,ST FRANCIS MEDICAL CENTER
3.63,41.25797,-96.04164,16717.42,THE NEBRASKA METHODIST HOSPITAL
3.43,41.88690,-103.66400,15120.80,REGIONAL WEST MEDICAL CENTER
3.05,41.12081,-100.77062,12052.20,GREAT PLAINS REGIONAL MEDICAL CENTER
3.21,41.45152,-96.49184,13348.20,FREMONT AREA MEDICAL CENTER
3.26,41.13585,-96.04011,13720.06,ALEGENT HEALTH MIDLANDS HOSPITAL
2.74,41.45328,-97.38382,9490.44,COLUMBUS COMMUNITY HOSPITAL
3.07,42.03257,-97.45100,12173.95,FAITH REGIONAL HEALTH SERVICES
3.55,41.23771,-96.18052,16059.27,ALEGENT HEALTH LAKESIDE HOSPITAL
5.76,36.13459,-115.13576,34073.08,SUNRISE HOSPITAL AND MEDICAL CENTER
3.21,39.47582,-118.76547,13360.20,BANNER CHURCHILL COMMUNITY HOSPITAL
4.57,39.53066,-119.82067,24363.42,SAINT MARY'S REGIONAL MEDICAL CENTER
5.59,36.03931,-114.98259,32709.18,SAINT ROSE DOMINICAN HOSPITAL - DE LIMA
3.88,39.20247,-119.78446,18802.89,CARSON TAHOE REGIONAL MEDICAL CENTER
5.52,36.16380,-115.16574,32096.67,VALLEY HOSPITAL MEDICAL CENTER
4.99,36.21599,-115.25095,27808.72,MOUNTAINVIEW HOSPITAL
5.86,36.16586,-115.32436,34921.22,SUMMERLIN HOSPITAL MEDICAL CENTER
5.64,36.00527,-115.11618,33079.03,SAINT ROSE DOMINICAN HOSPITAL - SIENA CAMPUS
5.04,36.28588,-115.28772,28216.72,CENTENNIAL HILLS HOSPITAL MEDICAL CENTER
3.69,43.19846,-71.56230,17245.42,CONCORD HOSPITAL
3.29,43.67286,-72.27232,13992.18,MARY HITCHCOCK MEMORIAL HOSPITAL
3.58,42.75004,-71.48100,16337.77,ST JOSEPH HOSPITAL
2.95,43.00792,-71.46807,11204.38,ELLIOT HOSPITAL
3.32,43.21231,-70.87499,14212.82,WENTWORTH-DOUGLASS HOSPITAL
3.34,42.75623,-71.46059,14371.50,SOUTHERN NH MEDICAL CENTER
3.31,42.98369,-70.93511,14176.17,EXETER HOSPITAL INC
3.97,43.06469,-70.78916,19544.04,PORTSMOUTH REGIONAL HOSPITAL
7.62,40.88346,-74.05564,49179.77,HACKENSACK UNIVERSITY MEDICAL CENTER
9.70,40.71011,-74.21368,66143.97,NEWARK BETH ISRAEL MEDICAL CENTER
5.04,40.79576,-73.99575,28211.15,PALISADES MEDICAL CTR-NY PRESBYTERIAN HEALTHCARE S
3.62,40.53142,-74.86080,16682.25,HUNTERDON MEDICAL CENTER
5.14,40.88275,-74.01021,29060.41,HOLY NAME MEDICAL CENTER
4.59,40.35684,-74.66166,24537.91,UNIVERSITY MEDICAL CENTER AT PRINCETON
3.36,39.08752,-74.81657,14566.32,CAPE REGIONAL MEDICAL CENTER INC
4.68,40.98359,-74.10047,25309.44,VALLEY HOSPITAL
5.80,39.94152,-75.11680,34384.36,COOPER UNIVERSITY HOSPITAL
5.06,40.78883,-74.46620,28396.38,MORRISTOWN MEMORIAL HOSPITAL
6.78,40.73417,-74.04977,42379.36,CHRIST HOSPITAL
6.10,39.78261,-74.91670,36872.32,VIRTUA WEST JERSEY HOSPITALS BERLIN
4.94,39.44743,-75.05838,27444.42,SOUTH JERSEY HEALTHCARE REGIONAL MEDICAL CENTER
5.61,40.35309,-74.06484,32852.50,RIVERVIEW MEDICAL CENTER
7.57,40.51891,-74.28183,48798.79,RARITAN BAY MEDICAL CENTER
6.81,40.29209,-74.80327,42658.08,CAPITAL HEALTH MEDICAL CENTER - HOPEWELL
5.57,40.90400,-73.96847,32527.84,ENGLEWOOD HOSPITAL AND MEDICAL CENTER
5.19,40.89538,-74.46479,29417.44,SAINT CLARE'S HOSPITAL
5.19,40.71264,-74.35460,29456.15,OVERLOOK HOSPITAL
5.87,40.07832,-74.13009,34957.82,OCEAN MEDICAL CENTER
4.47,40.81058,-74.20459,23597.64,MOUNTAINSIDE HOSPITAL
4.67,40.95698,-74.06295,25231.09,BERGEN REGIONAL MEDICAL CENTER
6.00,40.04632,-74.88059,35989.80,LOURDES MEDICAL CENTER OF BURLINGTON COUNTY
6.97,39.35775,-74.43449,43914.32,ATLANTICARE REGIONAL MEDICAL CENTER - CITY DIV
7.36,40.76190,-74.30335,47082.46,SAINT BARNABAS MEDICAL CENTER
5.51,40.75402,-74.21335,32033.18,EAST ORANGE GENERAL HOSPITAL
6.60,40.07503,-74.21832,40927.46,KIMBALL MEDICAL CENTER
9.06,40.23629,-74.75256,60900.17,CAPITAL HEALTH SYSTEM-FULD CAMPUS
6.05,40.55784,-74.34970,36434.67,JFK MEDICAL CTR - ANTHONY M. YELENCSICS COMMUNITY
6.47,40.21575,-74.67273,39852.58,ROBERT WOOD JOHNSON UNIVERSITY HOSPITAL HAMILTON
3.56,35.65960,-105.94578,16156.83,ST VINCENT HOSPITAL
2.87,36.72387,-108.21749,10597.91,SAN JUAN REGIONAL MEDICAL CENTER
2.83,36.37076,-105.57950,10245.80,HOLY CROSS HOSPITAL A DIV OF TAOS HEALTH SYSTEMS
2.78,34.14937,-103.39063,9806.45,ROOSEVELT GENERAL HOSPITAL
3.27,32.32310,-106.72900,13791.13,MOUNTAIN VIEW REGIONAL MEDICAL CENTER
3.63,41.92720,-73.99535,16757.73,KINGSTON HOSPITAL
2.96,42.87482,-78.84942,11268.36,KALEIDA HEALTH
2.63,40.92963,-73.89840,8602.00,ST JOSEPH'S MEDICAL CENTER
2.56,42.09299,-75.93704,8009.56,OUR LADY OF LOURDES MEMORIAL HOSPITAL, INC
4.07,42.65345,-73.77543,20313.96,ALBANY MEDICAL CENTER HOSPITAL
2.88,40.70141,-73.81630,10640.56,JAMAICA HOSPITAL MEDICAL CENTER
5.01,41.69441,-73.93432,27950.63,VASSAR BROTHERS MEDICAL CENTER
4.27,40.79041,-73.95386,21914.51,MOUNT SINAI HOSPITAL
3.41,40.72548,-73.55287,14969.41,NASSAU UNIVERSITY MEDICAL CENTER
4.07,40.63588,-74.10556,20347.91,RICHMOND UNIVERSITY MEDICAL CENTER
2.85,43.06066,-77.10072,10399.25,NEWARK-WAYNE COMMUNITY HOSPITAL
3.20,43.09840,-75.27819,13275.71,FAXTON-ST LUKE'S HEALTHCARE
4.85,40.80556,-73.96131,26650.19,ST LUKE'S ROOSEVELT HOSPITAL
2.91,42.95425,-74.21527,10887.30,ST MARY'S HOSPITAL AT AMSTERDAM
4.17,40.74722,-73.82521,21175.62,NEW YORK HOSPITAL MEDICAL CENTER OF QUEENS
3.66,40.68983,-73.97794,17004.88,BROOKLYN HOSPITAL CENTER AT DOWNTOWN CAMPUS
3.69,42.65583,-73.80372,17235.07,ST PETER'S HOSPITAL
4.47,41.71846,-73.92710,23578.95,ST FRANCIS HOSPITAL
2.65,42.87616,-77.28907,8767.90,F F THOMPSON HOSPITAL
2.52,40.81770,-73.92401,7689.57,LINCOLN MEDICAL & MENTAL HEALTH CENTER
2.71,44.85685,-74.29199,9241.27,ALICE HYDE MEDICAL CENTER
2.54,42.45748,-75.05244,7888.41,AURELIA OSBORN FOX MEMORIAL HOSPITAL
5.06,41.11039,-72.36128,28366.60,EASTERN LONG ISLAND HOSPITAL
3.07,42.10076,-76.82800,12178.00,ARNOT OGDEN MEDICAL CENTER
2.72,42.24595,-73.77855,9361.61,COLUMBIA MEMORIAL HOSPITAL
2.35,42.09049,-78.42780,6343.81,OLEAN GENERAL HOSPITAL
4.72,41.09642,-73.92501,25635.04,NYACK HOSPITAL
5.21,40.77686,-73.70212,29562.08,NORTH SHORE UNIVERSITY HOSPITAL
4.16,40.93376,-72.67383,21045.10,PECONIC BAY MEDICAL CENTER
3.45,42.09221,-76.79733,15292.33,ST JOSEPH'S HOSPITAL, INC
2.95,43.19244,-77.58590,11237.09,ROCHESTER GENERAL HOSPITAL
5.07,41.44138,-74.36821,28471.06,ORANGE REGIONAL MEDICAL CENTER
2.92,43.05571,-76.14981,10943.07,ST JOSEPH'S HOSPITAL HEALTH CENTER
5.50,40.78000,-72.97763,31965.15,BROOKHAVEN MEMORIAL HOSPITAL MEDICAL CENTER
3.10,42.81963,-73.91653,12444.06,ELLIS HOSPITAL
3.26,41.19677,-73.72572,13760.25,NORTHERN WESTCHESTER HOSPITAL
2.48,43.17738,-78.67123,7393.32,EASTERN NIAGARA HOSPITAL
4.58,40.73265,-73.98162,24468.84,BETH ISRAEL MEDICAL CENTER
2.50,42.60884,-76.18764,7539.39,CORTLAND REGIONAL MEDICAL CENTER, INC
2.97,42.73354,-73.67249,11364.50,SAMARITAN HOSPITAL
3.71,40.80462,-73.67023,17359.16,ST FRANCIS HOSPITAL, ROSLYN
3.23,40.91276,-73.78720,13497.22,SOUND SHORE MEDICAL CENTER OF WESTSCHESTER
2.59,43.30652,-73.64663,8319.97,GLENS FALLS HOSPITAL
3.10,40.75543,-73.81532,12425.37,FLUSHING HOSPITAL MEDICAL CENTER
5.18,40.75332,-73.70899,29347.65,LONG ISLAND JEWISH MEDICAL CENTER
3.87,40.65189,-73.63096,18702.47,SOUTH NASSAU COMMUNITIES HOSPITAL
4.80,40.65957,-73.93378,26252.00,KINGSBROOK JEWISH MEDICAL CENTER
3.13,40.96967,-73.88447,12667.29,ST JOHN'S RIVERSIDE HOSPITAL
4.96,40.74335,-73.97408,27589.57,NYU HOSPITALS CENTER
3.37,43.22952,-75.44361,14645.05,ROME MEMORIAL HOSPITAL, INC
2.63,43.45491,-76.51645,8599.72,OSWEGO HOSPITAL
3.02,42.92531,-78.83111,11754.92,ERIE COUNTY MEDICAL CENTER
3.62,40.70419,-73.91754,16650.77,WYCKOFF HEIGHTS MEDICAL CENTER
3.15,43.08561,-73.79712,12865.68,SARATOGA HOSPITAL
2.71,44.93579,-74.90736,9271.33,MASSENA MEMORIAL HOSPITAL
3.73,40.59411,-73.65106,17588.96,LONG BEACH MEDICAL CENTER
3.05,42.74285,-73.67673,12065.33,SETON HEALTH SYSTEM-ST MARY'S CAMPUS
2.89,43.19054,-77.70177,10741.16,UNITY HOSPITAL OF ROCHESTER
3.38,40.71730,-73.80353,14719.84,QUEENS HOSPITAL CENTER
3.27,40.65533,-73.91221,13856.47,BROOKDALE HOSPITAL MEDICAL CENTER
6.39,41.08773,-73.80395,39228.69,WESTCHESTER MEDICAL CENTER
3.03,42.94136,-76.56474,11894.94,AUBURN COMMUNITY HOSPITAL
3.34,40.66762,-73.97850,14415.23,NEW YORK METHODIST HOSPITAL
3.10,40.81477,-73.94027,12425.36,HARLEM HOSPITAL CENTER
4.15,43.04269,-76.14043,21010.36,UNIVERSITY HOSPITAL S U N Y HEALTH SCIENCE CENTER
4.44,40.94779,-73.06033,23347.00,ST CHARLES HOSPITAL
4.58,41.10880,-73.86355,24499.93,PHELPS MEMORIAL HOSPITAL ASSN
5.02,41.50307,-74.01517,28055.58,ST LUKE'S CORNWALL HOSPITAL
2.47,42.96043,-77.13637,7326.44,CLIFTON SPRINGS HOSPITAL AND CLINIC
3.43,43.06952,-74.33001,15092.71,NATHAN LITTAUER HOSPITAL
2.62,42.84782,-78.81264,8491.35,MERCY HOSPITAL
5.41,40.69327,-73.29412,31237.96,GOOD SAMARITAN HOSPITAL MEDICAL CENTER
2.62,40.64666,-74.02049,8519.53,LUTHERAN MEDICAL CENTER
2.36,42.47286,-76.53849,6432.92,CAYUGA MEDICAL CENTER AT ITHACA
3.70,40.72593,-73.47844,17277.89,ST JOSEPH HOSPITAL
3.79,40.88512,-72.38030,18023.55,SOUTHAMPTON HOSPITAL
3.79,40.65508,-73.94521,18073.92,UNIVERSITY HOSPITAL OF BROOKLYN ( DOWNSTATE )
3.02,42.11422,-75.95851,11803.42,UNITED HEALTH SERVICES HOSPITALS, INC
3.57,40.59803,-73.75296,16244.44,ST JOHN'S EPISCOPAL HOSPITAL AT SOUTH SHORE
5.00,40.85738,-73.18681,27885.55,ST CATHERINE OF SIENA HOSPITAL
3.11,35.57658,-82.54922,12508.47,MEMORIAL MISSION HOSPITAL AND ASHEVILLE SURGERY CE
3.17,35.95000,-80.00000,13025.38,HIGH POINT REGIONAL HOSPITAL
3.08,34.75124,-79.46789,12289.76,SCOTLAND MEMORIAL HOSPITAL
3.27,36.07581,-80.29779,13822.89,FORSYTH MEMORIAL HOSPITAL
3.22,35.68172,-80.47072,13402.14,ROWAN REGIONAL MEDICAL CENTER
3.32,35.30288,-81.53571,14212.31,CLEVELAND REGIONAL MEDICAL CENTER
3.31,35.29053,-77.58307,14137.11,LENOIR MEMORIAL HOSPITAL
3.71,36.00850,-78.94006,17433.55,DUKE UNIVERSITY HOSPITAL
3.63,35.60726,-77.40477,16768.85,PITT COUNTY MEMORIAL HOSPITAL
3.11,34.76273,-77.38582,12516.25,ONSLOW MEMORIAL HOSPITAL
3.06,36.09062,-80.27161,12073.00,NORTH CAROLINA BAPTIST HOSPITAL
3.19,35.22196,-80.83287,13161.77,PRESBYTERIAN HOSPITAL
3.65,35.90529,-79.04963,16898.78,UNIVERSITY OF NORTH CAROLINA HOSPITAL
3.14,34.33747,-78.69425,12750.47,COLUMBUS REGIONAL HEALTHCARE SYSTEM
3.94,35.78523,-78.58836,19296.61,WAKEMED, RALEIGH CAMPUS
2.90,36.06347,-79.50208,10804.07,ALAMANCE REGIONAL MEDICAL CENTER
2.88,36.09251,-79.78855,10649.33,MOSES H CONE MEMORIAL HOSPITAL, THE
3.10,35.21029,-80.82084,12418.16,CAROLINAS MED CENTER-MERCY
2.93,36.28555,-76.99489,11055.83,ROANOKE CHOWAN HOSPITAL
4.05,34.90228,-79.71125,20201.60,SANDHILLS REGIONAL MEDICAL CENTER
3.22,36.32690,-76.22370,13404.79,ALBEMARLE HOSPITAL AUTHORITY
3.68,35.71850,-77.94518,17134.54,WILSON MEDICAL CENTER
3.59,35.54775,-80.85563,16396.64,LAKE NORMAN REGIONAL MEDICAL CENTER
2.72,34.72615,-76.75452,9352.92,CARTERET GENERAL HOSPITAL
2.86,36.43295,-77.64729,10515.00,HALIFAX REGIONAL MEDICAL CENTER INC
3.99,36.04960,-78.90617,19690.50,DURHAM REGIONAL HOSPITAL
2.67,36.40660,-78.98563,8922.16,PERSON MEMORIAL HOSPITAL
2.75,35.52586,-82.94351,9571.50,MEDWEST HAYWOOD
2.86,48.23258,-101.28843,10442.80,TRINITY HOSPITALS
2.94,46.88496,-96.78609,11153.40,SANFORD MEDICAL CENTER FARGO
2.57,46.80798,-100.78229,8138.24,MEDCENTER ONE
2.72,47.91045,-97.06742,9342.79,ALTRU HOSPITAL
2.70,46.83250,-96.82805,9181.77,ESSENTIA HEALTH-FARGO
2.83,39.08582,-84.34886,10198.00,MERCY HOSPITAL ANDERSON
3.37,39.13707,-84.50392,14617.42,UNIVERSITY HOSPITAL, INC
3.64,40.03064,-83.03440,16819.13,RIVERSIDE METHODIST HOSPITAL
2.77,38.75320,-82.97800,9784.35,SOUTHERN OHIO MEDICAL CENTER
4.07,40.73578,-84.08630,20361.09,LIMA MEMORIAL HEALTH SYSTEM
3.28,39.20680,-84.38093,13871.61,JEWISH HOSPITAL, LLC
3.33,39.96098,-82.99077,14335.04,GRANT MEDICAL CENTER
3.55,41.01476,-81.58913,16115.43,SUMMA HEALTH SYSTEM BARBERTON HOSPITAL
2.76,41.44642,-82.70864,9639.06,FIRELANDS REGIONAL MEDICAL CENTER
3.48,41.07747,-81.53042,15526.52,AKRON GENERAL MEDICAL CENTER
2.70,41.37576,-83.66556,9162.50,WOOD COUNTY HOSPITAL
2.85,41.38265,-81.73127,10406.55,PARMA COMMUNITY GENERAL HOSPITAL
3.83,41.61788,-83.61632,18356.67,UNIVERSITY OF TOLEDO MEDICAL CENTER
4.98,39.74547,-84.18523,27692.58,MIAMI VALLEY HOSPITAL
4.26,39.78778,-84.23493,21846.15,GOOD SAMARITAN HOSPITAL
2.75,38.84439,-82.23902,9611.09,HOLZER MEDICAL CENTER
3.31,39.31257,-84.51774,14116.39,MERCY HOSPITAL FAIRFIELD
3.25,41.22570,-82.60491,13687.87,FISHER-TITUS HOSPITAL
2.63,40.81219,-81.39625,8648.00,MERCY MEDICAL CENTER
2.67,39.71750,-82.57772,8934.27,FAIRFIELD MEDICAL CENTER
2.95,41.17554,-81.24915,11205.33,ROBINSON MEMORIAL HOSPITAL
3.45,41.63639,-83.48640,15302.00,MERCY ST CHARLES HOSPITAL
4.02,39.99445,-83.01872,19938.96,OHIO STATE UNIVERSITY HOSPITALS
2.97,41.55725,-83.68141,11345.93,ST LUKE'S HOSPITAL
2.72,41.01785,-83.65165,9324.43,BLANCHARD VALLEY HOSPITAL
2.18,40.62149,-80.58651,4982.12,EAST LIVERPOOL CITY HOSPITAL
3.14,41.66317,-81.24696,12784.04,LAKE HEALTH
3.96,41.66810,-83.54275,19417.29,MERCY ST VINCENT MEDICAL CENTER
2.96,40.75264,-82.52803,11277.24,MEDCENTRAL HEALTH SYSTEM
3.10,41.43653,-81.94451,12396.37,ST JOHN MEDICAL CENTER
3.06,41.88034,-80.79553,12109.08,ASHTABULA COUNTY MEDICAL CENTER
2.64,41.36649,-82.09708,8667.33,EMH REGIONAL MEDICAL CENTER
3.74,41.37028,-81.83189,17666.78,SOUTHWEST GENERAL HEALTH CENTER
3.17,41.43688,-82.23761,13014.69,MERCY REGIONAL MEDICAL CENTER
4.31,41.50248,-81.62110,22304.35,CLEVELAND CLINIC
2.69,40.04115,-81.57789,9071.92,SOUTHEASTERN OHIO REGIONAL MEDICAL CENTER
3.19,41.52013,-81.43291,13128.00,HILLCREST HOSPITAL
3.17,40.99498,-80.66192,13007.06,ST ELIZABETH BOARDMAN HEALTH CENTER
2.95,40.09970,-83.16551,11211.92,DUBLIN METHODIST HOSPITAL
3.48,39.35830,-84.36785,15546.57,WEST CHESTER MEDICAL CENTER
3.02,36.72564,-97.06859,11783.67,PONCA CITY MEDICAL CENTER
4.75,34.00655,-96.39398,25840.36,MEDICAL CENTER OF SOUTHEASTERN OKLAHOMA
4.29,36.39385,-97.87094,22116.05,ST MARY'S REGIONAL MEDICAL CENTER
3.84,35.52531,-97.58461,18433.50,DEACONESS HOSPITAL
3.21,35.47800,-97.52352,13291.18,ST ANTHONY HOSPITAL
3.06,36.32303,-95.60538,12073.91,CLAREMORE REGIONAL HOSPITAL
2.31,35.04453,-94.61214,6002.42,EASTERN OKLAHOMA MEDICAL CENTER
2.97,34.18908,-97.14128,11371.92,MERCY MEMORIAL HEALTH CENTER
2.17,33.88091,-94.81273,4840.12,MCCURTAIN MEMORIAL HOSPITAL
2.42,35.61041,-95.95322,6930.80,OKMULGEE MEMORIAL HOSPITAL
2.60,36.65318,-95.15577,8335.96,CRAIG GENERAL HOSPITAL
3.16,36.14675,-95.99969,12898.00,OKLAHOMA STATE UNIVERSITY MEDICAL CENTER
4.20,35.46721,-97.39370,21350.71,MIDWEST REGIONAL MEDICAL CENTER
3.41,34.59434,-98.46105,14973.55,SOUTHWESTERN MEDICAL CENTER
3.20,35.97828,-96.75746,13216.17,CUSHING REGIONAL HOSPITAL
2.63,36.58133,-94.75864,8597.36,INTEGRIS GROVE HOSPITAL
2.84,36.13393,-95.96718,10294.53,ST JOHN MEDICAL CENTER, INC
2.50,34.76678,-97.18839,7537.67,PAULS VALLEY GENERAL HOSPITAL
2.58,35.95999,-95.39306,8225.85,WAGONER COMMUNITY HOSPITAL
3.83,36.03590,-95.86511,18390.24,SOUTHCREST HOSPITAL
3.68,35.48499,-97.76360,17183.45,INTEGRIS CANADIAN VALLEY  HOSPITAL
3.56,42.42112,-123.34326,16173.64,THREE RIVERS COMMUNITY HOSPITAL
3.82,44.60322,-123.25312,18315.25,GOOD SAMARITAN REGIONAL MEDICAL CENTER
3.45,42.31769,-122.83333,15322.88,ROGUE VALLEY MEDICAL CENTER
3.12,45.51993,-122.97759,12623.36,TUALITY COMMUNITY HOSPITAL
2.95,44.06773,-121.26817,11201.32,ST CHARLES MEDICAL CENTER - BEND
2.89,44.93267,-123.03418,10749.17,SALEM HOSPITAL
3.35,45.52677,-122.61469,14452.81,PROVIDENCE PORTLAND MEDICAL CENTER
3.53,45.19897,-123.16482,15939.75,WILLAMETTE VALLEY MEDICAL CENTER
4.75,41.40075,-75.64594,25847.62,COMMUNITY MEDICAL CENTER
4.90,40.96789,-76.60506,27107.39,GEISINGER MEDICAL CENTER
3.80,42.11102,-80.07912,18169.67,SAINT VINCENT HEALTH CENTER
5.27,40.07880,-75.21107,30083.86,CHESTNUT HILL HOSPITAL
3.51,40.43609,-79.98537,15782.73,UPMC MERCY
2.61,40.69101,-76.18682,8460.47,SCHUYLKILL MEDICAL CENTER - EAST NORWEGIAN STREET
2.69,40.71251,-80.32136,9064.60,HERITAGE VALLEY BEAVER
2.62,40.54345,-80.17760,8510.46,HERITAGE VALLEY SEWICKLEY
2.60,40.18302,-80.24767,8382.05,WASHINGTON HOSPITAL, THE
3.04,41.24548,-77.01438,11963.31,WILLIAMSPORT REGIONAL MEDICAL CENTER
2.92,40.61795,-77.56734,10952.00,LEWISTOWN HOSPITAL
4.44,40.36358,-75.32621,23364.92,GRAND VIEW HOSPITAL
5.22,40.10226,-74.86338,29722.86,LOWER BUCKS HOSPITAL
3.06,40.52204,-78.39824,12149.33,ALTOONA REGIONAL HEALTH SYSTEM
3.45,40.04740,-76.30540,15303.06,LANCASTER GENERAL HOSPITAL
3.40,40.48928,-79.89596,14908.50,UPMC ST MARGARET
5.55,40.12453,-75.33533,32358.19,MONTGOMERY HOSPITAL
7.49,39.95045,-75.19259,48156.42,HOSPITAL OF UNIV OF PENNSYLVANIA
3.68,41.64205,-80.14579,17164.81,MEADVILLE MEDICAL CENTER
4.46,40.07160,-74.98341,23532.89,ARIA HEALTH
4.39,40.13916,-75.31510,22905.33,MERCY SUBURBAN HOSPITAL
3.98,41.41107,-75.65091,19619.71,MOSES TAYLOR HOSPITAL
6.44,40.24397,-75.61364,39593.21,POTTSTOWN MEMORIAL MEDICAL CENTER
4.54,40.60000,-75.47000,24165.86,LEHIGH VALLEY HOSPITAL
2.89,40.30103,-79.55505,10741.70,EXCELA HEALTH WESTMORELAND REGIONAL HOSPITAL
3.51,39.93492,-77.64744,15749.97,CHAMBERSBURG HOSPITAL
6.00,40.04475,-75.50425,35990.14,MAIN LINE HOSPITAL PAOLI
6.56,39.92871,-75.26873,40610.24,MERCY FITZGERALD HOSPITAL
4.66,40.68708,-75.24272,25141.15,EASTON HOSPITAL
5.63,39.94969,-75.15712,32991.28,THOMAS JEFFERSON UNIVERSITY HOSPITAL
3.52,39.97024,-75.60259,15844.46,CHESTER COUNTY HOSPITAL
9.71,39.85598,-75.36791,66205.86,CROZER CHESTER MEDICAL CENTER
2.80,42.07400,-80.09368,9960.31,MILLCREEK COMMUNITY HOSPITAL
2.28,40.96128,-78.99974,5750.53,PUNXSUTAWNEY AREA HOSPITAL
3.92,40.99225,-75.17466,19071.69,POCONO MEDICAL CENTER
5.18,40.12077,-75.11818,29377.77,ABINGTON MEMORIAL HOSPITAL
4.24,40.20064,-74.92952,21675.40,ST MARY MEDICAL CENTER
2.40,40.31802,-79.93494,6733.79,JEFFERSON REGIONAL MEDICAL CENTER
2.88,40.42897,-79.74808,10683.17,WESTERN PENNSYLVANIA HOSP FORBES REGIONAL CAMPUS
4.29,40.81936,-77.84273,22097.18,MOUNT NITTANY MEDICAL CENTER
4.63,41.25855,-75.81041,24899.67,GEISINGER WYOMING VALLEY MEDICAL CENTER
11.15,39.95658,-75.16249,77930.47,HAHNEMANN UNIVERSITY HOSPITAL
2.99,41.86943,-71.37561,11540.43,MEMORIAL HOSPITAL OF RHODE ISLAND
3.99,41.81254,-71.40760,19688.58,RHODE ISLAND HOSPITAL
3.49,34.96733,-81.94021,15605.21,SPARTANBURG REGIONAL MEDICAL CENTER
3.48,34.69403,-82.98884,15550.14,OCONEE MEDICAL CENTER
4.47,34.02839,-81.03539,23552.14,PALMETTO HEALTH RICHLAND
4.77,34.71787,-80.78844,26000.53,SPRINGS MEMORIAL HOSPITAL
3.67,33.78555,-79.00178,17091.14,CONWAY MEDICAL CENTER
3.91,34.19543,-79.76256,19012.61,MCLEOD REGIONAL MEDICAL CENTER-PEE DEE
3.73,34.18661,-79.32541,17523.17,MARION REGIONAL HOSPITAL
3.53,33.62185,-80.74922,15899.64,TRMC OF ORANGEBURG & CALHOUN
3.83,34.17571,-82.15791,18371.40,SELF REGIONAL HEALTHCARE
3.77,34.81904,-82.41308,17853.56,GREENVILLE MEMORIAL HOSPITAL
4.51,32.97605,-80.07302,23938.27,TRIDENT MEDICAL CENTER
3.71,32.22325,-80.71444,17371.11,HILTON HEAD REGIONAL MEDICAL CENTER
3.78,33.70704,-78.89487,17934.29,GRAND STRAND REG MED CENTER
4.75,34.00754,-81.03270,25891.19,PALMETTO HEALTH BAPTIST
4.49,32.78211,-79.95018,23706.58,ROPER HOSPITAL
3.09,33.59553,-79.02412,12359.27,WACCAMAW COMMUNITY HOSPITAL
2.67,44.91113,-97.12063,8968.00,PRAIRIE LAKES HOSPITAL
3.33,42.87249,-97.40741,14290.56,AVERA SACRED HEART HOSPITAL
3.33,43.53460,-96.71136,14344.83,AVERA MCKENNAN HOSPITAL & UNIVERSITY HEALTH CENTER
3.91,43.53562,-96.74305,19043.40,SANFORD USD MEDICAL CENTER
3.01,35.63906,-88.83207,11692.44,JACKSON-MADISON COUNTY GENERAL HOSPITAL
5.21,36.24440,-86.75204,29640.93,SKYLINE MEDICAL CENTER
3.27,35.93917,-85.01865,13778.76,CUMBERLAND MEDICAL CENTER
2.89,36.58587,-82.25703,10748.98,WELLMONT BRISTOL REGIONAL MEDICAL CENTER
3.01,36.55401,-82.55483,11676.10,WELLMONT HOLSTON VALLEY MEDICAL CENTER
3.64,36.58199,-87.27050,16804.22,GATEWAY MEDICAL CENTER
3.30,35.12837,-89.86202,14097.44,BAPTIST MEMORIAL HOSPITAL
3.08,35.86074,-86.42434,12239.81,MIDDLE TENNESSEE MEDICAL CENTER INC
3.30,36.10641,-83.51924,14037.21,TENNOVA HEALTHCARE-JEFFERSON MEMORIAL HOSPITAL
2.59,36.44050,-83.59480,8284.55,CLAIBORNE COUNTY HOSPITAL
3.31,35.17733,-86.09081,14163.09,SOUTHERN TENNESSEE MEDICAL CENTER
2.94,36.17121,-85.50938,11114.87,COOKEVILLE REGIONAL MEDICAL CENTER
3.34,36.30767,-82.38497,14356.02,JOHNSON CITY MEDICAL CENTER
3.28,36.12859,-86.84559,13867.48,ST THOMAS HOSPITAL
3.65,35.05068,-85.28823,16931.71,ERLANGER MEDICAL CENTER
3.09,35.99233,-83.92697,12377.52,TENNOVA HEALTHCARE
3.04,35.95747,-83.93660,11928.81,FORT SANDERS REGIONAL MEDICAL CENTER
3.56,36.15388,-86.80249,16194.36,BAPTIST HOSPITAL
4.63,35.03467,-85.26735,24919.60,PARKRIDGE MEDICAL CENTER
2.69,35.91765,-84.10080,9060.50,PARKWEST MEDICAL CENTER
2.46,35.61042,-89.24323,7253.88,HAYWOOD PARK COMMUNITY HOSPITAL
3.35,35.24230,-87.33474,14455.38,CROCKETT HOSPITAL
4.85,35.09925,-89.86301,26682.52,ST FRANCIS HOSPITAL
3.93,35.17731,-84.86873,19187.19,SKYRIDGE MEDICAL CENTER
3.02,36.38340,-85.32302,11793.64,LIVINGSTON REGIONAL HOSPITAL
3.22,35.94893,-85.47825,13381.81,WHITE COUNTY COMMUNITY HOSPITAL
5.48,36.32443,-86.62304,31769.08,HENDERSONVILLE MEDICAL CENTER
5.86,31.77031,-106.50085,34911.61,PROVIDENCE MEMORIAL HOSPITAL
3.87,33.90296,-98.50035,18719.32,UNITED REGIONAL HEALTH CARE SYSTEM
4.22,30.65598,-96.34672,21541.84,ST JOSEPH REGIONAL HEALTH CENTER
4.64,32.81043,-96.83699,24976.89,PARKLAND HEALTH AND HOSPITAL SYSTEM
3.34,29.31233,-94.77317,14397.07,UNIVERSITY OF TEXAS MEDICAL BRANCH GAL
4.73,32.78994,-96.78044,25724.41,BAYLOR UNIVERSITY MEDICAL CENTER
4.23,28.81269,-96.97780,21638.63,CITIZENS MEDICAL CENTER
4.04,27.53249,-99.47808,20079.56,LAREDO MEDICAL CENTER
4.12,26.17446,-97.67014,20714.65,VHS HARLINGEN HOSPITAL COMPANY LLC
4.85,29.74802,-95.36609,26701.82,ST JOSEPH MEDICAL CENTER
3.91,32.50219,-94.73025,19000.80,GOOD SHEPHERD MEDICAL CENTER
6.48,33.57524,-101.89272,39894.42,COVENANT MEDICAL CENTER
3.23,31.51444,-97.19927,13482.02,PROVIDENCE HEALTH CENTER
4.14,32.81224,-96.83795,20906.12,UT SOUTHWESTERN UNIVERSITY HOSPITAL
4.13,32.76017,-96.82437,20827.18,METHODIST DALLAS MEDICAL CENTER
3.27,31.07837,-97.36403,13840.61,SCOTT & WHITE MEMORIAL HOSPITAL
4.31,29.43360,-98.49265,22309.05,BAPTIST MEDICAL CENTER
3.10,32.74944,-97.11630,12468.84,TEXAS HEALTH ARLINGTON MEMORIAL HOSPITAL
5.05,29.71431,-95.39680,28305.19,MEMORIAL HERMANN TEXAS MEDICAL CENTER
2.53,32.76749,-99.89552,7810.16,ANSON GENERAL HOSPITAL
4.24,32.82932,-97.21399,21727.67,NORTH HILLS HOSPITAL
5.31,29.66575,-95.18131,30446.18,BAYSHORE MEDICAL CENTER
6.48,31.76998,-106.49897,39937.27,LAS PALMAS MEDICAL CENTER
5.55,26.26353,-98.18455,32341.27,SOUTH TEXAS HEALTH SYSTEM
4.37,30.27438,-97.73395,22755.52,UNIVERSITY MEDICAL CENTER AT BRACKENRIDGE
4.26,29.42561,-98.48946,21861.18,NIX HEALTH CARE SYSTEM
3.70,31.99616,-102.09950,17295.06,MIDLAND MEMORIAL HOSPITAL
4.05,32.73780,-97.33899,20185.15,TEXAS HEALTH HARRIS METHODIST FORT WORTH
3.08,26.19665,-98.31409,12274.53,MISSION REGIONAL MEDICAL CENTER
3.66,29.81230,-95.43010,17005.92,MEMORIAL HERMANN HOSPITAL SYSTEM
4.87,29.70719,-95.40048,26855.80,ST LUKES EPISCOPAL HOSPITAL
3.60,35.19934,-101.92186,16501.00,NORTHWEST TEXAS HOSPITAL
6.09,30.28473,-95.46714,36734.76,CONROE REGIONAL MEDICAL CENTER
3.21,35.19533,-101.91907,13290.95,BAPTIST ST ANTHONYS HEALTH SYSTEM-BAPTIST CAMPUS
3.36,29.68674,-95.38652,14575.54,HARRIS COUNTY HOSPITAL DISTRICT
4.07,33.71085,-96.58493,20325.76,TEXOMA MEDICAL CENTER
3.60,29.57653,-95.77057,16514.00,OAKBEND MEDICAL CENTER
3.42,33.12242,-96.12404,15032.50,HUNT REGIONAL MEDICAL CENTER
4.30,29.50795,-98.57224,22187.38,METHODIST HOSPITAL
4.55,32.17167,-95.84417,24199.88,EAST TEXAS MEDICAL CENTER ATHENS
3.44,32.08509,-96.50376,15167.33,NAVARRO REGIONAL HOSPITAL
3.15,32.93228,-97.09436,12826.67,BAYLOR REGIONAL MEDICAL CENTER AT GRAPEVINE
2.67,32.79966,-98.14533,8898.55,PALO PINTO GENERAL HOSPITAL
3.40,31.32376,-95.43900,14890.64,EAST TEXAS MEDICAL CENTER CROCKETT
2.36,33.59227,-99.24735,6382.69,SEYMOUR HOSPITAL
2.57,29.11258,-97.28295,8161.41,CUERO COMMUNITY HOSPITAL
4.46,33.17345,-97.11382,23491.94,DENTON REGIONAL MEDICAL CENTER
5.41,30.01994,-95.44379,31234.69,HOUSTON NORTHWEST MEDICAL CENTER
4.94,29.72913,-95.59429,27433.00,WEST HOUSTON MEDICAL CENTER
5.43,33.02168,-96.76621,31420.44,MEDICAL CENTER OF PLANO
4.51,31.65212,-94.65488,23945.85,NACOGDOCHES MEDICAL CENTER
4.42,30.08682,-95.62403,23203.91,TOMBALL REGIONAL MEDICAL CENTER
5.44,32.73563,-97.34483,31467.15,PLAZA MEDICAL CENTER OF FORT WORTH
3.97,32.67614,-97.32079,19488.00,HUGULEY HEALTH SYSTEM
4.22,29.99677,-95.27641,21530.42,MEMORIAL HERMANN NORTHEAST
3.50,33.58838,-101.89214,15704.58,UNIVERSITY MEDICAL CENTER
3.48,29.54946,-95.08660,15559.77,CHRISTUS ST JOHN HOSPITAL
4.58,30.22723,-97.77447,24498.76,ST DAVID'S SOUTH AUSTIN MEDICAL CENTER
3.94,32.64448,-96.87635,19255.25,METHODIST CHARLTON MEDICAL CENTER
3.65,32.65818,-97.42078,16920.07,TEXAS HEALTH HARRIS METHODIST HOSPITAL SOUTHWEST F
5.22,27.69288,-97.34476,29671.24,CORPUS CHRISTI MEDICAL CENTER,THE
5.06,30.41163,-97.70649,28401.15,NORTH AUSTIN MEDICAL CENTER
4.89,29.96603,-95.55127,27002.14,METHODIST WILLOWBROOK HOSPITAL
3.13,40.24999,-111.66524,12671.00,UTAH VALLEY REGIONAL MEDICAL CENTER
3.10,40.56454,-112.29609,12469.36,MOUNTAIN WEST MEDICAL CENTER
3.30,37.09986,-113.55271,14024.64,DIXIE REGIONAL MEDICAL CENTER
2.55,38.78151,-112.08473,7945.29,SEVIER VALLEY MEDICAL CENTER
3.87,40.58979,-111.97499,18685.55,JORDAN VALLEY MEDICAL CENTER
3.48,44.47966,-73.19412,15493.03,FLETCHER ALLEN HOSPITAL OF VERMONT
3.22,43.59828,-72.95512,13390.00,RUTLAND REGIONAL MEDICAL CENTER
3.15,36.89897,-82.07851,12845.87,RUSSELL COUNTY MEDICAL CENTER
2.68,38.40552,-78.85730,8986.59,ROCKINGHAM MEMORIAL HOSPITAL
2.71,39.19345,-78.19599,9301.09,WINCHESTER MEDICAL CENTER INC
3.51,36.86268,-76.30355,15770.79,SENTARA NORFOLK GENERAL HOSPITAL
3.98,38.02573,-78.51526,19593.02,UNIVERSITY OF VIRGINIA MEDICAL CENTER
2.70,37.41368,-79.16870,9212.91,CENTRA  HEALTH, INC
3.18,38.71322,-77.80895,13074.90,THE FAUQUIER HOSPITAL, INC
2.95,37.25129,-79.94125,11226.96,CARILION ROANOKE MEMORIAL CENTER
4.28,37.54330,-77.42932,22071.36,MEDICAL COLLEGE OF VIRGINIA HOSPITALS
3.10,38.82218,-77.10533,12395.44,INOVA ALEXANDRIA HOSPITAL
2.93,37.09020,-80.50370,11081.52,CARILION NEW RIVER VALLEY MEDICAL CENTER
2.91,39.07405,-77.47754,10850.14,INOVA LOUDOUN HOSPITAL
3.88,36.77378,-76.57856,18747.14,SENTARA OBICI HOSPITAL
3.16,36.85098,-76.18989,12922.17,SENTARA LEIGH HOSPITAL
3.08,37.06523,-76.48417,12232.97,RIVERSIDE REGIONAL MEDICAL CENTER
3.53,37.09990,-81.79024,15949.17,CLINCH VALLEY MEDICAL CENTER
3.08,38.85764,-77.22772,12277.00,INOVA FAIRFAX HOSPITAL
3.13,37.33700,-76.74046,12665.50,SENTARA WILLIAMSBURG REGIONAL MEDICAL CENTER
5.16,37.18253,-77.35957,29218.95,SOUTHSIDE REGIONAL MEDICAL CENTER
3.63,37.62931,-77.38804,16719.58,BON SECOURS - MEMORIAL REGIONAL MEDICAL
2.50,38.02176,-78.44530,7591.26,MARTHA JEFFERSON HOSPITAL
3.21,36.69555,-79.86374,13361.05,MEMORIAL HOSPITAL OF MARTINSVILLE & HENRY COUNTY
3.76,36.69095,-76.93626,17801.20,SOUTHAMPTON MEMORIAL HOSPITAL
3.63,37.05580,-76.39048,16744.22,SENTARA CAREPLEX HOSPITAL
2.75,38.63463,-77.28361,9566.94,SENTARA POTOMAC HOSPITAL
3.35,37.79106,-79.88263,14454.45,LEWISGALE HOSPITAL ALLEGHANY
3.80,47.71468,-122.33762,18125.79,NORTHWEST HOSPITAL
3.98,47.33947,-122.26677,19611.64,AUBURN REGIONAL MEDICAL CENTER
3.79,47.58295,-122.62506,18027.95,HARRISON MEDICAL CENTER
3.68,45.62460,-122.58145,17182.12,PEACEHEALTH SOUTHWEST MEDICAL CENTER
3.49,47.64936,-117.41194,15622.67,PROVIDENCE SACRED HEART MEDICAL CENTER
3.94,46.28132,-119.28218,19249.17,KADLEC REGIONAL MEDICAL CENTER
2.52,48.11504,-123.41519,7714.85,OLYMPIC MEDICAL CENTER
4.98,47.17742,-122.28943,27692.32,MULTICARE GOOD SAMARITAN HOSPITAL
3.67,47.44243,-122.21392,17054.94,VALLEY MEDICAL CENTER
3.86,47.04174,-122.95125,18580.92,CAPITAL MEDICAL CENTER
4.37,47.29252,-122.32729,22777.33,ST FRANCIS COMMUNITY HOSPITAL
4.76,47.36373,-122.61353,25975.61,ST ANTHONY HOSPITAL
3.14,39.65498,-79.95814,12752.22,WEST VIRGINIA UNIVERSITY HOSPITALS
3.16,39.32836,-80.23964,12915.08,UNITED HOSPITAL CENTER
3.02,38.43236,-82.40067,11751.33,ST MARY'S MEDICAL CENTER
2.79,38.86891,-82.12349,9919.76,PLEASANT VALLEY HOSPITAL
3.35,38.34739,-81.62600,14454.92,CHARLESTON AREA MEDICAL CENTER
2.47,40.39520,-80.52796,7280.36,WEIRTON MEDICAL CENTER
2.82,39.66383,-79.94681,10166.14,MONONGALIA COUNTY GENERAL HOSPITAL
2.47,38.92594,-79.84673,7310.00,DAVIS MEMORIAL HOSPITAL
3.09,37.84674,-81.99565,12346.17,LOGAN REGIONAL MEDICAL CENTER
3.15,39.27035,-81.56026,12803.50,CAMDEN CLARK MEDICAL CENTER
2.47,37.78754,-81.20183,7277.71,RALEIGH GENERAL HOSPITAL
3.61,42.60783,-89.63494,16544.00,THE MONROE CLINIC
3.02,43.53915,-89.46262,11766.00,DIVINE SAVIOR HLTHCARE
2.85,44.18700,-88.45431,10370.91,THEDA CLARK MED CTR
2.89,44.50233,-88.01140,10738.80,BELLIN MEMORIAL HSPTL
3.87,43.06195,-87.87861,18691.38,COLUMBIA ST MARYS HSPTL  MILW (COL & MILW CAMPUS)
3.22,43.48057,-89.73142,13413.75,ST CLARE HSPTL HLTH SVCS
3.83,42.67269,-88.28138,18366.45,AURORA MEMORIAL HSPTL BURLINGTON
3.54,42.68685,-89.03244,15986.55,MERCY HLTH SYS CORP
2.95,44.81192,-91.51352,11205.23,MAYO CLINIC HEALTH SYSTEM EAU CLAIRE HOSPITAL
3.35,43.77733,-88.42866,14490.39,ST AGNES HSPTL
3.27,42.73444,-87.82788,13798.16,WHEATON FRANCISCAN HEALTHCARE- ALL SAINTS
2.92,44.53265,-88.06664,11001.64,ST MARYS HSPTL MED CTR
3.32,43.07633,-89.43133,14217.16,UNIVERSITY OF WI  HOSPITALS & CLINICS AUTHORITY
4.47,42.54868,-89.00822,23587.58,BELOIT MEM HSPTL
3.38,42.66123,-88.49611,14748.59,AURORA LAKELAND MED CTR
3.04,43.78322,-90.07678,11961.42,MILE BLUFF MEDICAL CENTER, INC
2.86,43.07393,-87.97612,10514.29,WHEATON FRANCISCAN, INC- ST JOSEPH
4.21,42.98958,-87.95079,21474.61,AURORA ST LUKES MEDICAL CENTER
3.75,43.00120,-88.02675,17707.85,AURORA WEST ALLIS MEDICAL CENTER
2.44,44.27860,-88.39550,7100.84,APPLETON MED CTR
3.41,43.04008,-88.02523,14958.40,FROEDTERT MEM LUTHERAN HSPTL
3.26,44.29069,-105.51950,13756.50,CAMPBELL COUNTY MEMORIAL HOSPITAL
3.05,42.84802,-106.30851,12021.42,WYOMING MEDICAL CENTER
3.18,41.14037,-104.81660,13112.87,CHEYENNE REGIONAL MEDICAL CENTER
4.81,30.56899,-97.65104,26314.39,SETON MEDICAL CENTER WILLIAMSON
4.24,29.61578,-98.47479,21704.73,METHODIST STONE OAK HOSPITAL
5.12,32.77776,-96.56763,28873.09,TEXAS REGIONAL MEDICAL CENTER AT SUNNYVALE
2.42,31.28905,-86.25550,6891.19,MIZELL MEMORIAL HOSPITAL
2.74,34.36605,-86.42127,9536.22,MARSHALL MEDICAL CENTER NORTH
3.13,33.59616,-86.66750,12695.96,ST VINCENT'S EAST
4.29,33.25607,-86.81035,22093.30,SHELBY BAPTIST MEDICAL CENTER
2.87,34.74649,-87.69895,10539.65,HELEN KELLER MEMORIAL HOSPITAL
2.57,32.82377,-85.17019,8125.00,GEORGE H. LANIER MEMORIAL HOSPITAL
2.47,32.63806,-85.40413,7298.67,EAST ALABAMA MEDICAL CENTER AND SNF
3.63,33.50619,-86.80210,16729.83,UNIVERSITY OF ALABAMA HOSPITAL
3.30,34.20768,-86.87489,14027.82,CULLMAN REGIONAL MEDICAL CENTER
3.07,33.66767,-85.83420,12178.55,STRINGFELLOW MEMORIAL HOSPITAL
5.17,34.00426,-86.00339,29257.00,RIVERVIEW REGIONAL MEDICAL CENTER
2.64,34.66171,-86.04665,8670.10,HIGHLANDS MEDICAL CENTER
2.40,32.94573,-85.98570,6699.25,RUSSELL HOSPITAL
3.25,33.65640,-85.82284,13646.12,NORTHEAST ALABAMA REGIONAL MED CENTER
4.20,30.42700,-87.68386,21409.52,SOUTH BALDWIN REGIONAL MEDICAL CENTER
3.42,33.20521,-87.52546,15017.81,D C H REGIONAL MEDICAL CENTER
2.34,31.12918,-87.07279,6279.59,D W MCMILLAN MEMORIAL HOSPITAL
4.74,33.49854,-86.84633,25801.77,BAPTIST MEDICAL CENTER-PRINCETON
2.33,32.43516,-88.32614,6159.72,BRYAN W WHITFIELD MEM HOSP INC
6.98,33.46420,-86.77409,43971.18,BROOKWOOD MEDICAL CENTER
3.09,30.68546,-88.13170,12325.29,SPRINGHILL MEDICAL CENTER
3.70,32.38797,-86.17576,17285.64,BAPTIST MEDICAL CENTER EAST
3.30,33.16547,-86.25380,14060.15,COOSA VALLEY MEDICAL CENTER
4.80,60.94901,-149.17033,26237.04,PROVIDENCE ALASKA MEDICAL CENTER
4.53,33.46514,-112.05797,24080.96,BANNER GOOD SAMARITAN MEDICAL CENTER
3.74,32.25294,-110.88135,17602.31,TUCSON MEDICAL CENTER
3.42,34.56017,-112.48217,15001.00,YAVAPAI REGIONAL MEDICAL CENTER
3.51,32.88123,-111.71067,15771.12,CASA GRANDE REGIONAL MEDICAL CENTER
4.79,33.48073,-112.07948,26224.82,ST JOSEPH'S HOSPITAL AND MEDICAL CENTER
4.73,33.29750,-111.87461,25671.00,CHANDLER REGIONAL MEDICAL CENTER
4.29,33.48885,-111.92387,22140.09,SCOTTSDALE HEALTHCARE-OSBORN MEDICAL CENTER
3.25,35.22024,-114.03585,13656.14,KINGMAN REGIONAL MEDICAL CENTER
4.20,33.60432,-112.28378,21345.04,BANNER BOSWELL MEDICAL CENTER
3.83,33.39097,-111.87638,18389.56,BANNER DESERT MEDICAL CENTER
4.30,34.47988,-114.33938,22222.38,HAVASU REGIONAL MEDICAL CENTER
4.39,33.41128,-111.68916,22919.57,BANNER BAYWOOD MEDICAL CENTER
3.72,33.60949,-112.18129,17471.00,BANNER THUNDERBIRD MEDICAL CENTER
4.70,33.65965,-112.37283,25467.14,BANNER DEL E WEBB MEDICAL CENTER
6.14,35.11068,-114.55505,37194.52,WESTERN ARIZONA REGIONAL MEDICAL CTR
3.46,34.58822,-112.33095,15344.00,YAVAPAI REGIONAL MEDICAL CENTER-EAST
5.00,33.28686,-111.75246,27916.33,MERCY GILBERT MEDICAL CENTER
2.48,35.46436,-93.44495,7430.17,JOHNSON REGIONAL MEDICAL CENTER
3.54,36.10940,-94.16036,16047.31,WASHINGTON REGIONAL MED CTR AT NORTH HILLS
3.19,34.75031,-92.33897,13170.47,ST VINCENT INFIRMARY MEDICAL CENTER
3.01,36.31007,-94.18471,11719.92,MERCY MEDICAL CENTER
2.00,35.05399,-93.38856,3484.87,JOHN ED CHAMBERS MEM HOSP, INC
2.95,35.25046,-91.70056,11208.94,WHITE COUNTY MEDICAL CENTER
