size_charge,size_pay,lat,lon,charge,pay,Air,BloodInf,UrinaryInf,Falls,Mismatch,Objects,Sores,Sugar,name
3.05,2.31,35.83746,-90.70386,6317.82,4156.00,0.0,0.119,0.474,0.178,0.0,0.0,0.059,0.0,ST BERNARDS MEDICAL CTR
7.77,2.20,36.18082,-94.13644,20076.58,3827.30,0.0,0.327,0.245,0.818,0.0,0.0,0.164,0.0,NW ARKANSAS HOSPITALS LLC
5.72,2.21,34.46784,-93.06667,14103.09,3846.74,0.0,0.343,0.942,0.171,0.0,0.0,0.171,0.0,ST JOSEPHS MERCY HEALTH CENTER INC
3.23,2.08,36.34295,-92.39442,6836.11,3469.64,0.0,0.0,0.484,0.194,0.0,0.097,0.194,0.0,BAXTER REGIONAL MEDICAL CENTER
5.06,2.14,35.08546,-92.45774,12176.85,3650.31,0.0,0.62,1.24,0.155,0.0,0.0,0.0,0.0,CONWAY REGIONAL MEDICAL CENTER
4.05,2.23,36.05214,-90.49908,9233.00,3922.50,0.0,0.0,0.51,0.255,0.0,0.0,0.0,0.0,ARKANSAS METHODIST MEDICAL CENTER
7.36,2.28,35.28275,-93.14901,18876.00,4059.84,0.0,0.429,1.287,0.0,0.0,0.0,0.0,0.215,ST MARYS REGIONAL MEDICAL CENTER
6.01,2.54,35.14320,-90.18837,14943.58,4835.92,0.0,0.303,0.303,0.0,0.0,0.0,0.0,0.0,CRITTENDEN MEMORIAL HOSPITAL
3.35,2.31,36.28982,-90.99750,7171.08,4139.58,0.0,0.0,0.0,0.0,0.0,0.0,0.0,0.0,FIVE RIVERS MEDICAL CENTER
4.69,2.19,35.37445,-94.41868,11092.67,3806.39,0.0,0.277,1.248,0.486,0.0,0.0,0.139,0.069,SPARKS REGIONAL MEDICAL CENTER
5.31,2.08,35.35395,-94.35262,12881.89,3486.81,0.0,0.604,0.302,0.906,0.0,0.0,0.101,0.0,ST EDWARD MERCY MEDICAL CENTER
8.24,2.40,34.18894,-92.01886,21426.81,4400.50,0.0,0.453,0.567,0.0,0.0,0.0,0.113,0.0,JEFFERSON REGIONAL MEDICAL CENTER
3.81,2.32,34.35877,-92.78638,8529.55,4176.09,0.0,0.0,1.401,0.0,0.0,0.0,0.0,0.0,HOT SPRING COUNTY MEDICAL CENTER
4.15,2.14,34.57290,-92.58508,9526.64,3653.55,0.0,0.442,0.221,0.0,0.0,0.0,0.0,0.0,SALINE MEMORIAL HOSPITAL
5.13,2.21,34.74866,-92.35422,12381.76,3867.08,0.0,0.656,0.656,0.231,0.0,0.039,0.347,0.077,BAPTIST HEALTH MEDICAL CENTER-LITTLE ROCK
5.13,2.34,35.80838,-90.66658,12359.92,4234.72,0.0,0.134,0.939,0.402,0.0,0.0,0.134,0.134,NEA BAPTIST MEMORIAL HOSPITAL
7.20,2.31,35.76927,-91.63408,18414.55,4157.45,0.0,0.87,0.497,0.249,0.0,0.0,0.373,0.0,WHITE RIVER MEDICAL CENTER
15.00,3.42,37.63362,-122.08802,41142.82,7387.73,0.0,1.826,0.609,0.812,0.0,0.0,0.203,0.0,ST ROSE HOSPITAL
12.57,2.82,37.76862,-122.43525,34054.71,5624.00,0.0,0.824,0.412,0.824,0.0,0.0,0.412,0.412,CALIFORNIA PACIFIC MEDICAL CTR-DAVIES CAMPUS HOSP
14.32,2.80,38.32472,-122.29671,39156.58,5591.08,0.0,0.306,1.073,0.613,0.0,0.0,0.0,0.0,QUEEN OF THE VALLEY MEDICAL CENTER
14.38,3.03,38.54384,-122.47401,39335.93,6255.07,0.0,0.206,0.618,1.648,0.0,0.0,0.0,0.0,ST HELENA HOSPITAL
11.65,3.24,38.57053,-121.45216,31375.83,6847.50,0.0,0.499,0.666,0.416,0.0,0.0,0.166,0.083,MERCY GENERAL HOSPITAL
9.92,3.63,32.75426,-117.16592,26320.21,8011.76,0.0,0.475,0.158,0.079,0.0,0.238,0.0,0.0,UNIVERSITY OF CALIFORNIA SAN DIEGO MEDICAL CENTER
11.79,2.66,32.77495,-117.01467,31772.67,5173.59,0.0,0.131,0.327,0.523,0.0,0.065,0.0,0.0,GROSSMONT HOSPITAL
8.63,2.66,39.50528,-121.54100,22577.13,5159.27,0.0,0.366,0.61,0.0,0.0,0.0,0.244,0.0,OROVILLE HOSPITAL
11.84,2.67,35.38736,-119.01690,31923.56,5193.72,0.0,0.381,0.507,0.0,0.0,0.0,0.0,0.0,BAKERSFIELD MEMORIAL HOSPITAL
9.79,2.47,39.74221,-121.85000,25944.17,4622.28,0.0,0.144,0.433,0.0,0.0,0.072,0.072,0.0,ENLOE MEDICAL CENTER
7.95,4.08,34.30238,-118.36957,20579.45,9297.18,0.0,0.725,0.0,0.0,0.0,0.0,0.0,0.0,LAC/OLIVE VIEW-UCLA MEDICAL CENTER
12.93,3.20,37.82206,-122.26275,35092.73,6744.50,0.0,0.897,0.489,0.489,0.0,0.0,0.163,0.0,ALTA BATES SUMMIT MEDICAL CENTER
12.29,2.90,32.78037,-115.56848,33235.36,5883.18,0.0,0.0,0.23,0.0,0.0,0.0,0.0,0.0,EL CENTRO REGIONAL MEDICAL CENTER
14.58,3.80,37.79100,-122.43125,39917.92,8506.00,0.0,0.689,0.536,0.842,0.0,0.0,0.153,0.0,CALIFORNIA PACIFIC MEDICAL CTR-PACIFIC CAMPUS HOSP
11.09,2.76,36.32737,-119.29548,29724.26,5463.32,0.0,0.4,0.599,0.4,0.0,0.0,0.2,0.067,KAWEAH DELTA MEDICAL CENTER
10.03,3.19,36.73000,-119.78000,26637.41,6719.95,0.0,0.42,0.18,0.12,0.0,0.0,0.48,0.0,COMMUNITY REGIONAL MEDICAL CENTER
10.33,3.53,34.09643,-118.29103,27509.45,7692.00,0.0,0.695,0.139,0.834,0.0,0.0,0.0,0.0,HOLLYWOOD PRESBYTERIAN MEDICAL CENTER
13.77,3.16,33.78036,-117.86495,37537.43,6625.57,0.0,0.106,0.53,0.212,0.0,0.106,0.212,0.0,ST JOSEPH HOSPITAL
9.17,3.10,32.75143,-117.16083,24156.69,6445.91,0.052,0.105,0.472,0.21,0.0,0.0,0.052,0.0,SCRIPPS MERCY HOSPITAL
14.45,3.13,37.96987,-121.28873,39519.79,6550.25,0.0,0.222,0.296,0.518,0.0,0.148,0.0,0.0,ST JOSEPHS MED CENTER OF STOCKTON
7.81,2.59,36.83532,-119.76562,20181.96,4957.91,0.0,0.275,0.826,0.138,0.0,0.0,0.184,0.0,SAINT AGNES MEDICAL CENTER
10.47,2.93,32.79949,-117.15394,27938.04,5958.38,0.0,0.288,0.672,0.48,0.0,0.096,0.0,0.0,SHARP MEMORIAL HOSPITAL
13.28,3.43,34.04932,-118.21746,36122.14,7402.48,0.0,0.339,0.904,0.0,0.0,0.0,0.113,0.0,WHITE MEMORIAL MEDICAL CENTER
12.64,2.90,38.57155,-121.46874,34263.56,5875.78,0.0,0.129,0.579,0.643,0.0,0.0,0.0,0.0,SUTTER GENERAL HOSPITAL
9.18,3.05,34.07558,-118.28424,24170.64,6316.00,0.0,0.0,0.276,0.0,0.0,0.0,0.0,0.0,TEMPLE COMMUNITY HOSPITAL
11.40,2.74,34.02685,-118.48651,30633.76,5405.88,0.0,0.45,0.36,0.629,0.0,0.0,0.0,0.0,SANTA MONICA - UCLA MED CTR & ORTHOPAEDIC HOSPITAL
18.67,2.80,34.22014,-118.53410,51819.21,5592.50,0.0,1.27,0.098,0.586,0.0,0.195,0.098,0.0,NORTHRIDGE HOSPITAL MEDICAL CENTER
6.96,2.71,36.32362,-119.66726,17711.74,5316.00,0.0,0.129,0.516,0.0,0.0,0.0,0.0,0.0,ADVENTIST MEDICAL CENTER
17.29,2.69,37.96125,-121.30103,47818.50,5262.31,0.0,0.265,0.0,0.531,0.0,0.265,0.796,0.265,DAMERON HOSPITAL
10.53,2.68,39.13822,-121.59436,28097.57,5217.61,0.0,0.727,0.83,0.311,0.0,0.104,0.0,0.104,RIDEOUT MEMORIAL HOSPITAL
6.97,3.25,34.09638,-118.32518,17734.52,6890.52,0.0,0.505,0.168,0.0,0.0,0.0,0.337,0.0,HOLLYWOOD COMMUNITY HOSPITAL OF HOLLYWOOD
18.97,3.85,36.57886,-121.91316,52706.68,8647.32,0.0,0.488,0.781,0.098,0.0,0.098,0.098,0.0,COMMUNITY HOSPITAL OF THE MONTEREY PENINSULA
11.11,2.54,39.22809,-121.04721,29798.82,4828.73,0.0,0.777,0.388,0.388,0.0,0.0,0.0,0.194,SIERRA NEVADA MEMORIAL HOSPITAL
15.27,3.36,37.78963,-122.41700,41905.92,7214.92,0.0,1.236,0.742,0.742,0.0,0.0,0.0,0.0,SAINT FRANCIS MEMORIAL HOSPITAL
10.69,3.45,34.28029,-119.25410,28559.00,7460.82,0.0,0.375,0.75,1.501,0.0,0.0,0.375,0.375,VENTURA COUNTY MEDICAL CENTER
16.69,2.60,33.96860,-118.04831,46071.13,5004.67,0.074,0.298,0.521,0.298,0.0,0.0,0.744,0.074,PRESBYTERIAN INTERCOMMUNITY HOSPITAL
15.96,2.90,38.44369,-122.70138,43933.03,5860.88,0.0,0.0,0.389,0.389,0.0,0.0,0.0,0.0,SANTA ROSA MEMORIAL HOSPITAL
16.41,2.64,37.51164,-120.83800,45237.00,5116.24,0.0,0.147,0.587,0.0,0.0,0.0,0.0,0.0,EMANUEL MEDICAL CENTER INC
21.33,3.07,37.91341,-122.04163,59579.20,6368.47,0.0,0.082,0.245,0.735,0.0,0.0,0.082,0.082,JOHN MUIR MEDICAL CENTER - WALNUT CREEK CAMPUS
30.00,3.20,37.55717,-121.98126,84846.50,6735.71,0.0,0.196,0.785,0.589,0.0,0.098,0.0,0.098,WASHINGTON HOSPITAL
12.84,2.76,32.61972,-117.02278,34835.26,5465.39,0.0,0.355,1.421,0.355,0.0,0.0,0.0,0.0,SHARP CHULA VISTA MEDICAL CENTER
7.88,2.32,33.62229,-117.92995,20397.46,4191.85,0.0,0.544,0.302,0.363,0.0,0.0,0.06,0.0,HOAG MEMORIAL HOSPITAL PRESBYTERIAN
12.10,2.51,33.84780,-117.93661,32676.20,4728.93,0.0,0.632,0.474,0.0,0.0,0.0,0.0,0.158,AHMC ANAHEIM REGIONAL MEDICAL CENTER
13.07,4.32,37.75676,-122.40461,35499.33,10022.61,0.0,0.0,0.626,0.209,0.0,0.209,0.417,0.209,SAN FRANCISCO GENERAL HOSPITAL
12.19,2.47,35.27882,-120.65047,32948.67,4615.00,0.0,0.0,0.467,0.467,0.0,0.0,0.0,0.0,FRENCH HOSPITAL MEDICAL CENTER
21.84,3.07,34.15601,-118.32834,61052.25,6358.31,0.0,0.58,0.248,0.166,0.0,0.0,0.0,0.0,PROVIDENCE SAINT JOSEPH MEDICAL CTR
9.76,2.68,34.13973,-118.03534,25864.19,5238.15,0.0,0.262,1.397,0.175,0.0,0.087,0.087,0.087,METHODIST HOSPITAL OF SOUTHERN CA
14.83,3.17,34.14987,-118.23117,40637.23,6644.27,0.0,0.23,1.075,0.0,0.0,0.0,0.154,0.0,GLENDALE ADVENTIST MEDICAL CENTER
16.89,2.98,36.98999,-121.98357,46645.39,6093.88,0.0,0.241,0.723,0.844,0.0,0.0,0.121,0.0,DOMINICAN HOSPITAL
18.67,2.71,33.83862,-116.54557,51815.77,5306.54,0.0,0.507,0.71,0.0,0.0,0.0,0.0,0.0,DESERT REGIONAL MEDICAL CENTER
7.05,2.75,36.06956,-119.02748,17976.73,5426.09,0.0,1.188,0.396,0.396,0.0,0.0,0.198,0.0,SIERRA VIEW DISTRICT HOSPITAL
12.40,4.16,34.06675,-118.44613,33560.32,9534.53,0.079,0.707,0.786,0.472,0.0,0.157,0.707,0.236,RONALD REAGAN UCLA MEDICAL CENTER
8.47,4.96,38.00655,-122.13312,22100.06,11887.19,0.472,0.945,0.0,0.0,0.0,0.0,0.0,0.472,CONTRA COSTA REGIONAL MEDICAL CENTER
20.01,2.71,34.27915,-118.46006,55732.43,5308.50,0.0,0.514,0.0,0.0,0.0,0.0,0.0,0.128,PROVIDENCE HOLY CROSS MEDICAL CENTER
10.46,2.85,40.58654,-122.39168,27914.69,5718.10,0.0,0.238,0.713,0.079,0.0,0.0,0.079,0.0,MERCY MEDICAL CENTER REDDING
8.01,2.40,34.03009,-118.47833,20760.64,4417.71,0.0,0.165,0.248,0.0,0.0,0.0,0.165,0.0,SAINT JOHN'S HEALTH CENTER
11.58,2.50,35.37279,-119.02817,31166.85,4709.85,0.0,0.74,0.555,0.0,0.0,0.0,0.555,0.0,MERCY HOSPITAL
6.10,2.68,39.15350,-123.20435,15198.87,5221.00,0.0,0.0,0.0,0.0,0.0,0.0,0.0,0.0,UKIAH VALLEY MEDICAL CENTER/HOSPITAL D
15.54,3.46,37.85593,-122.25730,42699.59,7494.73,0.0,0.134,0.937,0.669,0.0,0.0,0.134,0.134,ALTA BATES SUMMIT MEDICAL CENTER - ALTA BATES CAMP
20.66,2.84,37.36934,-122.08047,57635.53,5698.00,0.0,0.83,0.554,1.015,0.0,0.277,0.185,0.0,EL CAMINO HOSPITAL
10.42,2.58,38.76514,-121.24979,27785.67,4944.47,0.0,0.208,0.415,0.83,0.0,0.0,0.0,0.0,SUTTER ROSEVILLE MEDICAL CENTER
11.31,2.61,37.74409,-121.43469,30374.83,5014.00,0.0,0.0,0.347,0.0,0.0,0.0,0.0,0.0,SUTTER TRACY COMMUNITY HOSPITAL
16.57,2.37,32.88461,-117.22244,45696.82,4329.73,0.0,0.344,0.458,1.146,0.0,0.0,0.229,0.0,SCRIPPS MEMORIAL HOSPITAL LA JOLLA
10.52,3.61,34.05076,-117.26395,28078.70,7941.90,0.0,1.539,0.513,0.366,0.0,0.0,0.147,0.147,LOMA LINDA UNIVERSITY MEDICAL CENTER
14.82,3.40,36.65910,-121.64630,40610.90,7326.24,0.0,0.227,0.453,0.113,0.0,0.113,0.0,0.0,SALINAS VALLEY MEMORIAL HOSPITAL
22.02,2.66,38.12186,-121.28665,61597.00,5169.50,0.0,0.76,0.76,0.76,0.0,0.0,0.0,0.0,LODI MEMORIAL HOSPITAL
14.73,3.83,33.78798,-117.89026,40356.76,8567.65,0.0,0.652,0.261,0.522,0.0,0.0,0.13,0.391,UNIVERSITY OF CALIFORNIA IRVINE MED CENTER
5.59,2.91,34.01501,-118.10064,13699.83,5911.61,0.0,0.203,0.407,0.0,0.0,0.0,0.0,0.0,BEVERLY HOSPITAL
12.42,2.39,33.81131,-118.34364,33613.66,4381.29,0.0,0.585,0.418,0.167,0.0,0.0,0.418,0.0,TORRANCE MEMORIAL MEDICAL CENTER
16.44,2.56,33.83891,-118.35677,45342.35,4892.24,0.0,0.179,0.089,0.089,0.0,0.0,0.0,0.0,PROVIDENCE LITTLE COMPANY OF MARY MED CTR TORRANCE
16.17,2.86,37.94748,-122.53677,44538.32,5747.95,0.0,0.759,0.379,0.379,0.0,0.126,0.0,0.0,MARIN GENERAL HOSPITAL
21.92,3.26,38.26174,-122.04662,61309.46,6916.15,0.0,0.52,0.26,0.26,0.0,0.0,0.26,0.0,NORTHBAY MEDICAL CENTER
5.36,3.28,34.24018,-118.39632,13037.55,6981.45,0.0,0.0,0.0,0.0,0.0,0.0,0.0,0.402,PACIFICA HOSPITAL OF THE VALLEY
22.62,3.24,37.25153,-121.94684,63347.67,6847.94,0.0,0.222,0.998,1.996,0.0,0.0,0.111,0.0,GOOD SAMARITAN HOSPITAL
6.53,2.53,33.75117,-116.96028,16463.14,4804.07,0.0,0.274,0.137,0.274,0.0,0.0,0.137,0.0,HEMET VALLEY MEDICAL CENTER
10.56,2.85,33.93530,-118.13030,28190.00,5733.92,0.0,0.33,0.11,0.0,0.0,0.0,0.0,0.0,DOWNEY REGIONAL MEDICAL CENTER
11.43,2.84,34.42951,-119.72333,30724.37,5690.95,0.0,0.0,0.239,0.159,0.0,0.0,0.08,0.08,SANTA BARBARA COTTAGE HOSPITAL
8.11,2.84,41.77451,-124.19400,21051.46,5706.46,0.0,0.496,0.496,0.991,0.0,0.0,0.0,0.0,SUTTER COAST HOSPITAL
7.07,3.49,39.20732,-122.00026,18013.29,7600.00,0.0,0.0,1.195,0.0,0.0,0.0,0.0,0.0,COLUSA REGIONAL MEDICAL CENTER
8.95,2.66,33.38091,-117.24446,23497.21,5181.00,0.0,0.0,0.56,0.0,0.0,0.0,0.0,0.0,FALLBROOK HOSPITAL
13.05,2.72,34.13364,-118.15275,35446.59,5343.30,0.0,0.171,0.514,0.171,0.0,0.0,0.057,0.057,HUNTINGTON MEMORIAL HOSPITAL
24.86,4.10,37.43436,-122.18013,69878.19,9369.12,0.0,0.28,0.449,0.337,0.0,0.0,0.112,0.112,STANFORD HOSPITAL
19.21,4.66,37.76421,-122.45716,53398.66,10988.50,0.0,0.738,0.492,0.492,0.0,0.123,0.123,0.0,UCSF MEDICAL CENTER
9.32,2.67,35.38338,-119.01969,24580.32,5186.89,0.0,0.606,0.242,0.0,0.0,0.0,0.0,0.0,SAN JOAQUIN COMMUNITY HOSPITAL
11.03,2.83,33.80861,-118.18661,29554.27,5655.81,0.0,0.66,0.6,0.42,0.0,0.0,0.0,0.06,LONG BEACH MEMORIAL MEDICAL CENTER
8.40,2.54,36.83863,-119.66183,21903.12,4835.62,0.0,0.892,0.297,0.0,0.0,0.0,0.0,0.0,CLOVIS COMMUNITY MEDICAL CENTER
15.10,2.84,38.66956,-121.31378,41435.94,5704.29,0.0,0.085,0.34,0.17,0.0,0.0,0.17,0.085,MERCY SAN JUAN MEDICAL CENTER
12.57,3.07,33.68179,-116.23394,34049.75,6352.50,0.0,0.576,0.864,0.0,0.0,0.0,0.288,0.0,JOHN F KENNEDY MEMORIAL HOSPITAL INC
13.70,2.71,34.20777,-118.88305,37358.05,5328.38,0.0,0.543,0.633,0.543,0.0,0.181,0.0,0.09,LOS ROBLES HOSPITAL & MEDICAL CENTER
15.19,2.46,33.80441,-118.06665,41696.62,4596.77,0.0,0.563,0.563,1.314,0.0,0.188,0.188,0.0,LOS ALAMITOS MEDICAL CENTER
15.36,2.62,37.66867,-120.97339,42186.72,5042.00,0.0,0.667,0.167,0.25,0.0,0.0,0.0,0.0,MEMORIAL  MEDICAL CENTER
10.82,2.44,33.56100,-117.66530,28958.64,4535.60,0.0,0.311,0.466,0.233,0.0,0.078,0.233,0.0,MISSION HOSPITAL REGIONAL MED CENTER
11.64,3.03,33.71466,-117.93322,31349.00,6244.21,0.0,0.882,0.196,0.0,0.0,0.0,0.0,0.0,FOUNTAIN VALLEY REGIONAL HOSPITAL & MEDICAL CENTER
13.39,2.65,33.76335,-116.40628,36433.67,5155.31,0.0,0.344,0.589,0.393,0.0,0.049,0.0,0.049,EISENHOWER MEDICAL CENTER
6.92,3.55,33.84753,-118.03841,17590.92,7755.31,0.0,0.318,0.0,0.0,0.0,0.0,0.0,0.0,LA PALMA INTERCOMMUNITY HOSPITAL
14.25,2.56,33.84932,-118.15323,38956.64,4875.00,0.0,0.143,0.57,0.143,0.0,0.0,0.0,0.0,LAKEWOOD REGIONAL MEDICAL CENTER
15.19,3.42,38.46387,-121.41645,41673.38,7396.31,0.0,0.565,0.0,0.377,0.0,0.0,0.188,0.188,METHODIST HOSPITAL OF SACRAMENTO
22.09,4.44,38.55484,-121.45628,61795.00,10344.12,0.0,1.915,0.479,2.668,0.0,0.137,0.0,0.137,UNIVERSITY OF CALIFORNIA DAVIS MEDICAL CENTER
10.03,2.35,33.60883,-117.70881,26639.45,4277.80,0.0,0.0,0.267,0.534,0.0,0.0,0.067,0.067,SADDLEBACK MEMORIAL MEDICAL CENTER
12.71,2.41,34.24359,-119.01992,34457.73,4443.00,0.0,0.846,0.282,0.846,0.0,0.0,0.0,0.0,ST JOHNS PLEASANT VALLEY HOSPITAL
14.88,2.47,34.39755,-118.55330,40797.64,4616.00,0.0,0.99,0.66,0.495,0.0,0.0,0.33,0.0,HENRY MAYO NEWHALL MEMORIAL HOSPITAL
19.44,3.08,34.07664,-118.37955,54071.64,6392.43,0.0,0.348,0.294,0.268,0.0,0.107,0.241,0.0,CEDARS-SINAI MEDICAL CENTER
16.69,2.50,35.55536,-120.72067,46043.77,4718.45,0.0,0.951,0.571,0.0,0.0,0.0,0.0,0.0,TWIN CITIES COMMUNITY HOSPITAL
6.36,3.30,34.01936,-118.18661,15957.73,7027.55,0.0,0.0,0.0,0.0,0.0,0.0,0.194,0.0,LOS ANGELES COMMUNITY HOSPITAL
8.89,2.47,33.70167,-117.95566,23330.09,4616.45,0.0,0.223,0.0,0.0,0.0,0.0,0.0,0.223,ORANGE COAST MEMORIAL MEDICAL CENTER
14.21,2.69,37.77577,-121.95824,38823.45,5247.73,0.0,0.325,0.325,0.0,0.0,0.325,0.0,0.325,SAN RAMON REGIONAL MEDICAL CTR
12.19,3.31,34.06193,-118.20157,32956.45,7075.91,0.0,0.521,1.042,0.0,0.0,0.0,0.13,0.0,KECK HOSPITAL OF USC
7.02,2.51,33.55876,-117.18329,17864.14,4746.89,0.0,0.0,1.03,0.257,0.0,0.0,0.129,0.0,SOUTHWEST HEALTHCARE SYSTEM
17.23,2.63,34.05723,-118.36025,47641.29,5085.71,0.0,1.391,0.506,0.379,0.0,0.0,0.253,0.0,OLYMPIA MEDICAL CENTER
10.41,2.69,34.02303,-118.39741,27754.40,5271.00,0.0,0.494,0.0,0.0,0.0,0.0,0.0,0.0,BROTMAN MEDICAL CENTER
5.91,2.58,34.16028,-118.44948,14632.33,4951.50,0.0,0.244,0.0,0.244,0.0,0.0,0.0,0.0,SHERMAN OAKS HOSPITAL
7.00,2.54,32.77629,-117.05730,17830.27,4820.82,0.0,0.667,0.133,0.0,0.0,0.0,0.133,0.0,ALVARADO HOSPITAL MEDICAL CENTER
14.22,2.51,34.17067,-118.53200,38851.05,4739.71,0.0,1.031,0.344,0.258,0.0,0.0,0.172,0.086,PROVIDENCE TARZANA MEDICAL CENTER
8.09,3.38,34.06958,-118.26344,21002.56,7258.33,0.0,0.271,0.271,0.0,0.0,0.0,0.271,0.0,SILVER LAKE MEDICAL CENTER
6.22,2.44,40.41481,-104.70890,15552.02,4522.38,0.0,0.0,0.603,0.345,0.0,0.0,0.172,0.0,NORTH COLORADO MEDICAL CENTER
7.14,2.36,40.18134,-105.12769,18221.70,4287.90,0.0,0.0,0.536,0.0,0.0,0.0,0.536,0.179,LONGMONT UNITED HOSPITAL
3.61,2.30,38.48040,-107.86857,7925.31,4129.46,0.0,0.0,0.8,0.4,0.0,0.0,0.0,0.0,MONTROSE MEMORIAL HOSPITAL
10.35,2.35,39.76893,-105.09006,27586.55,4265.55,0.109,0.437,0.219,0.328,0.0,0.109,0.0,0.109,EXEMPLA LUTHERAN MEDICAL CENTER
6.47,2.54,40.57315,-105.05741,16264.86,4830.26,0.0,0.181,0.543,0.362,0.0,0.0,0.0,0.091,POUDRE VALLEY HOSPITAL
6.53,3.36,39.72730,-104.99157,16438.31,7214.56,0.0,0.407,0.204,1.628,0.0,0.0,0.0,0.407,DENVER HEALTH MEDICAL CENTER
8.67,2.38,38.23421,-104.62292,22697.56,4365.92,0.0,0.304,1.064,0.152,0.0,0.304,0.456,0.0,CENTURA HEALTH-ST MARY CORWIN MEDICAL CENTER
12.61,2.47,39.71712,-105.12874,34180.75,4613.19,0.0,0.256,0.384,0.639,0.0,0.0,0.0,0.128,CENTURA HEALTH-ST ANTHONY HOSPITAL
8.42,2.32,38.28184,-104.61256,21950.12,4193.12,0.0,0.206,0.619,0.206,0.0,0.0,0.31,0.0,PARKVIEW MEDICAL CENTER INC
7.65,2.35,38.83903,-104.80024,19723.44,4253.49,0.0,0.363,0.544,0.06,0.0,0.0,0.0,0.181,MEMORIAL HOSPITAL CENTRAL
7.41,2.56,39.09046,-108.56190,19006.70,4873.42,0.0,0.976,0.759,1.193,0.0,0.0,0.217,0.108,ST MARYS HOSPITAL AND MEDICAL CENTER
8.93,3.36,39.74234,-104.84156,23433.71,7214.25,0.0,0.843,0.169,1.096,0.0,0.0,0.084,0.0,UNIVERSITY OF COLORADO HOSPITAL ANSCHUTZ INPATIENT
10.40,2.29,40.02615,-105.28391,27713.19,4093.00,0.0,0.192,0.192,0.0,0.0,0.0,0.0,0.0,BOULDER COMMUNITY HOSPITAL
7.22,2.21,40.41320,-105.05139,18456.47,3853.29,0.0,0.0,0.0,0.252,0.0,0.0,0.0,0.0,MCKEE MEDICAL CENTER
7.59,2.30,38.86559,-104.82182,19529.23,4122.41,0.0,0.655,0.298,0.119,0.0,0.0,0.238,0.0,CENTURA HEALTH-PENROSE ST FRANCIS HEALTH SERVICES
9.91,2.36,39.65399,-104.98116,26287.81,4283.24,0.0,1.376,0.994,0.688,0.0,0.076,0.0,0.306,SWEDISH MEDICAL CENTER
3.87,2.45,37.98501,-103.54383,8711.08,4566.17,0.0,0.0,0.556,0.0,0.0,0.0,0.0,0.0,ARKANSAS VALLEY REGIONAL MEDICAL CENTER
9.18,2.43,39.67005,-104.97490,24179.56,4506.17,0.0,0.158,0.947,0.473,0.0,0.0,0.0,0.0,CENTURA HEALTH-PORTER ADVENTIST HOSPITAL
9.02,3.03,39.68859,-104.83205,23695.86,6246.86,0.0,0.92,1.022,0.409,0.0,0.0,0.102,0.0,MEDICAL CENTER OF AURORA THE
9.12,2.47,39.84960,-105.01825,23995.08,4628.92,0.0,0.581,0.968,0.387,0.0,0.0,0.194,0.0,CENTURA HEALTH-ST ANTHONY NORTH HOSPITAL
11.16,2.31,39.57629,-104.98610,29934.02,4147.81,0.0,0.0,0.35,0.175,0.0,0.0,0.175,0.0,CENTURA HEALTH-LITTLETON ADVENTIST HOSPITAL
9.62,2.40,39.54881,-104.77119,25463.73,4412.00,0.0,0.328,0.985,0.0,0.0,0.0,0.328,0.328,PARKER ADVENTIST HOSPITAL
6.20,2.12,40.45184,-105.19608,15473.00,3593.67,0.0,0.342,0.342,0.513,0.0,0.0,0.0,0.0,MEDICAL CENTER OF THE ROCKIES
7.65,2.72,41.30978,-72.93806,19721.63,5353.79,0.0,0.344,0.516,0.602,0.0,0.0,0.086,0.043,HOSPITAL OF ST RAPHAEL
6.86,2.83,41.77507,-72.69941,17418.48,5671.52,0.0,0.714,0.672,0.462,0.0,0.0,0.126,0.084,ST FRANCIS HOSPITAL & MEDICAL CENTER
4.43,3.02,41.88142,-73.48367,10341.55,6226.00,0.0,0.0,0.856,1.284,0.0,0.0,0.0,0.0,SHARON HOSPITAL
7.84,2.74,41.55959,-73.05941,20274.74,5410.05,0.0,0.629,0.45,0.09,0.0,0.09,0.09,0.0,WATERBURY HOSPITAL
12.46,2.69,41.05562,-73.55390,33742.63,5262.11,0.0,1.067,0.534,0.32,0.0,0.0,0.854,0.107,STAMFORD HOSPITAL
3.96,2.51,41.33722,-72.10380,8956.06,4727.82,0.0,0.401,0.321,0.08,0.0,0.08,0.0,0.0,LAWRENCE & MEMORIAL HOSPITAL
8.91,3.22,41.18881,-73.16645,23374.08,6806.62,0.0,0.711,0.622,0.622,0.0,0.0,0.622,0.089,BRIDGEPORT HOSPITAL
4.51,2.92,41.55241,-73.03554,10573.67,5929.89,0.0,0.294,0.783,0.098,0.0,0.098,0.196,0.0,SAINT MARYS HOSPITAL
5.93,2.48,41.54874,-72.80148,14697.38,4657.71,0.0,1.042,0.781,0.391,0.0,0.13,0.0,0.0,MIDSTATE MEDICAL CENTER
6.23,2.58,41.03431,-73.63020,15568.70,4947.50,0.0,0.102,0.407,0.611,0.0,0.102,0.204,0.102,GREENWICH HOSPITAL ASSOCIATION
8.43,2.54,41.55473,-72.64872,21980.12,4816.41,0.0,0.0,0.574,1.884,0.0,0.082,0.246,0.0,MIDDLESEX HOSPITAL
5.64,2.97,41.71622,-72.22399,13850.06,6077.81,0.0,0.0,0.458,0.0,0.0,0.0,0.687,0.0,WINDHAM COMM MEM HOSP & HATCH HOSP
9.69,3.69,41.30400,-72.93502,25645.90,8164.12,0.0,0.865,0.587,0.68,0.0,0.124,0.062,0.34,YALE-NEW HAVEN HOSPITAL
7.68,3.07,41.75412,-72.67927,19806.76,6359.73,0.0,0.402,0.511,0.548,0.0,0.073,0.073,0.11,HARTFORD HOSPITAL
5.11,2.38,41.78185,-72.52591,12300.07,4344.53,0.0,0.0,0.863,0.0,0.0,0.0,0.173,0.173,MANCHESTER MEMORIAL HOSPITAL
7.20,2.76,41.20049,-73.20281,18391.00,5457.19,0.0,0.375,0.25,0.437,0.0,0.0,0.0,0.0,ST VINCENT'S MEDICAL CENTER
5.63,2.69,41.40474,-73.44739,13819.96,5256.27,0.0,0.0,0.517,0.46,0.0,0.0,0.057,0.23,DANBURY HOSPITAL
6.94,2.75,41.11147,-73.42010,17646.93,5429.07,0.0,0.195,0.39,0.098,0.0,0.0,0.293,0.0,NORWALK HOSPITAL ASSOCIATION
5.48,2.69,41.66107,-72.78671,13385.00,5261.88,0.0,0.249,0.187,0.435,0.0,0.062,0.124,0.124,HOSPITAL OF CENTRAL CONNECTICUT THE
2.22,2.41,41.46281,-72.83650,3884.29,4446.18,0.0,0.0,0.0,0.0,0.0,0.0,0.0,0.0,MASONIC HOME AND HOSPITAL
5.16,2.67,39.69005,-75.68408,12466.04,5188.62,0.0,0.513,0.424,0.379,0.0,0.0,0.067,0.089,CHRISTIANA CARE HEALTH SERVICES INC.
9.60,3.03,39.15135,-75.52309,25384.40,6238.33,0.0,0.258,0.773,0.193,0.0,0.0,0.064,0.129,BAYHEALTH - KENT GENERAL HOSPITAL
8.70,3.06,38.90106,-77.05079,22762.82,6336.35,0.0,0.445,1.112,0.778,0.0,0.445,0.0,0.111,GEORGE WASHINGTON UNIV HOSPITAL
8.71,4.32,38.91770,-77.02193,22789.50,10017.89,0.0,0.805,0.322,0.644,0.0,0.0,0.161,0.0,HOWARD UNIVERSITY HOSPITAL
7.18,3.19,38.91221,-77.07588,18338.84,6705.56,0.0,0.876,0.548,0.438,0.0,0.0,0.11,0.0,GEORGETOWN UNIVERSITY HOSPITAL
5.79,2.28,38.93576,-77.10909,14307.15,4075.23,0.0,0.0,0.649,0.26,0.0,0.0,0.13,0.0,SIBLEY MEMORIAL HOSPITAL
5.45,2.85,38.94397,-76.99040,13303.80,5738.57,0.0,0.322,0.215,0.0,0.107,0.107,0.322,0.0,PROVIDENCE HOSPITAL
8.72,3.01,38.92944,-77.01473,22828.63,6200.74,0.0,0.761,0.217,0.362,0.0,0.0,0.145,0.109,WASHINGTON HOSPITAL CENTER
8.48,2.96,30.34913,-81.66391,22133.72,6049.08,0.0,0.31,0.31,0.186,0.0,0.0,0.124,0.186,SHANDS JACKSONVILLE MEDICAL CENTER
8.76,2.43,26.50479,-80.06979,22956.08,4504.60,0.0,0.508,0.799,0.29,0.0,0.073,0.29,0.0,BETHESDA MEMORIAL HOSPITAL
8.96,2.49,28.52517,-81.37729,23527.52,4680.40,0.0,0.826,0.486,0.219,0.0,0.049,0.097,0.024,ORLANDO HEALTH
7.72,2.38,28.57345,-81.36990,19915.59,4365.27,0.0,0.317,0.317,0.136,0.0,0.0,0.011,0.023,FLORIDA HOSPITAL
14.02,2.60,25.68309,-80.34038,38275.26,4998.46,0.0,0.316,0.443,0.19,0.0,0.0,0.19,0.063,BAPTIST HOSPITAL OF MIAMI INC
13.91,3.19,25.78846,-80.21644,37950.80,6708.20,0.0,0.929,0.547,0.109,0.0,0.0,1.093,0.055,UNIVERSITY OF MIAMI HOSPITAL
5.95,2.27,26.62849,-81.87423,14765.46,4038.50,0.0,0.511,0.746,1.021,0.0,0.0,0.157,0.039,LEE MEMORIAL HOSPITAL
5.88,2.38,29.20117,-81.05828,14554.03,4353.92,0.0,0.425,0.729,0.121,0.0,0.0,0.0,0.0,HALIFAX HEALTH MEDICAL CENTER
6.19,2.24,26.15053,-81.79919,15453.67,3937.44,0.0,0.303,0.539,0.101,0.0,0.0,0.135,0.034,NAPLES COMMUNITY HOSPITAL
8.06,2.15,28.08771,-80.61362,20919.82,3676.87,0.0,0.475,0.647,0.216,0.0,0.043,0.043,0.0,HOLMES REGIONAL MEDICAL CENTER
6.83,3.83,25.79143,-80.21250,17319.07,8584.48,0.047,0.837,0.186,0.186,0.0,0.047,0.326,0.0,JACKSON MEMORIAL HOSPITAL
5.65,2.12,28.83363,-82.33561,13882.15,3609.00,0.0,0.415,0.415,2.24,0.0,0.0,0.249,0.083,CITRUS MEMORIAL HOSPITAL
5.09,2.34,30.47650,-87.21219,12253.24,4250.95,0.058,0.231,0.231,0.81,0.0,0.173,0.058,0.116,SACRED HEART HOSPITAL
4.89,2.19,30.15963,-85.64818,11674.33,3814.05,0.0,0.3,0.72,0.0,0.0,0.06,0.0,0.0,BAY MEDICAL CENTER
12.12,2.62,25.86166,-80.21398,32746.94,5044.89,0.0,0.15,0.225,0.0,0.0,0.0,0.075,0.0,NORTH SHORE MEDICAL CENTER
6.44,2.32,28.54917,-81.52746,16189.81,4176.42,0.0,0.307,0.461,0.154,0.0,0.0,0.0,0.154,HEALTH CENTRAL
7.86,2.48,27.76332,-82.64325,20315.53,4640.18,0.0,1.031,0.469,0.0,0.0,0.0,0.0,0.0,BAYFRONT MEDICAL CENTER INC
11.62,2.80,25.81317,-80.13996,31287.10,5570.39,0.0,0.313,0.813,0.313,0.0,0.063,0.125,0.063,MOUNT SINAI MEDICAL CENTER
6.65,2.31,27.49789,-82.56220,16793.04,4143.75,0.0,0.271,0.542,0.542,0.0,0.09,0.181,0.0,MANATEE MEMORIAL HOSPITAL
9.13,2.51,26.01867,-80.17981,24035.22,4738.24,0.0,0.273,0.436,0.164,0.0,0.0,0.055,0.109,MEMORIAL REGIONAL HOSPITAL
6.18,2.22,30.30835,-81.68919,15422.67,3876.88,0.0,0.139,0.173,0.104,0.0,0.0,0.069,0.035,ST VINCENT'S MEDICAL CENTER
6.35,2.13,28.01404,-82.78368,15935.75,3614.33,0.0,0.199,0.596,2.783,0.0,0.0,0.0,0.0,MEASE HOSPITAL DUNEDIN
8.34,2.24,27.19837,-80.24306,21723.12,3952.54,0.0,0.448,0.384,0.128,0.0,0.064,0.0,0.0,MARTIN MEMORIAL MEDICAL CENTER
7.53,2.24,29.04263,-81.31635,19354.45,3945.73,0.0,0.0,0.348,0.0,0.0,0.0,0.174,0.0,FLORIDA HOSPITAL DELAND
9.36,2.19,28.26092,-82.18802,24691.14,3811.62,0.0,0.131,0.262,0.262,0.0,0.131,0.262,0.0,FLORIDA HOSPITAL ZEPHYRHILLS
6.42,2.14,26.94042,-82.04094,16123.73,3654.48,0.0,0.199,0.099,0.397,0.0,0.0,0.0,0.099,CHARLOTTE REGIONAL MEDICAL CENTER
5.94,2.71,25.86856,-80.31222,14720.55,5316.00,0.0,0.0,0.14,0.0,0.0,0.0,0.14,0.0,PALM SPRINGS GENERAL HOSPITAL
7.82,2.14,28.55140,-81.72120,20222.77,3659.69,0.0,1.095,1.824,0.547,0.0,0.0,0.0,0.0,SOUTH LAKE HOSPITAL
9.03,2.20,28.02768,-81.72466,23722.18,3822.43,0.0,0.4,0.799,0.32,0.0,0.0,0.719,0.0,WINTER HAVEN HOSPITAL
13.81,2.95,25.84597,-80.26872,37660.43,6015.89,0.0,0.0,0.468,0.0,0.0,0.0,0.468,0.0,HIALEAH HOSPITAL
8.35,2.11,28.13321,-82.75839,21741.33,3570.40,0.0,0.289,0.0,0.289,0.0,0.0,0.0,0.0,HELEN ELLIS MEMORIAL HOSPITAL
8.19,2.16,28.82358,-81.71133,21281.96,3715.85,0.0,0.137,0.825,0.069,0.0,0.0,0.069,0.0,FLORIDA HOSPITAL WATERMAN
5.62,2.13,29.17594,-82.13898,13795.43,3635.61,0.0,0.135,0.628,0.359,0.0,0.0,0.09,0.135,MUNROE REGIONAL MEDICAL CENTER
6.30,2.12,27.78088,-82.65126,15773.33,3596.17,0.0,0.632,0.316,0.316,0.0,0.0,0.105,0.0,ST ANTHONY'S HOSPITAL
4.94,2.11,29.24333,-81.10760,11805.73,3579.13,0.0,0.378,0.472,0.189,0.0,0.094,0.0,0.0,FLORIDA HOSPITAL MEMORIAL MEDICAL CENTER
6.44,2.14,27.09043,-82.44499,16189.68,3653.00,0.0,0.41,0.614,0.205,0.0,0.0,0.0,0.0,VENICE REGIONAL MEDICAL CENTER
10.46,2.26,28.53906,-82.44193,27909.67,3992.07,0.0,0.525,0.393,0.0,0.0,0.0,0.262,0.0,BROOKSVILLE REGIONAL HOSPITAL
6.57,2.19,28.91403,-81.28480,16562.44,3789.88,0.0,0.142,0.285,0.142,0.0,0.0,0.142,0.0,FLORIDA HOSPITAL FISH MEMORIAL
7.65,2.20,26.18711,-80.11941,19703.59,3835.36,0.0,0.328,0.46,1.182,0.0,0.0,0.131,0.066,HOLY CROSS HOSPITAL INC
6.35,2.41,27.98242,-82.49025,15930.53,4441.91,0.0,0.48,0.384,0.144,0.0,0.0,0.096,0.192,ST JOSEPH'S HOSPITAL
9.65,2.33,26.59805,-80.09271,25555.41,4200.48,0.0,0.454,0.578,0.165,0.0,0.041,0.041,0.0,JFK MEDICAL CENTER
4.86,2.18,30.64734,-86.11395,11586.20,3761.27,0.0,0.0,0.803,0.0,0.0,0.0,0.0,0.0,HEALTHMARK REGIONAL MEDICAL CENTER
6.98,2.19,28.80659,-81.86906,17770.44,3808.33,0.0,0.322,0.643,0.214,0.0,0.054,0.0,0.0,LEESBURG REGIONAL MEDICAL CENTER
5.34,2.33,26.27623,-80.12220,12982.14,4203.71,0.0,0.318,0.318,0.159,0.0,0.0,0.318,0.0,BROWARD HEALTH NORTH BROWARD MEDICAL CENTER
5.67,2.21,27.31827,-82.53140,13931.27,3860.16,0.045,0.27,0.36,1.622,0.0,0.045,0.045,0.09,SARASOTA MEMORIAL HOSPITAL
9.96,2.35,30.31525,-81.66398,26431.56,4253.49,0.0,0.377,0.519,1.131,0.0,0.047,0.047,0.047,BAPTIST MEDICAL CENTER
7.04,2.38,29.86371,-81.31749,17938.41,4352.86,0.0,0.591,0.739,0.074,0.0,0.0,0.0,0.0,FLAGLER HOSPITAL
5.91,2.21,28.33522,-80.72319,14655.83,3863.00,0.0,0.193,1.158,0.289,0.0,0.0,0.0,0.193,WUESTHOFF MEDICAL CENTER  ROCKLEDGE
6.39,2.19,30.43066,-87.23191,16054.27,3795.73,0.0,0.201,0.502,0.1,0.0,0.0,0.1,0.0,BAPTIST HOSPITAL
3.97,2.28,27.65832,-80.39307,8983.93,4054.00,0.0,0.068,0.204,0.136,0.0,0.068,0.0,0.0,INDIAN RIVER MEDICAL CENTER
7.02,2.21,26.61563,-81.65945,17888.81,3855.12,0.0,0.0,1.162,0.0,0.0,0.0,0.291,0.0,LEHIGH REGIONAL MEDICAL CENTER
8.70,2.23,27.50001,-81.43962,22782.41,3926.06,0.0,0.568,0.812,0.487,0.0,0.081,0.0,0.0,FLORIDA HOSPITAL HEARTLAND MEDICAL CENTER
12.72,2.35,28.29946,-81.41021,34494.94,4266.12,0.0,1.196,0.498,0.299,0.0,0.1,0.0,0.0,OSCEOLA REGIONAL MEDICAL CENTER
6.40,3.21,29.64155,-82.34844,16084.00,6783.47,0.0,0.99,0.344,0.689,0.0,0.0,0.172,0.172,SHANDS HOSPITAL AT THE UNIVERSITY OF FLORIDA
8.13,2.15,30.27449,-81.40071,21107.32,3672.18,0.0,0.0,0.0,0.173,0.0,0.0,0.0,0.0,BAPTIST MEDICAL CENTER  BEACHES
6.59,2.19,27.91798,-81.84402,16628.06,3789.22,0.0,0.0,1.16,0.29,0.0,0.0,0.0,0.0,BARTOW REGIONAL MEDICAL CENTER
8.22,2.76,30.73540,-86.56171,21364.52,5472.38,0.0,0.163,0.325,0.0,0.0,0.0,0.0,0.0,NORTH OKALOOSA MEDICAL CENTER
5.56,2.21,30.63421,-87.06708,13614.18,3869.82,0.0,0.0,0.317,0.317,0.0,0.0,0.0,0.317,SANTA ROSA MEDICAL CENTER
9.56,2.68,25.47971,-80.43038,25272.36,5221.93,0.0,0.0,0.499,0.25,0.0,0.0,0.0,0.0,HOMESTEAD HOSPITAL
6.50,2.22,27.95192,-82.80379,16355.30,3889.80,0.052,0.209,0.731,0.992,0.0,0.0,0.0,0.0,MORTON PLANT HOSPITAL
13.08,2.87,27.93740,-82.45927,35534.00,5794.75,0.0,0.722,0.587,0.045,0.0,0.0,0.0,0.181,TAMPA GENERAL HOSPITAL
9.73,2.33,25.96994,-80.14533,25777.64,4196.45,0.0,0.351,0.984,0.141,0.0,0.0,0.351,0.0,AVENTURA HOSPITAL AND MEDICAL CENTER
7.38,2.24,28.01563,-82.13900,18932.94,3947.94,0.0,0.274,0.0,0.0,0.0,0.0,0.0,0.0,SOUTH FLORIDA BAPTIST HOSPITAL
7.37,2.41,30.45726,-84.26175,18884.74,4451.59,0.0,0.228,0.609,1.37,0.0,0.0,0.076,0.076,TALLAHASSEE MEMORIAL HEALTHCARE
12.08,2.62,28.18120,-81.64018,32626.38,5040.28,0.0,0.246,0.246,0.123,0.0,0.0,0.0,0.123,HEART OF FLORIDA REGIONAL MEDICAL CENTER
4.36,2.21,30.78675,-85.24189,10120.85,3858.15,0.0,0.313,0.313,0.0,0.0,0.0,0.313,0.313,JACKSON HOSPITAL
8.57,2.86,24.58076,-81.74233,22382.80,5740.67,0.0,1.094,1.094,1.094,0.0,0.0,0.0,0.0,LOWER KEYS MEDICAL CENTER
5.53,2.78,30.26389,-81.44283,13538.81,5528.97,0.0,0.504,0.144,0.216,0.0,0.0,0.072,0.144,MAYO CLINIC
8.87,2.49,30.18340,-82.68783,23261.53,4683.00,0.0,0.547,0.182,0.365,0.0,0.0,0.0,0.0,LAKE CITY MEDICAL CENTER
6.88,2.28,28.06172,-81.95304,17475.70,4052.63,0.0,1.08,0.68,0.52,0.0,0.0,0.12,0.04,LAKELAND REGIONAL MEDICAL CENTER
7.09,2.24,28.81611,-81.28351,18070.00,3937.06,0.141,1.129,0.282,0.423,0.0,0.0,0.141,0.0,CENTRAL FLORIDA REGIONAL HOSPITAL
8.17,2.21,26.83035,-80.08655,21221.93,3854.29,0.0,0.494,0.494,0.593,0.0,0.0,0.099,0.099,PALM BEACH GARDENS MEDICAL CENTER
9.51,2.70,26.12647,-80.20519,25131.06,5279.44,0.0,1.164,0.582,0.0,0.0,0.0,0.0,0.0,PLANTATION GENERAL HOSPITAL
6.83,2.23,26.35875,-80.10203,17325.00,3923.00,0.0,0.324,0.486,0.648,0.0,0.054,0.324,0.108,BOCA RATON REGIONAL HOSPITAL
7.54,2.26,28.07111,-82.42342,19384.87,4003.63,0.0,0.307,0.461,0.307,0.0,0.077,0.0,0.0,FLORIDA HOSPITAL TAMPA
6.71,2.12,28.36005,-80.62309,16974.54,3597.92,0.0,0.62,0.207,0.0,0.0,0.0,0.0,0.0,CAPE CANAVERAL HOSPITAL
14.32,2.31,30.28793,-81.60103,39140.53,4149.58,0.0,0.449,0.337,0.281,0.0,0.112,0.449,0.056,MEMORIAL HOSPITAL JACKSONVILLE
12.18,2.79,25.88563,-80.32635,32920.45,5551.67,0.0,0.477,0.341,0.0,0.0,0.0,0.136,0.0,PALMETTO GENERAL HOSPITAL
8.53,2.23,26.26259,-80.20292,22290.46,3926.08,0.0,0.203,0.507,0.101,0.0,0.101,0.101,0.101,NORTHWEST MEDICAL CENTER
13.43,2.15,28.19342,-82.46987,36567.53,3683.17,0.0,0.312,0.623,0.208,0.0,0.0,0.0,0.0,MEDICAL CENTER OF TRINITY
11.49,2.21,29.66085,-82.41172,30891.40,3872.26,0.0,0.656,0.615,0.983,0.0,0.082,0.164,0.0,NORTH FLORIDA REGIONAL MEDICAL CENTER
10.92,2.12,29.17550,-82.13680,29229.38,3584.76,0.0,0.338,0.745,0.474,0.0,0.0,0.203,0.135,OCALA REGIONAL MEDICAL CENTER
9.27,2.12,27.48213,-82.62126,24439.81,3583.43,0.0,0.073,1.028,0.0,0.0,0.0,0.22,0.0,BLAKE MEDICAL CENTER
6.43,2.24,26.52735,-81.83337,16160.05,3939.53,0.0,0.418,0.731,0.209,0.0,0.0,0.052,0.052,GULF COAST MEDICAL CENTER LEE MEM HEALTH SYSTEM
10.55,2.31,30.45448,-86.63362,28171.46,4155.08,0.0,1.008,0.807,0.202,0.0,0.0,0.0,0.0,FORT WALTON BEACH MEDICAL CENTER
13.76,2.23,26.21219,-80.25478,37527.33,3927.00,0.0,0.513,0.684,0.0,0.0,0.0,0.0,0.171,UNIVERSITY HOSPITAL AND MEDICAL CENTER
12.72,2.26,30.16550,-81.73775,34483.49,3997.84,0.0,0.578,0.413,0.165,0.0,0.0,0.0,0.165,ORANGE PARK MEDICAL CENTER
13.15,2.21,26.12354,-80.25951,35750.85,3860.00,0.0,0.441,0.617,0.176,0.0,0.088,0.088,0.0,WESTSIDE REGIONAL MEDICAL CENTER
8.05,2.07,30.51624,-87.21856,20884.60,3448.20,0.0,0.614,0.79,0.176,0.0,0.0,0.176,0.0,WEST FLORIDA HOSPITAL
5.11,2.28,29.64481,-81.69431,12309.03,4053.43,0.0,0.0,0.326,0.163,0.0,0.163,0.0,0.0,PUTNAM COMMUNITY MEDICAL CENTER
11.09,2.39,26.76167,-80.08781,29724.27,4376.73,0.0,0.565,0.283,0.0,0.0,0.0,0.0,0.0,COLUMBIA HOSPITAL
11.32,2.12,26.98884,-82.09877,30401.80,3590.82,0.0,0.333,0.333,0.416,0.0,0.0,0.0,0.0,FAWCETT MEMORIAL HOSPITAL
13.08,2.26,27.82545,-82.70122,35530.33,4014.08,0.0,0.941,0.523,0.105,0.0,0.0,0.0,0.314,NORTHSIDE HOSPITAL
12.40,2.25,30.18657,-85.66513,33561.00,3989.33,0.0,0.256,0.896,0.384,0.0,0.0,0.256,0.0,GULF COAST MEDICAL CENTER
11.36,2.28,27.93259,-82.28759,30537.21,4050.53,0.0,0.598,0.684,0.085,0.0,0.0,0.085,0.0,BRANDON REGIONAL HOSPITAL
5.40,2.12,26.63958,-81.94164,13155.59,3605.83,0.0,0.526,1.278,0.301,0.0,0.075,0.15,0.0,CAPE CORAL HOSPITAL
11.55,2.48,27.43392,-80.34350,31065.56,4638.06,0.0,0.563,0.563,0.188,0.0,0.094,0.0,0.282,LAWNWOOD REGIONAL MEDICAL CENTER & HEART INSTITUTE
8.66,2.20,27.91458,-82.80382,22659.52,3845.05,0.0,0.108,0.759,0.433,0.0,0.163,0.108,0.054,LARGO MEDICAL CENTER
5.91,2.14,28.95195,-82.62421,14647.90,3655.75,0.0,0.0,0.741,0.37,0.0,0.0,0.0,0.123,SEVEN RIVERS REGIONAL MEDICAL CENTER
8.38,2.21,26.92138,-80.09708,21836.18,3864.53,0.0,0.852,0.532,0.745,0.0,0.106,0.0,0.0,JUPITER MEDICAL CENTER
9.00,2.33,30.47616,-84.23140,23655.61,4209.74,0.0,0.695,0.463,0.116,0.0,0.116,0.0,0.0,CAPITAL REGIONAL MEDICAL CENTER
10.30,2.24,28.00237,-82.57309,27421.69,3955.69,0.0,0.352,0.703,0.0,0.0,0.0,0.352,0.352,TOWN & COUNTRY HOSPITAL
12.28,2.26,28.36128,-82.68883,33214.19,3995.62,0.0,0.258,0.687,0.258,0.0,0.0,0.086,0.0,REGIONAL MEDICAL CENTER BAYONET POINT
9.92,2.25,26.43709,-80.12728,26341.85,3984.76,0.0,0.373,0.479,0.053,0.0,0.0,0.053,0.0,DELRAY MEDICAL CENTER
10.40,2.12,27.71350,-82.36512,27725.95,3588.00,0.0,0.539,0.404,0.673,0.0,0.0,0.135,0.0,SOUTH BAY HOSPITAL
10.94,2.34,27.28861,-80.29431,29312.83,4243.45,0.0,0.407,0.652,0.244,0.0,0.0,0.0,0.244,ST LUCIE MEDICAL CENTER
11.05,2.09,28.53585,-82.53404,29611.19,3522.32,0.0,0.467,1.089,0.0,0.0,0.078,0.0,0.0,OAK HILL HOSPITAL
7.30,2.09,28.03957,-82.70875,18687.31,3499.75,0.0,0.083,0.667,0.833,0.0,0.0,0.083,0.0,MEASE COUNTRYSIDE HOSPITAL
7.21,2.07,30.35772,-87.16046,18428.67,3456.00,0.0,0.234,0.234,0.0,0.0,0.0,0.0,0.0,GULF BREEZE HOSPITAL
6.62,2.35,26.35614,-80.19956,16717.41,4255.97,0.0,0.0,0.205,0.205,0.0,0.0,0.205,0.0,WEST BOCA MEDICAL CENTER
10.99,2.50,26.68337,-80.25269,29456.36,4706.36,0.0,0.0,1.097,0.914,0.0,0.0,0.548,0.0,PALMS WEST HOSPITAL
7.39,2.43,26.65230,-80.20504,18963.08,4496.88,0.0,0.312,0.623,0.0,0.0,0.0,0.0,0.312,WELLINGTON REGIONAL MEDICAL CENTER
7.90,2.36,26.26841,-80.25571,20444.88,4302.69,0.0,1.241,0.248,0.248,0.0,0.0,0.248,0.0,CORAL SPRINGS MEDICAL CENTER
12.85,2.38,26.01394,-80.30980,34861.47,4349.29,0.0,0.341,0.114,0.454,0.0,0.0,0.0,0.114,MEMORIAL HOSPITAL WEST
4.59,3.10,25.74731,-80.31765,10784.40,6446.20,0.0,0.148,0.739,0.0,0.0,0.0,0.0,0.0,WESTCHESTER GENERAL HOSPITAL
9.35,2.18,26.21388,-81.73257,24653.13,3781.00,0.0,0.122,0.733,0.122,0.0,0.0,0.0,0.0,PHYSICIANS REGIONAL MEDICAL CENTER - PINE RIDGE
7.36,2.31,26.70181,-80.05055,18863.00,4149.64,0.0,0.825,0.275,0.138,0.138,0.0,0.138,0.0,GOOD SAMARITAN MEDICAL CENTER
12.05,2.81,26.75635,-80.06322,32538.00,5601.00,0.0,0.325,0.65,0.0,0.0,0.0,0.0,0.0,ST MARY'S MEDICAL CENTER
5.74,2.29,26.08155,-80.36449,14157.59,4096.71,0.0,0.237,0.356,0.356,0.0,0.119,0.237,0.0,CLEVELAND CLINIC HOSPITAL
6.63,2.12,28.94952,-81.95843,16739.23,3584.69,0.0,0.386,0.258,0.0,0.0,0.0,0.064,0.0,VILLAGES REGIONAL HOSPITAL THE
6.06,2.18,28.10969,-80.67280,15086.48,3763.29,0.0,0.249,0.746,0.0,0.0,0.497,0.0,0.0,WUESTHOFF MEDICAL CENTER - MELBOURNE
14.92,2.44,25.72132,-80.27116,40913.14,4522.57,0.0,0.395,0.395,0.0,0.0,0.0,0.0,0.198,DOCTORS HOSPITAL INC
6.18,2.12,27.38993,-82.43343,15430.76,3600.24,0.0,0.0,0.623,0.0,0.0,0.0,0.0,0.0,LAKEWOOD RANCH MEDICAL CENTER
7.61,2.11,30.25377,-81.58270,19603.06,3567.00,0.0,0.499,0.333,0.333,0.0,0.0,0.0,0.0,ST VINCENT'S MEDICAL CENTER SOUTHSIDE
6.77,2.27,34.78963,-84.98398,17154.05,4027.25,0.0,0.162,0.809,0.324,0.0,0.0,0.0,0.0,HAMILTON MEDICAL CENTER
6.48,2.20,31.22516,-82.34898,16301.34,3822.77,0.0,0.0,0.535,0.0,0.0,0.0,0.0,0.0,SATILLA REGIONAL MEDICAL CENTER
8.85,2.33,34.17863,-84.13992,23223.89,4196.31,0.0,0.696,0.974,0.139,0.0,0.0,0.0,0.139,NORTHSIDE HOSPITAL FORSYTH
7.50,2.38,33.94791,-83.40531,19281.60,4363.88,0.0,0.179,0.358,0.0,0.0,0.0,0.179,0.0,ST MARY'S HOSPITAL
5.52,2.48,31.59023,-84.15756,13515.65,4649.52,0.177,0.177,0.795,0.0,0.0,0.177,0.088,0.0,PHOEBE PUTNEY MEMORIAL HOSPITAL
11.87,2.28,34.24569,-84.49068,32011.14,4054.14,0.0,0.622,0.933,0.311,0.0,0.0,0.0,0.0,NORTHSIDE HOSPITAL CHEROKEE
5.91,2.68,33.79230,-84.32107,14643.79,5222.43,0.0,2.246,0.299,1.098,0.0,0.1,0.299,0.2,EMORY UNIVERSITY HOSPITAL
4.61,2.60,33.56970,-85.07276,10847.09,4999.09,0.0,0.172,0.343,0.0,0.0,0.172,0.0,0.0,TANNER MEDICAL CENTER - CARROLLTON
4.58,2.25,33.03204,-85.05781,10753.60,3979.07,0.0,0.151,0.303,0.0,0.0,0.151,0.0,0.0,WEST GEORGIA MEDICAL CENTER
5.89,2.62,31.17425,-81.48459,14573.83,5048.28,0.0,0.576,0.346,0.115,0.0,0.0,0.115,0.115,SOUTHEAST GEORGIA HEALTH SYSTEM- BRUNSWICK CAMPUS
5.22,2.36,33.47096,-81.98176,12629.57,4291.67,0.0,0.792,0.396,5.205,0.0,0.0,0.339,0.113,UNIVERSITY HOSPITAL
5.01,2.30,34.30335,-83.81737,12009.80,4129.72,0.0,0.15,0.4,0.65,0.0,0.05,0.0,0.1,NORTHEAST GEORGIA MEDICAL CENTER INC
9.85,2.32,34.19990,-84.79378,26131.27,4185.18,0.0,0.414,0.621,0.621,0.0,0.0,0.0,0.414,CARTERSVILLE MEDICAL CENTER
8.85,2.40,33.23886,-84.26706,23222.31,4402.61,0.0,0.721,0.432,0.144,0.0,0.0,0.0,0.0,SPALDING REGIONAL MEDICAL CENTER
4.28,2.40,34.59332,-83.34788,9884.05,4411.18,0.0,0.339,1.017,0.0,0.0,0.0,0.0,0.0,STEPHENS COUNTY HOSPITAL
5.05,3.05,33.47091,-81.98988,12148.50,6295.15,0.0,0.631,0.36,0.18,0.0,0.09,0.45,0.27,MEDICAL COLLEGE OF GA HOSPITALS AND CLINICS
7.43,2.29,33.96770,-84.55011,19068.63,4096.73,0.0,0.818,0.696,0.368,0.0,0.0,0.082,0.0,WELLSTAR KENNESTONE HOSPITAL
5.96,2.51,32.03185,-81.09158,14780.51,4747.95,0.0,0.179,0.359,0.299,0.0,0.06,0.179,0.0,MEMORIAL HEALTH UNIV MED CEN INC
6.81,2.20,30.82614,-83.97393,17275.21,3840.84,0.0,0.134,0.403,0.134,0.0,0.0,0.134,0.0,JOHN D ARCHBOLD MEMORIAL HOSPITAL
6.23,2.37,33.91929,-84.85224,15589.31,4318.62,0.0,0.575,0.575,0.0,0.0,0.0,0.0,0.0,WELLSTAR PAULDING HOSPITAL
5.43,2.14,31.98515,-81.15475,13251.58,3648.17,0.0,0.375,0.844,0.0,0.0,0.0,0.094,0.0,ST JOSEPH'S HOSPITAL - SAVANNAH
6.26,2.44,34.26000,-85.17000,15648.83,4517.58,0.0,0.109,1.091,0.218,0.0,0.0,0.0,0.109,FLOYD MEDICAL CENTER
6.06,2.66,32.46602,-84.98695,15069.12,5169.71,0.0,0.0,0.177,0.0,0.0,0.177,0.0,0.0,MEDICAL CENTER THE
4.49,2.29,32.61642,-83.63065,10505.23,4090.77,0.0,0.863,0.384,0.767,0.0,0.0,0.0,0.0,HOUSTON MEDICAL CENTER
6.92,2.33,33.96117,-83.39832,17594.09,4206.41,0.0,0.276,0.276,0.414,0.0,0.138,0.0,0.0,ATHENS REGIONAL MEDICAL CENTER
5.96,2.39,32.41483,-81.76990,14777.42,4384.33,0.0,0.0,0.656,0.0,0.0,0.0,0.0,0.164,EAST GEORGIA REGIONAL MEDICAL CENTER
5.67,2.46,33.78956,-84.28077,13940.08,4591.20,0.0,0.243,0.243,0.081,0.0,0.0,0.0,0.0,DEKALB MEDICAL CENTER
5.27,2.52,33.76810,-84.38616,12781.83,4775.97,0.0,1.358,0.647,0.453,0.0,0.065,0.129,0.065,EMORY UNIVERSITY HOSPITAL MIDTOWN
6.86,3.07,33.75205,-84.38272,17396.62,6357.46,0.0,0.528,0.211,1.056,0.0,0.106,0.106,0.0,GRADY MEMORIAL HOSPITAL
4.84,2.18,33.90877,-84.35180,11512.35,3773.65,0.0,0.348,0.557,0.696,0.0,0.07,0.0,0.07,SAINT JOSEPH'S HOSPITAL OF ATLANTA INC
11.35,2.69,33.81003,-84.39568,30488.10,5264.81,0.0,0.146,0.438,0.049,0.0,0.049,0.049,0.049,PIEDMONT HOSPITAL
5.89,2.33,33.96351,-84.01769,14579.17,4195.71,0.0,0.159,0.239,0.0,0.0,0.0,0.0,0.0,GWINNETT MEDICAL CENTER
5.60,2.16,31.50971,-82.86341,13724.69,3724.17,0.0,0.208,0.208,0.0,0.0,0.0,0.416,0.0,COFFEE REGIONAL MEDICAL CENTER
6.80,2.27,31.47069,-83.50473,17243.28,4020.52,0.0,0.0,0.751,0.0,0.0,0.0,0.501,0.0,TIFT REGIONAL MEDICAL CENTER
4.76,2.32,31.17991,-83.78906,11289.27,4177.60,0.0,0.0,0.986,0.329,0.0,0.0,0.0,0.986,COLQUITT REGIONAL MEDICAL CENTER
5.32,2.48,32.83041,-83.63476,12929.67,4632.57,0.0,0.371,0.619,0.165,0.0,0.041,0.165,0.082,MEDICAL CENTER OF CENTRAL GEORGIA
13.76,2.77,33.76372,-84.37315,37522.18,5490.00,0.0,1.769,0.531,0.0,0.0,0.0,0.354,0.0,ATLANTA MEDICAL CENTER
5.17,2.28,30.86250,-83.28630,12493.65,4066.65,0.0,0.41,0.41,0.513,0.0,0.0,0.103,0.0,SOUTH GEORGIA MEDICAL CENTER
3.47,2.39,31.60200,-81.89172,7545.53,4382.80,0.0,0.0,1.018,0.0,0.0,0.0,0.0,0.0,WAYNE MEMORIAL HOSPITAL
9.29,2.81,32.54026,-82.95741,24500.59,5617.12,0.0,0.463,0.463,0.0,0.0,0.0,0.232,0.0,FAIRVIEW PARK HOSPITAL
4.05,2.21,32.50679,-84.95933,9214.15,3847.91,0.0,0.229,0.915,0.153,0.0,0.0,0.0,0.153,ST FRANCIS HOSPITAL INC
8.38,2.42,33.85638,-84.60446,21833.96,4473.46,0.0,0.718,0.319,0.558,0.0,0.0,0.239,0.08,WELLSTAR COBB HOSPITAL
8.20,2.63,33.90903,-84.35410,21325.18,5090.41,0.0,0.579,0.579,0.193,0.0,0.0,0.0,0.386,NORTHSIDE HOSPITAL
9.00,2.25,31.53017,-84.17516,23660.55,3962.45,0.0,0.577,0.865,0.288,0.0,0.0,0.0,0.0,PHOEBE NORTH
7.64,2.50,32.84705,-83.61823,19673.04,4716.17,0.0,0.817,0.584,0.35,0.0,0.0,0.234,0.0,COLISEUM MEDICAL CENTER
7.19,2.49,33.57843,-84.38897,18373.13,4662.07,0.0,0.51,0.255,0.255,0.0,0.0,0.0,0.0,SOUTHERN REGIONAL MEDICAL CENTER
9.42,2.16,34.25704,-85.16467,24880.27,3703.91,0.0,0.0,0.501,0.167,0.0,0.0,0.0,0.0,REDMOND REGIONAL MEDICAL CENTER
9.61,2.40,33.48259,-82.09038,25412.87,4417.13,0.0,1.353,1.353,0.301,0.0,0.0,0.451,0.0,DOCTORS HOSPITAL
5.68,2.23,33.73938,-84.73111,13972.42,3924.33,0.0,0.0,0.79,0.0,0.0,0.0,0.0,0.0,WELLSTAR DOUGLAS HOSPITAL
4.76,2.33,33.51144,-84.22200,11280.33,4215.89,0.0,0.124,0.249,0.0,0.0,0.0,0.0,0.0,HENRY MEDICAL CENTER INC
8.92,2.24,33.87683,-84.02136,23411.42,3958.33,0.0,0.0,0.297,0.446,0.0,0.0,0.297,0.0,EMORY EASTSIDE MEDICAL CENTER
13.51,2.27,34.06334,-84.31976,36798.38,4022.19,0.0,0.587,0.782,1.565,0.0,0.0,0.0,0.0,NORTH FULTON REGIONAL HOSPITAL
7.77,2.16,33.45252,-84.50697,20070.74,3717.68,0.0,0.375,0.876,0.0,0.0,0.0,0.375,0.125,PIEDMONT FAYETTE HOSPITAL
5.65,2.30,33.70365,-84.14697,13882.73,4132.00,0.0,1.109,0.37,0.0,0.0,0.0,0.0,0.0,DEKALB MEDICAL CENTER AT HILLANDALE
4.27,2.15,34.06670,-84.17643,9852.77,3688.62,0.0,0.397,0.397,0.397,0.0,0.0,0.0,0.0,EMORY JOHNS CREEK HOSPITAL
8.25,3.36,21.30780,-157.85505,21457.08,7212.08,0.0,0.369,0.442,0.811,0.0,0.0,0.074,0.0,THE QUEENS MEDICAL CENTER
7.96,2.81,21.38095,-157.75759,20614.45,5594.45,0.0,0.259,0.517,0.776,0.0,0.0,0.0,0.0,CASTLE MEDICAL CENTER
8.24,2.83,21.32239,-157.85662,21434.23,5659.69,0.0,0.0,0.371,1.857,0.0,0.0,0.186,0.0,KUAKINI MEDICAL CENTER
6.63,2.33,43.61218,-116.19234,16737.47,4213.41,0.068,0.342,0.342,0.342,0.0,0.0,0.068,0.0,ST LUKES REGIONAL MEDICAL CENTER
3.62,2.39,43.61359,-116.25484,7968.45,4377.45,0.0,0.085,0.683,0.256,0.0,0.0,0.0,0.0,ST ALPHONSUS REGIONAL MEDICAL CENTER
4.79,2.29,43.55374,-116.57267,11387.50,4086.50,0.0,0.393,0.393,0.393,0.0,0.0,0.0,0.0,SAINT ALPHONSUS MEDICAL CENTER - NAMPA
4.82,2.33,43.46987,-111.99208,11480.17,4217.04,0.0,0.338,0.676,0.169,0.0,0.0,0.0,0.169,EASTERN IDAHO REGIONAL MEDICAL CENTER
3.20,2.29,43.82551,-111.77071,6736.10,4081.00,0.0,0.0,0.759,0.0,0.0,0.759,0.0,0.0,MADISON MEMORIAL HOSPITAL
6.85,2.18,38.90068,-90.16026,17384.00,3771.38,0.0,0.178,0.534,0.178,0.0,0.0,0.0,0.0,ALTON MEMORIAL HOSPITAL
9.16,2.61,41.52896,-88.13550,24115.09,5023.83,0.0,0.0,0.289,2.213,0.0,0.0,0.192,0.0,PROVENA ST JOSEPH MEDICAL CENTER
10.81,2.26,41.91082,-87.84451,28930.21,4014.05,0.0,0.569,0.711,0.0,0.0,0.0,0.0,0.0,LOYOLA GOTTLIEB MEMORIAL HOSPITAL
7.36,2.50,42.06550,-87.68428,18869.77,4717.02,0.0,0.131,0.557,0.164,0.0,0.033,0.066,0.033,EVANSTON HOSPITAL
5.41,2.21,37.80207,-89.02660,13182.77,3858.69,0.0,0.168,0.503,0.168,0.0,0.0,0.0,0.0,HERRIN HOSPITAL
6.18,2.28,41.84429,-89.48014,15418.14,4061.50,0.0,0.0,0.519,0.0,0.0,0.0,0.0,0.26,KATHERINE SHAW BETHEA HOSPITAL
7.19,2.66,39.93563,-91.39833,18375.97,5183.36,0.0,0.164,0.164,0.082,0.0,0.082,0.409,0.164,BLESSING HOSPITAL
8.24,3.32,41.86011,-87.69571,21420.96,7082.04,0.0,0.0,0.179,0.359,0.0,0.179,0.718,0.0,MT SINAI HOSPITAL MEDICAL CENTER
3.73,2.50,39.40572,-88.80723,8287.73,4704.00,0.0,0.0,0.0,0.0,0.0,0.0,0.0,0.0,SHELBY MEMORIAL HOSPITAL
12.19,2.59,41.72930,-88.26976,32945.87,4956.00,0.0,0.135,0.405,0.0,0.0,0.0,0.0,0.0,COPLEY MEMORIAL HOSPITAL
8.43,2.32,42.07012,-88.33180,21992.05,4182.62,0.0,0.0,0.996,0.299,0.0,0.0,0.0,0.0,SHERMAN HOSPITAL
4.13,2.19,39.12680,-88.55059,9441.70,3801.74,0.0,0.135,0.811,0.811,0.0,0.0,0.135,0.0,ST ANTHONYS MEMORIAL HOSPITAL
5.23,2.29,38.52908,-89.11604,12664.47,4082.65,0.0,0.537,0.269,0.0,0.0,0.0,0.0,0.0,ST MARYS HOSPITAL
7.04,2.26,40.95560,-90.36618,17923.40,4015.20,0.0,0.0,0.0,0.0,0.0,0.244,0.0,0.0,GALESBURG COTTAGE HOSPITAL
7.48,2.26,41.80160,-89.69714,19214.93,3996.25,0.0,0.0,0.0,0.474,0.0,0.0,0.158,0.0,CGH MEDICAL CENTER
4.86,2.31,38.32292,-88.91026,11586.06,4152.78,0.0,0.137,0.274,0.411,0.0,0.0,0.0,0.0,GOOD SAMARITAN REGIONAL HLTH CENTER
5.35,2.62,41.72636,-87.56727,13004.06,5061.12,0.0,0.832,0.238,0.595,0.0,0.0,0.0,0.119,ADVOCATE TRINITY HOSPITAL
7.69,2.88,41.89141,-87.77618,19840.11,5812.89,0.0,0.164,0.492,0.164,0.0,0.0,0.164,0.0,WEST SUBURBAN MEDICAL CENTER
6.96,2.55,42.05624,-87.74012,17708.92,4857.35,0.0,0.207,0.311,0.104,0.0,0.0,0.104,0.0,SKOKIE HOSPITAL
6.72,2.06,38.90787,-90.17207,16998.00,3414.45,0.0,0.292,0.292,1.168,0.0,0.0,0.0,0.0,SAINT ANTHONY'S HEALTH CENTER
6.41,2.44,39.80726,-89.64496,16096.14,4520.69,0.0,0.318,0.572,0.254,0.0,0.0,0.127,0.127,ST JOHNS HOSPITAL
6.32,2.72,41.83195,-87.79266,15844.94,5341.94,0.0,0.181,0.272,0.0,0.0,0.091,0.0,0.0,MACNEAL  HOSPITAL
7.47,2.22,41.66900,-87.81414,19188.37,3879.52,0.0,0.0,0.181,0.136,0.0,0.045,0.091,0.0,PALOS COMMUNITY HOSPITAL
6.42,2.66,41.87870,-87.80322,16132.22,5169.67,0.0,0.477,0.954,0.0,0.0,0.0,0.477,0.0,RUSH OAK PARK HOSPITAL
5.93,2.34,41.79660,-87.88627,14696.42,4232.83,0.0,0.092,0.832,0.554,0.092,0.0,0.0,0.0,ADVENTIST LA GRANGE MEMORIAL HOSPITAL
7.83,2.48,40.70200,-89.59222,20238.17,4645.80,0.0,0.311,0.489,0.533,0.0,0.0,0.133,0.089,SAINT FRANCIS MEDICAL CENTER
9.31,2.94,42.02578,-87.68371,24563.81,5973.59,0.0,0.378,0.378,0.0,0.0,0.126,0.0,0.0,RHC ST FRANCIS HOSPITAL
7.96,3.47,41.96698,-87.64941,20625.42,7533.42,0.0,0.387,1.161,0.0,0.0,0.0,0.258,0.0,LOUIS A WEISS MEMORIAL HOSPITAL
8.68,2.50,42.37840,-87.83329,22705.10,4698.95,0.0,0.631,0.526,0.0,0.0,0.0,0.315,0.0,VISTA MEDICAL CENTER EAST
14.07,3.48,41.78829,-87.60485,38418.85,7571.00,0.0,1.208,0.226,0.453,0.0,0.0,0.0,0.528,THE UNIVERSITY OF CHICAGO MEDICAL CENTER
8.30,2.44,40.11696,-88.21506,21600.94,4541.00,0.0,0.374,0.524,0.824,0.0,0.0,0.225,0.0,CARLE FOUNDATION HOSPITAL
5.45,2.30,40.13811,-87.64569,13289.20,4117.40,0.0,0.166,0.498,0.332,0.0,0.0,0.0,0.0,PROVENA UNITED SAMARITANS MEDCTR-LOGAN
12.59,3.97,42.44862,-87.82715,34116.09,8994.09,0.0,3.584,0.0,0.0,0.0,0.0,0.0,0.0,MIDWESTERN REGION MED CENTER
7.22,2.25,41.36897,-88.42537,18452.57,3974.57,0.0,0.0,0.224,0.0,0.0,0.0,0.0,0.224,MORRIS HOSPITAL & HEALTHCARE CENTERS
5.61,3.00,41.77813,-87.63330,13763.32,6163.21,0.0,0.0,0.0,0.0,0.0,0.0,0.0,0.0,ST BERNARD HOSPITAL
5.67,2.44,41.35763,-88.82439,13943.55,4536.09,0.0,0.39,0.0,0.781,0.0,0.0,0.0,0.0,OTTAWA REGIONAL HOSPITAL & HEALTHCARE CENTER
9.97,2.37,40.11739,-88.22714,26481.94,4312.33,0.0,0.0,0.877,0.146,0.0,0.0,0.438,0.146,PROVENA COVENANT MEDICAL CENTER- URBANA
10.21,2.65,41.97532,-87.69958,27166.78,5142.26,0.0,0.276,0.0,0.276,0.0,0.0,0.0,0.0,SWEDISH COVENANT HOSPITAL
5.54,2.94,41.95453,-87.65225,13577.31,5982.94,0.0,0.682,0.0,0.0,0.0,0.0,0.227,0.0,THOREK MEMORIAL HOSPITAL
5.09,2.25,42.31832,-88.27920,12240.33,3983.96,0.0,0.205,0.307,0.102,0.0,0.0,0.0,0.0,CENTEGRA HEALTH SYSTEM - MC HENRY HOSPITAL
6.18,2.43,41.98743,-87.81440,15417.95,4487.67,0.0,0.446,1.211,0.382,0.0,0.0,0.0,0.064,RESURRECTION MEDICAL CENTER
6.12,2.63,41.65880,-87.67729,15258.00,5080.77,0.0,0.11,0.44,0.11,0.0,0.0,0.11,0.11,METROSOUTH MEDICAL CENTER
9.12,3.35,41.87497,-87.66927,23997.77,7183.84,0.0,0.884,0.416,0.988,0.0,0.156,0.104,0.156,RUSH UNIVERSITY MEDICAL CENTER
5.30,2.17,40.56211,-89.63314,12869.25,3728.67,0.0,0.298,0.893,0.0,0.0,0.0,0.298,0.0,PEKIN MEMORIAL HOSPITAL
9.76,2.70,41.80555,-87.92059,25870.41,5292.36,0.0,0.507,0.304,0.304,0.0,0.101,0.0,0.0,HINSDALE HOSPITAL
12.23,2.49,38.70148,-90.14382,33069.64,4665.00,0.0,0.428,0.856,0.0,0.0,0.0,0.0,0.0,GATEWAY REGIONAL MEDICAL CENTER
5.60,2.31,40.49639,-88.99106,13730.62,4144.31,0.0,0.13,0.521,0.0,0.0,0.0,0.0,0.13,BROMENN HEALTHCARE
8.00,2.24,42.25244,-87.86528,20743.30,3947.93,0.0,0.167,0.333,0.0,0.0,0.0,0.0,0.0,LAKE FOREST HOSPITAL
6.06,2.54,41.76946,-87.69239,15076.04,4815.96,0.0,0.253,0.126,0.253,0.0,0.0,0.0,0.0,HOLY CROSS HOSPITAL
5.60,2.30,39.86644,-88.96090,13740.96,4109.79,0.0,0.161,1.048,0.161,0.0,0.0,0.081,0.081,DECATUR MEMORIAL HOSPITAL
6.03,2.30,38.73505,-88.07708,14979.12,4118.12,0.0,0.0,0.463,0.0,0.0,0.0,0.0,0.0,RICHLAND MEMORIAL HOSPITAL
6.90,2.88,39.80893,-89.65530,17517.55,5802.62,0.0,0.643,0.683,0.121,0.0,0.0,0.08,0.08,MEMORIAL MEDICAL CENTER
7.47,4.29,41.86927,-87.67052,19182.35,9917.83,0.0,1.673,0.257,0.0,0.0,0.0,0.129,0.0,UNIVERSITY OF ILLINOIS HOSPITAL
5.97,2.98,41.89006,-87.70757,14813.79,6090.93,0.0,0.323,0.968,0.0,0.0,0.0,0.0,0.0,SACRED HEART HOSPITAL
7.85,2.38,41.12049,-87.87187,20305.79,4368.84,0.0,0.145,0.435,0.58,0.0,0.0,0.0,0.145,PROVENA ST MARYS HOSPITAL
4.60,3.15,41.84639,-87.62345,10813.29,6589.17,0.0,0.442,0.442,0.53,0.0,0.088,0.088,0.088,MERCY HOSPITAL AND MEDICAL CENTER
5.25,2.29,37.72790,-89.22058,12726.19,4096.29,0.0,0.504,0.504,0.0,0.0,0.126,0.126,0.0,MEMORIAL HOSPITAL OF CARBONDALE
6.56,2.60,41.52283,-87.71111,16526.02,5001.53,0.0,0.0,0.196,0.147,0.0,0.0,0.049,0.049,FRANCISCAN ST JAMES HEALTH
9.25,2.41,41.78566,-88.32886,24378.33,4433.00,0.0,1.262,0.361,0.0,0.0,0.0,0.0,0.18,PROVENA MERCY MEDICAL CENTER
5.85,2.28,42.27597,-88.40019,14459.33,4074.46,0.0,0.173,1.553,0.0,0.0,0.0,0.0,0.173,CENTEGRA HEALTH SYSTEM - WOODSTOCK HOSPITAL
7.11,2.97,41.75746,-87.58559,18142.45,6060.55,0.0,0.0,0.0,0.0,0.0,0.0,0.0,0.0,JACKSON PARK HOSPITAL
7.19,2.60,41.72094,-87.69220,18359.16,4988.52,0.0,0.218,0.436,0.291,0.0,0.0,0.073,0.145,LITTLE COMPANY OF MARY HOSPITAL
10.64,3.00,41.90414,-87.68254,28430.50,6171.67,0.0,0.285,0.57,0.071,0.0,0.071,0.428,0.071,ST MARY & ELIZABETH MED CTR-DIVISION CAMPUS
6.59,2.70,41.74948,-87.56909,16612.58,5287.25,0.0,0.466,0.233,0.0,0.0,0.0,0.0,0.0,SOUTH SHORE HOSPITAL
8.77,3.15,41.93641,-87.65295,22991.40,6590.06,0.0,0.399,0.199,0.0,0.0,0.1,0.0,0.0,ADVOCATE ILLINOIS MASONIC MEDICAL CENTER
8.48,2.21,37.74480,-88.99329,22133.24,3865.24,0.0,0.573,0.955,0.191,0.0,0.0,0.0,0.191,HEARTLAND REGIONAL MEDICAL CENTER
6.42,2.25,38.55020,-90.02146,16116.74,3979.03,0.0,0.611,0.229,0.153,0.0,0.0,0.0,0.0,MEMORIAL HOSPITAL
5.91,2.43,41.12572,-87.88526,14632.90,4499.10,0.0,0.186,0.931,1.117,0.0,0.0,0.0,0.0,RIVERSIDE MEDICAL CENTER
5.72,2.20,38.51081,-89.99014,14078.55,3816.55,0.0,0.211,0.949,0.527,0.0,0.0,0.105,0.0,ST ELIZABETH HOSPITAL
4.78,2.22,39.48849,-88.27581,11338.75,3887.56,0.0,0.53,0.177,0.884,0.0,0.177,0.177,0.0,SARAH BUSH LINCOLN HEALTH CENTER
7.32,2.41,41.60726,-87.66060,18752.03,4454.73,0.0,0.279,0.21,0.279,0.0,0.07,0.07,0.0,INGALLS MEMORIAL HOSPITAL
5.79,2.78,41.97310,-87.67090,14298.12,5518.53,0.0,2.169,0.0,0.0,0.0,0.0,0.0,0.0,METHODIST HOSPITAL OF CHICAGO
9.97,2.95,41.86362,-87.93567,26464.71,6002.52,0.0,0.449,0.299,0.973,0.0,0.0,0.0,0.0,ELMHURST MEMORIAL HOSPITAL
8.57,2.34,42.27447,-87.95764,22397.71,4230.09,0.0,0.279,0.488,0.209,0.0,0.0,0.0,0.07,ADVOCATE CONDELL MEDICAL CENTER
6.18,3.06,41.90078,-87.69925,15438.87,6324.00,0.0,0.24,0.48,0.0,0.0,0.0,0.0,0.0,NORWEGIAN-AMERICAN HOSPITAL
6.64,2.97,41.72031,-87.73249,16775.51,6077.88,0.0,0.172,0.138,0.034,0.0,0.069,0.241,0.034,ADVOCATE CHRIST HOSPITAL & MEDICAL CENTER
6.65,2.44,40.70065,-89.59505,16812.96,4542.55,0.0,0.178,0.446,0.0,0.0,0.0,0.0,0.089,METHODIST MEDICAL CENTER OF ILLINOIS
4.05,2.22,37.73083,-88.52299,9213.31,3889.00,0.0,0.0,0.398,0.0,0.0,0.0,0.0,0.0,HARRISBURG MEDICAL CENTER
7.84,2.22,41.88566,-88.34311,20271.03,3888.91,0.0,0.132,0.397,0.397,0.0,0.0,0.0,0.0,DELNOR COMMUNITY HOSPITAL
5.27,2.34,41.54446,-87.98379,12784.68,4252.97,0.0,0.513,0.22,0.439,0.0,0.0,0.0,0.073,SILVER CROSS HOSPITAL  AND MEDICAL CENTERS
9.28,2.24,42.03576,-88.32575,24462.23,3939.54,0.0,0.295,0.884,0.295,0.0,0.0,0.0,0.147,PROVENA - SAINT JOSEPH HOSPITAL
7.16,2.81,42.03837,-87.84820,18298.60,5611.56,0.0,0.181,0.135,0.045,0.0,0.0,0.0,0.045,ADVOCATE LUTHERAN GENERAL HOSPITAL
7.93,2.87,41.93418,-87.63579,20537.47,5776.89,0.0,0.24,0.24,0.12,0.12,0.0,0.0,0.12,SAINT JOSEPH HOSPITAL
7.55,2.79,42.26584,-89.07428,19422.67,5544.39,0.0,0.156,0.857,0.312,0.0,0.0,0.312,0.0,SWEDISH AMERICAN HOSPITAL
6.81,2.21,41.76076,-88.15016,17266.62,3865.47,0.0,0.393,0.131,0.524,0.0,0.066,0.0,0.0,EDWARD HOSPITAL
6.63,2.15,42.26634,-89.00900,16753.79,3698.71,0.0,0.311,0.414,0.311,0.0,0.104,0.104,0.104,SAINT ANTHONY MEDICAL CENTER
4.93,2.37,41.32878,-89.12520,11773.41,4339.46,0.0,0.0,1.607,0.0,0.0,0.0,0.0,0.0,ILLINOIS VALLEY COMMUNITY HOSPITAL
7.44,2.48,42.29844,-89.09897,19106.45,4660.88,0.0,0.197,0.492,0.0,0.0,0.0,0.0,0.0,ROCKFORD MEMORIAL HOSPITAL
9.55,2.66,41.87269,-88.15684,25250.38,5171.09,0.0,0.067,0.599,0.399,0.0,0.0,0.067,0.067,CENTRAL DUPAGE HOSPITAL
6.27,2.34,41.56720,-87.69566,15703.35,4251.11,0.0,0.588,0.098,0.196,0.0,0.0,0.0,0.0,ADVOCATE SOUTH SUBURBAN HOSPITAL
9.71,2.39,41.94560,-87.76897,25716.93,4380.73,0.0,0.801,0.572,0.114,0.0,0.0,0.0,0.0,OUR LADY OF THE RESURRECTION MED CTR
6.67,2.22,42.06732,-87.99368,16868.09,3876.06,0.0,0.249,0.87,0.207,0.0,0.0,0.041,0.0,NORTHWEST COMMUNITY HOSPITAL
7.59,2.24,42.00413,-88.01745,19545.27,3957.33,0.0,0.056,0.726,0.223,0.0,0.0,0.0,0.0,ALEXIAN BROTHERS MEDICAL CENTER
6.01,3.00,41.86110,-87.83404,14923.69,6149.23,0.0,0.47,0.352,0.587,0.0,0.117,0.235,0.059,LOYOLA UNIVERSITY MEDICAL CENTER
8.25,2.87,41.89477,-87.62131,21456.00,5768.52,0.0,0.382,0.243,0.208,0.0,0.0,0.243,0.035,NORTHWESTERN MEMORIAL HOSPITAL
6.41,2.22,41.96185,-88.72130,16102.58,3885.22,0.0,0.181,0.542,0.181,0.0,0.0,0.0,0.0,KISHWAUKEE COMMUNITY HOSPITAL
6.92,2.42,41.81791,-88.00907,17587.41,4474.30,0.0,0.125,0.25,0.063,0.0,0.0,0.0,0.0,ADVOCATE GOOD SAMARITAN HOSPITAL
5.81,2.16,38.73818,-89.94728,14343.14,3705.43,0.0,0.0,0.187,0.561,0.0,0.0,0.0,0.0,ANDERSON HOSPITAL
8.11,2.31,42.05260,-88.14173,21042.30,4151.15,0.0,0.232,0.232,0.0,0.0,0.077,0.0,0.0,ST ALEXIUS MEDICAL CENTER
5.67,2.24,42.19586,-88.17286,13949.00,3933.72,0.0,0.501,0.201,0.301,0.0,0.0,0.0,0.0,ADVOCATE GOOD SHEPHERD HOSPITAL
5.91,2.50,41.59920,-87.35764,14655.15,4705.58,0.0,0.576,0.384,0.0,0.0,0.064,0.192,0.0,METHODIST HOSPITALS INC
6.82,2.40,40.42687,-86.88197,17307.62,4424.57,0.0,0.456,0.684,0.228,0.0,0.0,0.228,0.0,FRANCISCAN ST ELIZABETH HEALTH - LAFAYETTE CENTRAL
5.56,2.51,41.61514,-87.52413,13627.33,4719.90,0.0,0.732,0.209,0.105,0.0,0.0,0.0,0.0,FRANCISCAN ST MARGARET HEALTH - HAMMOND
4.59,2.16,39.76255,-86.50165,10794.06,3713.06,0.0,0.485,0.0,1.941,0.0,0.0,0.0,0.0,HENDRICKS REGIONAL HEALTH
7.52,2.17,41.61055,-86.72511,19346.85,3750.50,0.0,0.0,0.777,0.0,0.0,0.0,0.0,0.0,INDIANA UNIVERSITY HEALTH LA PORTE HOSPITAL
5.82,2.17,40.44665,-86.12707,14367.25,3740.06,0.0,0.0,0.223,0.223,0.0,0.0,0.223,0.0,HOWARD REGIONAL HEALTH SYSTEM
5.56,2.48,41.63466,-87.44901,13613.71,4658.47,0.0,0.171,0.686,0.171,0.0,0.0,0.0,0.0,ST CATHERINE HOSPITAL INC
4.92,2.24,38.28244,-85.74923,11771.75,3936.34,0.0,0.0,0.695,0.261,0.0,0.0,0.0,0.0,CLARK MEMORIAL HOSPITAL
5.15,2.51,41.70877,-86.17026,12417.94,4742.89,0.0,0.0,0.439,0.146,0.0,0.0,0.0,0.0,SAINT JOSEPH REGIONAL MEDICAL CENTER
5.83,2.32,41.70639,-86.89936,14416.86,4192.50,0.0,0.156,0.0,0.311,0.0,0.0,0.156,0.156,FRANCISCAN ST ANTHONY HEALTH - MICHIGAN CITY
6.60,2.33,41.03874,-85.24876,16657.26,4215.90,0.0,0.481,0.962,0.361,0.0,0.0,0.12,0.0,LUTHERAN HOSPITAL OF INDIANA
5.93,2.24,41.70568,-85.93404,14707.62,3956.38,0.0,0.0,0.791,0.099,0.099,0.0,0.297,0.099,ELKHART GENERAL HOSPITAL
6.31,2.33,41.04659,-85.10906,15798.78,4205.70,0.0,0.131,0.524,1.114,0.0,0.0,0.131,0.066,PARKVIEW REGIONAL MEDICAL CENTER
5.89,2.40,39.48518,-87.40893,14575.76,4406.27,0.0,0.182,0.728,0.182,0.0,0.0,0.061,0.061,UNION HOSPITAL INC
4.82,2.94,39.78091,-86.17629,11473.68,5987.32,0.0,0.291,0.145,0.436,0.0,0.145,0.0,0.0,WILLIAM N WISHARD MEMORIAL HOSPITAL
6.17,2.26,41.56352,-85.83039,15393.59,4016.41,0.0,0.21,0.0,0.0,0.0,0.21,0.0,0.0,IU HEALTH GOSHEN HOSPITAL
5.48,2.73,39.94340,-85.36306,13375.55,5365.00,0.0,0.0,0.595,0.0,0.0,0.0,0.0,0.298,HENRY COUNTY MEMORIAL HOSPITAL
6.01,2.24,39.72432,-86.10055,14925.88,3955.23,0,0,0,0,0,0,0,0,FRANCISCAN ST FRANCIS HEALTH - BEECH GROVE
5.36,2.32,41.51266,-87.26125,13047.05,4189.20,0.0,0.19,0.476,0.381,0.0,0.0,0.0,0.0,ST MARY MEDICAL CENTER INC
7.79,2.29,41.46729,-87.05130,20119.09,4092.00,0.0,0.342,0.684,0.342,0.0,0.0,0.0,0.0,PORTER VALPARAISO HOSPITAL
5.44,2.09,38.30195,-85.83409,13266.33,3500.58,0.0,0.077,0.154,0.309,0.0,0.0,0.0,0.0,FLOYD MEMORIAL HOSPITAL AND HEALTH SERVICES
6.28,2.18,39.41951,-87.40898,15734.64,3783.00,0.0,0.0,0.563,0.0,0.0,0.0,0.0,0.0,TERRE HAUTE REGIONAL HOSPITAL
4.32,2.43,39.86405,-84.88413,10022.23,4513.62,0.0,0.354,0.707,0.0,0.0,0.0,0.088,0.088,REID HOSPITAL & HEALTH CARE SERVICES
5.41,2.24,39.16006,-86.54038,13193.77,3957.82,0.0,0.287,0.382,0.955,0.0,0.096,0.096,0.0,INDIANA UNIVERSITY HEALTH BLOOMINGTON HOSPITAL
7.90,3.16,39.79009,-86.16260,20435.15,6614.59,0.028,0.369,0.454,0.17,0.0,0.0,0.057,0.057,INDIANA UNIVERSITY HEALTH
6.65,2.42,41.68479,-86.25217,16790.26,4469.38,0.0,0.0,1.135,1.059,0.0,0.076,0.151,0.0,MEMORIAL HOSPITAL OF SOUTH BEND
5.24,2.22,40.04526,-86.02297,12704.00,3888.00,0.0,0.0,1.487,0.0,0.0,0.0,0.0,0.0,RIVERVIEW HOSPITAL
5.91,2.39,39.78704,-86.07673,14652.35,4391.35,0.0,0.299,0.1,0.299,0.0,0.0,0.0,0.0,COMMUNITY HOSPITAL EAST
7.25,2.18,37.98293,-87.57072,18544.11,3768.23,0.0,0.472,0.515,0.215,0.0,0.086,0.0,0.0,DEACONESS HOSPITAL INC
7.06,2.53,39.91001,-86.19660,17998.88,4797.52,0.0,0.773,0.258,0.472,0.0,0.086,0.043,0.086,ST VINCENT HOSPITAL & HEALTH SERVICES
5.87,2.25,39.11138,-84.88343,14524.93,3989.13,0.0,0.515,0.772,1.029,0.0,0.0,0.257,0.0,DEARBORN COUNTY HOSPITAL
8.55,2.46,40.19679,-85.41573,22347.58,4602.04,0.0,0.066,0.66,0.264,0.0,0.0,0.132,0.066,INDIANA UNIVERSITY HEALTH BALL MEMORIAL HOSPITAL
4.83,2.24,41.49222,-87.52429,11487.30,3942.20,0.0,0.765,0.306,0.0,0.0,0.0,0.0,0.0,FRANCISCAN ST MARGARET HEALTH - DYER
5.79,2.18,37.96320,-87.50292,14283.47,3760.18,0.0,0.262,0.589,0.327,0.0,0.0,0.131,0.0,ST MARY'S MEDICAL CENTER OF EVANSVILLE INC
6.18,2.43,39.21585,-85.89683,15426.53,4493.73,0.0,0.0,0.652,0.13,0.0,0.0,0.0,0.13,COLUMBUS REGIONAL HOSPITAL
4.80,2.25,40.12998,-85.69436,11417.53,3964.65,0.0,0.159,0.637,0.0,0.0,0.0,0.0,0.0,COMMUNITY HOSPITAL OF ANDERSON AND MADISON COUNTY
5.79,2.27,41.55065,-87.50619,14293.34,4044.88,0.0,0.554,0.604,0.252,0.0,0.0,0.0,0.0,COMMUNITY HOSPITAL
5.48,2.54,41.39576,-87.36689,13398.32,4825.53,0.0,0.0,0.849,0.189,0.0,0.0,0.0,0.0,FRANCISCAN ST ANTHONY HEALTH - CROWN POINT
9.61,2.23,41.24786,-85.82927,25434.46,3917.00,0.0,0.0,1.3,0.0,0.0,0.0,0.0,0.0,KOSCIUSKO COMMUNITY HOSPITAL
7.38,2.33,39.78047,-86.34084,18936.77,4196.26,0.0,0.194,1.357,0.0,0.0,0.0,0.194,0.0,IU HEALTH WEST HOSPITAL
7.08,2.13,39.95930,-86.16016,18039.00,3615.12,0.0,0.804,0.536,0.268,0.0,0.0,0.0,0.0,INDIANA UNIVERSITY HEALTH NORTH HOSPITAL
6.49,2.32,39.64935,-86.07960,16344.37,4171.63,0.0,0.0,0.13,0.261,0.0,0.0,0.0,0.13,FRANCISCAN ST FRANCIS HEALTH - INDIANAPOLIS
3.63,2.19,38.47392,-85.66997,8011.80,3798.90,0.0,0.0,0.944,0.0,0.0,0.0,0.0,0.0,SAINT CATHERINE REGIONAL HOSPITAL
7.76,2.46,40.40296,-86.80885,20029.71,4601.14,0.0,0.14,0.279,0.14,0.0,0.0,0.0,0.0,INDIANA UNIVERSITY HEALTH ARNETT HOSPITAL
5.78,2.37,42.05601,-94.86762,14272.83,4312.00,0.0,0.0,1.724,0.0,0.0,0.0,0.0,0.0,ST ANTHONY REGIONAL HOSPITAL
4.71,2.72,41.43313,-91.05476,11138.06,5336.81,0.0,0.0,0.762,0.0,0.0,0.0,0.0,0.0,TRINITY MUSCATINE
5.10,2.16,41.66411,-91.52841,12267.50,3716.56,0.0,0.133,0.665,0.798,0.0,0.133,0.0,0.0,MERCY HOSPITAL
5.60,2.18,42.03321,-93.61164,13726.53,3776.60,0.0,0.0,0.135,0.541,0.0,0.0,0.0,0.0,MARY GREELEY MEDICAL CENTER
4.16,2.40,41.70263,-93.05510,9537.88,4413.96,0.0,0.0,1.019,1.019,0.0,0.0,0.0,0.0,SKIFF MEDICAL CENTER
5.38,2.25,41.98570,-91.66093,13104.72,3964.08,0.0,0.0,0.589,0.098,0.0,0.098,0.0,0.0,ST LUKES HOSPITAL
5.32,2.24,40.81009,-91.17356,12927.23,3961.38,0.0,0.798,1.117,0.0,0.0,0.16,0.0,0.0,GREAT RIVER MEDICAL CENTER
6.56,3.03,41.66092,-91.54800,16543.65,6260.48,0.0,0.58,1.159,0.58,0.0,0.064,0.386,0.064,UNIVERSITY OF IOWA HOSPITAL & CLINICS
4.71,2.29,43.15063,-93.21718,11146.42,4092.08,0.0,0.076,0.076,0.534,0.0,0.0,0.0,0.0,MERCY MEDICAL CENTER-NORTH IOWA
4.98,2.07,42.49227,-90.67404,11936.89,3452.58,0.0,0.261,0.651,0.0,0.0,0.0,0.0,0.13,MERCY MEDICAL CENTER-DUBUQUE
4.01,2.12,41.97864,-91.65507,9107.07,3601.43,0.0,0.226,0.113,0.0,0.0,0.113,0.0,0.0,MERCY MEDICAL CENTER - CEDAR RAPIDS
5.93,2.36,41.58955,-93.63248,14686.56,4290.67,0.0,0.502,0.669,1.339,0.0,0.112,0.223,0.335,IOWA METHODIST MEDICAL CENTER
6.62,2.69,41.59886,-93.62344,16700.68,5263.58,0.0,0.201,0.402,0.08,0.0,0.0,0.12,0.0,MERCY MEDICAL CENTER-DES MOINES
4.43,2.25,42.52665,-92.33957,10330.00,3981.50,0.0,0.165,0.165,0.0,0.0,0.082,0.0,0.0,ALLEN MEMORIAL HOSPITAL
4.78,2.10,42.49632,-90.68587,11343.11,3530.16,0.0,0.0,1.134,0.0,0.0,0.0,0.454,0.0,THE FINLEY HOSPITAL
5.43,2.50,42.51846,-96.40581,13234.09,4700.55,0.0,0.187,1.494,0.0,0.187,0.0,0.374,0.0,ST LUKES REGIONAL MEDICAL CENTER
7.30,2.19,42.49250,-96.39975,18698.90,3800.81,0.0,0.417,0.104,0.208,0.0,0.0,0.208,0.0,MERCY MEDICAL CENTER-SIOUX CITY
7.00,2.27,38.83324,-97.61028,17829.22,4048.00,0.0,0.155,0.774,0.0,0.0,0.0,0.0,0.0,SALINA REGIONAL HEALTH CENTER
4.84,2.44,38.59724,-95.26874,11518.00,4524.62,0.0,0.0,0.0,0.698,0.0,0.0,0.0,0.0,RANSOM MEMORIAL HOSPITAL
4.29,2.18,39.05660,-95.69599,9911.08,3763.85,0.0,0.42,0.631,3.258,0.0,0.0,0.21,0.21,ST FRANCIS HEALTH CENTER INC
6.46,2.40,38.07731,-97.89183,16252.32,4419.16,0.0,0.135,0.808,0.135,0.0,0.0,0.0,0.0,HUTCHINSON REGIONAL MEDICAL CENTER INC
10.19,2.53,39.05583,-94.60912,27123.29,4791.32,0.0,0.627,0.57,0.0,0.0,0.057,0.114,0.114,UNIVERSITY OF KANSAS HOSPITAL
6.07,2.22,38.85279,-94.82413,15095.31,3893.56,0.0,0.942,0.824,0.353,0.0,0.0,0.353,0.0,OLATHE MEDICAL CENTER
3.37,2.34,39.01420,-96.84975,7227.50,4247.00,0.0,0.0,1.502,0.0,0.0,0.0,0.0,0.0,GEARY COMMUNITY HOSPITAL
6.64,2.33,39.05128,-95.69572,16778.49,4215.24,0.0,0.061,0.427,0.549,0.0,0.0,0.122,0.0,STORMONT-VAIL HEALTHCARE
7.06,2.16,38.99549,-94.69061,18007.74,3699.56,0.0,0.563,0.844,0.141,0.0,0.07,0.141,0.07,SHAWNEE MISSION MEDICAL CENTER
7.19,2.34,37.70405,-97.31386,18366.72,4236.07,0.0,0.213,0.39,0.567,0.0,0.0,0.213,0.0,VIA CHRISTI HOSPITALS WICHITA INC
9.23,2.43,37.69556,-97.29785,24326.00,4490.08,0.0,0.076,0.841,1.605,0.0,0.076,0.382,0.0,WESLEY MEDICAL CENTER
6.03,2.38,39.12677,-94.78643,14990.86,4345.90,0.0,1.045,1.045,0.597,0.0,0.0,0.149,0.0,PROVIDENCE MEDICAL CENTER
13.16,2.24,38.93763,-94.72630,35782.82,3957.23,0.0,0.497,0.745,1.49,0.0,0.0,0.0,0.248,OVERLAND PARK REG MED CTR
10.09,2.48,38.91047,-94.65205,26819.12,4655.24,0.0,0.201,0.803,0.402,0.0,0.0,0.201,0.0,MENORAH MEDICAL CENTER
9.48,2.11,38.90355,-94.66966,25044.47,3563.95,0.0,0.0,0.471,0.0,0.0,0.0,0.0,0.0,SAINT LUKE'S SOUTH HOSPITAL
3.44,2.00,37.73142,-97.26078,7441.92,3247.67,0,0,0,0,0,0,0,0,GALICHIA HEART HOSPITAL LLC
4.87,2.21,39.07816,-84.46695,11609.73,3860.93,0.0,0.176,0.528,0.176,0.0,0.0,0.0,0.0,ST ELIZABETH FT THOMAS
4.33,2.26,37.19610,-87.18933,10043.12,3996.31,0.0,0.0,0.978,0.0,0.0,0.0,0.0,0.0,MUHLENBERG COMMUNITY HOSPITAL
4.02,2.36,37.72943,-82.76716,9120.74,4306.03,0.0,0.409,0.613,0.204,0.0,0.0,0.0,0.0,HIGHLANDS REGIONAL MEDICAL CENTER
5.21,2.28,38.47021,-82.63498,12594.22,4071.91,0.0,0.092,0.826,0.092,0.0,0.0,0.138,0.138,KING'S DAUGHTERS' MEDICAL CENTER
5.20,2.16,38.03140,-84.52194,12587.57,3707.71,0.0,0.051,0.66,0.61,0.0,0.0,0.254,0.0,SAINT JOSEPH HOSPITAL
6.11,2.33,37.11784,-84.10910,15216.18,4215.00,0.0,0.0,0.451,0.0,0.0,0.0,0.15,0.15,SAINT JOSEPH HOSPITAL LONDON
3.64,2.12,37.71183,-85.87623,8022.10,3596.05,0.0,0.09,0.538,0.627,0.0,0.0,0.0,0.0,HARDIN MEMORIAL HOSPITAL
6.96,2.36,36.99641,-86.43006,17716.55,4287.40,0.0,0.412,1.029,0.412,0.0,0.0,0.48,0.069,THE MEDICAL CENTER AT BOWLING GREEN
4.44,2.42,37.01079,-85.90342,10344.13,4482.93,0.0,0.0,0.356,0.0,0.0,0.0,0.0,0.178,T J SAMSON COMMUNITY HOSPITAL
4.89,2.44,38.18397,-83.43268,11667.92,4529.62,0.0,0.0,0.0,0.0,0.0,0.0,0.0,0.248,ST CLAIRE REGIONAL MEDICAL CENTER
3.04,2.18,36.76316,-83.70793,6268.00,3763.15,0.0,0.0,0.0,0.0,0.0,0.0,0.0,0.0,PINEVILLE COMMUNITY HOSPITAL
4.42,2.15,36.60798,-88.30957,10313.07,3697.90,0.0,0.0,0.91,0.682,0.0,0.0,0.0,0.0,MURRAY-CALLOWAY COUNTY HOSPITAL
6.49,2.36,37.27729,-83.22802,16343.70,4287.24,0.0,0.198,0.495,0.0,0.0,0.0,0.0,0.0,HAZARD ARH REGIONAL MEDICAL CENTER
4.87,2.28,39.06704,-84.49946,11625.26,4078.07,0.042,0.085,0.254,0.042,0.0,0.0,0.042,0.042,ST ELIZABETH MEDICAL CENTER NORTH
4.59,2.25,38.50697,-82.69222,10801.35,3979.76,0.0,0.426,1.137,0.0,0.0,0.0,0.0,0.0,OUR LADY OF BELLEFONTE HOSPITAL
5.51,2.30,39.01660,-84.63078,13489.41,4109.88,0.0,0.0,0.182,0.0,0.0,0.0,0.363,0.363,ST ELIZABETH FLORENCE
3.24,2.51,37.76518,-87.10197,6858.31,4721.54,0.0,0.121,0.908,0.0,0.0,0.061,0.0,0.061,OWENSBORO MEDICAL HEALTH SYSTEM
5.54,2.43,38.24927,-85.75081,13577.67,4513.60,0.0,0.506,0.476,0.149,0.0,0.06,0.06,0.03,JEWISH HOSPITAL & ST MARY'S HEALTHCARE
9.27,2.84,37.47264,-82.52605,24426.84,5709.52,0.0,0.71,0.304,0.0,0.0,0.0,0.0,0.0,PIKEVILLE MEDICAL CENTER
5.17,2.30,37.64378,-84.77272,12472.25,4125.56,0.0,0.0,1.158,0.386,0.0,0.0,0.0,0.129,EPHRAIM MCDOWELL REGIONAL MEDICAL CENTER
5.73,2.33,36.80963,-83.31313,14131.43,4216.36,0.0,0.249,0.498,0.0,0.0,0.0,0.0,0.0,HARLAN APPALACHIAN REGIONAL HEALTHCARE HOSPITAL
4.54,2.24,36.86034,-87.49528,10661.00,3933.36,0.0,0.0,0.843,0.169,0.0,0.0,0.0,0.0,JENNIE STUART MEDICAL CENTER
6.11,2.31,37.85504,-87.58345,15225.73,4151.73,0.0,0.0,0.0,0.0,0.0,0.0,0.0,0.0,METHODIST HOSPITAL
7.77,3.11,38.03282,-84.50674,20062.50,6493.92,0.0,0.676,1.07,0.282,0.0,0.0,0.282,0.0,UNIVERSITY OF KENTUCKY HOSPITAL
4.76,2.26,37.67604,-82.29731,11296.62,3993.92,0.0,0.0,0.325,0.0,0.0,0.325,0.0,0.0,WILLIAMSON ARH HOSPITAL
4.49,2.25,36.92128,-84.11838,10509.50,3982.94,0.0,0.0,1.301,0.0,0.0,0.0,0.0,0.13,BAPTIST REGIONAL MEDICAL CENTER
6.60,2.46,38.24806,-85.75125,16641.26,4601.90,0.0,0.605,0.706,0.176,0.025,0.025,0.202,0.05,NORTON HOSPITALS INC
4.80,2.05,37.06431,-88.67523,11400.61,3393.67,0.0,0.466,1.025,0.373,0.0,0.093,0.093,0.093,LOURDES HOSPITAL
5.31,2.24,38.01849,-84.51236,12893.64,3959.09,0.0,0.283,0.848,2.191,0.0,0.0,0.0,0.0,CENTRAL BAPTIST HOSPITAL
5.92,2.18,37.07404,-88.62685,14667.48,3782.26,0.0,0.131,0.588,0.261,0.0,0.0,0.0,0.0,WESTERN BAPTIST HOSPITAL
3.62,2.36,36.69659,-85.13726,7982.23,4293.31,0.0,0.0,0.824,0.0,0.0,0.0,0.0,0.0,CLINTON COUNTY HOSPITAL INC
3.41,2.51,37.35762,-84.33605,7361.86,4735.64,0.0,0.0,0.0,0.0,0.0,0.0,0.0,0.0,ROCKCASTLE REG HOSPITAL & RESPIRATORY CARE CTR
5.52,2.20,36.75751,-88.65129,13497.56,3826.06,0.0,0.0,0.647,0.216,0.0,0.0,0.216,0.0,JACKSON PURCHASE MEDICAL CENTER
5.64,2.27,36.96603,-86.43639,13860.56,4043.33,0.0,0.0,0.563,0.281,0.0,0.0,0.0,0.0,GREENVIEW REGIONAL HOSPITAL
6.45,2.31,38.16020,-84.90519,16228.08,4147.83,0.0,0.258,0.0,0.258,0.0,0.0,0.0,0.0,FRANKFORT REGIONAL MEDICAL CENTER
5.92,2.11,38.23898,-85.63941,14662.87,3558.90,0.0,0.615,0.73,0.192,0.0,0.038,0.038,0.0,BAPTIST HOSPITAL EAST
6.78,2.37,37.08724,-84.61828,17191.46,4332.25,0.0,0.191,1.147,0.0,0.0,0.0,0.86,0.573,LAKE CUMBERLAND REGIONAL HOSPITAL
7.88,3.09,38.24802,-85.74464,20372.93,6436.52,0.0,0.122,0.122,1.347,0.0,0.0,0.0,0.0,UNIVERSITY OF LOUISVILLE HOSPITAL
3.61,2.46,37.09412,-85.29359,7933.27,4576.09,0.0,0.449,0.0,0.0,0.0,0.0,0.0,0.0,WESTLAKE REGIONAL HOSPITAL
5.68,2.32,30.20227,-92.01906,13978.65,4188.94,0.091,0.364,0.0,0.091,0.0,0.0,0.0,0.0,LAFAYETTE GENERAL MEDICAL CENTER
5.68,2.20,29.59851,-90.71397,13971.90,3844.19,0.0,0.267,0.668,0.134,0.0,0.0,0.134,0.0,TERREBONNE GENERAL MEDICAL CENTER
5.20,2.11,30.22981,-93.36867,12561.90,3566.85,0.0,0.331,0.662,0.0,0.0,0.0,0.0,0.0,WEST CALCASIEU CAMERON HOSPITAL
8.28,2.48,29.69402,-91.20867,21556.62,4642.00,0.0,0.0,0.444,0.887,0.0,0.0,0.444,0.0,TECHE REGIONAL MEDICAL CENTER
11.75,2.45,30.46813,-90.45814,31667.39,4548.11,0.0,0.101,0.101,0.604,0.0,0.0,0.806,0.0,NORTH OAKS MEDICAL CENTER LLC
4.86,2.35,30.54354,-92.07608,11595.94,4260.65,0.0,0.0,0.587,0.0,0.0,0.0,0.147,0.147,OPELOUSAS GENERAL HEALTH SYSTEM
6.89,2.21,31.28258,-92.46060,17505.20,3857.48,0.0,0.928,0.186,0.557,0.0,0.0,0.557,0.0,CHRISTUS ST FRANCES CABRINI HOSPITAL
8.72,2.39,31.31451,-92.44997,22821.33,4381.20,0.08,0.879,0.479,0.399,0.0,0.0,0.479,0.24,RAPIDES REGIONAL MEDICAL CENTER
7.23,2.08,30.21521,-93.22682,18481.24,3479.10,0.0,0.53,0.662,0.132,0.0,0.0,0.0,0.265,CHRISTUS ST PATRICK HOSPITAL
5.21,2.57,30.01875,-90.19452,12598.52,4904.17,0.0,0.453,0.091,0.59,0.0,0.0,0.091,0.045,OCHSNER FOUNDATION HOSPITAL
8.09,2.48,29.89089,-90.09395,20993.09,4658.09,0.0,0.214,0.107,0.107,0.0,0.0,0.214,0.107,WEST JEFFERSON MEDICAL CENTER
8.50,2.24,30.28456,-89.77038,22198.75,3951.33,0.0,0.89,0.534,0.0,0.0,0.0,0.0,0.0,SLIDELL MEMORIAL HOSPITAL AND MEDICAL CENTER
7.00,2.36,32.49443,-93.75011,17822.23,4295.35,0.0,0.256,0.511,0.256,0.0,0.0,0.0,0.085,CHRISTUS SCHUMPERT HEALTH SYSTEM
10.65,2.45,30.46834,-90.11383,28456.82,4570.09,0.0,0.271,0.135,0.0,0.0,0.135,0.135,0.0,ST TAMMANY PARISH HOSPITAL
11.83,2.53,29.92596,-90.09191,31905.87,4789.13,0.0,0.523,0.523,0.131,0.0,0.0,0.262,0.0,TOURO INFIRMARY
3.39,2.08,30.23913,-92.66205,7288.08,3489.25,0.0,0.0,0.0,0.0,0.0,0.0,0.0,0.0,JENNINGS AMERICAN LEGION HOSPITAL
9.54,2.16,29.98815,-91.78471,25234.29,3721.00,0.0,0.0,0.75,0.0,0.0,0.0,0.25,0.0,IBERIA GENERAL HOSPITAL AND MEDICAL CENTER
10.21,2.36,30.20458,-93.19774,27160.50,4302.00,0.0,0.0,1.108,0.0,0.0,0.0,0.277,0.0,LAKE CHARLES MEMORIAL HOSPITAL
5.34,2.39,30.40118,-91.11160,12988.85,4385.71,0.0,0.221,0.486,0.044,0.0,0.044,0.839,0.088,OUR LADY OF THE LAKE REGIONAL MEDICAL CENTER
5.48,2.46,30.45015,-91.15273,13393.05,4585.15,0.0,0.556,0.626,0.139,0.0,0.0,0.0,0.0,BATON ROUGE GENERAL MEDICAL CENTER
7.45,2.32,32.51544,-92.63343,19144.12,4182.19,0.0,0.193,0.0,0.193,0.0,0.0,1.157,0.386,NORTHERN LOUISIANA MEDICAL CENTER
3.65,2.87,32.48177,-93.76264,8068.70,5795.60,0.0,3.903,0.163,0.163,0.0,0.0,0.0,0.0,LSU HEALTH SCIENCES CENTER - SHREVEPORT
5.75,2.18,30.15052,-92.03698,14164.25,3767.50,0.0,0.328,0.328,0.109,0.0,0.109,0.0,0.0,OUR LADY OF LOURDES REGIONAL MEDICAL CENTER INC
6.75,2.34,32.49997,-92.11359,17081.67,4231.33,0.0,1.122,0.321,1.763,0.0,0.0,0.561,0.0,ST FRANCIS MEDICAL CENTER
6.71,2.26,32.48393,-93.77884,16960.83,3995.31,0.0,0.155,0.466,0.155,0.0,0.039,0.039,0.0,WILLIS KNIGHTON MEDICAL CENTER
3.13,2.43,32.03593,-93.70910,6552.36,4488.00,0.0,0.0,0.0,0.0,0.0,0.0,0.0,0.0,DESOTO REGIONAL HEALTH SYSTEM
2.43,2.41,32.15824,-91.70520,4508.21,4440.07,0.0,0.0,0.0,0.591,0.0,0.0,0.0,0.0,FRANKLIN MEDICAL CENTER
4.42,2.37,32.61700,-93.28566,10290.08,4325.00,0.0,0.279,0.558,0.0,0.0,0.0,0.0,0.0,MINDEN MEDICAL CENTER
5.37,2.25,30.01438,-90.18155,13068.69,3973.31,0.0,0.321,0.578,0.064,0.0,0.129,0.0,0.0,EAST JEFFERSON GENERAL HOSPITAL
8.95,2.24,32.51315,-92.15713,23506.48,3953.34,0.0,0.108,0.108,0.0,0.0,0.0,0.0,0.0,GLENWOOD REGIONAL MEDICAL CENTER
6.95,2.12,31.13861,-93.26892,17687.67,3599.50,0.0,0.0,0.268,0.268,0.0,0.0,0.0,0.268,BYRD REGIONAL HOSPITAL
3.61,2.56,29.57147,-90.68974,7948.75,4890.42,0.0,0.71,0.0,0.0,0.0,0.0,1.42,0.0,LEONARD J CHABERT MEDICAL CENTER
5.95,2.26,32.55761,-93.71874,14759.18,4013.12,0.0,0.0,0.0,0.0,0.0,0.149,0.0,0.0,WILLIS KNIGHTON BOSSIER HEALTH CENTER
4.40,2.21,44.81469,-68.77153,10232.48,3870.09,0.0,0.0,0.609,1.217,0.0,0.0,0.203,0.203,ST JOSEPH HOSPITAL
4.95,2.30,43.65159,-70.26482,11834.23,4124.00,0.0,0.312,0.468,0.78,0.0,0.0,0.312,0.0,MERCY HOSPITAL
4.65,2.56,43.65325,-70.27533,10982.44,4893.44,0.0,0.287,0.409,0.737,0.0,0.041,0.246,0.082,MAINE MEDICAL CENTER
4.97,2.18,53.96230,-1.08188,11889.09,3786.55,0.0,0.0,0.493,0.0,0.0,0.247,0.0,0.0,YORK HOSPITAL
4.81,2.30,43.90901,-69.89611,11443.64,4121.36,0.0,0.249,0.997,0.748,0.0,0.0,0.0,0.0,MID COAST HOSPITAL
4.20,2.47,44.10107,-70.21432,9648.30,4612.26,0.0,0.242,0.121,0.485,0.0,0.0,0.242,0.0,CENTRAL MAINE MEDICAL CENTER
3.99,2.37,35.79154,-78.78112,9053.27,4314.87,0.0,0.0,0.0,0.0,0.0,0.0,0.0,0.0,CARY MEDICAL CENTER
5.35,2.43,44.80988,-68.74929,13002.31,4511.38,0.0,0.343,0.286,0.514,0.0,0.0,0.286,0.114,EASTERN MAINE MEDICAL CENTER
5.72,2.65,45.25378,-69.44547,14100.84,5153.74,0.0,0.895,0.597,0.895,0.0,0.0,0.298,0.199,MAINE GENERAL MEDICAL CENTER
3.99,2.31,43.44850,-70.76743,9042.54,4153.62,0.0,0.0,0.816,0.0,0.0,0.0,0.0,0.0,HENRIETTA D GOODALL HOSPITAL
4.43,2.35,44.54695,-68.41654,10342.21,4278.79,0.0,0.0,0.0,0.0,0.0,0.0,0.0,0.0,MAINE COAST MEMORIAL HOSPITAL
4.27,3.03,47.26827,-68.59140,9869.43,6237.33,0.0,0.0,0.693,0.0,0.0,0.0,0.693,0.0,NORTHERN MAINE MEDICAL CENTER
4.58,2.51,44.14436,-69.08577,10772.53,4727.32,0.0,0.243,0.487,0.243,0.0,0.0,0.0,0.0,PENOBSCOT BAY MEDICAL CENTER
2.93,2.82,39.62183,-77.68219,5958.82,5651.57,0.0,0.0,0.0,0.0,0.0,0.0,0.0,0.0,MERITUS MEDICAL CENTER
4.24,4.06,39.28817,-76.62438,9772.45,9239.98,0.0,0.0,0.0,0.0,0.0,0.0,0.0,0.0,UNIVERSITY OF MARYLAND MEDICAL CENTER
3.98,3.80,38.93090,-76.92161,9030.04,8488.21,0.0,0.0,0.0,0.0,0.0,0.0,0.0,0.0,PRINCE GEORGES HOSPITAL CENTER
3.34,3.21,39.01578,-77.03591,7162.33,6766.44,0.0,0.0,0.0,0.0,0.0,0.0,0.0,0.0,HOLY CROSS HOSPITAL
3.37,3.23,39.42366,-77.41386,7239.43,6835.00,0.0,0.0,0.0,0.0,0.0,0.0,0.0,0.0,FREDERICK MEMORIAL HOSPITAL
2.61,2.51,39.54345,-76.09153,5036.46,4734.15,0.0,0.0,0.0,0.0,0.0,0.0,0.0,0.0,HARFORD MEMORIAL HOSPITAL
3.31,3.16,39.38813,-76.61068,7059.39,6635.83,0.0,0.0,0.0,0.0,0.0,0.0,0.0,0.0,SAINT JOSEPH MEDICAL CENTER
3.68,3.52,39.29297,-76.61314,8137.61,7663.52,0.0,0.0,0.0,0.0,0.0,0.0,0.0,0.0,MERCY MEDICAL CENTER INC
5.66,5.41,39.29688,-76.59242,13925.37,13193.41,0.0,0.0,0.0,0.0,0.0,0.0,0.0,0.0,JOHNS HOPKINS HOSPITAL THE
3.37,3.22,39.27352,-76.67219,7245.24,6816.44,0.0,0.0,0.0,0.0,0.0,0.0,0.0,0.0,SAINT AGNES HOSPITAL
3.86,3.69,39.35262,-76.66196,8655.90,8163.10,0.0,0.0,0.0,0.0,0.0,0.0,0.0,0.0,SINAI HOSPITAL OF BALTIMORE
3.65,3.49,39.28833,-76.64912,8061.31,7577.81,0.0,0.0,0.0,0.0,0.0,0.0,0.0,0.0,BON SECOURS HOSPITAL
2.96,2.84,39.35169,-76.47919,6054.42,5691.12,0.0,0.0,0.0,0.0,0.0,0.0,0.0,0.0,FRANKLIN SQUARE HOSPITAL CENTER
3.80,3.62,38.98482,-77.00139,8479.40,7970.46,0.0,0.0,0.0,0.0,0.0,0.0,0.0,0.0,WASHINGTON ADVENTIST HOSPITAL
3.01,2.92,39.15402,-77.05431,6191.90,5927.86,0.0,0.0,0.0,0.0,0.0,0.0,0.0,0.0,MONTGOMERY GENERAL HOSPITAL INC
3.09,2.96,38.36248,-75.59799,6422.65,6056.04,0.0,0.0,0.0,0.0,0.0,0.0,0.0,0.0,PENINSULA REGIONAL MEDICAL CENTER
3.20,3.07,38.99743,-77.11048,6744.02,6369.34,0.0,0.0,0.0,0.0,0.0,0.0,0.0,0.0,SUBURBAN HOSPITAL
3.43,3.28,38.99014,-76.53398,7411.75,6982.12,0.0,0.0,0.0,0.0,0.0,0.0,0.0,0.0,ANNE ARUNDEL MEDICAL CENTER
3.50,3.36,39.32930,-76.61432,7617.88,7218.46,0.0,0.0,0.0,0.0,0.0,0.0,0.0,0.0,UNION MEMORIAL HOSPITAL
3.62,3.48,39.64928,-78.73206,7969.55,7558.03,0.0,0.0,0.0,0.0,0.0,0.0,0.0,0.0,WESTERN MARYLAND REGIONAL MEDICAL CENTER
3.04,2.91,38.29124,-76.63579,6288.16,5910.92,0.0,0.0,0.0,0.0,0.0,0.0,0.0,0.0,SAINT MARY'S HOSPITAL
3.49,3.35,39.29100,-76.54623,7595.25,7185.04,0.0,0.0,0.0,0.0,0.0,0.0,0.0,0.0,JOHNS HOPKINS BAYVIEW MEDICAL CENTER
4.23,4.03,39.21770,-76.06494,9756.95,9171.55,0.0,0.0,0.0,0.0,0.0,0.0,0.0,0.0,CHESTER RIVER HOSPITAL CENTER
3.08,2.96,39.60859,-75.83201,6409.42,6058.24,0.0,0.0,0.0,0.0,0.0,0.0,0.0,0.0,UNION HOSPITAL OF CECIL COUNTY
3.38,3.23,39.55808,-76.99107,7260.89,6825.20,0.0,0.0,0.0,0.0,0.0,0.0,0.0,0.0,CARROLL HOSPITAL CENTER
3.29,3.14,39.25189,-76.61399,6994.71,6575.04,0.0,0.0,0.0,0.0,0.0,0.0,0.0,0.0,HARBOR HOSPITAL
2.83,2.72,38.52905,-76.97068,5673.78,5360.34,0.0,0.0,0.0,0.0,0.0,0.0,0.0,0.0,CIVISTA MEDICAL CENTER
3.48,3.33,38.76970,-76.07697,7552.41,7114.15,0.0,0.0,0.0,0.0,0.0,0.0,0.0,0.0,MEMORIAL HOSPITAL AT EASTON
3.75,3.58,39.29994,-76.62138,8361.71,7860.00,0.0,0.0,0.0,0.0,0.0,0.0,0.0,0.0,MARYLAND GENERAL  HOSPITAL
3.41,3.25,38.55963,-76.59455,7342.72,6902.16,0.0,0.0,0.0,0.0,0.0,0.0,0.0,0.0,CALVERT MEMORIAL HOSPITAL
3.21,3.08,39.35852,-76.78208,6786.34,6384.07,0.0,0.0,0.0,0.0,0.0,0.0,0.0,0.0,NORTHWEST HOSPITAL CENTER
2.67,2.56,39.13732,-76.62228,5186.84,4875.68,0.0,0.0,0.0,0.0,0.0,0.0,0.0,0.0,BALTIMORE WASHINGTON  MEDICAL CENTER
3.49,3.33,39.39017,-76.62216,7581.94,7127.02,0.0,0.0,0.0,0.0,0.0,0.0,0.0,0.0,GREATER BALTIMORE MEDICAL CENTER
3.03,2.90,39.21273,-76.88526,6240.97,5866.61,0.0,0.0,0.0,0.0,0.0,0.0,0.0,0.0,HOWARD COUNTY GENERAL HOSPITAL
2.51,2.43,39.51870,-76.34688,4729.12,4502.48,0.0,0.0,0.0,0.0,0.0,0.0,0.0,0.0,UPPER CHESAPEAKE MEDICAL CENTER
2.84,2.73,38.96851,-76.86203,5707.05,5364.65,0.0,0.0,0.0,0.0,0.0,0.0,0.0,0.0,DOCTORS'  COMMUNITY HOSPITAL
3.33,3.18,38.74827,-76.87590,7126.99,6699.42,0.0,0.0,0.0,0.0,0.0,0.0,0.0,0.0,SOUTHERN MARYLAND HOSPITAL CENTER
3.16,3.03,39.35962,-76.58851,6635.51,6253.08,0.0,0.0,0.0,0.0,0.0,0.0,0.0,0.0,GOOD SAMARITAN HOSPITAL
3.10,3.00,39.09796,-77.19799,6461.15,6149.08,0.0,0.0,0.0,0.0,0.0,0.0,0.0,0.0,SHADY GROVE ADVENTIST HOSPITAL
2.93,2.80,38.33876,-75.21128,5944.08,5587.50,0.0,0.0,0.0,0.0,0.0,0.0,0.0,0.0,ATLANTIC GENERAL HOSPITAL
5.27,2.59,42.54113,-71.76120,12781.05,4973.05,0.0,0.192,0.575,0.766,0.0,0.0,0.0,0.192,HEALTHALLIANCE HOSPITALS INC
4.95,2.68,42.37441,-71.13378,11839.90,5227.90,0.0,0.0,0.282,0.0,0.0,0.094,0.0,0.0,MOUNT AUBURN HOSPITAL
3.91,2.39,41.94236,-71.27364,8815.81,4396.43,0.0,0.315,0.472,2.99,0.0,0.0,0.157,0.0,STURDY MEMORIAL HOSPITAL
4.04,2.70,42.70912,-71.14877,9198.13,5284.16,0.0,0.0,1.138,0.114,0.0,0.114,0.0,0.0,LAWRENCE GENERAL HOSPITAL
4.79,3.15,42.37451,-71.10418,11364.26,6605.16,0.0,0.144,0.0,0.144,0.0,0.0,0.0,0.0,CAMBRIDGE HEALTH ALLIANCE
4.22,2.83,41.65298,-70.27484,9702.96,5661.19,0.0,0.159,0.318,0.106,0.0,0.106,0.053,0.053,CAPE COD HOSPITAL
4.18,2.25,42.33185,-72.65422,9602.00,3970.34,0.0,0.0,0.455,0.152,0.0,0.0,0.0,0.0,COOLEY DICKINSON HOSPITAL INCTHE
4.24,2.55,41.69217,-71.16474,9781.32,4844.50,0.0,0.0,0.0,0.0,0.0,0.0,0.0,0.0,SAINT ANNE'S HOSPITAL
2.81,2.39,42.81476,-70.89068,5611.44,4372.06,0.0,0.622,0.778,0.0,0.0,0.0,0.0,0.0,ANNA JAQUES HOSPITAL
5.42,2.23,42.16849,-72.34130,13210.23,3909.73,0.0,0.0,0.572,0.0,0.0,0.0,0.0,0.0,WING MEMORIAL HOSPITAL AND MEDICAL CENTER
4.50,3.68,42.35843,-71.05977,10535.97,8150.00,0.0,0.493,0.062,0.123,0.0,0.062,0.308,0.185,BOSTON MEDICAL CENTER CORPORATION
3.58,2.44,42.56407,-70.87543,7839.88,4542.30,0.0,0.397,0.238,0.238,0.0,0.0,0.079,0.079,BEVERLY HOSPITAL CORPORATION
7.28,2.62,42.51078,-70.90712,18641.29,5042.53,0.0,0.108,0.597,0.325,0.0,0.163,0.542,0.054,NORTH SHORE MEDICAL CENTER
4.04,3.23,42.34896,-71.14768,9183.62,6825.38,0.0,0.204,0.306,0.51,0.0,0.102,0.0,0.0,ST ELIZABETH'S MEDICAL CENTER
4.95,2.77,51.46599,-1.28140,11850.77,5484.09,0.0,0.194,0.485,1.261,0.0,0.0,0.0,0.0,BERKSHIRE MEDICAL CENTER INC
4.05,2.32,42.35375,-71.55485,9207.87,4176.67,0.0,0.0,0.532,0.0,0.0,0.0,0.0,0.266,MARLBOROUGH HOSPITAL
3.25,2.71,42.03597,-71.09792,6879.00,5329.83,0.0,0.324,0.216,0.108,0.0,0.108,0.0,0.971,SIGNATURE HEALTHCARE BROCKTON HOSPITAL
2.97,2.39,41.94445,-70.64511,6072.71,4390.88,0.0,0.0,0.556,0.0,0.0,0.0,0.278,0.0,JORDAN HOSPITAL INC
4.13,2.67,42.64636,-71.34118,9454.08,5212.12,0.0,0.0,0.397,0.264,0.0,0.0,0.0,0.0,LOWELL GENERAL HOSPITAL
4.22,2.25,42.11807,-72.75921,9715.11,3962.11,0.0,0.365,0.0,0.0,0.0,0.0,0.0,0.0,NOBLE HOSPITAL
4.90,2.53,42.11449,-72.59502,11701.13,4781.60,0.0,0.33,0.55,0.0,0.0,0.0,0.11,0.0,MERCY MEDICAL CENTER
3.49,2.44,42.25105,-71.01411,7582.25,4531.25,0.0,0.206,0.823,0.0,0.0,0.0,0.206,0.411,QUINCY MEDICAL CENTER
3.68,2.57,42.46049,-71.06203,8157.08,4903.91,0.0,0.251,0.564,0.188,0.0,0.063,0.063,0.063,HALLMARK HEALTH SYSTEM
11.73,3.23,42.36227,-71.06941,31616.54,6838.60,0.028,0.908,0.482,0.312,0.0,0.0,0.17,0.085,MASSACHUSETTS GENERAL HOSPITAL
3.00,2.44,41.90456,-71.09562,6148.29,4530.10,0.0,0.125,0.0,0.626,0.0,0.0,0.0,0.0,MORTON HOSPITAL
4.58,2.53,41.70928,-71.14519,10766.58,4795.97,0.028,0.277,0.471,0.138,0.0,0.0,0.111,0.055,SOUTHCOAST HOSPITAL GROUP INC
5.93,2.92,42.12077,-72.60525,14709.36,5929.73,0.0,0.119,0.398,0.398,0.0,0.0,0.239,0.119,BAYSTATE MEDICAL CENTER
3.54,2.51,42.72846,-71.16830,7744.28,4734.00,0.0,0.122,0.0,0.0,0.0,0.122,0.0,0.122,HOLY FAMILY HOSPITAL
3.41,2.46,42.64529,-71.30052,7359.44,4590.06,0.0,0.0,0.308,0.0,0.0,0.0,0.0,0.0,SAINTS  MEDICAL CENTER INC
4.97,3.45,42.33719,-71.10939,11917.39,7482.80,0.0,0.469,0.289,0.397,0.0,0.0,0.036,0.0,BETH ISRAEL DEACONESS MEDICAL CENTER
4.14,2.45,42.13234,-71.52825,9486.67,4566.48,0.0,0.118,0.355,0.355,0.0,0.0,0.0,0.118,MILFORD REGIONAL MEDICAL CENTER
3.78,2.61,42.58660,-71.98678,8424.61,5037.50,0.0,0.0,2.577,5.155,0.0,0.0,0.0,0.0,HEYWOOD HOSPITAL
3.74,2.29,42.17644,-70.95398,8329.70,4094.56,0.0,0.204,0.511,0.204,0.0,0.0,0.0,0.102,SOUTH SHORE HOSPITAL
5.86,2.43,42.33149,-71.24568,14492.61,4490.90,0.0,0.187,0.281,0.749,0.0,0.0,0.187,0.0,NEWTON-WELLESLEY HOSPITAL
3.48,2.35,42.46581,-71.12210,7573.94,4269.21,0.0,0.273,0.638,0.091,0.0,0.091,0.091,0.0,WINCHESTER HOSPITAL
9.00,3.15,42.33600,-71.10704,23648.02,6590.33,0.034,1.091,0.478,0.614,0.0,0.068,0.0,0.273,BRIGHAM AND WOMEN'S HOSPITAL
3.20,2.67,42.09864,-71.06607,6746.03,5201.26,0.0,0.169,0.675,0.169,0.0,0.0,0.084,0.506,GOOD SAMARITAN MEDICAL CENTER
3.52,3.36,42.34951,-71.06331,7670.54,7203.39,0.0,0.407,0.244,0.163,0.0,0.081,0.081,0.0,TUFTS MEDICAL CENTER
5.31,2.66,42.30049,-71.12771,12880.49,5158.94,0.0,0.0,0.301,0.0,0.0,0.0,0.0,0.0,FAULKNER HOSPITAL
3.72,2.33,42.18869,-71.20197,8274.23,4215.69,0.0,0.0,0.189,0.378,0.0,0.0,0.0,0.189,NORWOOD HOSPITAL
6.06,3.25,42.27720,-71.75922,15067.91,6876.44,0.033,0.36,0.459,0.36,0.0,0.033,0.229,0.033,UMASS MEMORIAL MEDICAL CENTER INC
3.32,2.59,42.63347,-83.30925,7082.36,4968.55,0.0,1.027,1.027,0.514,0.0,0.0,0.0,0.514,DOCTORS' HOSPITAL OF MICHIGAN
3.68,2.66,42.48585,-71.20686,8136.44,5158.66,0.0,0.271,0.226,0.045,0.0,0.0,0.0,0.045,LAHEY CLINIC HOSPITAL
3.41,2.31,42.76256,-71.04507,7362.23,4147.38,0.0,0.0,0.958,0.0,0.0,0.0,0.24,0.0,MERRIMACK VALLEY HOSPITAL
3.94,2.54,42.28385,-71.41896,8914.26,4822.78,0.0,0.162,0.081,0.081,0.0,0.0,0.0,0.081,METROWEST MEDICAL CENTER
3.29,2.73,42.26633,-71.79760,6998.83,5372.83,0.0,0.077,0.077,0.231,0.0,0.0,0.0,0.077,ST VINCENT HOSPITAL
3.56,2.21,42.39466,-83.40537,7793.78,3861.73,0.0,0.225,0.845,0.056,0.0,0.0,0.056,0.169,ST MARY MERCY HOSPITAL
4.42,2.37,43.20588,-86.20839,10298.53,4329.11,0.0,0.089,0.892,0.0,0.0,0.0,0.089,0.0,MERCY HEALTH PARTNERS MERCY CAMPUS
6.33,2.66,42.28551,-85.58042,15865.06,5177.41,0.0,0.0,0.179,0.119,0.0,0.0,0.0,0.06,BRONSON METHODIST HOSPITAL
5.83,2.65,42.45741,-83.20513,14405.04,5130.53,0.0,0.539,0.404,0.438,0.0,0.034,0.135,0.0,PROVIDENCE HOSPITAL AND MEDICAL CENTERS
5.34,2.69,42.29077,-83.21504,12991.46,5250.37,0.0,0.653,0.481,0.309,0.0,0.069,0.103,0.034,OAKWOOD HOSPITAL AND MEDICAL CENTER
4.30,2.37,42.08955,-86.47781,9953.30,4336.15,0.0,0.287,0.862,0.144,0.0,0.0,0.072,0.0,LAKELAND HOSPITAL ST JOSEPH
5.33,3.02,42.41911,-83.18228,12948.21,6231.33,0.0,0.703,0.192,0.512,0.0,0.064,0.384,0.128,SINAI-GRACE HOSPITAL
4.55,2.72,42.61425,-83.27602,10690.14,5335.49,0.0,0.532,0.886,0.295,0.0,0.059,0.177,0.0,ST JOSEPH MERCY OAKLAND
4.17,2.96,43.39166,-84.66140,9560.58,6051.75,0.0,0.223,0.223,0.0,0.0,0.0,0.0,0.0,MIDMICHIGAN MEDICAL CENTER-GRATIOT
4.39,2.18,42.95582,-82.43222,10225.55,3761.95,0.0,0.212,0.423,0.0,0.0,0.0,0.0,0.0,ST JOSEPH MERCY PORT HURON
4.37,2.59,42.96881,-85.66649,10146.14,4969.46,0.0,0.275,0.426,0.05,0.0,0.0,0.075,0.025,SPECTRUM HEALTH - BUTTERWORTH CAMPUS
5.26,2.24,43.58941,-83.86908,12747.06,3938.00,0.0,0.576,0.518,0.518,0.0,0.0,0.058,0.23,MCLAREN BAY REGION
7.99,3.62,42.28388,-83.72960,20691.74,7980.08,0.0,0.523,0.628,1.884,0.0,0.0,0.279,0.0,UNIVERSITY OF MICHIGAN HEALTH SYSTEM
4.14,2.42,42.61490,-82.96060,9477.19,4457.40,0.0,0.209,0.962,0.209,0.0,0.0,0.293,0.0,HENRY FORD MACOMB HOSPITAL
6.19,3.14,42.36762,-83.08461,15465.36,6567.11,0.0,0.368,0.501,0.468,0.0,0.033,0.2,0.033,HENRY FORD HOSPITAL
4.33,2.26,45.80941,-88.04422,10025.92,4019.00,0.0,0.0,0.0,0.0,0.0,0.0,0.0,0.0,DICKINSON COUNTY MEMORIAL HOSPITAL
4.86,2.37,44.66805,-84.70733,11577.00,4338.27,0.0,0.0,0.249,0.0,0.0,0.0,0.0,0.249,MERCY HOSPITAL - GRAYLING
4.01,2.64,42.95817,-85.66253,9101.52,5100.89,0.0,0.162,1.217,0.243,0.0,0.0,0.406,0.081,SAINT MARY'S HEALTH CARE
5.08,2.41,42.61504,-83.93929,12234.19,4444.12,0.0,0.0,1.082,0.0,0.0,0.27,0.0,0.27,SAINT JOSEPH MERCY LIVINGSTON HOSPITAL
5.28,2.38,43.42857,-83.95556,12803.08,4356.03,0.0,0.253,0.421,0.211,0.0,0.0,0.295,0.042,COVENANT MEDICAL CENTER INC
4.93,2.31,42.33111,-85.17817,11775.32,4163.55,0.0,0.196,0.295,0.098,0.0,0.0,0.0,0.0,BRONSON BATTLE CREEK HOSPITAL
5.74,2.36,43.42612,-83.94185,14142.44,4303.86,0.0,0.954,0.556,0.238,0.0,0.0,0.0,0.079,ST MARY'S OF MICHIGAN MEDICAL CENTER
4.50,2.20,44.24532,-85.38950,10524.28,3834.11,0.0,0.464,0.696,0.232,0.232,0.0,0.0,0.0,MERCY HOSPITAL - CADILLAC
4.24,2.32,42.38392,-82.91480,9775.36,4179.36,0.0,0.526,0.263,0.088,0.0,0.0,0.088,0.088,BEAUMONT HOSPITAL GROSSE POINTE
6.75,2.25,42.25117,-84.39240,17076.81,3976.94,0.0,0.0,0.448,0.0,0.0,0.0,0.0,0.064,ALLEGIANCE HEALTH
2.71,2.30,44.26333,-84.24625,5319.45,4117.91,0.0,0.0,0.326,0.653,0.0,0.0,0.0,0.0,WEST BRANCH REGIONAL MEDICAL CENTER
2.97,2.48,41.79423,-85.40861,6087.17,4656.17,0.0,0.0,1.889,0.0,0.0,0.0,0.0,0.0,STURGIS HOSPITAL
5.84,2.52,44.76156,-85.64143,14428.84,4755.61,0.042,0.21,0.379,0.463,0.0,0.084,0.126,0.042,MUNSON MEDICAL CENTER
4.38,2.28,41.91643,-83.39771,10170.41,4071.73,0.0,0.125,0.623,0.374,0.0,0.0,0.249,0.0,MERCY MEMORIAL HOSPITAL SYSTEM
5.47,3.40,42.35230,-83.05676,13362.71,7337.33,0.0,0.502,0.144,0.287,0.0,0.0,0.144,0.072,HARPER UNIVERSITY HOSPITAL
4.72,2.43,45.37209,-84.97065,11175.67,4488.28,0.0,0.112,0.784,0.0,0.0,0.0,0.112,0.0,NORTHERN MICHIGAN REGIONAL HOSPITAL
6.46,2.55,42.30489,-85.56152,16248.78,4847.66,0.0,0.803,0.535,0.375,0.0,0.054,0.054,0.054,BORGESS MEDICAL CENTER
6.13,2.62,42.51418,-83.19259,15285.36,5056.27,0.0,0.557,0.298,0.358,0.0,0.0,0.099,0.02,WILLIAM BEAUMONT HOSPITAL
7.13,3.15,43.02135,-83.70308,18187.87,6604.73,0.0,1.113,0.223,0.111,0.0,0.0,0.0,0.223,HURLEY MEDICAL CENTER
4.67,2.61,43.01399,-83.73250,11039.50,5029.95,0.0,0.364,0.591,0.182,0.0,0.0,0.045,0.136,MCLAREN FLINT
5.51,2.39,42.27424,-83.36580,13489.85,4395.20,0.0,0.233,0.117,0.0,0.0,0.0,0.35,0.117,OAKWOOD ANNAPOLIS HOSPITAL
4.74,2.39,42.21065,-83.14861,11239.44,4373.69,0.0,0.232,0.522,0.232,0.0,0.058,0.0,0.0,HENRY FORD WYANDOTTE HOSPITAL
4.11,2.79,42.46176,-83.37629,9404.21,5560.92,0.0,0.066,0.531,0.0,0.0,0.0,0.199,0.0,BOTSFORD HOSPITAL
5.48,2.38,42.26181,-83.66003,13379.62,4342.09,0.0,0.217,0.398,0.434,0.0,0.0,0.108,0.072,ST JOSEPH MERCY HOSPITAL
6.80,2.80,42.41975,-82.91442,17230.50,5589.10,0.0,0.151,0.377,0.339,0.0,0.0,0.075,0.0,ST JOHN HOSPITAL AND MEDICAL CENTER
7.27,2.54,42.70417,-84.55488,18608.73,4808.48,0.0,0.267,0.6,0.333,0.0,0.0,0.0,0.0,MCLAREN - GREATER LANSING
5.00,2.44,42.11695,-83.21365,11989.67,4526.86,0.0,0.0,1.176,0.706,0.0,0.0,0.118,0.0,OAKWOOD SOUTHSHORE MEDICAL CENTER
4.75,2.26,43.06290,-83.32082,11274.89,4014.89,0.0,0.356,0.356,0.0,0.0,0.0,0.356,0.178,LAPEER REGIONAL MEDICAL CENTER
4.82,2.46,42.50514,-83.00422,11459.07,4574.14,0.0,0.477,0.404,0.845,0.0,0.147,0.073,0.0,ST JOHN MACOMB-OAKLAND HOSPITAL-MACOMB CENTER
5.22,2.27,42.98625,-82.42802,12631.63,4021.16,0.0,0.0,0.84,0.28,0.0,0.093,0.093,0.0,PORT HURON HOSPITAL
5.24,2.48,43.63618,-84.26187,12687.03,4645.97,0.0,0.096,0.482,0.096,0.0,0.0,0.289,0.0,MIDMICHIGAN MEDICAL CENTER-MIDLAND
4.56,2.49,42.58900,-82.89799,10714.19,4666.22,0.0,0.066,0.596,0.331,0.0,0.066,0.066,0.0,MOUNT CLEMENS REGIONAL MEDICAL CENTER
7.51,2.65,42.73767,-84.51698,19303.38,5154.50,0.0,0.339,0.484,0.097,0.0,0.0,0.0,0.242,EDWARD W SPARROW HOSPITAL
3.92,2.59,42.33215,-83.31195,8855.82,4964.91,0.0,0.117,0.235,0.0,0.0,0.0,0.117,0.0,GARDEN CITY HOSPITAL
5.46,2.29,42.67850,-83.14771,13328.30,4082.88,0.0,0.189,0.944,0.0,0.0,0.0,0.094,0.094,CRITTENTON HOSPITAL MEDICAL CENTER
5.90,2.36,42.61826,-83.09239,14599.28,4294.08,0.0,0.414,0.451,0.338,0.0,0.0,0.038,0.038,WILLIAM BEAUMONT HOSPITAL-TROY
5.73,2.32,42.23506,-83.27602,14127.15,4172.08,0.0,0.795,0.795,0.0,0.0,0.159,0.159,0.0,OAKWOOD HERITAGE HOSPITAL
5.90,3.19,42.35295,-83.05447,14626.86,6728.07,0.0,0.486,0.243,1.093,0.0,0.0,0.364,0.0,DETROIT RECEIVING HOSPITAL & UNIV HEALTH CENTER
4.70,2.36,42.59290,-83.49920,11103.19,4309.50,0.0,0.406,0.271,0.271,0.0,0.135,0.135,0.406,HURON VALLEY-SINAI HOSPITAL
5.88,2.69,42.35178,-83.05779,14568.65,5247.47,0.0,3.857,0.771,0.0,0.0,0.0,0.386,0.0,KARMANOS CANCER CENTER
5.64,2.09,42.53914,-83.40777,13855.87,3511.93,0.0,0.323,0.646,1.507,0.0,0.0,0.108,0.323,HENRY FORD WEST BLOOMFIELD HOSPITAL
6.06,2.40,45.01403,-93.32177,15089.91,4410.80,0.0,0.114,0.286,0.057,0.0,0.0,0.057,0.114,NORTH MEMORIAL MEDICAL CENTER
6.04,2.73,46.79380,-92.09573,15030.41,5372.68,0.0,0.356,0.64,0.0,0.0,0.0,0.0,0.071,ESSENTIA HEALTH ST MARY'S MEDICAL CENTER
6.31,3.81,44.97210,-93.26240,15803.47,8526.53,0.0,0.984,0.547,2.514,0.0,0.109,0.547,0.656,HENNEPIN COUNTY MEDICAL CENTER
5.43,2.94,44.02052,-92.48292,13255.25,5989.03,0.031,0.862,0.462,0.862,0.0,0.0,0.031,0.123,MAYO CLINIC - SAINT MARYS HOSPITAL
4.67,2.35,45.87327,-95.37599,11029.93,4257.86,0.0,0.0,1.246,1.246,0.0,0.0,0.0,0.0,DOUGLAS COUNTY HOSPITAL
5.82,2.69,45.57390,-94.16942,14382.30,5264.67,0.0,0.599,0.23,0.23,0.0,0.0,0.046,0.184,ST CLOUD HOSPITAL
7.12,2.37,44.94214,-93.10858,18158.25,4323.32,0.0,0.115,0.172,0.172,0.0,0.0,0.0,0.0,UNITED HOSPITAL
6.08,2.40,47.41117,-92.93183,15148.29,4412.50,0.0,0.0,0.371,0.0,0.0,0.0,0.0,0.0,UNIVERSITY MEDICAL CENTER-MESABI/ MESABA CLINICS
3.84,2.56,44.03521,-91.62181,8606.27,4867.33,0.0,0.485,0.485,0.971,0.0,0.0,0.0,0.0,WINONA HEALTH SERVICES
4.94,2.45,46.79634,-92.08793,11804.67,4551.89,0.0,0.318,0.318,0.425,0.0,0.0,0.106,0.0,ST LUKES HOSPITAL
5.72,2.21,46.27712,-96.07244,14092.92,3862.46,0.0,0.0,0.438,0.0,0.0,0.0,0.0,0.0,LAKE REGION HEALTHCARE CORPORATION
4.00,2.34,44.93031,-93.36276,9082.94,4229.81,0.0,0.113,0.395,0.225,0.0,0.056,0.0,0.0,PARK NICOLLET METHODIST HOSPITAL
4.65,2.22,44.84294,-93.79336,10970.85,3879.80,0.0,0.0,0.272,0.543,0.0,0.0,0.0,0.0,RIDGEVIEW MEDICAL CENTER
8.21,2.53,44.95248,-93.26196,21331.34,4790.95,0.0,0.036,0.434,0.723,0.0,0.036,0.0,0.0,ABBOTT NORTHWESTERN HOSPITAL
6.86,3.71,44.02354,-92.46588,17411.38,8230.00,0.086,1.455,0.257,0.257,0.0,0.086,0.086,0.171,MAYO CLINIC METHODIST HOSPITAL
7.23,2.46,44.94898,-93.10016,18493.31,4586.00,0.0,0.17,0.339,0.085,0.0,0.085,0.085,0.0,ST JOSEPH'S HOSPITAL
5.27,2.39,46.36166,-94.20573,12765.59,4376.06,0.0,0.0,0.187,0.373,0.0,0.0,0.0,0.0,ESSENTIA HEALTH ST JOSEPH'S MEDICAL CENTER
7.04,2.29,44.88645,-93.32693,17947.50,4079.59,0.0,0.161,0.241,0.805,0.0,0.0,0.08,0.08,FAIRVIEW SOUTHDALE HOSPITAL
6.90,3.20,44.96766,-93.23640,17524.12,6746.94,0.0,1.524,0.435,0.363,0.0,0.073,0.145,0.0,UNIVERSITY OF MINNESOTA  MEDICAL CENTER FAIRVIEW
6.81,2.38,44.16396,-94.00412,17259.08,4364.25,0.0,0.275,0.55,0.413,0.0,0.0,0.275,0.138,MAYO CLINIC HEALTH SYSTEM - MANKATO
5.35,2.39,44.77252,-93.50323,13016.05,4392.45,0.0,0.0,0.855,0.285,0.0,0.0,0.0,0.0,ST FRANCIS REGIONAL MEDICAL CENTER
7.29,2.97,44.95570,-93.09429,18675.88,6072.00,0.0,0.059,0.531,0.531,0.0,0.0,0.0,0.0,REGIONS HOSPITAL
7.45,2.53,45.18355,-93.36789,19133.31,4805.90,0.0,0.067,0.266,0.266,0.0,0.0,0.0,0.133,MERCY HOSPITAL
8.41,2.30,45.10789,-93.25685,21929.95,4122.05,0.0,0.114,0.341,0.114,0.0,0.0,0.0,0.0,UNITY HOSPITAL
7.48,2.40,44.74846,-93.27289,19226.21,4413.21,0.0,0.178,1.065,0.0,0.0,0.0,0.0,0.0,FAIRVIEW RIDGES HOSPITAL
7.36,2.67,45.02892,-93.03418,18868.54,5186.92,0.0,0.188,0.283,0.094,0.0,0.0,0.094,0.0,HEALTHEAST ST JOHN'S HOSPITAL
6.07,2.28,44.91542,-92.94757,15110.85,4067.23,0.0,0.0,0.468,0.0,0.0,0.0,0.0,0.234,HEALTHEAST WOODWINDS HOSPITAL
7.93,2.84,32.33069,-90.17030,20535.92,5708.31,0.0,1.097,0.337,1.687,0.0,0.0,0.506,0.337,UNIVERSITY OF MISSISSIPPI MED CENTER
4.54,2.33,34.24336,-88.71753,10663.83,4196.52,0.0,0.044,0.489,0.267,0.0,0.133,0.0,0.044,NORTH MISSISSIPPI MEDICAL CENTER
5.36,2.32,34.49648,-89.03326,13031.07,4177.00,0.0,0.735,2.573,2.573,0.0,0.0,0.368,0.735,BAPTIST MEMORIAL HOSPITAL UNION COUNTY
11.74,2.33,30.39599,-88.89061,31639.64,4216.73,0.0,0.204,0.204,1.022,0.0,0.0,0.0,0.0,BILOXI REGIONAL MEDICAL CENTER
9.31,2.20,34.93596,-88.55955,24565.14,3840.86,0.0,0.0,1.107,0.123,0.0,0.123,0.0,0.0,MAGNOLIA REGIONAL HEALTH CENTER
9.16,2.57,30.36674,-89.11535,24108.58,4901.88,0.0,0.233,1.01,0.311,0.0,0.0,0.311,0.0,MEMORIAL HOSPITAL AT GULFPORT
6.98,2.38,32.35265,-90.87788,17770.81,4341.97,0.0,0.119,0.477,0.477,0.0,0.0,0.0,0.0,RIVER REGION HEALTH SYSTEM
5.27,2.34,34.34899,-89.52062,12775.92,4244.25,0.0,0.124,0.249,2.115,0.0,0.0,0.0,0.249,BAPTIST MEMORIAL HOSPITAL NORTH MS
8.20,2.23,30.37516,-88.53226,21322.09,3913.15,0.0,0.269,0.47,0.269,0.0,0.0,0.134,0.0,SINGING RIVER HOSPITAL
6.46,2.27,32.33616,-90.15652,16238.86,4047.14,0.0,0.461,0.307,0.154,0.0,0.051,0.717,0.0,ST DOMINIC-JACKSON MEMORIAL HOSPITAL
4.38,2.21,31.69405,-89.13061,10177.54,3847.60,0.0,0.611,1.526,0.153,0.0,0.0,0.0,0.0,SOUTH CENTRAL REG MED CTR
3.36,2.26,33.06583,-89.59815,7199.94,4012.33,0.0,0.0,0.559,0.0,0.0,0.0,0.0,0.0,MONTFORT JONES MEMORIAL HOSPITAL
5.65,2.30,32.36983,-88.69702,13894.54,4134.15,0.0,0.412,0.619,0.0,0.0,0.0,0.0,0.0,RUSH FOUNDATION HOSPITAL
2.91,2.22,31.67488,-88.64615,5902.67,3898.92,0.0,0.0,0.506,0.0,0.0,0.0,0.0,0.0,WAYNE GENERAL HOSPITAL
5.48,2.35,31.31872,-89.32955,13387.57,4272.83,0.0,0.422,0.528,0.58,0.0,0.0,0.106,0.053,FORREST GENERAL HOSPITAL
5.39,2.41,33.41099,-91.03479,13119.50,4433.73,0.0,0.155,0.155,0.155,0.0,0.0,0.0,0.0,DELTA REGIONAL MEDICAL CENTER
11.06,2.14,31.56671,-91.38800,29659.92,3660.85,0.0,0.0,0.379,0.0,0.0,0.0,0.0,0.0,NATCHEZ REGIONAL MEDICAL CENTER
9.48,2.15,32.28618,-90.03434,25056.56,3671.75,0.0,0.0,0.972,0.729,0.0,0.0,0.0,0.243,CROSSGATES RIVER OAKS HOSPITAL
3.45,2.33,31.24000,-90.45000,7473.53,4207.76,0.0,0.0,0.35,0.0,0.0,0.0,0.0,0.35,SOUTHWEST MS REGIONAL MEDICAL CENTER
6.89,2.43,33.51824,-90.19832,17510.18,4490.00,0.0,0.487,0.487,0.162,0.0,0.0,0.162,0.0,GREENWOOD LEFLORE HOSPITAL
5.44,2.19,32.31643,-90.17922,13258.85,3791.98,0.0,0.312,0.989,0.312,0.0,0.104,0.208,0.052,MISSISSIPPI BAPTIST MEDICAL CENTER
7.55,2.21,32.37280,-88.69954,19429.00,3864.28,0.0,0.105,0.738,0.0,0.0,0.0,0.105,0.0,ANDERSON REGIONAL MEDICAL CENTER
3.97,2.34,30.52996,-89.68782,9002.58,4239.50,0.0,0.0,0.0,0.0,0.0,0.0,0.0,0.0,HIGHLAND COMMUNITY  HOSPITAL
11.27,2.20,31.56044,-91.40317,30260.63,3844.00,0.0,0.56,0.56,0.56,0.0,0.0,0.0,0.0,NATCHEZ COMMUNITY HOSPITAL/SWING BED
10.43,2.29,32.32541,-90.10520,27819.55,4087.18,0.0,0.0,0.739,0.985,0.0,0.246,0.0,0.0,RIVER OAKS HOSPITAL
5.79,2.32,34.96927,-89.99709,14301.19,4176.19,0.0,0.277,0.416,0.486,0.0,0.0,0.0,0.069,BAPTIST MEMORIAL HOSPITAL DESOTO
5.92,2.37,30.31288,-89.35571,14667.12,4339.62,0.0,0.0,0.0,0.639,0.0,0.0,0.0,0.0,HANCOCK MEDICAL CENTER
7.22,2.19,37.06032,-94.52747,18458.92,3806.80,0.0,0.534,0.686,0.534,0.0,0.0,0.153,0.0,ST JOHN'S REGIONAL MEDICAL CENTER
5.97,2.26,38.78060,-90.48379,14830.53,4013.40,0.0,0.123,0.738,0.738,0.0,0.0,0.0,0.0,SSM ST JOSEPH HEALTH CENTER
6.00,2.73,39.77393,-94.77089,14909.18,5371.24,0.0,0.286,0.571,0.343,0.0,0.057,0.057,0.0,HEARTLAND REGIONAL MEDICAL CENTER
4.45,2.19,38.69946,-93.22211,10388.88,3786.88,0.0,0.334,0.334,0.167,0.0,0.0,0.0,0.0,BOTHWELL REGIONAL HEALTH CENTER
5.83,2.08,38.57670,-92.17352,14420.28,3488.79,0.0,0.117,0.705,0.0,0.0,0.0,0.0,0.0,ST MARYS HEALTH CENTER
7.72,3.13,37.95144,-91.75940,19930.00,6541.37,0.0,0.0,0.445,0.148,0.0,0.0,0.0,0.0,PHELPS COUNTY REGIONAL MEDICAL CENTER
6.63,2.25,38.64281,-90.44448,16745.44,3983.05,0.0,0.686,0.441,0.294,0.0,0.0,0.147,0.196,MERCY HOSPITAL ST LOUIS
3.80,2.15,38.16498,-90.38082,8488.53,3691.89,0.0,0.105,0.42,0.105,0.0,0.0,0.0,0.0,JEFFERSON REGIONAL MEDICAL CENTER
3.40,2.39,37.31623,-91.96105,7330.73,4382.91,0.0,0.0,0.0,0.711,0.0,0.0,0.0,0.0,TEXAS COUNTY MEMORIAL HOSPITAL
4.40,2.43,39.71116,-91.45071,10254.53,4489.94,0.0,0.0,0.178,0.0,0.0,0.0,0.178,0.0,HANNIBAL REGIONAL HOSPITAL
13.27,2.44,39.00717,-94.55925,36081.28,4543.76,0.0,0.103,0.414,0.207,0.0,0.0,0.0,0.0,RESEARCH MEDICAL CENTER
6.03,2.57,38.63524,-90.26508,14982.13,4916.88,0.0,0.967,0.604,0.121,0.0,0.0,0.29,0.072,BARNES JEWISH HOSPITAL
7.18,2.82,38.24953,-94.34075,18355.95,5636.20,0.0,0.0,0.804,0.804,0.0,0.0,0.0,0.0,BATES COUNTY MEMORIAL HOSPITAL
5.59,2.30,37.14560,-93.28037,13718.38,4109.28,0.0,0.133,0.575,0.354,0.0,0.0,0.044,0.088,COX MEDICAL CENTER
4.84,2.34,38.56571,-92.18204,11527.68,4241.21,0.0,0.135,0.405,0.135,0.0,0.0,0.0,0.0,CAPITAL REGION MEDICAL CENTER
5.45,3.23,39.08401,-94.57591,13300.30,6832.78,0.0,1.435,0.82,0.41,0.0,0.0,0.0,0.41,TRUMAN MEDICAL CENTER HOSPITAL HILL
5.90,2.97,40.32655,-94.87409,14598.73,6073.00,0.0,0.0,1.889,2.833,0.0,0.0,0.0,0.0,ST FRANCIS HOSPITAL
5.56,2.42,39.73178,-94.23067,13608.41,4472.71,0.0,0.546,0.0,0.0,0.0,0.0,0.0,0.0,CAMERON REGIONAL MEDICAL CENTER
7.47,2.27,39.24809,-94.64928,19177.28,4024.44,0.0,0.0,0.251,0.251,0.0,0.0,0.0,0.0,ST LUKES NORTHLAND HOSPITAL
6.90,2.20,37.17999,-93.27409,17527.95,3821.82,0.0,0.223,0.356,1.381,0.0,0.0,0.045,0.045,ST JOHN'S REGIONAL HEALTH CENTER
4.86,2.16,38.94903,-92.31563,11583.68,3700.32,0.0,0.114,0.513,0.057,0.0,0.057,0.0,0.0,BOONE HOSPITAL CENTER
4.37,2.08,38.50661,-90.38025,10162.71,3470.11,0.0,1.359,1.15,0.627,0.0,0.0,0.209,0.0,ST ANTHONY'S MEDICAL CENTER
6.02,2.11,38.52738,-90.47501,14951.50,3565.08,0.0,0.339,0.566,0.453,0.0,0.113,0.0,0.0,SSM ST CLARE HEALTH CENTER
7.45,2.15,38.93592,-94.60376,19142.00,3695.69,0.0,0.389,0.389,1.264,0.0,0.0,0.0,0.0,ST JOSEPH MEDICAL CENTER
9.83,2.72,38.63268,-90.31089,26074.53,5342.73,0.0,0.449,0.449,0.225,0.0,0.0,0.0,0.0,SSM ST MARYS HEALTH CENTER
5.49,2.12,36.64970,-93.22138,13417.68,3601.89,0.0,0.673,0.841,0.337,0.0,0.0,0.0,0.0,SKAGGS REGIONAL MEDICAL CENTER
8.34,2.28,39.04749,-94.34105,21718.52,4057.89,0.0,0.09,0.358,0.358,0.0,0.0,0.09,0.0,CENTERPOINT MEDICAL CENTER OF INDEPENDENCE LLC
6.37,2.16,39.14957,-94.55148,15980.56,3715.41,0.0,0.421,0.421,1.106,0.0,0.0,0.053,0.053,NORTH KANSAS CITY HOSPITAL
6.38,2.26,38.75097,-90.43255,16022.29,4000.94,0.0,0.338,0.619,0.338,0.0,0.0,0.056,0.0,SSM DEPAUL HEALTH CENTER
8.27,3.18,38.62280,-90.24049,21530.31,6683.00,0.097,0.871,0.29,0.194,0.0,0.0,0.097,0.194,ST LOUIS UNIVERSITY HOSPITAL
4.61,2.22,38.63702,-90.44699,10854.17,3897.08,0.0,0.421,0.374,0.515,0.0,0.0,0.047,0.0,MISSOURI BAPTIST MEDICAL CENTER
9.47,2.24,37.31072,-89.53990,25017.33,3932.67,0.0,0.324,0.757,0.0,0.0,0.108,0.0,0.0,SOUTHEAST MISSOURI HOSPITAL
5.01,2.24,37.79962,-90.44045,12011.04,3941.00,0.0,0.0,0.346,1.731,0.0,0.0,0.0,0.0,MINERAL AREA REGIONAL MEDICAL CENTER
10.54,2.36,36.78510,-90.42779,28134.43,4294.36,0.0,0.43,0.323,0.215,0.0,0.215,0.108,0.0,POPLAR BLUFF REGIONAL MEDICAL CENTER
6.27,2.29,37.05238,-94.52777,15690.83,4103.55,0.0,0.072,0.795,0.289,0.0,0.144,0.0,0.0,FREEMAN HEALTH SYSTEM - FREEMAN WEST
9.07,2.49,39.04761,-94.59037,23836.96,4669.47,0.062,0.248,0.311,0.373,0.0,0.0,0.124,0.124,ST LUKES HOSPITAL OF KANSAS CITY
5.99,2.56,38.95171,-92.33407,14864.68,4886.88,0.0,0.245,0.327,0.245,0.0,0.0,0.327,0.164,UNIVERSITY OF MISSOURI HEALTH CARE
4.24,2.32,38.05155,-93.68915,9771.75,4177.75,0.0,0.0,1.835,0.0,0.0,0.0,0.0,0.0,SAC-OSAGE HOSPITAL
10.86,2.29,38.58103,-90.45144,29061.69,4096.23,0.0,0.347,0.231,0.463,0.0,0.0,0.0,0.116,DES PERES HOSPITAL
5.62,2.16,39.27591,-94.42572,13788.52,3726.68,0.0,0.264,0.527,0.176,0.0,0.088,0.088,0.0,LIBERTY HOSPITAL
5.33,2.23,38.65123,-90.50301,12943.97,3919.81,0.0,0.296,0.591,0.414,0.0,0.0,0.0,0.059,ST LUKES HOSPITAL
5.97,2.33,38.77576,-90.23906,14810.84,4203.19,0.0,0.15,0.376,0.075,0.0,0.0,0.15,0.0,CHRISTIAN HOSPITAL NORTHEAST
7.35,2.26,37.30401,-89.57190,18834.00,4007.59,0.0,1.223,0.611,0.175,0.0,0.0,0.0,0.087,ST FRANCIS MEDICAL CENTER
6.47,2.52,38.12027,-92.68146,16268.72,4769.32,0.0,0.174,0.87,0.348,0.0,0.0,0.348,0.174,LAKE REGIONAL HEALTH SYSTEM
10.09,2.15,38.90359,-94.33308,26833.50,3679.21,0.0,0.35,0.0,0.35,0.0,0.0,0.0,0.0,LEE'S SUMMIT MEDICAL CENTER
8.16,2.20,39.02539,-94.26453,21210.27,3832.36,0.0,0.231,0.231,0.694,0.0,0.231,0.0,0.0,ST MARY'S MEDICAL CENTER
5.31,2.17,38.80334,-90.77619,12902.50,3743.94,0.0,0.315,0.787,0.472,0.0,0.0,0.0,0.157,SSM ST JOSEPH HOSPITAL WEST
8.36,2.28,38.94062,-94.37842,21794.68,4060.68,0.174,0.174,1.22,0.174,0.0,0.0,0.0,0.0,SAINT LUKE'S EAST LEE'S SUMMIT HOSPITAL
3.89,2.31,46.58297,-111.99684,8748.72,4142.39,0.0,0.273,0.273,1.366,0.0,0.0,0.0,0.0,ST PETER'S HOSPITAL
5.06,2.35,45.78958,-108.51283,12170.08,4281.88,0.0,0.09,0.181,0.181,0.0,0.0,0.0,0.0,BILLINGS CLINIC HOSPITAL
4.22,2.48,47.49139,-111.26255,9707.69,4646.85,0.0,0.689,0.574,0.689,0.0,0.0,0.0,0.23,BENEFIS HOSPITALS INC
5.43,2.20,46.87545,-114.00033,13230.73,3843.36,0.0,0.445,0.593,0.148,0.0,0.0,0.0,0.0,ST PATRICK HOSPITAL
