size_charge,size_pay,lat,lon,state,charge,pay,AcquiredInfect,AcquiredConditions,PatientSafetySummary,name
9.64,2.19,33.25607,-86.81035,AL,21000,3000,83,70,63,Shelby Baptist Medical Center
5.51,2.66,32.32785,-86.27750,AL,11000,5000,50,67,54,Baptist Medical Center South
6.55,2.53,32.36656,-86.28572,AL,14000,4000,50,68,82,Jackson Hospital & Clinic Inc
3.33,2.29,32.82377,-85.17019,AL,6000,4000,0,0,0,George H. Lanier Memorial Hospital
4.38,2.23,32.63806,-85.40413,AL,9000,4000,50,80,13,East Alabama Medical Center And Snf
6.42,2.66,33.50619,-86.80210,AL,13000,5000,66,45,11,University Of Alabama Hospital
8.33,2.10,33.66767,-85.83420,AL,18000,3000,0,0,0,Stringfellow Memorial Hospital
9.05,2.65,34.72007,-86.58108,AL,20000,4000,50,65,44,Huntsville Hospital
13.90,2.11,34.00941,-85.97078,AL,31000,3000,66,67,27,Gadsden Regional Medical Center
8.91,2.21,34.00426,-86.00339,AL,19000,3000,75,81,90,Riverview Regional Medical Center
7.85,2.21,34.57705,-87.01588,AL,17000,3000,0,0,0,Parkway Medical Center
5.33,2.33,33.50734,-86.78958,AL,11000,4000,50,72,21,St Vincent'S Birmingham
5.72,2.15,33.65640,-85.82284,AL,12000,3000,50,60,5,Northeast Alabama Regional Med Center
6.68,2.33,33.20521,-87.52546,AL,14000,4000,66,66,21,D C H Regional Medical Center
8.17,2.30,33.49854,-86.84633,AL,17000,4000,66,70,8,Baptist Medical Center-Princeton
11.18,2.23,33.51420,-86.74859,AL,25000,4000,66,27,11,Trinity Medical Center
2.44,2.10,32.43516,-88.32614,AL,4000,3000,0,0,0,Bryan W Whitfield Mem Hosp Inc
6.23,2.24,30.69697,-88.08081,AL,13000,4000,66,55,24,Mobile Infirmary
7.31,2.56,32.43020,-87.05515,AL,15000,4000,50,91,32,Vaughan Reg Med Center Parkway Campus
17.41,2.16,33.46420,-86.77409,AL,39000,3000,50,65,29,Brookwood Medical Center
5.40,2.32,32.38797,-86.17576,AL,11000,4000,50,52,90,Baptist Medical Center East
8.18,2.84,33.46514,-112.05797,AZ,18000,5000,50,48,69,Banner Good Samaritan Medical Center
7.01,2.54,32.25294,-110.88135,AZ,15000,4000,50,48,3,Tucson Medical Center
9.44,2.29,32.22685,-110.85520,AZ,20000,4000,66,55,21,Carondelet St Josephs Hospital
9.25,2.57,34.56017,-112.48217,AZ,20000,4000,25,67,17,Yavapai Regional Medical Center
6.29,2.54,32.68274,-114.63506,AZ,13000,4000,50,63,69,Yuma Regional Medical Center
9.69,2.45,33.56894,-112.07108,AZ,21000,4000,50,80,16,John C Lincoln North Mountain Hospital
15.04,3.45,35.20923,-111.64486,AZ,34000,6000,66,78,88,Flagstaff Medical Center
10.67,2.59,33.29750,-111.87461,AZ,23000,4000,50,78,54,Chandler Regional Medical Center
14.23,5.01,33.45154,-112.04313,AZ,32000,10000,50,47,63,St Lukes Medical Center
8.60,2.63,35.22024,-114.03585,AZ,19000,4000,66,66,54,Kingman Regional Medical Center
9.43,2.29,33.60432,-112.28378,AZ,20000,4000,83,75,95,Banner Boswell Medical Center
7.59,3.41,32.24152,-110.94631,AZ,16000,6000,50,37,39,University Of Arizona Medical Ctr-Universit The
8.31,2.50,33.39097,-111.87638,AZ,18000,4000,66,80,56,Banner Desert Medical Center
8.72,2.30,33.41128,-111.68916,AZ,19000,4000,50,70,63,Banner Baywood Medical Center
9.45,2.70,33.60949,-112.18129,AZ,21000,5000,66,73,76,Banner Thunderbird Medical Center
10.39,2.69,33.66596,-112.11618,AZ,23000,5000,50,73,69,John C Lincoln Deer Valley Hospital
9.06,2.30,33.65965,-112.37283,AZ,20000,4000,50,77,97,Banner Del E Webb Medical Center
6.91,2.17,32.29456,-110.97041,AZ,15000,3000,50,83,13,Carondelet Heart And Vascular Institute
14.75,2.56,35.11068,-114.55505,AZ,33000,4000,50,87,63,Western Arizona Regional Medical Ctr
7.31,2.85,33.65947,-111.95626,AZ,15000,5000,66,53,95,Mayo Clinic Hospital
7.94,2.61,33.46202,-112.35299,AZ,17000,4000,75,65,69,West Valley Hospital
9.63,2.88,33.47818,-112.25744,AZ,21000,5000,50,58,69,Banner Estrella Medical Center
11.42,2.36,33.28686,-111.75246,AZ,25000,4000,50,63,63,Mercy Gilbert Medical Center
6.45,2.28,34.75031,-92.33897,AR,13000,4000,66,63,82,St Vincent Infirmary Medical Center
2.00,2.11,35.05399,-93.38856,AR,3000,3000,0,0,0,John Ed Chambers Mem Hosp Inc
4.97,2.23,35.25046,-91.70056,AR,10000,4000,50,61,63,White County Medical Center
3.95,2.39,35.83746,-90.70386,AR,8000,4000,50,75,2,St Bernards Medical Ctr
9.37,2.35,36.18082,-94.13644,AR,20000,4000,50,68,29,Nw Arkansas Hospitals Llc
3.54,2.13,36.34295,-92.39442,AR,7000,3000,50,65,57,Baxter Regional Medical Center
4.99,2.21,34.77770,-92.12539,AR,10000,3000,50,60,13,Baptist Health Medical Center North Little Rock
5.57,2.63,35.14320,-90.18837,AR,11000,4000,0,0,0,Crittenden Memorial Hospital
4.75,2.28,35.37445,-94.41868,AR,9000,4000,50,53,85,Sparks Regional Medical Center
7.67,2.22,35.35395,-94.35262,AR,16000,3000,50,66,11,St Edward Mercy Medical Center
7.68,2.16,34.57290,-92.58508,AR,16000,3000,50,88,72,Saline Memorial Hospital
5.43,2.24,34.74866,-92.35422,AR,11000,4000,50,43,21,Baptist Health Medical Center-Little Rock
4.59,2.11,34.73868,-92.39307,AR,9000,3000,75,86,79,Arkansas Heart Hospital
11.55,2.82,32.77495,-117.01467,CA,25000,5000,83,71,33,Grossmont Hospital
9.60,2.74,39.50528,-121.54100,CA,21000,5000,50,73,63,Oroville Hospital
5.48,2.93,34.67486,-118.15771,CA,11000,5000,50,67,44,Antelope Valley Hospital Med Center
12.75,3.28,34.12834,-118.25777,CA,28000,6000,50,72,44,Glendale Mem Hospital & Hlth Center
11.53,3.66,34.09643,-118.29103,CA,25000,7000,75,76,74,Hollywood Presbyterian Medical Center
11.37,3.07,32.75143,-117.16083,CA,25000,5000,33,62,69,Scripps Mercy Hospital
10.08,2.66,36.83532,-119.76562,CA,22000,5000,50,66,57,Saint Agnes Medical Center
13.61,3.61,33.92963,-118.20332,CA,30000,7000,66,78,33,Saint Francis Medical Center
10.84,3.14,34.07558,-118.28424,CA,24000,6000,0,0,0,Temple Community Hospital
17.81,2.86,34.02685,-118.48651,CA,40000,5000,50,76,21,Santa Monica - Ucla Med Ctr & Orthopaedic Hospital
17.59,3.57,34.22014,-118.53410,CA,40000,7000,33,56,44,Northridge Hospital Medical Center
6.03,2.76,36.32362,-119.66726,CA,12000,5000,50,88,24,Adventist Medical Center
30.00,4.31,37.36257,-121.84974,CA,69000,8000,50,70,1,Regional Medical Center Of San Jose
6.50,3.39,34.09638,-118.32518,CA,14000,6000,0,0,0,Hollywood Community Hospital Of Hollywood
14.28,3.98,36.57886,-121.91316,CA,32000,8000,66,56,57,Community Hospital Of The Monterey Peninsula
14.73,2.72,37.51164,-120.83800,CA,33000,5000,33,86,16,Emanuel Medical Center Inc
20.95,3.30,37.55717,-121.98126,CA,48000,6000,50,53,88,Washington Hospital
17.49,2.82,32.61972,-117.02278,CA,39000,5000,50,71,57,Sharp Chula Vista Medical Center
13.61,2.64,33.84780,-117.93661,CA,30000,4000,50,73,57,Ahmc Anaheim Regional Medical Center
14.39,4.45,37.75676,-122.40461,CA,32000,9000,75,51,12,San Francisco General Hospital
17.66,2.67,34.15601,-118.32834,CA,40000,5000,50,80,97,Providence Saint Joseph Medical Ctr
9.37,2.72,34.13973,-118.03534,CA,20000,5000,50,45,10,Methodist Hospital Of Southern Ca
13.37,3.28,34.14987,-118.23117,CA,30000,6000,66,75,88,Glendale Adventist Medical Center
20.42,2.76,33.83862,-116.54557,CA,46000,5000,66,81,2,Desert Regional Medical Center
6.47,3.68,34.07389,-117.35111,CA,13000,7000,33,81,6,Arrowhead Regional Medical Center
4.88,3.19,35.41172,-119.03972,CA,10000,6000,0,0,0,Good Samaritan Hospital
15.49,4.32,34.06675,-118.44613,CA,35000,8000,50,27,33,Ronald Reagan Ucla Medical Center
11.37,2.91,32.95813,-115.55388,CA,25000,5000,50,91,92,Pioneers Memorial Healthcare District
25.05,4.00,33.78798,-117.89026,CA,57000,8000,66,56,11,University Of California Irvine Med Center
13.98,2.63,33.83891,-118.35677,CA,31000,4000,50,86,94,Providence Little Company Of Mary Med Ctr Torrance
16.92,2.89,33.93530,-118.13030,CA,38000,5000,50,90,82,Downey Regional Medical Center
14.18,2.77,34.13364,-118.15275,CA,32000,5000,66,65,57,Huntington Memorial Hospital
11.55,2.74,35.38338,-119.01969,CA,25000,5000,33,86,6,San Joaquin Community Hospital
17.44,3.21,34.05336,-118.26558,CA,39000,6000,50,68,79,Good Samaritan Hospital
9.91,2.89,33.80861,-118.18661,CA,22000,5000,66,65,27,Long Beach Memorial Medical Center
14.30,2.65,37.66867,-120.97339,CA,32000,4000,66,80,54,Memorial  Medical Center
14.40,2.48,33.56100,-117.66530,CA,32000,4000,66,58,12,Mission Hospital Regional Med Center
17.58,2.39,33.76335,-116.40628,CA,40000,4000,50,56,39,Eisenhower Medical Center
9.12,2.86,33.83340,-118.08118,CA,20000,5000,50,90,99,Tri-City Regional Medical Center
13.64,2.52,34.09764,-117.83444,CA,30000,4000,0,0,0,San Dimas Community Hospital
8.77,2.41,33.60883,-117.70881,CA,19000,4000,50,70,90,Saddleback Memorial Medical Center
22.48,3.22,34.07664,-118.37955,CA,51000,6000,100,58,48,Cedars-Sinai Medical Center
7.19,3.41,34.01936,-118.18661,CA,15000,6000,50,90,63,Los Angeles Community Hospital
8.22,2.58,34.47174,-117.29791,CA,18000,4000,50,100,99,Desert Valley Hospital
13.44,2.46,35.38506,-119.03992,CA,30000,4000,50,97,76,Bakersfield Heart Hospital
13.52,3.28,33.95076,-118.34828,CA,30000,6000,50,71,99,Centinela Hospital Medical Center
21.09,2.67,34.05723,-118.36025,CA,48000,5000,50,63,69,Olympia Medical Center
9.46,2.62,32.77629,-117.05730,CA,21000,4000,75,78,63,Alvarado Hospital Medical Center
10.20,3.50,34.06958,-118.26344,CA,22000,6000,0,0,0,Silver Lake Medical Center
7.68,2.46,40.41481,-104.70890,CO,16000,4000,50,73,57,North Colorado Medical Center
6.41,2.30,40.57315,-105.05741,CO,13000,4000,50,68,95,Poudre Valley Hospital
7.61,2.46,38.83903,-104.80024,CO,16000,4000,66,68,33,Memorial Hospital Central
8.60,2.26,38.86559,-104.82182,CO,19000,4000,50,70,37,Centura Health-Penrose St Francis Health Services
8.71,2.94,41.30978,-72.93806,CT,19000,5000,66,57,8,Hospital Of St Raphael
8.57,2.78,41.55959,-73.05941,CT,18000,5000,33,57,69,Waterbury Hospital
6.94,2.56,41.33722,-72.10380,CT,15000,4000,50,72,92,Lawrence & Memorial Hospital
9.47,3.27,41.18881,-73.16645,CT,21000,6000,50,51,21,Bridgeport Hospital
8.03,2.62,41.03431,-73.63020,CT,17000,4000,50,48,63,Greenwich Hospital Association
7.65,3.49,41.30400,-72.93502,CT,16000,6000,66,41,3,Yale-New Haven Hospital
6.75,3.11,41.75412,-72.67927,CT,14000,6000,50,47,9,Hartford Hospital
7.05,2.80,41.20049,-73.20281,CT,15000,5000,66,78,63,St Vincent'S Medical Center
4.83,2.75,41.40474,-73.44739,CT,10000,5000,50,66,57,Danbury Hospital
10.13,2.92,41.11147,-73.42010,CT,22000,5000,50,72,92,Norwalk Hospital Association
6.16,2.71,41.66107,-72.78671,CT,13000,5000,50,52,8,Hospital Of Central Connecticut The
5.16,2.84,39.69005,-75.68408,DE,10000,5000,66,58,39,Christiana Care Health Services Inc.
6.96,2.59,39.74954,-75.56662,DE,15000,4000,50,81,79,St Francis Hospital
5.46,2.63,39.15135,-75.52309,DE,11000,4000,50,58,90,Bayhealth - Kent General Hospital
7.40,3.16,38.90106,-77.05079,DC,16000,6000,50,50,13,George Washington Univ Hospital
6.88,4.05,38.91770,-77.02193,DC,14000,8000,50,66,0,Howard University Hospital
6.26,2.93,38.94397,-76.99040,DC,13000,5000,50,57,24,Providence Hospital
8.98,3.15,38.92944,-77.01473,DC,19000,6000,33,58,1,Washington Hospital Center
8.52,3.07,30.34913,-81.66391,FL,18000,5000,50,62,0,Shands Jacksonville Medical Center
11.00,2.46,26.50479,-80.06979,FL,24000,4000,50,53,99,Bethesda Memorial Hospital
9.87,2.57,28.52517,-81.37729,FL,22000,4000,66,47,29,Orlando Health
7.93,2.44,28.57345,-81.36990,FL,17000,4000,83,66,24,Florida Hospital
15.06,2.79,25.78846,-80.21644,FL,34000,5000,83,56,0,University Of Miami Hospital
6.69,2.32,26.62849,-81.87423,FL,14000,4000,66,52,16,Lee Memorial Hospital
6.34,2.73,29.20117,-81.05828,FL,13000,5000,66,76,79,Halifax Health Medical Center
7.44,2.27,26.15053,-81.79919,FL,16000,4000,66,62,39,Naples Community Hospital
7.80,2.24,28.08771,-80.61362,FL,17000,4000,66,58,17,Holmes Regional Medical Center
7.89,3.91,25.79143,-80.21250,FL,17000,7000,83,48,4,Jackson Memorial Hospital
7.21,2.41,30.47650,-87.21219,FL,15000,4000,50,41,39,Sacred Heart Hospital
5.95,2.21,30.15963,-85.64818,FL,12000,3000,66,73,43,Bay Medical Center
6.43,2.68,28.63051,-80.82437,FL,13000,5000,50,68,98,Parrish Medical Center
14.12,2.68,25.86166,-80.21398,FL,32000,5000,50,83,69,North Shore Medical Center
7.75,2.34,28.54917,-81.52746,FL,17000,4000,50,70,57,Health Central
8.51,2.53,27.76332,-82.64325,FL,18000,4000,50,82,20,Bayfront Medical Center Inc
12.04,2.82,25.81317,-80.13996,FL,27000,5000,66,47,24,Mount Sinai Medical Center
9.75,2.33,27.49789,-82.56220,FL,21000,4000,50,55,29,Manatee Memorial Hospital
10.80,2.58,26.01867,-80.17981,FL,24000,4000,83,63,76,Memorial Regional Hospital
8.29,2.95,26.10282,-80.14245,FL,18000,5000,75,76,97,Broward Health Broward General Medical Center
6.74,2.26,30.30835,-81.68919,FL,14000,4000,50,68,82,St Vincent'S Medical Center
7.57,2.12,28.01404,-82.78368,FL,16000,3000,50,75,54,Mease Hospital Dunedin
9.22,2.35,27.19837,-80.24306,FL,20000,4000,66,70,57,Martin Memorial Medical Center
9.45,2.23,28.26092,-82.18802,FL,21000,3000,50,62,88,Florida Hospital Zephyrhills
6.57,2.13,26.94042,-82.04094,FL,14000,3000,50,72,85,Charlotte Regional Medical Center
6.53,2.18,27.46707,-81.43358,FL,14000,3000,0,0,0,Highlands Regional Medical Center
7.80,2.76,25.86856,-80.31222,FL,17000,5000,50,88,92,Palm Springs General Hospital
10.43,2.23,28.02768,-81.72466,FL,23000,4000,50,62,2,Winter Haven Hospital
15.83,3.04,25.84597,-80.26872,FL,36000,5000,75,82,99,Hialeah Hospital
8.10,2.25,28.82358,-81.71133,FL,17000,4000,50,71,48,Florida Hospital Waterman
6.31,2.62,25.74067,-80.21244,FL,13000,4000,0,0,0,Mercy Hospital Inc
7.35,2.12,28.25431,-82.71447,FL,16000,3000,50,96,39,Morton Plant North Bay Hospital
6.70,2.20,27.78088,-82.65126,FL,14000,3000,50,68,57,St Anthony'S Hospital
8.63,2.13,27.09043,-82.44499,FL,19000,3000,50,76,48,Venice Regional Medical Center
15.32,2.31,28.53906,-82.44193,FL,34000,4000,50,75,57,Brooksville Regional Hospital
7.42,2.24,28.91403,-81.28480,FL,16000,4000,83,75,5,Florida Hospital Fish Memorial
10.57,2.24,26.18711,-80.11941,FL,23000,4000,83,57,37,Holy Cross Hospital Inc
8.56,2.46,27.98242,-82.49025,FL,18000,4000,66,60,29,St Joseph'S Hospital
8.24,2.90,25.77941,-80.29397,FL,18000,5000,0,0,0,Metropolitan Hospital Of Miami
9.60,2.23,26.98905,-82.09559,FL,21000,3000,50,68,43,Peace River Regional Medical Center
11.23,2.38,26.59805,-80.09271,FL,25000,4000,100,60,27,Jfk Medical Center
7.16,2.19,28.80659,-81.86906,FL,15000,3000,33,67,24,Leesburg Regional Medical Center
3.88,2.20,27.31827,-82.53140,FL,7000,3000,33,37,69,Sarasota Memorial Hospital
10.38,2.41,30.31525,-81.66398,FL,23000,4000,66,47,12,Baptist Medical Center
7.57,2.65,29.86371,-81.31749,FL,16000,4000,66,76,29,Flagler Hospital
6.97,2.24,28.33522,-80.72319,FL,15000,4000,50,63,97,Wuesthoff Medical Center  Rockledge
9.93,2.16,27.89590,-81.56547,FL,22000,3000,0,0,0,Lake Wales Medical Center
4.32,2.28,27.65832,-80.39307,FL,8000,4000,66,76,99,Indian River Medical Center
6.92,2.25,27.50001,-81.43962,FL,15000,4000,50,61,85,Florida Hospital Heartland Medical Center
14.54,2.56,28.29946,-81.41021,FL,33000,4000,50,63,51,Osceola Regional Medical Center
6.34,3.33,29.64155,-82.34844,FL,13000,6000,66,53,29,Shands Hospital At The University Of Florida
6.20,2.46,29.47897,-81.18915,FL,13000,4000,50,51,39,Florida Hospital Flagler
7.64,2.19,27.91798,-81.84402,FL,16000,3000,0,0,0,Bartow Regional Medical Center
14.15,2.52,30.73540,-86.56171,FL,32000,4000,50,90,97,North Okaloosa Medical Center
6.51,2.23,27.95192,-82.80379,FL,14000,4000,66,62,9,Morton Plant Hospital
11.72,2.37,25.96994,-80.14533,FL,26000,4000,50,63,79,Aventura Hospital And Medical Center
8.84,2.27,28.01563,-82.13900,FL,19000,4000,50,92,57,South Florida Baptist Hospital
10.29,2.28,28.18120,-81.64018,FL,23000,4000,50,72,57,Heart Of Florida Regional Medical Center
5.28,2.69,30.26389,-81.44283,FL,11000,5000,83,62,90,Mayo Clinic
9.74,2.63,30.18340,-82.68783,FL,21000,4000,0,0,0,Lake City Medical Center
8.70,2.27,28.06172,-81.95304,FL,19000,4000,50,52,3,Lakeland Regional Medical Center
10.57,2.40,28.81611,-81.28351,FL,23000,4000,50,56,97,Central Florida Regional Hospital
11.88,2.85,26.12647,-80.20519,FL,26000,5000,50,81,6,Plantation General Hospital
8.80,2.21,28.07111,-82.42342,FL,19000,3000,50,68,37,Florida Hospital Tampa
5.83,2.36,27.22739,-81.85108,FL,12000,4000,0,0,0,Desoto Memorial Hospital
9.43,2.24,26.83035,-80.08655,FL,20000,4000,100,56,37,Palm Beach Gardens Medical Center
15.67,2.38,30.28793,-81.60103,FL,35000,4000,33,48,24,Memorial Hospital Jacksonville
14.66,2.85,25.74360,-80.25465,FL,33000,5000,50,82,41,Coral Gables Hospital
16.65,2.91,25.88563,-80.32635,FL,37000,5000,66,78,90,Palmetto General Hospital
11.81,2.44,26.26259,-80.20292,FL,26000,4000,50,51,97,Northwest Medical Center
13.55,2.24,29.66085,-82.41172,FL,30000,4000,33,52,17,North Florida Regional Medical Center
13.91,2.77,25.73195,-80.38580,FL,31000,5000,33,51,79,Kendall Regional Medical Center
9.75,2.11,29.17550,-82.13680,FL,21000,3000,83,55,85,Ocala Regional Medical Center
9.33,2.13,27.48213,-82.62126,FL,20000,3000,50,75,69,Blake Medical Center
10.45,2.23,27.84359,-80.48849,FL,23000,3000,0,0,0,Sebastian River Medical Center
6.53,2.24,26.52735,-81.83337,FL,14000,4000,50,58,63,Gulf Coast Medical Center Lee Mem Health System
15.75,2.19,30.45448,-86.63362,FL,35000,3000,50,72,63,Fort Walton Beach Medical Center
15.30,2.29,30.16550,-81.73775,FL,34000,4000,33,68,57,Orange Park Medical Center
11.64,2.26,26.12354,-80.25951,FL,26000,4000,50,57,74,Westside Regional Medical Center
12.45,2.18,30.51624,-87.21856,FL,28000,3000,50,65,4,West Florida Hospital
6.11,2.28,29.64481,-81.69431,FL,13000,4000,50,78,48,Putnam Community Medical Center
9.74,2.13,26.98884,-82.09877,FL,21000,3000,50,80,57,Fawcett Memorial Hospital
17.39,2.29,27.82545,-82.70122,FL,39000,4000,50,65,33,Northside Hospital
13.09,2.38,27.93259,-82.28759,FL,29000,4000,66,67,21,Brandon Regional Hospital
7.36,2.13,26.63958,-81.94164,FL,16000,3000,50,52,21,Cape Coral Hospital
14.06,2.50,27.43392,-80.34350,FL,31000,4000,83,53,29,Lawnwood Regional Medical Center & Heart Institute
11.26,2.35,27.91458,-82.80382,FL,25000,4000,50,48,24,Largo Medical Center
5.85,2.17,28.95195,-82.62421,FL,12000,3000,50,72,21,Seven Rivers Regional Medical Center
8.76,2.64,26.92138,-80.09708,FL,19000,4000,50,61,54,Jupiter Medical Center
10.02,2.30,30.47616,-84.23140,FL,22000,4000,50,66,57,Capital Regional Medical Center
10.08,2.12,28.36128,-82.68883,FL,22000,3000,66,67,90,Regional Medical Center Bayonet Point
12.40,2.29,26.43709,-80.12728,FL,27000,4000,83,72,92,Delray Medical Center
10.26,2.32,27.28861,-80.29431,FL,22000,4000,50,65,54,St Lucie Medical Center
15.23,2.24,28.53585,-82.53404,FL,34000,4000,66,71,57,Oak Hill Hospital
6.62,2.12,28.03957,-82.70875,FL,14000,3000,66,66,54,Mease Countryside Hospital
7.91,2.51,26.65230,-80.20504,FL,17000,4000,50,73,33,Wellington Regional Medical Center
10.26,2.49,26.01394,-80.30980,FL,22000,4000,66,71,63,Memorial Hospital West
7.35,3.25,25.74731,-80.31765,FL,16000,6000,50,85,78,Westchester General Hospital
11.43,2.18,26.21388,-81.73257,FL,25000,3000,33,80,33,Physicians Regional Medical Center - Pine Ridge
6.84,2.27,26.08155,-80.36449,FL,14000,4000,100,57,48,Cleveland Clinic Hospital
6.24,2.12,28.94952,-81.95843,FL,13000,3000,33,80,94,Villages Regional Hospital The
6.78,2.20,28.10969,-80.67280,FL,14000,3000,50,72,37,Wuesthoff Medical Center - Melbourne
17.38,3.88,25.72132,-80.27116,FL,39000,7000,0,0,0,Doctors Hospital Inc
9.54,2.15,28.24311,-81.30279,FL,21000,3000,50,86,41,St Cloud Regional Medical Center
5.95,2.10,30.25377,-81.58270,FL,12000,3000,50,77,29,St Vincent'S Medical Center Southside
7.39,2.43,31.22516,-82.34898,GA,16000,4000,50,93,33,Satilla Regional Medical Center
6.75,2.75,33.79230,-84.32107,GA,14000,5000,50,41,8,Emory University Hospital
6.52,2.33,32.02825,-81.09977,GA,14000,4000,83,81,1,Candler Hospital
5.81,2.48,33.47096,-81.98176,GA,12000,4000,50,51,21,University Hospital
6.67,2.34,34.30335,-83.81737,GA,14000,4000,66,58,44,Northeast Georgia Medical Center Inc
10.36,2.33,34.19990,-84.79378,GA,23000,4000,50,62,39,Cartersville Medical Center
8.24,2.28,33.96770,-84.55011,GA,18000,4000,66,62,44,Wellstar Kennestone Hospital
6.90,2.57,32.03185,-81.09158,GA,15000,4000,66,61,24,Memorial Health Univ Med Cen Inc
10.28,2.13,31.98515,-81.15475,GA,22000,3000,66,72,33,St Joseph'S Hospital - Savannah
6.42,2.36,33.78334,-83.71709,GA,13000,4000,50,88,2,Walton Regional Medical Center
7.39,2.57,34.26000,-85.17000,GA,16000,4000,50,67,88,Floyd Medical Center
5.19,2.30,32.61642,-83.63065,GA,10000,4000,50,73,74,Houston Medical Center
6.00,2.36,33.96117,-83.39832,GA,12000,4000,50,68,92,Athens Regional Medical Center
6.35,2.43,32.41483,-81.76990,GA,13000,4000,50,82,39,East Georgia Regional Medical Center
6.71,2.61,33.78956,-84.28077,GA,14000,4000,50,83,11,Dekalb Medical Center
6.62,2.57,33.76810,-84.38616,GA,14000,4000,33,45,9,Emory University Hospital Midtown
5.91,3.16,33.75205,-84.38272,GA,12000,6000,33,56,0,Grady Memorial Hospital
10.45,2.42,33.81003,-84.39568,GA,23000,4000,33,57,44,Piedmont Hospital
6.72,2.13,31.50971,-82.86341,GA,14000,3000,0,0,0,Coffee Regional Medical Center
6.35,2.44,33.68072,-84.00200,GA,13000,4000,50,56,33,Rockdale Medical Center
9.15,2.29,31.47069,-83.50473,GA,20000,4000,16,80,32,Tift Regional Medical Center
5.95,2.62,32.83041,-83.63476,GA,12000,4000,66,48,44,Medical Center Of Central Georgia
7.88,2.61,32.54026,-82.95741,GA,17000,4000,0,0,0,Fairview Park Hospital
7.06,2.39,32.20903,-82.37585,GA,15000,4000,0,0,0,Meadows Regional Medical Center
7.75,2.41,33.85638,-84.60446,GA,17000,4000,50,56,33,Wellstar Cobb Hospital
8.14,2.33,32.84705,-83.61823,GA,17000,4000,66,62,9,Coliseum Medical Center
7.64,2.17,34.25704,-85.16467,GA,16000,3000,50,87,24,Redmond Regional Medical Center
6.00,2.33,33.51144,-84.22200,GA,12000,4000,50,91,92,Henry Medical Center Inc
8.62,2.27,33.87683,-84.02136,GA,19000,4000,50,77,44,Emory Eastside Medical Center
14.92,2.31,34.06334,-84.31976,GA,33000,4000,75,70,74,North Fulton Regional Hospital
5.63,2.41,33.70365,-84.14697,GA,12000,4000,50,83,78,Dekalb Medical Center At Hillandale
7.87,2.30,33.39118,-84.81563,GA,17000,4000,50,88,5,Piedmont Newnan Hospital Inc
5.33,3.10,21.30780,-157.85505,HI,11000,6000,66,68,44,The Queens Medical Center
6.64,2.34,43.61218,-116.19234,ID,14000,4000,66,61,16,St Lukes Regional Medical Center
11.77,2.67,41.52896,-88.13550,IL,26000,5000,50,75,82,Provena St Joseph Medical Center
7.15,2.58,42.06550,-87.68428,IL,15000,4000,33,55,57,Evanston Hospital
7.29,2.44,39.93563,-91.39833,IL,15000,4000,50,55,92,Blessing Hospital
5.84,3.42,41.86011,-87.69571,IL,12000,6000,33,66,0,Mt Sinai Hospital Medical Center
5.66,2.40,41.11319,-88.83500,IL,12000,4000,0,0,0,St Marys Hospital
9.70,2.68,42.07012,-88.33180,IL,21000,5000,50,82,24,Sherman Hospital
4.03,2.14,39.12680,-88.55059,IL,8000,3000,0,0,0,St Anthonys Memorial Hospital
4.29,2.29,38.52908,-89.11604,IL,8000,4000,50,86,17,St Marys Hospital
8.87,2.29,41.80160,-89.69714,IL,19000,4000,0,0,0,Cgh Medical Center
4.03,2.20,38.32292,-88.91026,IL,8000,3000,50,81,90,Good Samaritan Regional Hlth Center
6.24,2.66,41.72636,-87.56727,IL,13000,5000,50,65,74,Advocate Trinity Hospital
7.74,2.95,41.89141,-87.77618,IL,16000,5000,50,72,92,West Suburban Medical Center
6.51,2.51,42.05624,-87.74012,IL,14000,4000,50,75,85,Skokie Hospital
7.29,2.74,41.83195,-87.79266,IL,15000,5000,50,78,57,Macneal  Hospital
7.80,2.25,41.66900,-87.81414,IL,17000,4000,50,72,95,Palos Community Hospital
6.61,2.37,41.79660,-87.88627,IL,14000,4000,83,63,37,Adventist La Grange Memorial Hospital
7.40,2.47,40.70200,-89.59222,IL,16000,4000,66,57,3,Saint Francis Medical Center
8.79,2.93,41.69322,-87.62436,IL,19000,5000,50,100,29,Roseland Community Hospital
11.31,3.09,42.02578,-87.68371,IL,25000,6000,50,75,37,Rhc St Francis Hospital
8.20,2.94,41.96698,-87.64941,IL,18000,5000,50,70,43,Louis A Weiss Memorial Hospital
3.89,2.96,41.87259,-87.76181,IL,7000,5000,25,87,72,Loretto Hospital
8.23,2.71,42.37840,-87.83329,IL,18000,5000,50,73,62,Vista Medical Center East
10.40,2.48,40.11696,-88.21506,IL,23000,4000,33,63,13,Carle Foundation Hospital
4.71,3.08,41.77813,-87.63330,IL,9000,6000,50,100,78,St Bernard Hospital
14.53,3.39,41.97532,-87.69958,IL,32000,6000,50,85,51,Swedish Covenant Hospital
7.28,2.25,42.31832,-88.27920,IL,15000,4000,50,83,24,Centegra Health System - Mc Henry Hospital
9.44,2.48,41.98743,-87.81440,IL,20000,4000,66,62,69,Resurrection Medical Center
7.17,2.73,41.65880,-87.67729,IL,15000,5000,50,65,94,Metrosouth Medical Center
8.09,3.60,41.87497,-87.66927,IL,17000,7000,50,42,33,Rush University Medical Center
3.97,3.61,41.87381,-87.67421,IL,8000,7000,83,55,16,John H Stroger Jr Hospital
7.22,2.60,41.76946,-87.69239,IL,15000,4000,50,82,94,Holy Cross Hospital
6.26,2.25,39.86644,-88.96090,IL,13000,4000,50,60,69,Decatur Memorial Hospital
6.82,2.46,39.80893,-89.65530,IL,14000,4000,83,57,11,Memorial Medical Center
6.58,3.09,41.89006,-87.70757,IL,14000,6000,0,0,0,Sacred Heart Hospital
8.98,2.40,41.12049,-87.87187,IL,19000,4000,50,68,97,Provena St Marys Hospital
5.37,3.09,41.84639,-87.62345,IL,11000,6000,25,46,39,Mercy Hospital And Medical Center
7.44,2.74,41.52283,-87.71111,IL,16000,5000,50,75,33,Franciscan St James Health
7.08,2.31,42.27597,-88.40019,IL,15000,4000,50,71,56,Centegra Health System - Woodstock Hospital
9.94,3.09,41.75746,-87.58559,IL,22000,6000,0,0,0,Jackson Park Hospital
9.87,2.38,41.72094,-87.69220,IL,22000,4000,16,63,69,Little Company Of Mary Hospital
10.25,3.13,41.90414,-87.68254,IL,22000,6000,75,50,54,St Mary & Elizabeth Med Ctr-Division Campus
7.78,2.75,41.74948,-87.56909,IL,17000,5000,50,87,72,South Shore Hospital
9.86,3.49,41.93641,-87.65295,IL,21000,6000,50,77,85,Advocate Illinois Masonic Medical Center
8.21,2.20,38.55020,-90.02146,IL,18000,3000,66,81,21,Memorial Hospital
7.21,2.46,41.60726,-87.66060,IL,15000,4000,50,65,76,Ingalls Memorial Hospital
7.90,2.25,41.86362,-87.93567,IL,17000,4000,50,76,92,Elmhurst Memorial Hospital
8.74,2.39,42.27447,-87.95764,IL,19000,4000,50,70,79,Advocate Condell Medical Center
7.67,3.15,41.90078,-87.69925,IL,16000,6000,50,86,69,Norwegian-American Hospital
8.38,2.80,41.72031,-87.73249,IL,18000,5000,50,57,74,Advocate Christ Hospital & Medical Center
7.60,2.52,40.70065,-89.59505,IL,16000,4000,50,78,48,Methodist Medical Center Of Illinois
10.42,2.26,41.88566,-88.34311,IL,23000,4000,50,81,4,Delnor Community Hospital
6.28,2.35,41.54446,-87.98379,IL,13000,4000,50,68,88,Silver Cross Hospital  And Medical Centers
6.90,2.88,42.03837,-87.84820,IL,15000,5000,83,77,69,Advocate Lutheran General Hospital
8.34,2.97,41.93418,-87.63579,IL,18000,5000,50,61,29,Saint Joseph Hospital
7.35,2.45,42.26584,-89.07428,IL,16000,4000,50,65,76,Swedish American Hospital
9.21,2.25,41.76076,-88.15016,IL,20000,4000,50,68,29,Edward Hospital
6.68,2.50,42.29844,-89.09897,IL,14000,4000,50,87,56,Rockford Memorial Hospital
8.28,2.94,41.89166,-87.84838,IL,18000,5000,50,67,85,Westlake Community Hospital
10.58,2.25,41.87269,-88.15684,IL,23000,4000,66,62,88,Central Dupage Hospital
5.95,2.55,41.56720,-87.69566,IL,12000,4000,50,80,63,Advocate South Suburban Hospital
8.03,2.36,42.06732,-87.99368,IL,17000,4000,66,67,57,Northwest Community Hospital
9.13,2.28,42.00413,-88.01745,IL,20000,4000,66,78,88,Alexian Brothers Medical Center
4.08,2.20,41.48200,-90.57158,IL,8000,3000,50,58,63,Trinity Rock Island
8.08,2.95,41.89477,-87.62131,IL,17000,5000,50,61,94,Northwestern Memorial Hospital
6.67,2.29,41.96185,-88.72130,IL,14000,4000,50,81,3,Kishwaukee Community Hospital
8.15,2.38,41.81791,-88.00907,IL,17000,4000,50,86,95,Advocate Good Samaritan Hospital
10.49,2.34,42.05260,-88.14173,IL,23000,4000,50,80,57,St Alexius Medical Center
5.92,2.37,42.19586,-88.17286,IL,12000,4000,50,80,95,Advocate Good Shepherd Hospital
4.77,2.59,41.59920,-87.35764,IN,9000,4000,50,65,94,Methodist Hospitals Inc
6.30,2.53,41.61514,-87.52413,IN,13000,4000,50,81,74,Franciscan St Margaret Health - Hammond
5.23,2.54,41.63466,-87.44901,IN,11000,4000,50,78,88,St Catherine Hospital Inc
5.56,2.27,38.28244,-85.74923,IN,11000,4000,50,83,48,Clark Memorial Hospital
7.01,2.28,41.03874,-85.24876,IN,15000,4000,66,63,32,Lutheran Hospital Of Indiana
5.50,2.32,41.70568,-85.93404,IN,11000,4000,66,53,69,Elkhart General Hospital
6.50,2.31,41.04659,-85.10906,IN,14000,4000,83,60,44,Parkview Regional Medical Center
5.77,2.33,39.48518,-87.40893,IN,12000,4000,50,62,33,Union Hospital Inc
4.05,3.17,39.78091,-86.17629,IN,8000,6000,33,70,27,William N Wishard Memorial Hospital
7.07,2.30,39.72432,-86.10055,IN,15000,4000,0,0,0,Franciscan St Francis Health - Beech Grove
4.89,2.33,41.51266,-87.26125,IN,10000,4000,50,78,85,St Mary Medical Center Inc
5.89,2.17,38.30195,-85.83409,IN,12000,3000,66,85,85,Floyd Memorial Hospital And Health Services
3.78,2.46,39.86405,-84.88413,IN,7000,4000,100,63,27,Reid Hospital & Health Care Services
8.23,3.05,39.79009,-86.16260,IN,18000,5000,50,51,79,Indiana University Health
6.20,2.44,41.68479,-86.25217,IN,13000,4000,66,60,8,Memorial Hospital Of South Bend
7.36,2.67,39.78704,-86.07673,IN,16000,5000,50,82,82,Community Hospital East
7.47,2.16,37.98293,-87.57072,IN,16000,3000,83,66,13,Deaconess Hospital Inc
7.98,2.82,39.91001,-86.19660,IN,17000,5000,66,47,88,St Vincent Hospital & Health Services
7.37,2.53,40.19679,-85.41573,IN,16000,4000,66,62,85,Indiana University Health Ball Memorial Hospital
6.10,2.19,37.96320,-87.50292,IN,13000,3000,66,67,32,St Mary'S Medical Center Of Evansville Inc
5.12,2.47,41.15823,-85.46490,IN,10000,4000,0,0,0,Parkview Whitley Hospital
4.59,2.27,40.12998,-85.69436,IN,9000,4000,50,86,37,Community Hospital Of Anderson And Madison County
8.04,2.47,41.55065,-87.50619,IN,17000,4000,50,75,85,Community Hospital
7.09,2.59,39.78047,-86.34084,IN,15000,4000,0,0,0,Iu Health West Hospital
7.04,2.35,39.64935,-86.07960,IN,15000,4000,66,80,90,Franciscan St Francis Health - Indianapolis
6.44,2.28,39.90060,-86.04218,IN,13000,4000,50,77,76,Community Hospital North
8.76,3.26,40.40296,-86.80885,IN,19000,6000,50,83,97,Indiana University Health Arnett Hospital
4.80,2.27,42.49388,-94.18926,IA,10000,4000,0,0,0,Trinity Regional Medical Center
5.67,2.20,42.03321,-93.61164,IA,12000,3000,0,0,0,Mary Greeley Medical Center
5.18,2.22,41.54190,-90.55691,IA,10000,3000,66,58,97,Genesis Medical Center-Davenport
7.73,3.09,41.66092,-91.54800,IA,16000,6000,16,38,63,University Of Iowa Hospital & Clinics
5.80,2.33,43.15063,-93.21718,IA,12000,4000,50,82,63,Mercy Medical Center-North Iowa
5.80,2.42,41.86141,-90.18921,IA,12000,4000,0,0,0,Mercy Medical Center-Clinton
6.75,2.41,41.58955,-93.63248,IA,14000,4000,66,37,82,Iowa Methodist Medical Center
9.04,2.40,41.59886,-93.62344,IA,20000,4000,83,75,29,Mercy Medical Center-Des Moines
4.66,2.24,42.52665,-92.33957,IA,9000,4000,50,81,6,Allen Memorial Hospital
9.85,2.64,39.05583,-94.60912,KS,21000,4000,66,53,63,University Of Kansas Hospital
9.75,2.31,39.05128,-95.69572,KS,21000,4000,66,71,10,Stormont-Vail Healthcare
7.98,2.16,38.99549,-94.69061,KS,17000,3000,66,46,21,Shawnee Mission Medical Center
8.23,2.42,37.70405,-97.31386,KS,18000,4000,66,68,21,Via Christi Hospitals Wichita Inc
11.80,2.45,37.69556,-97.29785,KS,26000,4000,66,52,5,Wesley Medical Center
5.29,2.16,37.11520,-82.81022,KY,11000,3000,0,0,0,Whitesburg Arh Hospital
5.33,2.33,38.47021,-82.63498,KY,11000,4000,66,60,54,King'S Daughters' Medical Center
5.46,2.15,38.03140,-84.52194,KY,11000,3000,83,67,79,Saint Joseph Hospital
6.93,2.38,37.11784,-84.10910,KY,15000,4000,50,75,63,Saint Joseph Hospital London
4.67,2.17,37.71183,-85.87623,KY,9000,3000,83,78,39,Hardin Memorial Hospital
6.27,2.37,36.99641,-86.43006,KY,13000,4000,66,52,33,The Medical Center At Bowling Green
2.67,2.24,36.76316,-83.70793,KY,5000,4000,0,0,0,Pineville Community Hospital
5.68,2.15,36.60798,-88.30957,KY,12000,3000,0,0,0,Murray-Calloway County Hospital
4.66,2.40,37.27729,-83.22802,KY,9000,4000,50,87,57,Hazard Arh Regional Medical Center
5.86,2.34,39.06704,-84.49946,KY,12000,4000,33,58,79,St Elizabeth Medical Center North
4.25,2.31,38.50697,-82.69222,KY,8000,4000,50,80,90,Our Lady Of Bellefonte Hospital
3.92,2.59,37.76518,-87.10197,KY,7000,4000,50,66,29,Owensboro Medical Health System
6.56,2.51,38.24927,-85.75081,KY,14000,4000,66,51,8,Jewish Hospital & St Mary'S Healthcare
9.10,2.56,37.16218,-83.76137,KY,20000,4000,0,0,0,Memorial Hospital
10.02,2.64,37.47264,-82.52605,KY,22000,4000,75,86,9,Pikeville Medical Center
3.86,2.34,36.80963,-83.31313,KY,7000,4000,0,0,0,Harlan Appalachian Regional Healthcare Hospital
8.62,2.67,37.85504,-87.58345,KY,19000,5000,50,100,29,Methodist Hospital
8.80,3.12,38.03282,-84.50674,KY,19000,6000,33,62,33,University Of Kentucky Hospital
5.66,2.37,36.92128,-84.11838,KY,12000,4000,25,78,82,Baptist Regional Medical Center
8.09,2.50,38.24806,-85.75125,KY,17000,4000,50,35,39,Norton Hospitals Inc
4.97,2.43,38.00003,-84.19667,KY,10000,4000,0,0,0,Clark Regional Medical Center
5.81,2.09,37.06431,-88.67523,KY,12000,3000,50,42,20,Lourdes Hospital
5.59,2.32,38.01849,-84.51236,KY,11000,4000,50,71,57,Central Baptist Hospital
5.05,2.14,37.07404,-88.62685,KY,10000,3000,50,80,39,Western Baptist Hospital
3.27,2.45,36.69659,-85.13726,KY,6000,4000,0,0,0,Clinton County Hospital Inc
6.71,2.30,36.51878,-88.89564,KY,14000,4000,0,0,0,Parkway Regional Hospital
8.84,2.27,36.96603,-86.43639,KY,19000,4000,50,85,94,Greenview Regional Hospital
8.11,2.18,38.11425,-82.60321,KY,17000,3000,0,0,0,Three Rivers Medical Center
5.43,2.09,38.23898,-85.63941,KY,11000,3000,66,57,74,Baptist Hospital East
6.91,2.39,37.08724,-84.61828,KY,15000,4000,66,60,17,Lake Cumberland Regional Hospital
7.38,2.15,37.56166,-83.37202,KY,16000,3000,0,0,0,Kentucky River Medical Center
11.53,3.03,38.24802,-85.74464,KY,25000,5000,25,81,8,University Of Louisville Hospital
5.12,2.29,30.20227,-92.01906,LA,10000,4000,50,73,29,Lafayette General Medical Center
6.76,2.12,30.22981,-93.36867,LA,14000,3000,50,83,81,West Calcasieu Cameron Hospital
10.28,2.37,31.31451,-92.44997,LA,22000,4000,66,40,39,Rapides Regional Medical Center
5.89,2.59,30.01875,-90.19452,LA,12000,4000,66,61,62,Ochsner Foundation Hospital
9.82,2.24,30.28456,-89.77038,LA,21000,4000,50,82,37,Slidell Memorial Hospital And Medical Center
8.33,4.20,32.49443,-93.75011,LA,18000,8000,50,68,13,Christus Schumpert Health System
9.27,2.27,30.46834,-90.11383,LA,20000,4000,50,70,8,St Tammany Parish Hospital
9.53,2.53,29.92596,-90.09191,LA,21000,4000,66,67,63,Touro Infirmary
4.57,2.45,30.40118,-91.11160,LA,9000,4000,83,51,33,Our Lady Of The Lake Regional Medical Center
4.11,2.49,30.45015,-91.15273,LA,8000,4000,33,76,37,Baton Rouge General Medical Center
2.28,2.34,32.86785,-91.38322,LA,4000,4000,0,0,0,West Carroll Memorial Hospital
7.04,2.44,32.51544,-92.63343,LA,15000,4000,50,63,21,Northern Louisiana Medical Center
5.55,3.00,32.48177,-93.76264,LA,11000,5000,100,80,0,Lsu Health Sciences Center - Shreveport
4.40,2.20,30.15052,-92.03698,LA,9000,3000,50,71,57,Our Lady Of Lourdes Regional Medical Center Inc
7.04,2.36,32.48393,-93.77884,LA,15000,4000,50,63,62,Willis Knighton Medical Center
6.81,2.31,32.49997,-92.11359,LA,14000,4000,66,62,98,St Francis Medical Center
3.45,2.46,32.15824,-91.70520,LA,6000,4000,0,0,0,Franklin Medical Center
7.70,2.25,32.51315,-92.15713,LA,16000,4000,0,0,0,Glenwood Regional Medical Center
7.30,2.17,31.13861,-93.26892,LA,15000,3000,0,0,0,Byrd Regional Hospital
4.25,2.39,30.68494,-92.26601,LA,8000,4000,0,0,0,Mercy Regional Medical Center
9.20,2.95,29.95570,-90.07587,LA,20000,5000,33,41,0,Tulane Medical Center
7.31,2.40,30.19775,-92.07724,LA,15000,4000,50,88,74,The Regional Medical Center Of Acadiana
5.40,2.47,44.80988,-68.74929,ME,11000,4000,50,58,37,Eastern Maine Medical Center
3.20,3.05,39.62183,-77.68219,MD,6000,5000,0,0,0,Meritus Medical Center
4.07,3.87,39.28817,-76.62438,MD,8000,7000,0,0,0,University Of Maryland Medical Center
3.13,3.02,38.93090,-76.92161,MD,6000,5000,0,0,0,Prince Georges Hospital Center
3.43,3.28,39.01578,-77.03591,MD,6000,6000,0,0,0,Holy Cross Hospital
2.87,2.75,39.42366,-77.41386,MD,5000,5000,0,0,0,Frederick Memorial Hospital
3.07,2.93,39.54345,-76.09153,MD,5000,5000,0,0,0,Harford Memorial Hospital
3.09,2.96,39.38813,-76.61068,MD,6000,5000,0,0,0,Saint Joseph Medical Center
4.10,3.89,39.29297,-76.61314,MD,8000,7000,0,0,0,Mercy Medical Center Inc
4.17,4.00,39.29688,-76.59242,MD,8000,8000,0,0,0,Johns Hopkins Hospital The
3.25,3.11,39.27352,-76.67219,MD,6000,6000,0,0,0,Saint Agnes Hospital
3.68,3.50,39.35262,-76.66196,MD,7000,6000,0,0,0,Sinai Hospital Of Baltimore
3.01,2.90,39.35169,-76.47919,MD,5000,5000,0,0,0,Franklin Square Hospital Center
3.57,3.42,38.98482,-77.00139,MD,7000,6000,0,0,0,Washington Adventist Hospital
3.39,3.23,39.15402,-77.05431,MD,6000,6000,0,0,0,Montgomery General Hospital Inc
3.28,3.13,38.36248,-75.59799,MD,6000,6000,0,0,0,Peninsula Regional Medical Center
2.85,2.72,38.99743,-77.11048,MD,5000,5000,0,0,0,Suburban Hospital
2.79,2.68,38.99014,-76.53398,MD,5000,5000,0,0,0,Anne Arundel Medical Center
3.26,3.11,39.32930,-76.61432,MD,6000,6000,0,0,0,Union Memorial Hospital
3.03,2.89,39.64928,-78.73206,MD,5000,5000,0,0,0,Western Maryland Regional Medical Center
3.04,2.91,38.29124,-76.63579,MD,5000,5000,0,0,0,Saint Mary'S Hospital
4.32,4.11,39.29100,-76.54623,MD,8000,8000,0,0,0,Johns Hopkins Bayview Medical Center
2.54,2.43,39.60859,-75.83201,MD,4000,4000,0,0,0,Union Hospital Of Cecil County
3.40,3.24,39.55808,-76.99107,MD,6000,6000,0,0,0,Carroll Hospital Center
2.96,2.83,39.25189,-76.61399,MD,5000,5000,0,0,0,Harbor Hospital
2.82,2.70,38.52905,-76.97068,MD,5000,5000,0,0,0,Civista Medical Center
2.70,2.58,38.76970,-76.07697,MD,5000,4000,0,0,0,Memorial Hospital At Easton
3.64,3.47,39.29994,-76.62138,MD,7000,6000,0,0,0,Maryland General  Hospital
2.60,2.49,38.55963,-76.59455,MD,4000,4000,0,0,0,Calvert Memorial Hospital
3.50,3.34,39.35852,-76.78208,MD,6000,6000,0,0,0,Northwest Hospital Center
3.00,2.90,39.13732,-76.62228,MD,5000,5000,0,0,0,Baltimore Washington  Medical Center
3.84,3.66,39.39017,-76.62216,MD,7000,7000,0,0,0,Greater Baltimore Medical Center
2.98,2.89,39.21273,-76.88526,MD,5000,5000,0,0,0,Howard County General Hospital
2.97,2.85,38.96851,-76.86203,MD,5000,5000,0,0,0,Doctors'  Community Hospital
3.12,3.00,38.74827,-76.87590,MD,6000,5000,0,0,0,Southern Maryland Hospital Center
3.48,3.35,39.35962,-76.58851,MD,6000,6000,0,0,0,Good Samaritan Hospital
3.24,3.12,39.09796,-77.19799,MD,6000,6000,0,0,0,Shady Grove Adventist Hospital
4.57,2.82,42.70912,-71.14877,MA,9000,5000,50,71,79,Lawrence General Hospital
4.83,3.01,41.65298,-70.27484,MA,10000,5000,50,56,95,Cape Cod Hospital
4.24,2.75,41.69217,-71.16474,MA,8000,5000,50,100,85,Saint Anne'S Hospital
3.90,2.50,42.81476,-70.89068,MA,7000,4000,0,0,0,Anna Jaques Hospital
4.37,3.75,42.35843,-71.05977,MA,9000,7000,66,51,0,Boston Medical Center Corporation
4.03,2.57,42.56407,-70.87543,MA,8000,4000,50,62,63,Beverly Hospital Corporation
9.04,2.65,42.51078,-70.90712,MA,20000,4000,33,47,69,North Shore Medical Center
3.01,3.41,42.34896,-71.14768,MA,5000,6000,50,68,57,St Elizabeth'S Medical Center
4.45,2.84,42.03597,-71.09792,MA,9000,5000,50,61,57,Signature Healthcare Brockton Hospital
3.94,2.49,41.94445,-70.64511,MA,8000,4000,50,82,24,Jordan Hospital Inc
5.22,3.01,42.64636,-71.34118,MA,11000,5000,50,87,95,Lowell General Hospital
3.75,2.58,42.46049,-71.06203,MA,7000,4000,50,52,76,Hallmark Health System
11.38,3.54,42.36227,-71.06941,MA,25000,7000,50,43,16,Massachusetts General Hospital
3.81,2.52,41.90456,-71.09562,MA,7000,4000,50,85,24,Morton Hospital
4.75,2.63,41.70928,-71.14519,MA,9000,4000,25,51,88,Southcoast Hospital Group Inc
5.97,2.96,42.12077,-72.60525,MA,12000,5000,33,61,82,Baystate Medical Center
5.24,3.47,42.33719,-71.10939,MA,11000,6000,33,71,33,Beth Israel Deaconess Medical Center
4.79,2.43,42.17644,-70.95398,MA,10000,4000,66,70,48,South Shore Hospital
5.84,2.53,42.33149,-71.24568,MA,12000,4000,66,70,99,Newton-Wellesley Hospital
3.03,2.38,42.46581,-71.12210,MA,5000,4000,50,58,24,Winchester Hospital
8.55,3.21,42.33600,-71.10704,MA,18000,6000,66,40,20,Brigham And Women'S Hospital
3.32,2.72,42.09864,-71.06607,MA,6000,5000,50,58,92,Good Samaritan Medical Center
5.01,3.66,42.34951,-71.06331,MA,10000,7000,50,63,85,Tufts Medical Center
9.55,3.26,42.30049,-71.12771,MA,21000,6000,50,96,3,Faulkner Hospital
3.71,2.43,42.18869,-71.20197,MA,7000,4000,50,77,81,Norwood Hospital
7.75,3.36,42.27720,-71.75922,MA,17000,6000,50,36,29,Umass Memorial Medical Center Inc
3.63,2.74,42.48585,-71.20686,MA,7000,5000,66,76,16,Lahey Clinic Hospital
4.33,2.66,42.28385,-71.41896,MA,8000,5000,50,76,85,Metrowest Medical Center
4.70,2.31,42.39466,-83.40537,MI,9000,4000,50,60,63,St Mary Mercy Hospital
5.49,2.72,42.28551,-85.58042,MI,11000,5000,66,82,13,Bronson Methodist Hospital
5.70,2.69,42.45741,-83.20513,MI,12000,5000,83,57,48,Providence Hospital And Medical Centers
6.09,2.72,42.29077,-83.21504,MI,13000,5000,33,48,69,Oakwood Hospital And Medical Center
4.27,2.39,42.08955,-86.47781,MI,8000,4000,33,68,88,Lakeland Hospital St Joseph
5.24,3.10,42.41911,-83.18228,MI,11000,6000,83,46,21,Sinai-Grace Hospital
5.55,2.90,42.61425,-83.27602,MI,11000,5000,66,52,79,St Joseph Mercy Oakland
5.18,2.73,42.96881,-85.66649,MI,10000,5000,33,66,82,Spectrum Health - Butterworth Campus
5.32,2.28,43.58941,-83.86908,MI,11000,4000,33,55,98,Mclaren Bay Region
7.20,3.27,42.28388,-83.72960,MI,15000,6000,50,61,43,University Of Michigan Health System
4.63,2.37,42.61490,-82.96060,MI,9000,4000,50,66,54,Henry Ford Macomb Hospital
6.57,3.23,42.36762,-83.08461,MI,14000,6000,66,47,8,Henry Ford Hospital
5.14,2.42,43.42857,-83.95556,MI,10000,4000,83,61,63,Covenant Medical Center Inc
3.81,2.35,42.33111,-85.17817,MI,7000,4000,50,83,63,Bronson Battle Creek Hospital
8.23,2.41,43.42612,-83.94185,MI,18000,4000,66,63,57,St Mary'S Of Michigan Medical Center
4.89,2.55,42.38392,-82.91480,MI,10000,4000,50,62,51,Beaumont Hospital Grosse Pointe
6.47,2.37,42.25117,-84.39240,MI,13000,4000,50,85,98,Allegiance Health
7.15,2.55,44.76156,-85.64143,MI,15000,4000,50,41,57,Munson Medical Center
6.32,2.28,41.91643,-83.39771,MI,13000,4000,50,68,37,Mercy Memorial Hospital System
4.48,3.54,42.35230,-83.05676,MI,9000,7000,66,62,63,Harper University Hospital
4.93,2.57,42.30489,-85.56152,MI,10000,4000,66,47,76,Borgess Medical Center
7.20,2.68,42.51418,-83.19259,MI,15000,5000,66,60,16,William Beaumont Hospital
5.26,2.65,43.01399,-83.73250,MI,11000,4000,50,60,33,Mclaren Flint
5.98,2.42,42.27424,-83.36580,MI,12000,4000,50,70,48,Oakwood Annapolis Hospital
4.89,2.42,42.21065,-83.14861,MI,10000,4000,50,70,95,Henry Ford Wyandotte Hospital
4.97,2.97,42.46176,-83.37629,MI,10000,5000,50,78,24,Botsford Hospital
5.91,2.44,42.26181,-83.66003,MI,12000,4000,66,62,33,St Joseph Mercy Hospital
5.88,2.86,42.41975,-82.91442,MI,12000,5000,66,72,9,St John Hospital And Medical Center
6.63,2.58,42.70417,-84.55488,MI,14000,4000,33,76,21,Mclaren - Greater Lansing
5.46,2.44,42.11695,-83.21365,MI,11000,4000,33,70,79,Oakwood Southshore Medical Center
6.09,2.26,43.06290,-83.32082,MI,13000,4000,50,63,90,Lapeer Regional Medical Center
5.74,2.49,42.50514,-83.00422,MI,12000,4000,66,56,85,St John Macomb-Oakland Hospital-Macomb Center
6.34,2.75,42.89254,-83.63621,MI,13000,5000,66,70,13,Genesys Regional Medical Center - Health Park
6.53,2.27,42.98625,-82.42802,MI,14000,4000,50,62,29,Port Huron Hospital
4.55,2.49,42.58900,-82.89799,MI,9000,4000,66,61,63,Mount Clemens Regional Medical Center
9.20,2.73,42.73767,-84.51698,MI,20000,5000,83,68,1,Edward W Sparrow Hospital
3.82,2.63,42.33215,-83.31195,MI,7000,4000,50,82,37,Garden City Hospital
7.04,2.33,42.67850,-83.14771,MI,15000,4000,50,65,79,Crittenton Hospital Medical Center
7.95,2.40,42.61826,-83.09239,MI,17000,4000,83,60,62,William Beaumont Hospital-Troy
7.18,3.60,42.35295,-83.05447,MI,15000,7000,66,65,5,Detroit Receiving Hospital & Univ Health Center
7.35,2.16,42.53914,-83.40777,MI,16000,3000,50,53,39,Henry Ford West Bloomfield Hospital
6.92,2.50,45.01403,-93.32177,MN,15000,4000,66,68,82,North Memorial Medical Center
4.72,2.48,46.79380,-92.09573,MN,9000,4000,83,75,79,Essentia Health St Mary'S Medical Center
13.28,7.14,44.97210,-93.26240,MN,30000,15000,33,37,29,Hennepin County Medical Center
5.69,2.79,44.02052,-92.48292,MN,12000,5000,83,42,32,Mayo Clinic - Saint Marys Hospital
6.60,2.74,45.57390,-94.16942,MN,14000,5000,50,61,37,St Cloud Hospital
8.61,2.46,44.94214,-93.10858,MN,19000,4000,50,86,33,United Hospital
6.65,2.94,44.95570,-93.09429,MN,14000,5000,50,78,17,Regions Hospital
8.14,3.23,45.18355,-93.36789,MN,17000,6000,50,73,95,Mercy Hospital
9.13,2.34,45.10789,-93.25685,MN,20000,4000,33,85,85,Unity Hospital
4.83,2.32,34.24336,-88.71753,MS,10000,4000,66,61,48,North Mississippi Medical Center
12.94,2.35,30.39599,-88.89061,MS,29000,4000,50,80,48,Biloxi Regional Medical Center
9.88,2.24,34.93596,-88.55955,MS,22000,4000,50,72,79,Magnolia Regional Health Center
10.30,2.35,30.36674,-89.11535,MS,23000,4000,50,66,69,Memorial Hospital At Gulfport
9.17,2.41,32.35265,-90.87788,MS,20000,4000,50,80,37,River Region Health System
10.63,2.27,30.37516,-88.53226,MS,23000,4000,50,70,3,Singing River Hospital
5.11,2.20,32.33616,-90.15652,MS,10000,3000,50,60,44,St Dominic-Jackson Memorial Hospital
5.85,2.22,31.69405,-89.13061,MS,12000,3000,50,72,16,South Central Reg Med Ctr
7.97,2.35,31.31872,-89.32955,MS,17000,4000,50,57,54,Forrest General Hospital
10.51,2.31,31.32573,-89.36670,MS,23000,4000,50,56,20,Wesley Medical Center
8.74,2.15,32.28618,-90.03434,MS,19000,3000,50,68,6,Crossgates River Oaks Hospital
4.63,2.37,31.24000,-90.45000,MS,9000,4000,50,83,81,Southwest Ms Regional Medical Center
5.88,2.21,32.37280,-88.69954,MS,12000,3000,50,77,39,Anderson Regional Medical Center
6.07,2.53,34.62445,-89.95655,MS,13000,4000,0,0,0,North Oak Regional Medical Center
5.89,2.36,34.96927,-89.99709,MS,12000,4000,50,68,11,Baptist Memorial Hospital Desoto
9.88,2.23,37.06032,-94.52747,MO,22000,3000,0,0,0,St John'S Regional Medical Center
7.67,2.29,38.78060,-90.48379,MO,16000,4000,50,76,37,Ssm St Joseph Health Center
6.03,2.77,39.77393,-94.77089,MO,12000,5000,50,58,51,Heartland Regional Medical Center
5.41,2.07,38.57670,-92.17352,MO,11000,3000,50,86,0,St Marys Health Center
5.78,2.28,38.64281,-90.44448,MO,12000,4000,83,57,74,Mercy Hospital St Louis
9.79,2.75,40.19296,-92.59085,MO,21000,5000,0,0,0,Northeast Regional Medical Center
4.03,2.18,38.16498,-90.38082,MO,8000,3000,50,83,82,Jefferson Regional Medical Center
5.91,2.68,38.63524,-90.26508,MO,12000,5000,50,56,12,Barnes Jewish Hospital
6.80,2.30,37.14560,-93.28037,MO,14000,4000,50,61,85,Cox Medical Center
6.16,2.42,38.56571,-92.18204,MO,13000,4000,50,83,57,Capital Region Medical Center
4.50,3.37,39.08401,-94.57591,MO,9000,6000,33,58,2,Truman Medical Center Hospital Hill
10.05,2.88,37.17999,-93.27409,MO,22000,5000,66,61,24,St John'S Regional Health Center
5.08,2.04,38.94903,-92.31563,MO,10000,3000,66,73,43,Boone Hospital Center
8.81,2.16,38.93592,-94.60376,MO,19000,3000,50,75,88,St Joseph Medical Center
6.56,2.76,38.63268,-90.31089,MO,14000,5000,83,77,57,Ssm St Marys Health Center
6.52,2.18,36.64970,-93.22138,MO,14000,3000,50,71,79,Skaggs Regional Medical Center
14.40,2.22,39.04749,-94.34105,MO,32000,3000,50,72,39,Centerpoint Medical Center Of Independence Llc
7.46,2.22,39.14957,-94.55148,MO,16000,3000,50,58,63,North Kansas City Hospital
8.57,2.33,38.75097,-90.43255,MO,18000,4000,66,68,43,Ssm Depaul Health Center
7.05,3.39,38.62280,-90.24049,MO,15000,6000,50,46,5,St Louis University Hospital
4.92,2.12,38.63702,-90.44699,MO,10000,3000,66,68,48,Missouri Baptist Medical Center
10.18,2.53,36.78510,-90.42779,MO,22000,4000,50,60,39,Poplar Bluff Regional Medical Center
8.95,2.33,37.05238,-94.52777,MO,19000,4000,83,67,85,Freeman Health System - Freeman West
8.67,2.53,39.04761,-94.59037,MO,19000,4000,66,50,17,St Lukes Hospital Of Kansas City
5.20,2.18,39.27591,-94.42572,MO,11000,3000,33,60,33,Liberty Hospital
6.05,2.18,38.65123,-90.50301,MO,13000,3000,66,67,12,St Lukes Hospital
6.70,2.25,38.77576,-90.23906,MO,14000,4000,66,75,4,Christian Hospital Northeast
9.57,2.27,37.30401,-89.57190,MO,21000,4000,50,65,11,St Francis Medical Center
8.61,2.16,38.94062,-94.37842,MO,19000,3000,0,0,0,Saint Luke'S East Lee'S Summit Hospital
7.45,2.30,40.78318,-96.63709,NE,16000,4000,66,70,63,Bryanlgh Medical Center
4.54,2.76,40.70646,-99.08136,NE,9000,5000,50,68,51,Good Samaritan Hospital
6.53,2.86,41.25522,-95.97892,NE,14000,5000,50,52,51,The Nebraska Medical Center
11.47,2.46,39.52637,-119.79456,NV,25000,4000,50,66,17,Renown Regional Medical Center
15.59,2.75,36.13459,-115.13576,NV,35000,5000,66,68,9,Sunrise Hospital And Medical Center
17.48,2.73,36.19568,-115.12284,NV,39000,5000,50,62,8,North Vista Hospital
11.45,3.12,36.15896,-115.16558,NV,25000,6000,33,60,0,Umc Of Southern Nevada
14.08,2.52,36.03931,-114.98259,NV,31000,4000,75,76,54,Saint Rose Dominican Hospital - De Lima
15.08,2.76,36.16380,-115.16574,NV,34000,5000,66,70,54,Valley Hospital Medical Center
13.58,2.56,36.11363,-115.12573,NV,30000,4000,83,70,63,Desert Springs Hospital
15.28,2.51,36.21599,-115.25095,NV,34000,4000,66,57,13,Mountainview Hospital
16.27,2.54,36.16586,-115.32436,NV,37000,4000,83,72,27,Summerlin Hospital Medical Center
17.97,2.79,36.00527,-115.11618,NV,41000,5000,50,50,33,Saint Rose Dominican Hospital - Siena Campus
15.60,2.52,36.09056,-115.24058,NV,35000,4000,66,78,12,Spring Valley Hospital Medical Center
13.92,2.54,36.05712,-115.27116,NV,31000,4000,50,78,18,Saint Rose Dominican Hospital - San Martin Campus
15.94,2.40,36.28588,-115.28772,NV,36000,4000,75,66,39,Centennial Hills Hospital Medical Center
5.85,2.47,43.19846,-71.56230,NH,12000,4000,33,63,94,Concord Hospital
6.13,3.19,43.67286,-72.27232,NH,13000,6000,50,38,0,Mary Hitchcock Memorial Hospital
6.30,2.41,43.00792,-71.46807,NH,13000,4000,50,57,21,Elliot Hospital
9.17,2.30,42.87652,-71.31722,NH,20000,4000,0,0,0,Parkland Medical Center
8.12,2.35,43.21231,-70.87499,NH,17000,4000,50,73,3,Wentworth-Douglass Hospital
14.67,2.83,40.88346,-74.05564,NJ,33000,5000,50,58,85,Hackensack University Medical Center
19.25,4.07,40.71011,-74.21368,NJ,44000,8000,66,56,11,Newark Beth Israel Medical Center
10.11,2.98,40.79576,-73.99575,NJ,22000,5000,25,62,32,Palisades Medical Ctr-Ny Presbyterian Healthcare S
9.97,2.81,40.84945,-74.13768,NJ,22000,5000,50,56,85,St Mary'S Hospital Passaic
9.20,2.62,40.88275,-74.01021,NJ,20000,4000,66,67,57,Holy Name Medical Center
16.76,2.69,40.78556,-74.17598,NJ,38000,5000,66,83,95,Clara Maass Medical Center
12.03,2.54,40.35684,-74.66166,NJ,27000,4000,50,56,21,University Medical Center At Princeton
6.81,2.38,39.08752,-74.81657,NJ,14000,4000,50,73,48,Cape Regional Medical Center Inc
9.70,2.52,40.98359,-74.10047,NJ,21000,4000,50,78,21,Valley Hospital
16.51,3.36,39.94152,-75.11680,NJ,37000,6000,66,42,2,Cooper University Hospital
11.68,2.83,40.78883,-74.46620,NJ,26000,5000,66,43,39,Morristown Memorial Hospital
15.09,3.17,40.90215,-74.16634,NJ,34000,6000,16,53,94,St Joseph'S Regional Medical Center
15.30,2.70,39.78261,-74.91670,NJ,34000,5000,50,52,74,Virtua West Jersey Hospitals Berlin
13.35,2.92,40.66005,-74.21417,NJ,30000,5000,50,75,39,Trinitas Regional Medical Center
19.80,2.49,41.05754,-74.76857,NJ,45000,4000,50,77,79,Newton Memorial Hospital
15.00,2.76,39.92695,-75.09537,NJ,34000,5000,50,70,10,Our Lady Of Lourdes Medical Center
17.17,2.56,39.44743,-75.05838,NJ,39000,4000,50,62,1,South Jersey Healthcare Regional Medical Center
14.38,2.33,40.35309,-74.06484,NJ,32000,4000,33,61,69,Riverview Medical Center
13.31,2.98,40.49581,-74.44980,NJ,30000,5000,66,51,1,Robert Wood Johnson University Hospital
19.64,2.87,40.51891,-74.28183,NJ,45000,5000,75,68,69,Raritan Bay Medical Center
12.40,3.18,40.74132,-74.03369,NJ,27000,6000,0,0,0,Hoboken University Medical Center
13.20,2.32,39.96484,-74.21708,NJ,29000,4000,50,47,88,Community Medical Center
13.08,2.81,40.90400,-73.96847,NJ,29000,5000,66,81,54,Englewood Hospital And Medical Center
15.17,2.33,39.31464,-74.59391,NJ,34000,4000,16,72,82,Shore Medical Center
23.51,2.42,40.56804,-74.59579,NJ,54000,4000,50,67,29,Somerset Medical Center
12.81,2.71,40.89538,-74.46479,NJ,28000,5000,50,63,69,Saint Clare'S Hospital
9.04,2.73,40.71264,-74.35460,NJ,20000,5000,50,52,57,Overlook Hospital
15.37,2.38,40.07832,-74.13009,NJ,34000,4000,50,57,48,Ocean Medical Center
13.29,3.04,40.81058,-74.20459,NJ,30000,5000,50,68,43,Mountainside Hospital
15.71,2.63,39.98588,-74.79393,NJ,35000,4000,66,55,54,Virtua Memorial Hospital Of Burlington County
16.60,2.74,40.70180,-75.17825,NJ,37000,5000,0,0,0,St Luke'S Warren Hospital
18.37,2.43,40.04632,-74.88059,NJ,42000,4000,50,48,6,Lourdes Medical Center Of Burlington County
19.36,2.55,39.35775,-74.43449,NJ,44000,4000,66,65,88,Atlanticare Regional Medical Center - City Div
17.39,2.96,40.50214,-74.46015,NJ,39000,5000,50,53,29,Saint Peter'S University Hospital
18.87,2.65,40.21065,-74.03566,NJ,43000,4000,50,58,6,Jersey Shore University Medical Center
15.50,3.38,40.71663,-74.05013,NJ,35000,6000,83,73,82,Libertyhealth-Jersey City Medical Center Campus
17.66,2.94,40.29563,-73.98518,NJ,40000,5000,50,50,85,Monmouth Medical Center
16.05,3.14,40.76190,-74.30335,NJ,36000,6000,83,53,2,Saint Barnabas Medical Center
17.76,2.44,39.84392,-75.14985,NJ,40000,4000,50,70,33,Underwood - Memorial Hospital
12.60,2.74,40.75402,-74.21335,NJ,28000,5000,50,73,57,East Orange General Hospital
16.25,2.48,40.07503,-74.21832,NJ,37000,4000,50,71,76,Kimball Medical Center
15.10,2.89,39.82811,-75.00895,NJ,34000,5000,66,60,69,Kennedy University Hospital - Stratford Div
8.64,2.46,39.59285,-75.44416,NJ,19000,4000,0,0,0,Memorial Hospital Of Salem County
19.20,2.75,40.23629,-74.75256,NJ,44000,5000,50,77,57,Capital Health System-Fuld Campus
7.21,3.03,40.74323,-74.17431,NJ,15000,5000,50,68,51,Saint Michael'S Medical Center Inc
15.43,2.66,40.55784,-74.34970,NJ,35000,5000,50,71,57,Jfk Medical Ctr - Anthony M. Yelencsics Community
19.27,2.47,40.21575,-74.67273,NJ,44000,4000,50,67,79,Robert Wood Johnson University Hospital Hamilton
12.32,2.33,40.40516,-74.19203,NJ,27000,4000,50,81,98,Bayshore Community Hospital
21.51,2.49,40.85399,-74.82906,NJ,49000,4000,0,0,0,Hackettstown Regional Medical Center
14.73,2.70,40.78621,-74.07568,NJ,33000,5000,50,83,73,Meadowlands Hospital Medical Center
6.86,3.46,35.08838,-106.61590,NM,14000,6000,83,46,11,Unm Hospital
5.37,2.74,36.72387,-108.21749,NM,11000,5000,50,71,82,San Juan Regional Medical Center
7.66,2.46,32.29186,-106.73470,NM,16000,4000,50,63,3,Memorial Medical Center Inc
9.42,2.35,32.44263,-104.25776,NM,20000,4000,0,0,0,Carlsbad Medical Center
7.70,3.33,40.59458,-73.78144,NY,16000,6000,0,0,0,Peninsula Hospital Center
7.96,2.67,41.92720,-73.99535,NY,17000,5000,50,83,39,Kingston Hospital
4.56,2.74,42.87482,-78.84942,NY,9000,5000,33,45,8,Kaleida Health
3.72,4.47,40.83139,-73.90306,NY,7000,9000,50,60,54,Bronx-Lebanon Hospital Center
3.88,2.23,42.09299,-75.93704,NY,7000,3000,50,73,99,Our Lady Of Lourdes Memorial Hospital Inc
9.31,2.79,42.65345,-73.77543,NY,20000,5000,66,60,63,Albany Medical Center Hospital
3.83,3.82,40.70141,-73.81630,NY,7000,7000,0,78,39,Jamaica Hospital Medical Center
4.82,3.27,40.61384,-73.94851,NY,10000,6000,0,0,0,New York Community Hospital Of Brooklyn Inc.
9.66,2.57,41.69441,-73.93432,NY,21000,4000,83,82,54,Vassar Brothers Medical Center
7.37,3.91,40.79041,-73.95386,NY,16000,7000,83,38,5,Mount Sinai Hospital
5.68,3.93,40.72548,-73.55287,NY,12000,7000,50,88,4,Nassau University Medical Center
8.88,3.33,40.63588,-74.10556,NY,19000,6000,66,52,20,Richmond University Medical Center
8.39,2.83,40.72567,-73.24189,NY,18000,5000,50,58,37,Southside Hospital
10.51,2.89,40.87946,-73.41621,NY,23000,5000,50,66,39,Huntington Hospital
10.09,3.80,40.80556,-73.96131,NY,22000,7000,33,56,5,St Luke'S Roosevelt Hospital
8.03,3.35,40.74722,-73.82521,NY,17000,6000,66,63,79,New York Hospital Medical Center Of Queens
4.99,3.97,40.68983,-73.97794,NY,10000,8000,83,71,13,Brooklyn Hospital Center At Downtown Campus
6.91,2.17,42.65583,-73.80372,NY,15000,3000,33,47,54,St Peter'S Hospital
11.28,3.99,40.87987,-73.87996,NY,25000,8000,50,38,44,Montefiore Medical Center
6.42,2.62,40.94161,-73.83650,NY,13000,4000,33,63,12,Lawrence Hospital Center
3.55,4.54,40.81770,-73.92401,NY,7000,9000,75,83,39,Lincoln Medical & Mental Health Center
3.92,2.39,44.85685,-74.29199,NY,7000,4000,0,0,0,Alice Hyde Medical Center
6.51,3.32,40.91304,-73.84024,NY,14000,6000,0,0,0,Mount Vernon Hospital
4.79,2.30,42.10076,-76.82800,NY,10000,4000,50,65,33,Arnot Ogden Medical Center
4.72,2.33,42.24595,-73.77855,NY,9000,4000,0,0,0,Columbia Memorial Hospital
8.20,3.75,40.76487,-73.95398,NY,18000,7000,33,32,74,New York-Presbyterian Hospital
11.98,2.77,41.09642,-73.92501,NY,26000,5000,66,77,76,Nyack Hospital
10.06,3.28,40.77686,-73.70212,NY,22000,6000,33,61,69,North Shore University Hospital
10.82,3.17,40.77362,-73.96093,NY,24000,6000,33,46,11,Lenox Hill Hospital
4.91,2.38,43.19244,-77.58590,NY,10000,4000,66,46,17,Rochester General Hospital
10.81,2.58,41.44138,-74.36821,NY,24000,4000,50,62,69,Orange Regional Medical Center
6.50,4.60,40.85407,-73.84688,NY,14000,9000,50,70,74,Jacobi Medical Center
5.44,4.17,40.74465,-73.88620,NY,11000,8000,25,83,32,Elmhurst Hospital Center
4.84,3.14,42.69590,-74.92278,NY,10000,6000,50,83,76,Mary Imogene Bassett Hospital
4.13,2.64,43.05571,-76.14981,NY,8000,4000,83,37,20,St Joseph'S Hospital Health Center
9.96,2.61,40.78000,-72.97763,NY,22000,4000,33,60,32,Brookhaven Memorial Hospital Medical Center
5.72,3.72,40.68964,-73.99657,NY,12000,7000,0,0,0,Long Island College Hospital
10.95,2.79,41.11299,-74.13732,NY,24000,5000,66,82,82,Good Samaritan Hospital Of Suffern
7.56,3.24,40.58440,-74.08507,NY,16000,6000,66,71,37,Staten Island University Hospital
2.87,2.40,43.17738,-78.67123,NY,5000,4000,0,0,0,Eastern Niagara Hospital
13.91,3.07,40.74083,-73.64306,NY,31000,5000,66,50,74,Winthrop-University Hospital
8.88,3.69,40.73265,-73.98162,NY,19000,7000,50,60,39,Beth Israel Medical Center
9.50,2.74,40.87062,-73.62249,NY,21000,5000,50,82,85,Glen Cove Hospital
9.26,2.50,40.80462,-73.67023,NY,20000,4000,83,72,94,St Francis Hospital Roslyn
5.28,3.31,40.91276,-73.78720,NY,11000,6000,50,83,6,Sound Shore Medical Center Of Westschester
9.89,2.45,40.94000,-73.05510,NY,22000,4000,50,63,63,John T Mather Memorial Hospital  Of Port Jefferson
5.34,3.67,40.75543,-73.81532,NY,11000,7000,25,72,63,Flushing Hospital Medical Center
10.05,3.93,40.63937,-73.99851,NY,22000,8000,50,45,54,Maimonides Medical Center
10.88,3.74,40.75332,-73.70899,NY,24000,7000,50,45,90,Long Island Jewish Medical Center
4.80,3.88,40.58549,-73.96558,NY,10000,7000,25,72,29,Coney Island Hospital
6.31,2.60,40.65189,-73.63096,NY,13000,4000,50,52,43,South Nassau Communities Hospital
4.80,4.57,40.78443,-73.94474,NY,10000,9000,25,70,46,Metropolitan Hospital Center
10.02,3.35,40.65957,-73.93378,NY,22000,6000,25,77,95,Kingsbrook Jewish Medical Center
7.02,3.14,40.96967,-73.88447,NY,15000,6000,50,75,85,St John'S Riverside Hospital
10.20,3.78,40.74335,-73.97408,NY,22000,7000,33,63,21,Nyu Hospitals Center
5.03,2.46,43.45491,-76.51645,NY,10000,4000,0,0,0,Oswego Hospital
5.47,3.86,40.70419,-73.91754,NY,11000,7000,50,81,16,Wyckoff Heights Medical Center
6.48,4.23,40.71730,-73.80353,NY,14000,8000,25,83,28,Queens Hospital Center
4.32,4.12,40.65533,-73.91221,NY,8000,8000,50,62,54,Brookdale Hospital Medical Center
6.26,3.58,40.66762,-73.97850,NY,13000,7000,33,55,29,New York Methodist Hospital
4.52,4.37,40.81477,-73.94027,NY,9000,9000,50,77,42,Harlem Hospital Center
5.86,3.20,43.04269,-76.14043,NY,12000,6000,66,41,3,University Hospital S U N Y Health Science Center
13.58,2.70,40.94779,-73.06033,NY,30000,5000,50,58,29,St Charles Hospital
8.33,2.64,40.68896,-73.63259,NY,18000,4000,50,62,37,Mercy Medical Center
8.14,2.97,41.10880,-73.86355,NY,17000,5000,0,0,0,Phelps Memorial Hospital Assn
8.91,2.61,41.50307,-74.01517,NY,19000,4000,33,81,95,St Luke'S Cornwall Hospital
10.03,2.67,40.69327,-73.29412,NY,22000,5000,50,70,74,Good Samaritan Hospital Medical Center
5.34,2.52,41.02614,-73.76978,NY,11000,4000,50,62,44,White Plains Hospital Center
4.54,3.89,40.64666,-74.02049,NY,9000,7000,50,67,5,Lutheran Medical Center
7.08,2.78,40.83778,-73.85417,NY,15000,5000,50,66,16,New York Westchester Square Medical Center
6.85,2.84,40.88512,-72.38030,NY,14000,5000,50,88,73,Southampton Hospital
4.59,4.04,40.65508,-73.94521,NY,9000,8000,50,66,8,University Hospital Of Brooklyn ( Downstate )
6.14,3.06,40.72931,-73.85219,NY,13000,5000,50,55,13,Forest Hills Hospital
7.43,2.59,40.68104,-73.68633,NY,16000,4000,50,66,69,Franklin Hospital
9.29,3.48,40.90922,-73.11520,NY,20000,6000,50,60,44,University Hospital ( Stony Brook )
5.21,2.45,42.11422,-75.95851,NY,11000,4000,66,48,92,United Health Services Hospitals Inc
8.03,4.27,40.59803,-73.75296,NY,17000,8000,50,63,7,St John'S Episcopal Hospital At South Shore
5.89,4.47,40.85263,-73.89184,NY,12000,9000,50,62,44,St Barnabas Hospital
14.98,2.53,40.85738,-73.18681,NY,34000,4000,50,76,88,St Catherine Of Siena Hospital
7.25,2.60,35.43754,-80.60147,NC,15000,4000,66,65,16,Carolinas Medical Center-Northeast
5.23,2.45,35.57658,-82.54922,NC,11000,4000,66,40,81,Memorial Mission Hospital And Asheville Surgery Ce
5.60,2.38,34.75124,-79.46789,NC,11000,4000,0,0,0,Scotland Memorial Hospital
6.17,2.51,35.39772,-77.95250,NC,13000,4000,50,81,8,Wayne Memorial Hospital
6.58,2.38,35.36251,-81.96692,NC,14000,4000,0,0,0,Rutherford Hospital Inc
4.91,2.50,36.07581,-80.29779,NC,10000,4000,50,52,39,Forsyth Memorial Hospital
4.82,2.27,35.32080,-82.46812,NC,10000,4000,0,0,0,Margaret R Pardee Memorial Hospital
8.20,2.49,35.30288,-81.53571,NC,18000,4000,50,71,63,Cleveland Regional Medical Center
8.98,2.62,35.03156,-78.93205,NC,19000,4000,50,50,18,Cape Fear Valley Medical Center
8.92,3.19,36.00850,-78.94006,NC,19000,6000,66,43,76,Duke University Hospital
5.29,2.42,35.27341,-81.13688,NC,11000,4000,50,70,69,Gaston Memorial Hospital
2.95,2.30,35.54918,-77.03985,NC,5000,4000,0,0,0,Beaufort County Medical Center
6.56,2.26,35.79986,-80.87863,NC,14000,4000,50,62,95,Iredell Memorial Hospital Inc
7.32,3.02,35.60726,-77.40477,NC,15000,5000,50,46,1,Pitt County Memorial Hospital
6.77,2.39,34.76273,-77.38582,NC,14000,4000,50,58,17,Onslow Memorial Hospital
5.03,3.24,36.09062,-80.27161,NC,10000,6000,83,55,57,North Carolina Baptist Hospital
7.02,2.82,34.63723,-79.01213,NC,15000,5000,50,71,63,Southeastern Regional Medical Center
5.85,2.39,35.22196,-80.83287,NC,12000,4000,50,63,13,Presbyterian Hospital
4.52,3.30,35.90529,-79.04963,NC,9000,6000,66,41,1,University Of North Carolina Hospital
4.77,2.30,36.15893,-81.15703,NC,9000,4000,0,0,0,Wilkes Regional Medical Center
4.61,2.48,34.33747,-78.69425,NC,9000,4000,0,0,0,Columbus Regional Healthcare System
7.68,2.62,35.78523,-78.58836,NC,16000,4000,33,50,79,Wakemed Raleigh Campus
5.16,2.34,36.06347,-79.50208,NC,10000,4000,33,60,16,Alamance Regional Medical Center
6.70,2.49,35.50624,-78.32511,NC,14000,4000,50,55,24,Johnston Memorial Hospital
4.98,2.54,36.09251,-79.78855,NC,10000,4000,66,66,51,Moses H Cone Memorial Hospital The
6.11,2.27,35.21029,-80.82084,NC,13000,4000,50,53,51,Carolinas Med Center-Mercy
6.69,2.35,34.90228,-79.71125,NC,14000,4000,0,0,0,Sandhills Regional Medical Center
7.48,2.98,35.92115,-77.55585,NC,16000,5000,50,85,6,Heritage Hospital
8.43,3.13,35.20397,-80.83908,NC,18000,6000,66,63,24,Carolinas Medical Center/Behav Health
5.83,2.21,35.81801,-78.70283,NC,12000,3000,50,65,54,Rex Hospital
4.36,2.44,35.20554,-79.45645,NC,9000,4000,66,60,44,Firsthealth Moore Regional Hospital
7.98,2.22,35.73751,-81.33702,NC,17000,3000,50,67,17,Frye Regional Medical Center
6.36,2.41,35.71177,-79.81489,NC,13000,4000,50,55,29,Randolph Hospital
7.14,2.43,35.71850,-77.94518,NC,15000,4000,50,68,88,Wilson Medical Center
4.55,2.51,34.97382,-80.52250,NC,9000,4000,50,68,69,Carolinas Medical Center-Union
4.64,2.59,35.11420,-77.06568,NC,9000,4000,33,73,90,Carolina East Medical Center
6.93,2.58,34.23786,-77.94764,NC,15000,4000,83,70,57,New Hanover Regional Medical Center
5.78,2.58,35.97538,-77.85012,NC,12000,4000,50,65,13,Nash General Hospital
4.79,2.40,36.43295,-77.64729,NC,10000,4000,0,0,0,Halifax Regional Medical Center Inc
6.35,2.45,36.04960,-78.90617,NC,13000,4000,50,51,69,Durham Regional Hospital
9.56,2.34,35.74046,-78.78127,NC,21000,4000,50,72,13,Wakemed Cary Hospital
4.76,2.27,35.52586,-82.94351,NC,9000,4000,0,0,0,Medwest Haywood
4.62,2.46,46.88496,-96.78609,ND,9000,4000,66,61,48,Sanford Medical Center Fargo
6.01,3.47,39.13707,-84.50392,OH,12000,6000,66,45,21,University Hospital Inc
7.76,2.44,40.03064,-83.03440,OH,17000,4000,83,71,21,Riverside Methodist Hospital
4.85,2.47,38.75320,-82.97800,OH,10000,4000,50,61,69,Southern Ohio Medical Center
5.97,2.19,40.73578,-84.08630,OH,12000,3000,75,61,13,Lima Memorial Health System
4.80,2.35,40.57098,-83.12972,OH,10000,4000,50,91,48,Marion General Hospital
4.14,2.38,40.11479,-82.94677,OH,8000,4000,50,66,12,Mount Carmel St Ann'S Hospital
6.83,2.38,39.20680,-84.38093,OH,14000,4000,50,76,94,Jewish Hospital Llc
6.57,2.79,39.96098,-82.99077,OH,14000,5000,66,78,21,Grant Medical Center
8.59,2.55,41.08161,-81.50007,OH,18000,4000,66,63,33,Summa Health Systems Hospitals
8.25,2.44,41.07747,-81.53042,OH,18000,4000,66,70,63,Akron General Medical Center
5.39,2.42,39.95805,-83.02191,OH,11000,4000,66,42,1,Mount Carmel Health
4.55,2.35,39.97510,-82.01812,OH,9000,4000,50,78,92,Genesis Healthcare System
4.59,2.12,41.38265,-81.73127,OH,9000,3000,50,75,94,Parma Community General Hospital
7.89,3.04,41.61788,-83.61632,OH,17000,5000,66,68,6,University Of Toledo Medical Center
10.09,2.72,39.74547,-84.18523,OH,22000,5000,66,45,1,Miami Valley Hospital
11.39,2.43,39.78778,-84.23493,OH,25000,4000,66,56,16,Good Samaritan Hospital
3.03,2.27,38.84439,-82.23902,OH,5000,4000,0,0,0,Holzer Medical Center
8.72,2.17,41.23549,-80.79865,OH,19000,3000,66,56,0,Trumbull Memorial Hospital
5.25,2.21,39.31257,-84.51774,OH,11000,3000,50,90,69,Mercy Hospital Fairfield
6.81,2.36,41.11441,-80.65565,OH,14000,4000,83,48,21,St Elizabeth Health Center
5.31,2.25,40.74115,-84.11804,OH,11000,4000,66,73,6,St Rita'S Medical Center
11.86,2.45,41.67775,-83.59589,OH,26000,4000,33,70,57,Toledo Hospital The
4.07,2.30,40.81219,-81.39625,OH,8000,4000,50,62,43,Mercy Medical Center
3.89,2.29,39.71750,-82.57772,OH,7000,4000,50,82,90,Fairfield Medical Center
9.26,3.01,41.58130,-81.48979,OH,20000,5000,0,0,0,Uhhs Richmond Heights Hospital
8.79,2.39,39.49896,-84.31496,OH,19000,4000,50,63,33,Atrium Medical Center
8.20,2.35,41.45013,-81.82397,OH,18000,4000,66,60,18,Fairview Hospital
5.72,2.18,41.17554,-81.24915,OH,12000,3000,50,76,37,Robinson Memorial Hospital
9.20,2.56,39.69724,-84.19232,OH,20000,4000,66,80,57,Kettering Medical Center
7.27,2.17,41.59825,-81.54884,OH,15000,3000,50,70,57,Euclid Hospital
9.44,2.98,39.99445,-83.01872,OH,20000,5000,66,50,2,Ohio State University Hospitals
7.16,2.35,39.92755,-83.81573,OH,15000,4000,50,67,48,Springfield Regional Medical Center
5.41,2.20,41.55725,-83.68141,OH,11000,3000,50,65,85,St Luke'S Hospital
6.70,2.12,41.66317,-81.24696,OH,14000,3000,50,73,39,Lake Health
7.73,2.96,41.66810,-83.54275,OH,16000,5000,50,70,5,Mercy St Vincent Medical Center
5.43,2.32,41.43653,-81.94451,OH,11000,4000,50,72,76,St John Medical Center
9.53,2.64,39.13975,-84.52173,OH,21000,4000,66,83,69,Good Samaritan Hospital
6.15,3.07,41.50772,-81.60592,OH,13000,5000,83,46,44,University Hospitals Of Cleveland
6.23,2.40,41.44829,-81.53736,OH,13000,4000,50,81,21,South Pointe Hospital
4.39,2.17,41.36649,-82.09708,OH,9000,3000,66,75,98,Emh Regional Medical Center
5.39,2.14,39.43061,-81.46454,OH,11000,3000,50,71,99,Marietta Memorial Hospital
7.17,3.01,39.95311,-83.13803,OH,15000,5000,50,48,48,Doctors Hospital
8.34,2.14,41.37028,-81.83189,OH,18000,3000,50,71,74,Southwest General Health Center
5.16,2.38,39.39463,-82.96979,OH,10000,4000,50,50,24,Adena Regional Medical Center
6.68,2.49,39.12105,-84.51059,OH,14000,4000,83,46,88,Christ Hospital
5.83,2.24,41.43688,-82.23761,OH,12000,4000,50,82,69,Mercy Regional Medical Center
8.19,2.33,39.25076,-84.34341,OH,18000,4000,50,62,99,Bethesda North Hospital
8.85,2.72,41.50248,-81.62110,OH,19000,5000,33,32,24,Cleveland Clinic
4.31,2.20,40.35601,-80.62502,OH,8000,3000,50,81,63,Trinity Medical Ctr East&Trinity Medical Ctr West
9.20,2.22,41.48479,-81.79649,OH,20000,3000,50,67,69,Lakewood Hospital
5.17,2.15,41.52013,-81.43291,OH,10000,3000,66,45,37,Hillcrest Hospital
4.98,2.28,39.20463,-84.57093,OH,10000,4000,50,67,39,Mercy Franciscan Hospital - Mt Airy
6.87,2.34,39.63778,-84.24864,OH,14000,4000,50,82,24,Kettering Medical Center - Sycamore
5.50,2.07,40.99498,-80.66192,OH,11000,3000,50,70,29,St Elizabeth Boardman Health Center
8.25,2.65,36.14687,-95.96841,OK,18000,4000,83,76,32,Hillcrest Medical Center
8.82,2.20,35.22999,-97.44074,OK,19000,3000,50,73,21,Norman Regional Health System
10.71,2.41,34.00655,-96.39398,OK,23000,4000,0,0,0,Medical Center Of Southeastern Oklahoma
5.83,2.27,35.75351,-95.40612,OK,12000,4000,50,70,3,Muskogee Regional Medical Center
8.55,2.72,35.52960,-97.57496,OK,18000,5000,100,76,90,Integris Baptist Medical Center
6.52,2.21,34.93621,-95.74888,OK,14000,3000,0,0,0,Mcalester Regional Health Center
5.94,2.75,35.47800,-97.52352,OK,12000,5000,66,58,33,St Anthony Hospital
4.43,2.23,34.60992,-98.43419,OK,9000,3000,50,62,48,Comanche County Memorial Hospital
5.29,2.34,36.06135,-95.95154,OK,11000,4000,83,61,44,Saint Francis Hospital Inc
9.78,3.01,35.48138,-97.49624,OK,21000,5000,66,45,1,O U Medical Center
8.08,2.18,35.46721,-97.39370,OK,17000,3000,50,76,92,Midwest Regional Medical Center
5.11,2.31,36.13393,-95.96718,OK,10000,4000,50,51,11,St John Medical Center Inc
2.51,2.31,35.80907,-94.64301,OK,4000,4000,0,0,0,Memorial Hospital Of Stilwell
7.24,2.38,36.03590,-95.86511,OK,15000,4000,50,60,29,Southcrest Hospital
4.06,2.10,35.60901,-97.59429,OK,8000,3000,75,96,29,Oklahoma Heart Hospital
3.97,2.09,35.38969,-97.42688,OK,8000,3000,50,100,90,Oklahoma Heart Hospital South
4.83,2.49,45.50973,-122.77368,OR,10000,4000,33,55,13,Providence St Vincent Medical Center
7.87,2.31,41.40075,-75.64594,PA,17000,4000,50,77,94,Community Medical Center
8.62,2.14,40.25296,-76.92151,PA,19000,3000,83,85,95,Holy Spirit Hospital
9.57,2.41,42.11102,-80.07912,PA,21000,4000,50,72,57,Saint Vincent Health Center
4.50,2.14,40.80231,-75.61515,PA,9000,3000,0,0,0,Palmerton Hospital
5.50,2.41,40.18302,-80.24767,PA,11000,4000,50,76,94,Washington Hospital The
8.43,2.60,40.33271,-75.95020,PA,18000,4000,50,67,21,Reading Hospital Medical Center
4.81,2.64,39.94604,-76.71884,PA,10000,4000,66,45,8,York Hospital
11.02,2.55,40.60811,-75.39260,PA,24000,4000,66,53,57,St Luke'S Hospital Bethlehem
6.60,2.37,40.32799,-76.44588,PA,14000,4000,50,58,69,Good Samaritan Hospital
5.83,2.72,40.25661,-76.87572,PA,12000,5000,83,47,0,Pinnacle Health Hospitals
13.23,2.35,40.10226,-74.86338,PA,29000,4000,50,72,12,Lower Bucks Hospital
5.38,2.21,40.52204,-78.39824,PA,11000,3000,83,61,39,Altoona Regional Health System
6.64,2.31,40.04740,-76.30540,PA,14000,4000,66,60,82,Lancaster General Hospital
7.99,2.67,40.48928,-79.89596,PA,17000,5000,50,72,63,Upmc St Margaret
6.87,2.07,40.57319,-80.01455,PA,14000,3000,50,57,48,Upmc Passavant
16.41,2.60,40.12453,-75.33533,PA,37000,4000,50,68,82,Montgomery Hospital
4.87,2.47,40.32674,-78.92197,PA,10000,4000,50,61,3,Conemaugh Valley Memorial Hospital
15.88,3.28,39.95045,-75.19259,PA,36000,6000,50,33,39,Hospital Of Univ Of Pennsylvania
9.60,2.67,40.07160,-74.98341,PA,21000,5000,33,67,5,Aria Health
10.97,2.28,40.24397,-75.61364,PA,24000,4000,50,83,48,Pottstown Memorial Medical Center
10.13,2.74,40.60000,-75.47000,PA,22000,5000,66,58,54,Lehigh Valley Hospital
8.34,2.26,41.25860,-75.86729,PA,18000,4000,50,60,79,Wilkes-Barre General Hospital
12.44,2.43,40.01883,-75.32115,PA,28000,4000,50,71,85,Main Line Hospital Bryn Mawr Campus
11.41,3.96,40.03678,-75.14351,PA,25000,8000,66,62,4,Albert Einstein Medical Center
7.31,2.34,39.93492,-77.64744,PA,15000,4000,50,58,48,Chambersburg Hospital
15.11,2.28,40.04475,-75.50425,PA,34000,4000,50,71,20,Main Line Hospital Paoli
11.46,3.06,39.92871,-75.26873,PA,25000,5000,66,65,17,Mercy Fitzgerald Hospital
15.15,2.55,40.68708,-75.24272,PA,34000,4000,66,68,3,Easton Hospital
11.15,3.18,40.44190,-79.96044,PA,25000,6000,83,55,11,Upmc Presbyterian Shadyside
12.32,3.06,39.94969,-75.15712,PA,27000,5000,66,41,57,Thomas Jefferson University Hospital
7.11,2.28,39.97024,-75.60259,PA,15000,4000,33,75,18,Chester County Hospital
29.31,3.11,39.85598,-75.36791,PA,67000,6000,66,56,13,Crozer Chester Medical Center
12.79,2.87,39.98905,-75.27707,PA,28000,5000,50,53,24,Main Line Hospital Lankenau
7.15,2.60,40.99225,-75.17466,PA,15000,4000,50,90,63,Pocono Medical Center
7.19,2.28,40.30531,-75.14763,PA,15000,4000,33,83,92,Doylestown Hospital
11.30,2.35,40.05931,-75.04140,PA,25000,4000,50,50,29,Nazareth Hospital
6.07,2.37,41.23235,-80.49626,PA,13000,4000,50,80,76,Sharon Regional Health System
11.53,2.84,39.95825,-75.19909,PA,25000,5000,66,53,54,Penn Presbyterian Medical Center
13.99,2.93,39.94560,-75.15561,PA,31000,5000,50,56,69,Pennsylvania Hosp Of The Univ Of Pa Health Sys
11.51,2.50,40.12077,-75.11818,PA,25000,4000,83,51,43,Abington Memorial Hospital
10.39,2.29,40.20064,-74.92952,PA,23000,4000,33,71,44,St Mary Medical Center
8.22,2.42,40.64463,-75.40842,PA,18000,4000,66,66,8,Lehigh Valley Hospital - Muhlenberg
5.11,2.22,40.42897,-79.74808,PA,10000,3000,50,57,57,Western Pennsylvania Hosp Forbes Regional Campus
8.27,2.08,40.81936,-77.84273,PA,18000,3000,50,91,57,Mount Nittany Medical Center
24.31,3.40,39.95658,-75.16249,PA,56000,6000,83,71,6,Hahnemann University Hospital
8.87,3.26,41.81254,-71.40760,RI,19000,6000,33,48,6,Rhode Island Hospital
5.24,2.34,34.95535,-81.05137,SC,11000,4000,50,75,33,Piedmont Medical Center
5.58,3.26,32.78272,-79.94543,SC,11000,6000,33,76,69,Musc Medical Center
7.43,2.67,34.96733,-81.94021,SC,16000,5000,33,60,54,Spartanburg Regional Medical Center
9.64,2.96,34.02839,-81.03539,SC,21000,5000,33,43,21,Palmetto Health Richland
5.82,2.39,33.37683,-79.29450,SC,12000,4000,0,0,0,Georgetown Memorial Hospital
10.31,2.20,34.83965,-82.42147,SC,23000,3000,66,66,11,St Francis-Downtown
5.67,2.11,34.01469,-81.01343,SC,12000,3000,50,85,29,Sisters Of Charity Providence Hospitals
8.76,2.53,34.51119,-82.64683,SC,19000,4000,50,61,94,Anmed Health
12.09,2.38,34.71787,-80.78844,SC,27000,4000,50,83,79,Springs Memorial Hospital
5.81,2.35,34.71211,-81.62921,SC,12000,4000,0,0,0,Wallace Thomson Hospital
7.89,2.20,35.08901,-81.63335,SC,17000,3000,0,0,0,Upstate Carolina Medical Center
5.41,2.22,34.24654,-80.60702,SC,11000,3000,50,73,33,Kershaw Health
8.04,2.42,33.78555,-79.00178,SC,17000,4000,50,90,69,Conway Medical Center
7.19,2.40,34.19543,-79.76256,SC,15000,4000,50,50,79,Mcleod Regional Medical Center-Pee Dee
7.34,2.35,34.05671,-78.89903,SC,16000,4000,0,0,0,Loris Community Hospital
6.98,2.48,32.33977,-80.68817,SC,15000,4000,25,65,29,Beaufort County Memorial Hospital
7.96,2.57,33.62185,-80.74922,SC,17000,4000,33,70,8,Trmc Of Orangeburg & Calhoun
6.74,2.89,34.17571,-82.15791,SC,14000,5000,66,65,20,Self Regional Healthcare
8.55,2.19,34.00533,-81.11393,SC,18000,3000,66,63,48,Lexington Medical Center
7.82,2.65,34.81904,-82.41308,SC,17000,4000,50,55,17,Greenville Memorial Hospital
10.37,2.35,32.97605,-80.07302,SC,23000,4000,50,56,48,Trident Medical Center
5.73,2.51,33.57070,-81.76332,SC,12000,4000,50,80,8,Aiken Regional Medical Center
12.30,2.40,34.94957,-81.93205,SC,27000,4000,50,47,88,Mary Black Memorial Hospital
8.00,2.26,33.70704,-78.89487,SC,17000,4000,66,50,57,Grand Strand Reg Med Center
8.84,2.28,34.19543,-79.76256,SC,19000,4000,33,66,13,Carolinas Hospital System
6.93,2.08,33.59553,-79.02412,SC,15000,3000,50,76,39,Waccamaw Community Hospital
4.67,2.49,45.46141,-98.47929,SD,9000,4000,0,0,0,Avera St Lukes
5.43,3.11,43.53460,-96.71136,SD,11000,6000,66,60,81,Avera Mckennan Hospital & University Health Center
7.55,2.77,44.05563,-103.22633,SD,16000,5000,66,42,82,Rapid City Regional Hospital
4.55,2.30,35.63906,-88.83207,TN,9000,4000,66,53,27,Jackson-Madison County General Hospital
4.70,2.35,36.38975,-86.43389,TN,9000,4000,50,95,48,Sumner Regional Medical Center
5.80,2.18,35.93917,-85.01865,TN,12000,3000,50,65,44,Cumberland Medical Center
6.71,2.07,35.75588,-83.95808,TN,14000,3000,50,75,48,Blount Memorial Hospital
6.22,2.50,35.93985,-83.94326,TN,13000,4000,33,62,20,University Of Tn Memorial Hospital
5.56,2.19,36.55401,-82.55483,TN,11000,3000,50,58,33,Wellmont Holston Valley Medical Center
5.32,2.21,36.34603,-82.24972,TN,11000,3000,0,0,0,Sycamore Shoals Hospital
5.16,2.11,35.98589,-84.28055,TN,10000,3000,66,62,79,Methodist Medical Center Of Oak Ridge
7.57,2.31,36.58199,-87.27050,TN,16000,4000,50,95,39,Gateway Medical Center
8.44,3.01,36.14316,-86.80048,TN,18000,5000,50,43,43,Vanderbilt University Hospital
3.28,2.25,35.59215,-87.86395,TN,6000,4000,0,0,0,Perry Community Hospital
7.10,2.29,35.12837,-89.86202,TN,15000,4000,50,43,39,Baptist Memorial Hospital
8.46,3.19,35.13640,-90.01928,TN,18000,6000,66,51,37,Methodist Healthcare Memphis Hospitals
5.74,2.37,35.16217,-88.57374,TN,12000,4000,0,0,0,Mcnairy Regional Hospital
5.84,2.29,35.86074,-86.42434,TN,12000,4000,33,87,16,Middle Tennessee Medical Center Inc
5.79,2.22,35.17733,-86.09081,TN,12000,3000,0,0,0,Southern Tennessee Medical Center
4.96,2.30,36.17121,-85.50938,TN,10000,4000,50,73,98,Cookeville Regional Medical Center
7.17,2.33,36.30767,-82.38497,TN,15000,4000,83,50,21,Johnson City Medical Center
8.73,2.15,36.04867,-89.38047,TN,19000,3000,0,0,0,Dyersburg Regional Medical Center
4.30,2.37,35.60668,-87.06635,TN,8000,4000,50,72,74,Maury Regional Hospital
5.08,2.17,36.12859,-86.84559,TN,10000,3000,16,75,98,St Thomas Hospital
6.06,2.16,36.43222,-84.94250,TN,13000,3000,0,0,0,Jamestown Regional Medical Center
8.85,2.10,35.04157,-85.26037,TN,19000,3000,33,72,99,Memorial Healthcare System Inc
6.18,2.55,35.05068,-85.28823,TN,13000,4000,50,52,0,Erlanger Medical Center
5.15,2.08,35.99233,-83.92697,TN,10000,3000,50,56,85,Tennova Healthcare
5.41,2.45,35.95747,-83.93660,TN,11000,4000,33,56,44,Fort Sanders Regional Medical Center
5.13,2.22,35.56334,-86.44873,TN,10000,3000,0,0,0,Heritage Medical Center
7.11,2.22,35.36202,-86.20943,TN,15000,3000,0,0,0,Harton Regional Medical Center
7.83,2.32,36.17752,-86.60840,TN,17000,4000,50,76,29,Summit Medical Center
4.78,2.16,35.91765,-84.10080,TN,10000,3000,33,72,82,Parkwest Medical Center
3.82,2.63,35.61042,-89.24323,TN,7000,4000,0,0,0,Haywood Park Community Hospital
15.31,2.41,35.09925,-89.86301,TN,34000,4000,50,62,57,St Francis Hospital
8.60,2.21,35.17731,-84.86873,TN,19000,3000,50,68,37,Skyridge Medical Center
7.71,2.47,33.90296,-98.50035,TX,16000,4000,66,86,48,United Regional Health Care System
8.19,2.39,30.65598,-96.34672,TX,18000,4000,50,57,32,St Joseph Regional Health Center
7.68,2.84,32.78994,-96.78044,TX,16000,5000,83,58,33,Baylor University Medical Center
10.57,2.84,25.91934,-97.51054,TX,23000,5000,50,63,85,Vhs Brownsville Hospital Company Llc
9.92,2.66,27.53249,-99.47808,TX,22000,5000,50,83,94,Laredo Medical Center
7.96,2.71,26.17446,-97.67014,TX,17000,5000,50,67,57,Vhs Harlingen Hospital Company Llc
7.56,2.18,30.08729,-94.13292,TX,16000,3000,66,86,79,Christus Hospital
13.83,3.05,29.74802,-95.36609,TX,31000,5000,50,65,54,St Joseph Medical Center
8.58,2.28,32.50219,-94.73025,TX,18000,4000,50,73,85,Good Shepherd Medical Center
9.74,2.98,32.72621,-97.32659,TX,21000,5000,66,80,1,Jps Health Network
19.04,2.32,33.57524,-101.89272,TX,43000,4000,50,41,48,Covenant Medical Center
6.30,2.18,31.51444,-97.19927,TX,13000,3000,50,50,33,Providence Health Center
6.74,2.65,32.81224,-96.83795,TX,14000,4000,33,63,29,Ut Southwestern University Hospital
10.40,2.38,27.77751,-97.39515,TX,23000,4000,83,57,95,Christus Spohn Hospital Corpus Christi
7.44,2.64,31.07837,-97.36403,TX,16000,4000,50,56,85,Scott & White Memorial Hospital
10.52,2.57,30.30491,-97.74540,TX,23000,4000,16,56,63,Seton Medical Center Austin
8.91,2.40,29.43360,-98.49265,TX,19000,4000,66,61,24,Baptist Medical Center
7.24,2.27,32.74944,-97.11630,TX,15000,4000,66,55,63,Texas Health Arlington Memorial Hospital
10.42,3.38,29.71431,-95.39680,TX,23000,6000,66,46,13,Memorial Hermann Texas Medical Center
7.58,2.36,32.83520,-96.96101,TX,16000,4000,66,63,24,Baylor Medical Center At Irving
5.90,2.50,33.17573,-94.97180,TX,12000,4000,0,0,0,Titus Regional Medical Center
19.22,2.24,32.33824,-95.29122,TX,44000,4000,50,55,92,East Texas Medical Center
16.39,2.16,32.82932,-97.21399,TX,37000,3000,50,67,39,North Hills Hospital
8.97,2.18,28.71321,-100.45571,TX,19000,3000,0,0,0,Fort Duncan Medical Center
13.69,2.58,29.66575,-95.18131,TX,31000,4000,50,51,44,Bayshore Medical Center
11.75,2.16,32.34280,-95.29201,TX,26000,3000,50,60,98,Mother Frances Hospital
16.01,2.59,31.76998,-106.49897,TX,36000,4000,66,58,8,Las Palmas Medical Center
12.64,2.83,26.26353,-98.18455,TX,28000,5000,66,91,74,South Texas Health System
9.10,2.87,30.27438,-97.73395,TX,20000,5000,33,73,2,University Medical Center At Brackenridge
6.56,2.51,26.15260,-97.97995,TX,14000,4000,50,52,88,Knapp Medical Center
9.04,2.70,29.42561,-98.48946,TX,20000,5000,0,0,0,Nix Health Care System
6.53,2.53,31.84507,-102.37373,TX,14000,4000,33,82,29,Medical Center Hospital
6.87,2.44,31.99616,-102.09950,TX,14000,4000,50,55,37,Midland Memorial Hospital
9.32,2.45,32.73780,-97.33899,TX,20000,4000,66,55,57,Texas Health Harris Methodist Fort Worth
7.74,2.31,31.11326,-97.80076,TX,16000,4000,0,0,0,Metroplex Hospital
10.95,2.18,27.49018,-97.85078,TX,24000,3000,0,0,0,Christus Spohn Hospital Kleberg
6.61,2.78,26.19665,-98.31409,TX,14000,5000,25,91,54,Mission Regional Medical Center
5.58,2.71,29.21470,-99.76962,TX,11000,5000,0,0,0,Uvalde Memorial Hospital
7.87,2.68,29.81230,-95.43010,TX,17000,5000,66,62,69,Memorial Hermann Hospital System
6.81,2.19,33.61197,-95.09942,TX,14000,3000,0,0,0,Etmc Clarksville
11.22,3.26,29.70719,-95.40048,TX,25000,6000,66,43,1,St Lukes Episcopal Hospital
5.49,2.21,32.74765,-97.78477,TX,11000,3000,0,0,0,Weatherford Regional Medical Center
6.62,2.50,35.19934,-101.92186,TX,14000,4000,83,82,24,Northwest Texas Hospital
6.71,2.15,31.33632,-94.74205,TX,14000,3000,50,71,63,Memorial Health System Of East Texas- Lufkin
14.00,2.39,30.28473,-95.46714,TX,31000,4000,33,52,48,Conroe Regional Medical Center
6.59,2.17,32.47171,-99.73315,TX,14000,3000,66,86,39,Hendrick Medical Center
7.06,2.17,35.19533,-101.91907,TX,15000,3000,66,60,21,Baptist St Anthonys Health System-Baptist Campus
9.10,3.01,29.42825,-98.49859,TX,20000,5000,50,80,20,Christus Santa Rosa Hospital
9.45,2.36,30.58113,-96.29051,TX,21000,4000,0,0,0,College Station Medical Center
8.13,2.45,29.57653,-95.77057,TX,17000,4000,50,75,13,Oakbend Medical Center
8.22,2.31,30.07104,-94.11927,TX,18000,4000,83,63,85,Memorial Hermann Baptist Beaumont Hospital
9.79,2.44,30.69934,-95.55927,TX,21000,4000,0,0,0,Huntsville Memorial Hospital
11.83,2.62,29.71020,-95.39956,TX,26000,4000,100,60,13,Methodist Hospitalthe
11.67,2.52,29.50795,-98.57224,TX,26000,4000,66,62,57,Methodist Hospital
10.98,2.35,32.17167,-95.84417,TX,24000,4000,0,0,0,East Texas Medical Center Athens
11.81,2.30,33.15951,-96.63675,TX,26000,4000,66,65,2,Medical Center Of Mckinney
15.11,2.53,29.76963,-94.97926,TX,34000,4000,50,100,82,San Jacinto Methodist Hospital
8.83,2.59,30.28957,-97.72584,TX,19000,4000,66,81,63,St Davids Medical Center
6.21,2.32,32.08509,-96.50376,TX,13000,4000,0,0,0,Navarro Regional Hospital
11.04,2.43,32.88076,-96.76226,TX,24000,4000,66,66,3,Texas Health Presbyterian Hospital  Dallas
7.06,2.22,33.66003,-96.59459,TX,15000,3000,50,71,62,Texas Health Presbyterian Hospital-Wnj
7.35,2.65,31.32794,-94.75614,TX,16000,4000,50,80,63,Woodland Heights Medical Center
5.19,2.28,31.61271,-94.64926,TX,10000,4000,50,92,21,Memorial Hospital
7.10,2.16,32.93228,-97.09436,TX,15000,3000,50,56,16,Baylor Regional Medical Center At Grapevine
6.36,2.21,31.46574,-100.43466,TX,13000,3000,50,72,79,Shannon Medical Center
8.19,2.17,31.67746,-98.99374,TX,18000,3000,0,0,0,Brownwood Regional Medical Center
7.83,2.57,29.78143,-95.54541,TX,17000,4000,83,77,92,Memorial Hermann Memorial City Medical Center
12.98,2.35,29.54043,-95.12730,TX,29000,4000,66,51,21,Clear Lake Regional Medical Center
11.88,2.31,33.17345,-97.11382,TX,26000,4000,83,72,54,Denton Regional Medical Center
13.70,2.44,30.01994,-95.44379,TX,31000,4000,50,65,69,Houston Northwest Medical Center
9.16,2.20,32.83479,-97.12428,TX,20000,3000,50,62,88,Texas Health Harris Methodist Hurst-Euless-Bedford
7.25,2.58,27.60672,-99.47945,TX,15000,4000,50,86,3,Doctors Hospital Of Laredo
13.39,2.97,32.91132,-96.77424,TX,30000,5000,83,51,6,Medical City Dallas Hospital
11.36,2.28,33.02168,-96.76621,TX,25000,4000,50,67,11,Medical Center Of Plano
8.64,2.14,31.65212,-94.65488,TX,19000,3000,0,0,0,Nacogdoches Medical Center
19.14,2.53,29.72272,-95.38754,TX,43000,4000,50,75,76,Park Plaza Hospital
13.26,2.79,25.97780,-97.51442,TX,29000,5000,50,60,44,Valley Regional Medical Center
8.45,2.30,33.04634,-97.00473,TX,18000,4000,0,0,0,Medical Center Of Lewisville
11.05,2.25,30.08682,-95.62403,TX,24000,4000,50,65,76,Tomball Regional Medical Center
11.39,2.51,32.73563,-97.34483,TX,25000,4000,83,41,74,Plaza Medical Center Of Fort Worth
12.38,2.48,32.69299,-97.11219,TX,27000,4000,50,60,32,Medical Center Of Arlington
9.60,2.26,32.67614,-97.32079,TX,21000,4000,83,70,33,Huguley Health System
13.29,2.29,32.83517,-96.70473,TX,30000,4000,0,0,0,Doctors Hospital
4.37,2.31,32.70698,-96.27851,TX,9000,4000,0,0,0,Renaissance Hospital Terrell
7.74,2.52,29.99677,-95.27641,TX,16000,4000,66,70,33,Memorial Hermann Northeast
7.18,2.84,33.58838,-101.89214,TX,15000,5000,50,50,24,University Medical Center
9.29,2.41,32.77904,-96.60113,TX,20000,4000,100,73,74,Dallas Regional Medical Center
9.10,2.89,29.35295,-98.54601,TX,20000,5000,75,72,44,Southwest General Hospital
12.09,2.72,26.18586,-98.22085,TX,27000,5000,50,66,48,Rio Grande Regional Hospital
9.49,2.27,30.22723,-97.77447,TX,21000,4000,50,43,69,St David'S South Austin Medical Center
9.34,2.43,32.64448,-96.87635,TX,20000,4000,50,43,88,Methodist Charlton Medical Center
3.24,2.16,31.70411,-98.11389,TX,6000,3000,0,0,0,Hamilton General Hospital
10.78,2.32,33.04405,-96.83853,TX,24000,4000,50,75,10,Texas Health Presbyterian Hospital Plano
14.83,2.46,30.05004,-95.25454,TX,33000,4000,33,62,69,Kingwood Medical Center
8.17,2.21,32.65818,-97.42078,TX,18000,3000,50,61,81,Texas Health Harris Methodist Hospital Southwest F
11.22,2.41,27.69288,-97.34476,TX,25000,4000,50,60,85,Corpus Christi Medical Centerthe
6.58,2.41,29.77683,-95.71686,TX,14000,4000,0,0,0,Christus St Catherine Hospital
12.71,2.33,29.96603,-95.55127,TX,28000,4000,50,77,94,Methodist Willowbrook Hospital
9.78,2.21,30.40505,-97.74357,TX,21000,3000,0,0,0,Seton  Northwest Hospital
6.59,2.91,26.25286,-98.20590,TX,14000,5000,33,66,44,Doctors Hospital At Renaissance
6.35,2.10,33.60310,-101.91587,TX,13000,3000,0,0,0,Lubbock Heart Hospital Lp
4.13,2.35,38.40552,-78.85730,VA,8000,4000,50,70,92,Rockingham Memorial Hospital
3.78,2.41,39.19345,-78.19599,VA,7000,4000,66,60,74,Winchester Medical Center Inc
5.89,2.66,36.86268,-76.30355,VA,12000,5000,83,58,4,Sentara Norfolk General Hospital
9.34,3.38,38.02573,-78.51526,VA,20000,6000,33,35,24,University Of Virginia Medical Center
4.03,2.35,38.09436,-78.98659,VA,8000,4000,50,82,99,Augusta Health
3.92,2.34,37.41368,-79.16870,VA,7000,4000,50,70,57,Centra  Health Inc
7.79,2.40,38.31158,-77.48061,VA,17000,4000,66,73,17,Mary Washington Hospital Inc
5.82,2.73,38.71322,-77.80895,VA,12000,5000,0,0,0,The Fauquier Hospital Inc
5.43,2.60,37.25129,-79.94125,VA,11000,4000,50,61,1,Carilion Roanoke Memorial Center
5.98,2.56,38.82218,-77.10533,VA,12000,4000,66,68,57,Inova Alexandria Hospital
5.26,2.33,39.07405,-77.47754,VA,11000,4000,50,83,79,Inova Loudoun Hospital
5.25,2.18,36.85098,-76.18989,VA,11000,3000,50,65,76,Sentara Leigh Hospital
7.95,2.32,37.26336,-80.03166,VA,17000,4000,50,48,8,Lewisgale Medical Center
5.90,2.61,38.88916,-77.12796,VA,12000,4000,100,57,57,Virginia Hospital Center - Arlington
6.28,2.14,36.72172,-81.91249,VA,13000,3000,50,90,90,Johnston Memorial Hospital
9.18,2.13,36.86449,-76.02844,VA,20000,3000,66,62,39,Sentara Virginia Beach General Hospital
5.03,2.17,37.09990,-81.79024,VA,10000,3000,0,0,0,Clinch Valley Medical Center
6.24,2.73,38.85764,-77.22772,VA,13000,5000,83,53,1,Inova Fairfax Hospital
11.88,2.38,37.18253,-77.35957,VA,26000,4000,50,76,85,Southside Regional Medical Center
4.59,2.26,36.57812,-79.40453,VA,9000,4000,50,61,69,Danville Regional Medical Center
3.80,2.13,38.02176,-78.44530,VA,7000,3000,50,75,88,Martha Jefferson Hospital
7.16,2.21,36.69555,-79.86374,VA,15000,3000,50,57,16,Memorial Hospital Of Martinsville & Henry County
4.07,2.45,37.30288,-78.40196,VA,8000,4000,0,0,0,Southside Community Hospital Inc
5.68,2.20,37.05580,-76.39048,VA,12000,3000,66,66,74,Sentara Careplex Hospital
6.03,2.73,38.88483,-77.37995,VA,12000,5000,50,75,94,Inova Fair Oaks Hospital
11.53,2.33,37.51021,-77.59525,VA,25000,4000,83,52,32,Cjw Medical Center
12.74,2.32,37.60459,-77.53929,VA,28000,4000,66,63,29,Henrico Doctors' Hospital
7.82,2.53,47.15452,-122.50105,WA,17000,4000,0,0,0,Saint Clare Hospital
9.11,2.45,47.05286,-122.84707,WA,20000,4000,50,41,11,Providence St Peter Hospital
4.95,2.57,46.59360,-120.54741,WA,10000,4000,50,75,48,Yakima Valley Memorial Hospital
8.51,2.45,47.58295,-122.62506,WA,18000,4000,66,57,33,Harrison Medical Center
6.71,2.64,45.62460,-122.58145,WA,14000,4000,66,53,81,Peacehealth Southwest Medical Center
5.82,2.44,46.28132,-119.28218,WA,12000,4000,33,77,54,Kadlec Regional Medical Center
7.00,3.27,47.60351,-122.32305,WA,15000,6000,66,52,0,Harborview Medical Center
11.29,2.45,47.17742,-122.28943,WA,25000,4000,50,96,11,Multicare Good Samaritan Hospital
5.66,2.72,47.44243,-122.21392,WA,12000,5000,50,55,48,Valley Medical Center
14.91,2.60,47.24670,-122.44841,WA,33000,4000,66,66,21,St Joseph Medical Center
9.93,2.73,47.25980,-122.45243,WA,22000,5000,83,50,57,Tacoma General Allenmore Hospital
8.21,2.56,47.29252,-122.32729,WA,18000,4000,50,71,1,St Francis Community Hospital
9.43,2.68,47.36373,-122.61353,WA,20000,5000,0,0,0,St Anthony Hospital
5.05,2.84,39.65498,-79.95814,WV,10000,5000,83,31,5,West Virginia University Hospitals
3.77,2.29,38.43236,-82.40067,WV,7000,4000,66,60,17,St Mary'S Medical Center
7.16,2.57,38.34739,-81.62600,WV,15000,4000,66,58,10,Charleston Area Medical Center
4.44,2.10,39.66383,-79.94681,WV,9000,3000,50,77,98,Monongalia County General Hospital
3.79,2.24,38.92594,-79.84673,WV,7000,4000,0,0,0,Davis Memorial Hospital
3.04,2.21,39.04775,-80.49240,WV,5000,3000,0,0,0,Stonewall Jackson Mem Hosp
5.84,2.12,39.27035,-81.56026,WV,12000,3000,50,51,10,Camden Clark Medical Center
4.03,2.25,37.79878,-81.16820,WV,8000,4000,50,72,48,Beckley Arh Hospital
3.81,2.21,37.78754,-81.20183,WV,7000,3000,66,73,82,Raleigh General Hospital
6.91,2.28,43.01152,-88.24308,WI,15000,4000,50,55,24,Waukesha Memorial Hospital
5.05,2.31,42.57776,-87.81939,WI,10000,4000,66,65,20,United Hsptl Sys
6.17,2.21,44.81192,-91.51352,WI,13000,3000,25,55,69,Mayo Clinic Health System Eau Claire Hospital
6.55,2.52,43.05867,-89.40269,WI,14000,4000,66,77,69,St Mary'S Hospital
8.82,2.62,43.06432,-89.40100,WI,19000,4000,66,43,56,Meriter Hsptl
6.23,2.50,42.73444,-87.82788,WI,13000,4000,50,67,12,Wheaton Franciscan Healthcare- All Saints
5.69,2.31,45.07138,-87.61847,WI,12000,4000,0,0,0,Bay Area Med Ctr
9.85,2.66,42.98958,-87.95079,WI,21000,5000,50,65,37,Aurora St Lukes Medical Center
6.89,3.22,43.04008,-88.02523,WI,14000,6000,66,36,11,Froedtert Mem Lutheran Hsptl
6.75,3.01,41.14037,-104.81660,WY,14000,5000,50,70,33,Cheyenne Regional Medical Center
8.48,2.24,30.56899,-97.65104,TX,18000,4000,75,91,29,Seton Medical Center Williamson
10.08,2.25,29.61578,-98.47479,TX,22000,4000,50,76,33,Methodist Stone Oak Hospital
12.93,2.72,30.00719,-97.85383,TX,29000,5000,75,88,43,Seton Medical Center Hays
9.35,3.26,32.77776,-96.56763,TX,20000,6000,50,90,42,Texas Regional Medical Center At Sunnyvale
