size_charge,size_pay,lat,lon,charge,pay,AcquiredInfect,AcquiredConditions,PatientSafetySummary,name
7.43,2.37,31.21673,-85.36307,26014.67,5787.22,0.50,0.51,0.21,SOUTHEAST ALABAMA MEDICAL CENTER
3.56,2.27,34.22148,-86.15966,10562.27,5408.09,0.50,0.91,0.54,MARSHALL MEDICAL CENTER SOUTH
8.14,2.19,34.80175,-87.67514,28862.27,5083.18,0.50,0.65,0.03,ELIZA COFFEE MEMORIAL HOSPITAL
7.71,2.26,33.25607,-86.81035,27124.55,5380.36,0.83,0.70,0.64,SHELBY BAPTIST MEDICAL CENTER
4.26,2.24,34.74649,-87.69895,13364.40,5296.33,0.50,0.91,0.33,HELEN KELLER MEMORIAL HOSPITAL
6.92,2.47,32.32785,-86.27750,23994.38,6203.00,0.50,0.68,0.54,BAPTIST MEDICAL CENTER SOUTH
2.73,2.29,32.63806,-85.40413,7255.47,5498.33,0.50,0.80,0.14,EAST ALABAMA MEDICAL CENTER AND SNF
10.57,3.05,33.50619,-86.80210,38550.60,8505.83,0.67,0.45,0.11,UNIVERSITY OF ALABAMA HOSPITAL
7.15,2.62,34.72007,-86.58108,24886.50,6815.24,0.50,0.65,0.45,HUNTSVILLE HOSPITAL
4.45,2.24,33.50734,-86.78958,14094.45,5266.18,0.50,0.72,0.21,ST VINCENT'S BIRMINGHAM
7.47,2.22,33.65640,-85.82284,26189.33,5200.40,0.50,0.60,0.05,NORTHEAST ALABAMA REGIONAL MED CENTER
5.16,2.33,33.20521,-87.52546,16934.21,5627.79,0.67,0.66,0.21,D C H REGIONAL MEDICAL CENTER
7.26,2.36,33.49854,-86.84633,25332.50,5757.83,0.67,0.70,0.08,BAPTIST MEDICAL CENTER-PRINCETON
10.48,2.30,33.51420,-86.74859,38189.73,5532.91,0.67,0.28,0.11,TRINITY MEDICAL CENTER
6.67,2.62,30.69697,-88.08081,22973.67,6812.05,0.67,0.55,0.25,MOBILE INFIRMARY
14.69,2.41,33.46420,-86.77409,55030.54,5983.54,0.50,0.65,0.30,BROOKWOOD MEDICAL CENTER
6.21,2.66,33.46514,-112.05797,21132.38,6946.85,0.50,0.49,0.70,BANNER GOOD SAMARITAN MEDICAL CENTER
5.54,2.50,32.25294,-110.88135,18473.17,6320.89,0.50,0.49,0.03,TUCSON MEDICAL CENTER
7.75,2.38,32.22685,-110.85520,27291.23,5825.54,0.67,0.55,0.21,CARONDELET ST JOSEPHS HOSPITAL
6.51,2.60,34.56017,-112.48217,22336.37,6732.42,0.25,0.68,0.17,YAVAPAI REGIONAL MEDICAL CENTER
6.07,2.58,32.68274,-114.63506,20593.44,6656.31,0.50,0.64,0.70,YUMA REGIONAL MEDICAL CENTER
12.09,2.67,33.29750,-111.87461,44633.15,6997.69,0.50,0.79,0.54,CHANDLER REGIONAL MEDICAL CENTER
7.50,2.22,33.60432,-112.28378,26303.64,5222.09,0.83,0.75,0.96,BANNER BOSWELL MEDICAL CENTER
8.07,3.48,32.24152,-110.94631,28552.00,10254.14,0.50,0.38,0.39,UNIVERSITY OF ARIZONA MEDICAL CTR-UNIVERSIT THE
6.94,2.35,32.32103,-111.01102,24047.38,5704.38,0.50,0.71,0.20,NORTHWEST MEDICAL CENTER
6.08,2.38,33.41128,-111.68916,20614.95,5843.70,0.50,0.70,0.64,BANNER BAYWOOD MEDICAL CENTER
7.11,2.66,33.60949,-112.18129,24719.61,6961.09,0.67,0.74,0.76,BANNER THUNDERBIRD MEDICAL CENTER
7.29,2.32,33.65965,-112.37283,25457.41,5598.35,0.50,0.78,0.97,BANNER DEL E WEBB MEDICAL CENTER
8.23,2.64,33.65497,-112.20040,29217.82,6862.55,0.50,0.90,0.39,ARROWHEAD HOSPITAL
6.50,2.93,33.65947,-111.95626,22292.79,8060.12,0.67,0.54,0.96,MAYO CLINIC HOSPITAL
5.24,2.30,34.75031,-92.33897,17265.81,5535.25,0.67,0.64,0.83,ST VINCENT INFIRMARY MEDICAL CENTER
4.98,2.22,36.31007,-94.18471,16222.82,5204.36,0.50,0.68,0.45,MERCY MEDICAL CENTER
5.22,2.80,34.74866,-92.35422,17197.78,7531.81,0.50,0.51,0.33,UAMS MEDICAL CENTER
2.95,2.40,35.83746,-90.70386,8118.88,5910.25,0.50,0.75,0.03,ST BERNARDS MEDICAL CTR
4.79,2.28,34.46784,-93.06667,15461.00,5452.69,0.67,0.66,0.86,ST JOSEPHS MERCY HEALTH CENTER INC
3.15,2.15,36.34295,-92.39442,8930.82,4929.73,0.50,0.65,0.58,BAXTER REGIONAL MEDICAL CENTER
4.18,2.23,35.08546,-92.45774,13051.78,5232.94,0.50,0.72,0.80,CONWAY REGIONAL MEDICAL CENTER
4.91,2.23,34.77770,-92.12539,15929.87,5248.00,0.50,0.60,0.14,BAPTIST HEALTH MEDICAL CENTER NORTH LITTLE ROCK
8.46,2.72,33.22053,-92.67102,30138.82,7190.45,0.50,0.70,0.14,MEDICAL CENTER SOUTH ARKANSAS
6.83,2.35,34.74866,-92.35422,23606.18,5715.18,0.50,0.44,0.21,BAPTIST HEALTH MEDICAL CENTER-LITTLE ROCK
4.33,2.12,34.73868,-92.39307,13627.08,4794.25,0.75,0.86,0.80,ARKANSAS HEART HOSPITAL
12.31,3.43,38.57053,-121.45216,45503.83,10031.33,0.83,0.54,0.28,MERCY GENERAL HOSPITAL
10.59,3.84,32.75426,-117.16592,38619.25,11660.83,0.50,0.72,0.70,UNIVERSITY OF CALIFORNIA SAN DIEGO MEDICAL CENTER
10.87,2.68,32.77495,-117.01467,39754.00,7047.17,0.83,0.71,0.33,GROSSMONT HOSPITAL
14.37,2.55,39.74221,-121.85000,53741.64,6526.82,0.83,0.71,0.48,ENLOE MEDICAL CENTER
20.80,3.58,37.82206,-122.26275,79434.67,10633.93,0.50,0.64,0.32,ALTA BATES SUMMIT MEDICAL CENTER
15.23,3.82,37.79100,-122.43125,57180.59,11609.00,0.83,0.64,0.11,CALIFORNIA PACIFIC MEDICAL CTR-PACIFIC CAMPUS HOSP
15.56,3.17,32.75143,-117.16083,58480.35,9012.85,0.33,0.62,0.70,SCRIPPS MERCY HOSPITAL
13.92,2.90,37.96987,-121.28873,51942.82,7906.91,0.83,0.69,0.97,ST JOSEPHS MED CENTER OF STOCKTON
6.87,2.67,36.83532,-119.76562,23792.94,6993.83,0.50,0.66,0.58,SAINT AGNES MEDICAL CENTER
17.70,5.17,32.79949,-117.15394,67044.79,16983.37,0.67,0.62,0.11,SHARP MEMORIAL HOSPITAL
14.95,3.09,38.57155,-121.46874,56036.82,8696.32,0.83,0.78,0.80,SUTTER GENERAL HOSPITAL
11.50,2.86,34.02685,-118.48651,42256.47,7773.80,0.50,0.76,0.21,SANTA MONICA - UCLA MED CTR & ORTHOPAEDIC HOSPITAL
13.37,2.92,34.22014,-118.53410,49739.36,8008.00,0.33,0.56,0.45,NORTHRIDGE HOSPITAL MEDICAL CENTER
8.12,2.72,39.13822,-121.59436,28777.62,7204.44,0.50,0.51,0.21,RIDEOUT MEMORIAL HOSPITAL
14.22,3.02,36.57886,-121.91316,53128.05,8417.14,0.67,0.56,0.58,COMMUNITY HOSPITAL OF THE MONTEREY PENINSULA
19.31,2.78,37.91341,-122.04163,73469.82,7450.73,0.50,0.62,0.33,JOHN MUIR MEDICAL CENTER - WALNUT CREEK CAMPUS
7.99,2.44,33.62229,-117.92995,28246.47,6098.16,0.50,0.70,0.51,HOAG MEMORIAL HOSPITAL PRESBYTERIAN
16.55,4.39,34.06675,-118.44613,62457.50,13876.04,0.50,0.28,0.33,RONALD REAGAN UCLA MEDICAL CENTER
18.05,2.83,34.27915,-118.46006,68445.93,7641.13,0.50,0.80,0.25,PROVIDENCE HOLY CROSS MEDICAL CENTER
10.86,2.92,40.58654,-122.39168,39711.73,8000.60,0.83,0.71,0.45,MERCY MEDICAL CENTER REDDING
9.05,2.73,34.50107,-117.17285,32490.73,7255.82,0.50,0.88,0.20,ST MARY MEDICAL CENTER
14.53,3.45,37.85593,-122.25730,54392.17,10098.25,0.50,0.56,0.08,ALTA BATES SUMMIT MEDICAL CENTER - ALTA BATES CAMP
13.55,2.86,37.36934,-122.08047,50475.73,7776.00,0.67,0.49,0.07,EL CAMINO HOSPITAL
9.93,2.68,38.76514,-121.24979,35983.94,7051.50,0.67,0.78,0.16,SUTTER ROSEVILLE MEDICAL CENTER
19.44,4.84,34.05076,-117.26395,73974.47,15665.41,0.50,0.55,0.16,LOMA LINDA UNIVERSITY MEDICAL CENTER
12.99,2.55,33.81131,-118.34364,48238.60,6514.73,0.67,0.68,0.89,TORRANCE MEMORIAL MEDICAL CENTER
13.15,2.62,33.83891,-118.35677,48869.17,6783.83,0.50,0.86,0.94,PROVIDENCE LITTLE COMPANY OF MARY MED CTR TORRANCE
23.43,3.70,37.94748,-122.53677,89936.00,11096.21,0.50,0.64,0.16,MARIN GENERAL HOSPITAL
15.82,2.93,37.25153,-121.94684,59532.31,8027.12,0.33,0.64,0.03,GOOD SAMARITAN HOSPITAL
6.48,3.13,34.08802,-117.89341,22222.92,8859.00,0.67,0.68,0.29,CITRUS VALLEY MEDICAL CENTER-IC CAMPUS
14.35,3.01,34.42951,-119.72333,53641.00,8344.58,0.67,0.72,0.32,SANTA BARBARA COTTAGE HOSPITAL
8.30,2.71,34.13364,-118.15275,29504.35,7165.59,0.67,0.65,0.58,HUNTINGTON MEMORIAL HOSPITAL
24.80,4.33,37.43436,-122.18013,95398.50,13650.16,0.50,0.59,0.28,STANFORD HOSPITAL
10.38,3.07,37.34027,-120.46817,37816.73,8598.27,0.50,0.78,0.38,MERCY MEDICAL CENTER
14.24,4.18,37.76421,-122.45716,53222.17,13026.57,0.67,0.53,0.91,UCSF MEDICAL CENTER
10.30,2.79,35.38338,-119.01969,37491.36,7489.27,0.33,0.86,0.07,SAN JOAQUIN COMMUNITY HOSPITAL
12.43,3.19,34.05336,-118.26558,46005.40,9080.53,0.50,0.69,0.80,GOOD SAMARITAN HOSPITAL
15.77,2.47,34.20285,-118.62962,59312.32,6186.64,0.50,0.61,0.14,WEST HILLS HOSPITAL & MEDICAL CENTER
7.75,2.87,33.80861,-118.18661,27276.31,7809.62,0.67,0.65,0.28,LONG BEACH MEMORIAL MEDICAL CENTER
10.38,3.11,37.69824,-122.08730,37805.92,8751.75,0.67,0.61,0.54,EDEN MEDICAL CENTER
11.30,3.06,37.98224,-121.80362,41475.00,8548.27,0.50,0.59,0.25,SUTTER DELTA MEDICAL CENTER
12.82,2.90,34.20777,-118.88305,47533.74,7914.11,0.50,0.51,0.70,LOS ROBLES HOSPITAL & MEDICAL CENTER
10.24,2.68,37.66867,-120.97339,37233.07,7040.93,0.67,0.80,0.54,MEMORIAL  MEDICAL CENTER
12.62,2.53,33.56100,-117.66530,46764.00,6450.75,0.67,0.59,0.13,MISSION HOSPITAL REGIONAL MED CENTER
14.81,2.54,33.76335,-116.40628,55485.41,6465.18,0.50,0.56,0.39,EISENHOWER MEDICAL CENTER
15.76,3.89,38.55484,-121.45628,59277.28,11862.72,0.50,0.50,0.03,UNIVERSITY OF CALIFORNIA DAVIS MEDICAL CENTER
13.85,2.55,34.39755,-118.55330,51657.64,6510.00,0.50,0.60,0.21,HENRY MAYO NEWHALL MEMORIAL HOSPITAL
19.62,3.24,34.07664,-118.37955,74708.10,9267.19,1.00,0.59,0.48,CEDARS-SINAI MEDICAL CENTER
6.79,2.60,33.55876,-117.18329,23472.83,6734.89,0.67,0.74,0.74,SOUTHWEST HEALTHCARE SYSTEM
11.04,2.99,33.95076,-118.34828,40433.84,8292.05,0.50,0.71,1.00,CENTINELA HOSPITAL MEDICAL CENTER
9.37,2.72,40.58532,-122.38702,33754.82,7196.64,0.50,0.79,0.98,SHASTA REGIONAL MEDICAL CENTER
7.54,2.59,40.57315,-105.05741,26471.50,6702.25,0.50,0.69,0.96,POUDRE VALLEY HOSPITAL
9.89,2.72,39.74615,-104.96682,35846.64,7206.91,0.67,0.47,0.17,PRESBYTERIAN/ST LUKE'S MEDICAL CENTER
8.00,2.38,38.28184,-104.61256,28272.90,5839.45,0.67,0.69,0.30,PARKVIEW MEDICAL CENTER INC
7.65,2.55,38.83903,-104.80024,26899.41,6536.59,0.67,0.69,0.33,MEMORIAL HOSPITAL CENTRAL
9.45,2.63,39.09046,-108.56190,34098.07,6837.07,0.50,0.49,0.58,ST MARYS HOSPITAL AND MEDICAL CENTER
10.84,3.40,39.74234,-104.84156,39651.77,9907.38,0.67,0.66,0.70,UNIVERSITY OF COLORADO HOSPITAL ANSCHUTZ INPATIENT
6.33,2.45,38.86559,-104.82182,21617.72,6128.32,0.50,0.70,0.38,CENTURA HEALTH-PENROSE ST FRANCIS HEALTH SERVICES
10.68,2.53,39.73231,-104.93396,38992.25,6431.00,0.75,0.50,0.32,ROSE MEDICAL CENTER
7.91,2.44,39.65399,-104.98116,27943.08,6097.92,0.33,0.47,0.17,SWEDISH MEDICAL CENTER
9.42,2.44,39.68859,-104.83205,33944.39,6090.22,0.50,0.61,0.14,MEDICAL CENTER OF AURORA THE
12.41,2.67,39.52910,-104.87121,45915.36,6983.07,0.50,0.76,0.80,SKY RIDGE MEDICAL CENTER
10.03,2.35,39.57629,-104.98610,36408.80,5730.80,0.50,0.79,0.54,CENTURA HEALTH-LITTLETON ADVENTIST HOSPITAL
6.27,2.79,41.30978,-72.93806,21362.58,7499.42,0.67,0.57,0.08,HOSPITAL OF ST RAPHAEL
7.05,2.93,41.77507,-72.69941,24480.67,8053.04,0.50,0.54,0.86,ST FRANCIS HOSPITAL & MEDICAL CENTER
4.69,2.59,41.33722,-72.10380,15059.47,6679.12,0.50,0.72,0.93,LAWRENCE & MEMORIAL HOSPITAL
8.28,2.62,41.03431,-73.63020,29396.46,6800.23,0.50,0.49,0.64,GREENWICH HOSPITAL ASSOCIATION
9.31,3.81,41.30400,-72.93502,33524.73,11562.19,0.67,0.41,0.03,YALE-NEW HAVEN HOSPITAL
5.23,2.65,41.54301,-72.08799,17232.00,6935.73,0.50,0.70,0.45,WILLIAM W BACKUS HOSPITAL
6.13,3.06,41.75412,-72.67927,20827.73,8560.10,0.50,0.47,0.10,HARTFORD HOSPITAL
7.05,2.85,41.20049,-73.20281,24500.50,7730.25,0.67,0.79,0.64,ST VINCENT'S MEDICAL CENTER
4.49,2.91,41.40474,-73.44739,14257.73,7971.73,0.50,0.66,0.58,DANBURY HOSPITAL
7.45,2.76,41.11147,-73.42010,26085.00,7373.36,0.50,0.72,0.93,NORWALK HOSPITAL ASSOCIATION
4.04,2.66,41.66107,-72.78671,12487.58,6970.23,0.50,0.53,0.08,HOSPITAL OF CENTRAL CONNECTICUT THE
5.83,2.84,39.69005,-75.68408,19626.84,7671.37,0.67,0.59,0.39,CHRISTIANA CARE HEALTH SERVICES INC.
5.37,2.56,39.74954,-75.56662,17777.73,6553.91,0.50,0.81,0.80,ST FRANCIS HOSPITAL
5.25,2.41,39.15135,-75.52309,17309.00,5976.62,0.50,0.59,0.91,BAYHEALTH - KENT GENERAL HOSPITAL
8.21,2.93,38.77159,-75.14210,29129.17,8042.33,0.50,0.90,0.82,BEEBE MEDICAL CENTER
9.70,3.04,38.90106,-77.05079,35090.44,8476.72,0.50,0.50,0.14,GEORGE WASHINGTON UNIV HOSPITAL
13.41,4.32,38.91221,-77.07588,49906.11,13592.61,0.67,0.65,0.01,GEORGETOWN UNIVERSITY HOSPITAL
4.64,2.91,38.94397,-76.99040,14855.08,7962.25,0.50,0.57,0.25,PROVIDENCE HOSPITAL
7.95,3.05,38.92944,-77.01473,28072.27,8502.08,0.33,0.59,0.02,WASHINGTON HOSPITAL CENTER
9.15,3.19,30.34913,-81.66391,32884.50,9083.31,0.50,0.62,0.00,SHANDS JACKSONVILLE MEDICAL CENTER
8.96,2.49,26.50479,-80.06979,32106.43,6292.16,0.50,0.54,0.99,BETHESDA MEMORIAL HOSPITAL
9.17,2.68,28.52517,-81.37729,32964.05,7058.92,0.67,0.47,0.29,ORLANDO HEALTH
9.33,2.75,28.57345,-81.36990,33585.21,7337.67,0.83,0.66,0.25,FLORIDA HOSPITAL
14.55,3.50,25.68309,-80.34038,54434.74,10307.63,0.50,0.62,0.86,BAPTIST HOSPITAL OF MIAMI INC
8.71,2.77,25.78846,-80.21644,31145.82,7410.65,0.83,0.56,0.01,UNIVERSITY OF MIAMI HOSPITAL
6.33,2.34,26.62849,-81.87423,21640.89,5694.79,0.67,0.53,0.16,LEE MEMORIAL HOSPITAL
4.70,2.35,29.20117,-81.05828,15109.27,5739.00,0.67,0.76,0.80,HALIFAX HEALTH MEDICAL CENTER
6.60,2.28,26.15053,-81.79919,22701.63,5428.07,0.67,0.62,0.39,NAPLES COMMUNITY HOSPITAL
8.17,2.24,28.08771,-80.61362,28951.50,5301.28,0.67,0.59,0.17,HOLMES REGIONAL MEDICAL CENTER
10.35,4.25,25.79143,-80.21250,37680.06,13298.44,0.83,0.49,0.05,JACKSON MEMORIAL HOSPITAL
5.46,2.64,30.47650,-87.21219,18150.00,6862.79,0.50,0.41,0.39,SACRED HEART HOSPITAL
5.06,2.28,30.15963,-85.64818,16533.11,5443.50,0.67,0.74,0.43,BAY MEDICAL CENTER
10.33,3.10,25.86166,-80.21398,37584.64,8706.00,0.50,0.84,0.70,NORTH SHORE MEDICAL CENTER
11.35,2.83,25.81317,-80.13996,41669.84,7644.26,0.67,0.47,0.25,MOUNT SINAI MEDICAL CENTER
7.12,2.58,26.01867,-80.17981,24762.53,6648.59,0.83,0.64,0.76,MEMORIAL REGIONAL HOSPITAL
4.83,2.28,30.30835,-81.68919,15619.15,5462.12,0.50,0.69,0.83,ST VINCENT'S MEDICAL CENTER
9.25,2.33,27.19837,-80.24306,33271.87,5652.53,0.67,0.70,0.58,MARTIN MEMORIAL MEDICAL CENTER
8.46,2.29,29.04263,-81.31635,30147.64,5494.91,0.50,0.86,0.99,FLORIDA HOSPITAL DELAND
8.26,2.16,26.94042,-82.04094,29327.50,4984.25,0.50,0.72,0.86,CHARLOTTE REGIONAL MEDICAL CENTER
6.27,2.22,27.46707,-81.43358,21388.08,5224.00,0.00,0.00,0.00,HIGHLANDS REGIONAL MEDICAL CENTER
7.08,2.79,25.86856,-80.31222,24616.45,7497.00,0.50,0.89,0.93,PALM SPRINGS GENERAL HOSPITAL
7.39,2.35,28.55140,-81.72120,25848.62,5731.92,0.00,0.00,0.00,SOUTH LAKE HOSPITAL
6.77,2.35,28.02768,-81.72466,23381.47,5720.11,0.50,0.62,0.03,WINTER HAVEN HOSPITAL
5.45,2.23,28.82358,-81.71133,18100.56,5226.31,0.50,0.71,0.48,FLORIDA HOSPITAL WATERMAN
6.63,2.23,29.17594,-82.13898,22806.41,5236.56,0.50,0.60,0.94,MUNROE REGIONAL MEDICAL CENTER
6.16,2.25,27.78088,-82.65126,20927.31,5319.62,0.50,0.69,0.58,ST ANTHONY'S HOSPITAL
5.10,2.09,29.24333,-81.10760,16723.00,4694.71,0.50,0.68,0.96,FLORIDA HOSPITAL MEMORIAL MEDICAL CENTER
6.67,2.16,27.09043,-82.44499,22976.86,4972.64,0.50,0.76,0.48,VENICE REGIONAL MEDICAL CENTER
7.39,2.29,26.18711,-80.11941,25864.29,5479.71,0.83,0.57,0.38,HOLY CROSS HOSPITAL INC
5.89,2.46,27.98242,-82.49025,19862.64,6180.24,0.67,0.60,0.30,ST JOSEPH'S HOSPITAL
6.29,2.31,26.98905,-82.09559,21455.91,5556.27,0.50,0.69,0.43,PEACE RIVER REGIONAL MEDICAL CENTER
9.17,2.39,26.59805,-80.09271,32967.56,5878.24,1.00,0.60,0.28,JFK MEDICAL CENTER
6.89,2.26,28.80659,-81.86906,23854.00,5354.38,0.33,0.68,0.25,LEESBURG REGIONAL MEDICAL CENTER
7.51,2.39,26.27623,-80.12220,26348.00,5902.92,0.75,0.72,0.58,BROWARD HEALTH NORTH BROWARD MEDICAL CENTER
6.29,2.26,27.31827,-82.53140,21447.20,5358.35,0.33,0.38,0.70,SARASOTA MEMORIAL HOSPITAL
6.34,2.37,30.31525,-81.66398,21652.40,5819.40,0.67,0.47,0.13,BAPTIST MEDICAL CENTER
7.79,2.44,29.86371,-81.31749,27436.14,6078.77,0.67,0.76,0.30,FLAGLER HOSPITAL
7.74,2.83,28.33522,-80.72319,27239.07,7629.36,0.50,0.64,0.97,WUESTHOFF MEDICAL CENTER  ROCKLEDGE
7.10,2.31,30.43066,-87.23191,24685.91,5576.35,0.50,0.72,0.17,BAPTIST HOSPITAL
4.72,2.32,27.65832,-80.39307,15206.00,5591.89,0.67,0.76,0.99,INDIAN RIVER MEDICAL CENTER
5.10,2.22,27.50001,-81.43962,16721.92,5201.00,0.50,0.61,0.86,FLORIDA HOSPITAL HEARTLAND MEDICAL CENTER
10.62,2.43,28.29946,-81.41021,38756.27,6061.45,0.50,0.64,0.51,OSCEOLA REGIONAL MEDICAL CENTER
7.28,3.24,29.64155,-82.34844,25409.68,9275.55,0.67,0.54,0.30,SHANDS HOSPITAL AT THE UNIVERSITY OF FLORIDA
7.16,2.13,30.27449,-81.40071,24950.36,4854.27,0.67,0.94,0.70,BAPTIST MEDICAL CENTER  BEACHES
9.76,2.22,30.73540,-86.56171,35318.45,5191.18,0.50,0.90,0.97,NORTH OKALOOSA MEDICAL CENTER
11.16,2.41,27.95192,-82.80379,40902.15,5966.08,0.67,0.62,0.10,MORTON PLANT HOSPITAL
19.17,3.33,27.93740,-82.45927,72894.88,9623.56,0.67,0.66,0.00,TAMPA GENERAL HOSPITAL
10.04,2.41,25.96994,-80.14533,36428.08,5979.83,0.50,0.64,0.80,AVENTURA HOSPITAL AND MEDICAL CENTER
6.17,2.35,30.45726,-84.26175,20980.33,5717.83,0.67,0.57,0.64,TALLAHASSEE MEMORIAL HEALTHCARE
5.94,2.94,30.26389,-81.44283,20067.27,8067.16,0.83,0.62,0.91,MAYO CLINIC
7.66,2.34,28.06172,-81.95304,26945.76,5683.67,0.50,0.53,0.03,LAKELAND REGIONAL MEDICAL CENTER
6.05,2.28,26.35875,-80.10203,20492.38,5436.19,0.67,0.46,0.43,BOCA RATON REGIONAL HOSPITAL
8.19,2.27,28.07111,-82.42342,29061.65,5416.48,0.50,0.69,0.38,FLORIDA HOSPITAL TAMPA
9.17,2.27,26.83035,-80.08655,32983.18,5409.65,1.00,0.56,0.38,PALM BEACH GARDENS MEDICAL CENTER
12.87,2.27,30.28793,-81.60103,47759.63,5384.84,0.33,0.49,0.25,MEMORIAL HOSPITAL JACKSONVILLE
9.91,2.38,26.26259,-80.20292,35905.00,5848.83,0.50,0.51,0.98,NORTHWEST MEDICAL CENTER
10.64,2.22,28.19342,-82.46987,38836.58,5197.50,0.50,0.78,0.43,MEDICAL CENTER OF TRINITY
10.40,2.28,29.66085,-82.41172,37879.85,5452.59,0.33,0.53,0.17,NORTH FLORIDA REGIONAL MEDICAL CENTER
7.21,2.46,29.17550,-82.13680,25118.00,6161.96,0.83,0.55,0.86,OCALA REGIONAL MEDICAL CENTER
8.59,2.22,27.48213,-82.62126,30637.90,5220.29,0.50,0.75,0.69,BLAKE MEDICAL CENTER
7.10,2.36,26.52735,-81.83337,24682.09,5769.26,0.50,0.59,0.64,GULF COAST MEDICAL CENTER LEE MEM HEALTH SYSTEM
11.03,2.21,30.16550,-81.73775,40378.14,5170.71,0.33,0.69,0.58,ORANGE PARK MEDICAL CENTER
9.10,2.25,30.51624,-87.21856,32687.33,5342.28,0.50,0.65,0.05,WEST FLORIDA HOSPITAL
8.75,2.25,26.98884,-82.09877,31297.59,5328.65,0.50,0.80,0.58,FAWCETT MEMORIAL HOSPITAL
9.94,2.29,27.82545,-82.70122,36025.23,5490.15,0.50,0.65,0.33,NORTHSIDE HOSPITAL
8.05,2.37,27.93259,-82.28759,28493.53,5802.27,0.67,0.68,0.21,BRANDON REGIONAL HOSPITAL
7.47,2.20,26.63958,-81.94164,26164.17,5131.00,0.50,0.53,0.21,CAPE CORAL HOSPITAL
12.78,2.54,27.43392,-80.34350,47365.67,6468.17,0.83,0.54,0.30,LAWNWOOD REGIONAL MEDICAL CENTER & HEART INSTITUTE
12.88,2.40,27.91458,-82.80382,47802.82,5904.09,0.50,0.49,0.25,LARGO MEDICAL CENTER
8.69,2.27,26.92138,-80.09708,31030.53,5388.53,0.50,0.61,0.54,JUPITER MEDICAL CENTER
9.46,2.40,28.36128,-82.68883,34124.36,5913.07,0.67,0.68,0.91,REGIONAL MEDICAL CENTER BAYONET POINT
12.35,2.41,26.43709,-80.12728,45668.91,5979.45,0.83,0.72,0.93,DELRAY MEDICAL CENTER
9.62,2.30,27.28861,-80.29431,34759.18,5534.47,0.50,0.65,0.54,ST LUCIE MEDICAL CENTER
14.98,2.16,28.53585,-82.53404,56158.71,4950.59,0.67,0.71,0.58,OAK HILL HOSPITAL
6.62,2.10,28.03957,-82.70875,22789.55,4734.73,0.67,0.66,0.54,MEASE COUNTRYSIDE HOSPITAL
10.58,2.47,26.01394,-80.30980,38615.64,6222.00,0.67,0.71,0.64,MEMORIAL HOSPITAL WEST
8.52,2.20,26.21388,-81.73257,30355.75,5116.67,0.33,0.80,0.33,PHYSICIANS REGIONAL MEDICAL CENTER - PINE RIDGE
7.63,2.33,26.08155,-80.36449,26815.42,5626.08,1.00,0.57,0.48,CLEVELAND CLINIC HOSPITAL
5.29,2.12,28.94952,-81.95843,17468.59,4806.81,0.33,0.80,0.94,VILLAGES REGIONAL HOSPITAL THE
4.32,2.21,31.22516,-82.34898,13596.43,5150.29,0.50,0.94,0.33,SATILLA REGIONAL MEDICAL CENTER
7.61,4.03,33.79230,-84.32107,26722.97,12419.51,0.50,0.41,0.08,EMORY UNIVERSITY HOSPITAL
4.65,2.36,33.03204,-85.05781,14907.25,5778.19,0.50,0.79,0.96,WEST GEORGIA MEDICAL CENTER
4.69,2.36,33.47096,-81.98176,15063.94,5751.00,0.50,0.51,0.21,UNIVERSITY HOSPITAL
4.92,2.39,34.30335,-83.81737,16004.59,5878.68,0.67,0.59,0.45,NORTHEAST GEORGIA MEDICAL CENTER INC
8.37,2.39,33.23886,-84.26706,29784.25,5872.67,0.33,0.79,0.70,SPALDING REGIONAL MEDICAL CENTER
5.26,3.18,33.47091,-81.98988,17362.54,9054.31,0.67,0.45,0.38,MEDICAL COLLEGE OF GA HOSPITALS AND CLINICS
6.90,2.33,33.96770,-84.55011,23885.07,5633.41,0.67,0.62,0.45,WELLSTAR KENNESTONE HOSPITAL
5.07,2.61,32.03185,-81.09158,16592.17,6752.92,0.67,0.61,0.25,MEMORIAL HEALTH UNIV MED CEN INC
9.67,2.22,31.98515,-81.15475,34959.27,5214.18,0.67,0.72,0.33,ST JOSEPH'S HOSPITAL - SAVANNAH
4.88,2.49,34.26000,-85.17000,15841.53,6270.87,0.50,0.68,0.89,FLOYD MEDICAL CENTER
4.20,2.33,32.61642,-83.63065,13126.00,5646.72,0.50,0.74,0.74,HOUSTON MEDICAL CENTER
6.56,2.51,33.96117,-83.39832,22532.83,6352.28,0.50,0.69,0.93,ATHENS REGIONAL MEDICAL CENTER
5.50,2.54,33.78956,-84.28077,18324.48,6497.10,0.50,0.84,0.11,DEKALB MEDICAL CENTER
5.17,2.60,33.76810,-84.38616,16987.71,6711.14,0.33,0.45,0.10,EMORY UNIVERSITY HOSPITAL MIDTOWN
4.77,3.08,33.75205,-84.38272,15375.09,8643.91,0.33,0.56,0.00,GRADY MEMORIAL HOSPITAL
5.17,2.20,33.90877,-84.35180,16993.00,5139.12,0.50,0.55,0.03,SAINT JOSEPH'S HOSPITAL OF ATLANTA INC
7.50,2.40,33.81003,-84.39568,26303.91,5941.73,0.33,0.57,0.45,PIEDMONT HOSPITAL
4.67,2.42,33.96351,-84.01769,14997.92,6004.17,0.50,0.90,0.45,GWINNETT MEDICAL CENTER
5.29,2.51,32.83041,-83.63476,17472.58,6366.66,0.67,0.49,0.45,MEDICAL CENTER OF CENTRAL GEORGIA
5.57,2.37,30.86250,-83.28630,18605.00,5817.91,0.67,0.68,0.74,SOUTH GEORGIA MEDICAL CENTER
5.27,2.24,32.50679,-84.95933,17383.80,5268.93,0.83,0.68,0.70,ST FRANCIS HOSPITAL INC
4.41,2.39,32.84705,-83.61823,13944.82,5866.00,0.67,0.62,0.10,COLISEUM MEDICAL CENTER
6.67,2.30,33.73938,-84.73111,22990.25,5506.50,0.50,0.91,0.58,WELLSTAR DOUGLAS HOSPITAL
7.56,3.43,21.30780,-157.85505,26553.50,10018.69,0.67,0.69,0.45,THE QUEENS MEDICAL CENTER
5.08,2.31,43.61218,-116.19234,16636.71,5553.24,0.67,0.61,0.16,ST LUKES REGIONAL MEDICAL CENTER
6.56,2.74,47.69645,-116.79476,22543.64,7280.55,0.50,0.71,0.48,KOOTENAI MEDICAL CENTER
8.95,2.63,41.52896,-88.13550,32067.23,6855.91,0.50,0.75,0.83,PROVENA ST JOSEPH MEDICAL CENTER
7.76,2.67,42.06550,-87.68428,27333.78,6993.83,0.33,0.55,0.58,EVANSTON HOSPITAL
6.61,2.35,41.84429,-89.48014,22742.00,5706.64,0.00,0.00,0.00,KATHERINE SHAW BETHEA HOSPITAL
6.71,2.72,39.93563,-91.39833,23152.15,7211.85,0.50,0.55,0.93,BLESSING HOSPITAL
8.37,2.49,42.07012,-88.33180,29750.07,6301.20,0.50,0.82,0.25,SHERMAN HOSPITAL
6.77,3.18,41.89141,-87.77618,23367.08,9022.25,0.50,0.72,0.93,WEST SUBURBAN MEDICAL CENTER
7.44,3.68,42.05624,-87.74012,26051.36,11055.45,0.50,0.75,0.86,SKOKIE HOSPITAL
6.21,2.50,39.80726,-89.64496,21138.57,6316.57,0.50,0.59,0.80,ST JOHNS HOSPITAL
5.54,2.70,41.83195,-87.79266,18451.13,7108.73,0.50,0.79,0.58,MACNEAL  HOSPITAL
7.35,2.24,41.66900,-87.81414,25691.24,5289.38,0.50,0.72,0.96,PALOS COMMUNITY HOSPITAL
8.50,2.58,41.79660,-87.88627,30278.07,6633.71,0.83,0.64,0.38,ADVENTIST LA GRANGE MEMORIAL HOSPITAL
8.96,2.52,40.70200,-89.59222,32134.54,6408.49,0.67,0.57,0.03,SAINT FRANCIS MEDICAL CENTER
6.12,2.95,41.96698,-87.64941,20795.13,8127.13,0.50,0.70,0.43,LOUIS A WEISS MEMORIAL HOSPITAL
8.03,2.57,42.37840,-87.83329,28429.29,6594.18,0.50,0.74,0.63,VISTA MEDICAL CENTER EAST
12.40,3.60,41.78829,-87.60485,45861.54,10726.40,0.67,0.66,0.11,THE UNIVERSITY OF CHICAGO MEDICAL CENTER
10.39,2.54,40.11696,-88.21506,37821.90,6474.48,0.33,0.64,0.14,CARLE FOUNDATION HOSPITAL
6.96,2.84,41.98743,-87.81440,24123.36,7680.14,0.67,0.62,0.70,RESURRECTION MEDICAL CENTER
5.58,2.49,41.65880,-87.67729,18630.27,6278.45,0.50,0.65,0.94,METROSOUTH MEDICAL CENTER
11.09,3.83,41.87497,-87.66927,40626.88,11635.47,0.50,0.42,0.33,RUSH UNIVERSITY MEDICAL CENTER
6.55,2.37,41.80555,-87.92059,22514.43,5800.14,0.50,0.68,0.54,HINSDALE HOSPITAL
5.63,2.24,40.49639,-88.99106,18818.20,5299.87,0.00,0.00,0.00,BROMENN HEALTHCARE
4.97,2.36,39.80893,-89.65530,16172.24,5779.26,0.83,0.57,0.11,MEMORIAL MEDICAL CENTER
8.28,3.92,41.86927,-87.67052,29429.52,12008.12,0.50,0.76,0.30,UNIVERSITY OF ILLINOIS HOSPITAL
5.95,2.54,40.48254,-88.95519,20117.55,6483.64,0.50,0.91,0.30,ST JOSEPH MEDICAL CENTER
4.38,2.33,37.72790,-89.22058,13821.24,5660.41,0.50,0.64,0.91,MEMORIAL HOSPITAL OF CARBONDALE
5.42,2.66,41.52283,-87.71111,17982.03,6958.74,0.50,0.75,0.33,FRANCISCAN ST JAMES HEALTH
8.00,2.89,41.78566,-88.32886,28295.38,7887.38,0.50,0.72,0.48,PROVENA MERCY MEDICAL CENTER
5.21,2.37,42.27597,-88.40019,17141.18,5822.73,0.50,0.71,0.57,CENTEGRA HEALTH SYSTEM - WOODSTOCK HOSPITAL
6.08,2.47,41.72094,-87.69220,20628.65,6194.00,0.17,0.64,0.70,LITTLE COMPANY OF MARY HOSPITAL
9.60,3.19,41.93641,-87.65295,34666.42,9090.50,0.50,0.78,0.86,ADVOCATE ILLINOIS MASONIC MEDICAL CENTER
9.53,2.31,37.74480,-88.99329,34383.00,5579.64,0.50,0.62,0.93,HEARTLAND REGIONAL MEDICAL CENTER
5.79,2.26,38.55020,-90.02146,19445.43,5368.09,0.67,0.81,0.21,MEMORIAL HOSPITAL
5.56,2.44,41.60726,-87.66060,18564.41,6098.41,0.50,0.65,0.76,INGALLS MEMORIAL HOSPITAL
7.04,2.29,41.86362,-87.93567,24443.00,5466.62,0.50,0.76,0.93,ELMHURST MEMORIAL HOSPITAL
7.68,2.42,42.27447,-87.95764,27029.54,6017.92,0.50,0.70,0.80,ADVOCATE CONDELL MEDICAL CENTER
7.54,3.29,41.72031,-87.73249,26446.58,9473.55,0.50,0.57,0.74,ADVOCATE CHRIST HOSPITAL & MEDICAL CENTER
5.77,2.48,40.70065,-89.59505,19390.19,6253.06,0.50,0.79,0.48,METHODIST MEDICAL CENTER OF ILLINOIS
6.42,2.81,42.03837,-87.84820,21996.56,7573.52,0.83,0.78,0.70,ADVOCATE LUTHERAN GENERAL HOSPITAL
8.34,2.44,42.26584,-89.07428,29653.92,6097.83,0.50,0.65,0.76,SWEDISH AMERICAN HOSPITAL
8.93,2.32,41.76076,-88.15016,32022.22,5592.67,0.50,0.69,0.30,EDWARD HOSPITAL
7.98,2.26,42.26634,-89.00900,28224.00,5374.67,0.50,0.50,0.30,SAINT ANTHONY MEDICAL CENTER
9.51,2.23,41.87269,-88.15684,34333.11,5231.33,0.67,0.62,0.89,CENTRAL DUPAGE HOSPITAL
5.05,2.42,41.56720,-87.69566,16526.65,6019.59,0.50,0.80,0.64,ADVOCATE SOUTH SUBURBAN HOSPITAL
7.94,2.49,42.06732,-87.99368,28057.74,6293.04,0.67,0.68,0.58,NORTHWEST COMMUNITY HOSPITAL
6.20,2.33,42.00413,-88.01745,21095.38,5664.00,0.67,0.79,0.89,ALEXIAN BROTHERS MEDICAL CENTER
6.06,3.14,41.86110,-87.83404,20533.03,8861.82,0.67,0.46,0.05,LOYOLA UNIVERSITY MEDICAL CENTER
3.85,2.22,41.48200,-90.57158,11731.46,5185.54,0.50,0.59,0.64,TRINITY ROCK ISLAND
9.28,3.71,41.89477,-87.62131,33413.55,11156.61,0.50,0.61,0.94,NORTHWESTERN MEMORIAL HOSPITAL
5.91,2.39,41.81791,-88.00907,19952.62,5877.41,0.50,0.86,0.96,ADVOCATE GOOD SAMARITAN HOSPITAL
7.39,2.90,42.19586,-88.17286,25868.00,7930.00,0.50,0.80,0.96,ADVOCATE GOOD SHEPHERD HOSPITAL
5.36,2.57,41.59920,-87.35764,17754.82,6604.12,0.50,0.65,0.94,METHODIST HOSPITALS INC
5.18,2.28,38.28244,-85.74923,17022.80,5453.60,0.50,0.84,0.48,CLARK MEMORIAL HOSPITAL
5.22,2.64,41.70877,-86.17026,17192.05,6898.40,0.50,0.89,0.58,SAINT JOSEPH REGIONAL MEDICAL CENTER
6.94,2.67,41.03874,-85.24876,24052.45,6986.87,0.67,0.64,0.32,LUTHERAN HOSPITAL OF INDIANA
4.56,2.33,41.04659,-85.10906,14533.45,5628.35,0.83,0.60,0.45,PARKVIEW REGIONAL MEDICAL CENTER
6.15,2.43,39.48518,-87.40893,20908.48,6033.95,0.50,0.62,0.33,UNION HOSPITAL INC
4.12,3.09,39.78091,-86.17629,12795.67,8660.83,0.33,0.70,0.28,WILLIAM N WISHARD MEMORIAL HOSPITAL
6.71,2.35,41.46729,-87.05130,23129.88,5739.88,0.50,0.75,0.64,PORTER VALPARAISO HOSPITAL
5.44,2.16,38.30195,-85.83409,18075.38,4958.24,0.67,0.85,0.86,FLOYD MEMORIAL HOSPITAL AND HEALTH SERVICES
6.64,2.35,39.16006,-86.54038,22850.18,5715.91,0.50,0.56,0.25,INDIANA UNIVERSITY HEALTH BLOOMINGTON HOSPITAL
8.63,3.39,39.79009,-86.16260,30795.19,9861.33,0.50,0.51,0.80,INDIANA UNIVERSITY HEALTH
5.88,2.22,37.98293,-87.57072,19830.26,5203.70,0.83,0.66,0.14,DEACONESS HOSPITAL INC
8.57,3.01,39.91001,-86.19660,30581.16,8362.60,0.67,0.47,0.89,ST VINCENT HOSPITAL & HEALTH SERVICES
7.13,2.43,40.19679,-85.41573,24816.20,6060.80,0.67,0.62,0.85,INDIANA UNIVERSITY HEALTH BALL MEMORIAL HOSPITAL
5.78,2.33,41.49222,-87.52429,19422.08,5661.17,0.50,0.85,0.54,FRANCISCAN ST MARGARET HEALTH - DYER
4.36,2.25,37.96320,-87.50292,13744.90,5325.00,0.67,0.68,0.32,ST MARY'S MEDICAL CENTER OF EVANSVILLE INC
6.19,2.34,41.55065,-87.50619,21069.36,5698.71,0.50,0.75,0.86,COMMUNITY HOSPITAL
4.17,2.32,41.39576,-87.36689,12973.73,5585.73,0.50,0.84,0.51,FRANCISCAN ST ANTHONY HEALTH - CROWN POINT
5.26,2.22,39.94017,-86.15975,17351.79,5209.29,0.50,0.81,0.94,ST VINCENT HEART CENTER OF INDIANA LLC
5.42,2.52,39.78047,-86.34084,18005.67,6386.43,0.00,0.00,0.00,IU HEALTH WEST HOSPITAL
7.39,2.18,40.40296,-86.80885,25849.86,5063.57,0.50,0.84,0.97,INDIANA UNIVERSITY HEALTH ARNETT HOSPITAL
4.38,2.26,42.03321,-93.61164,13824.23,5382.08,0.00,0.00,0.00,MARY GREELEY MEDICAL CENTER
4.06,2.27,41.54190,-90.55691,12554.12,5400.47,0.67,0.59,0.97,GENESIS MEDICAL CENTER-DAVENPORT
4.92,2.34,41.98570,-91.66093,15994.69,5678.46,0.67,0.75,0.91,ST LUKES HOSPITAL
9.00,4.13,41.66092,-91.54800,32297.84,12826.34,0.17,0.39,0.64,UNIVERSITY OF IOWA HOSPITAL & CLINICS
4.82,2.38,43.15063,-93.21718,15606.32,5850.59,0.50,0.82,0.64,MERCY MEDICAL CENTER-NORTH IOWA
5.08,2.15,41.97864,-91.65507,16637.00,4924.92,0.50,0.80,1.00,MERCY MEDICAL CENTER - CEDAR RAPIDS
4.98,2.42,41.58955,-93.63248,16218.67,6018.42,0.67,0.38,0.83,IOWA METHODIST MEDICAL CENTER
8.28,2.71,41.59886,-93.62344,29405.81,7175.28,0.83,0.75,0.29,MERCY MEDICAL CENTER-DES MOINES
4.11,2.24,42.52665,-92.33957,12742.55,5303.91,0.50,0.81,0.07,ALLEN MEMORIAL HOSPITAL
3.88,2.30,42.49250,-96.39975,11819.42,5536.83,0.67,0.71,0.54,MERCY MEDICAL CENTER-SIOUX CITY
5.92,2.56,38.07731,-97.89183,19971.38,6544.31,0.50,0.80,0.91,HUTCHINSON REGIONAL MEDICAL CENTER INC
9.16,2.94,39.05583,-94.60912,32911.38,8061.79,0.67,0.54,0.64,UNIVERSITY OF KANSAS HOSPITAL
7.89,2.46,39.05128,-95.69572,27833.21,6173.21,0.67,0.71,0.11,STORMONT-VAIL HEALTHCARE
8.35,2.40,37.70405,-97.31386,29699.69,5906.31,0.67,0.69,0.21,VIA CHRISTI HOSPITALS WICHITA INC
9.37,2.49,37.69556,-97.29785,33755.85,6280.77,0.67,0.53,0.05,WESLEY MEDICAL CENTER
5.08,2.35,38.47021,-82.63498,16639.29,5707.62,0.67,0.60,0.54,KING'S DAUGHTERS' MEDICAL CENTER
3.39,2.22,38.03140,-84.52194,9890.00,5216.36,0.83,0.68,0.80,SAINT JOSEPH HOSPITAL
4.90,2.40,39.06704,-84.49946,15897.79,5939.57,0.33,0.59,0.80,ST ELIZABETH MEDICAL CENTER NORTH
5.63,2.34,38.50697,-82.69222,18808.77,5668.23,0.50,0.80,0.91,OUR LADY OF BELLEFONTE HOSPITAL
3.60,2.62,37.76518,-87.10197,10730.94,6820.65,0.50,0.66,0.30,OWENSBORO MEDICAL HEALTH SYSTEM
6.20,2.55,38.24927,-85.75081,21118.55,6512.40,0.67,0.51,0.08,JEWISH HOSPITAL & ST MARY'S HEALTHCARE
7.62,2.68,37.47264,-82.52605,26767.33,7043.08,0.75,0.86,0.10,PIKEVILLE MEDICAL CENTER
7.37,3.09,38.03282,-84.50674,25755.48,8680.87,0.33,0.62,0.33,UNIVERSITY OF KENTUCKY HOSPITAL
6.94,2.54,38.24806,-85.75125,24062.80,6472.03,0.50,0.35,0.39,NORTON HOSPITALS INC
3.65,2.52,37.33959,-87.48988,10908.92,6397.33,0.50,0.86,0.17,REGIONAL MEDICAL CENTER OF HOPKINS COUNTY
5.36,2.33,38.01849,-84.51236,17733.77,5643.92,0.50,0.71,0.58,CENTRAL BAPTIST HOSPITAL
3.70,2.19,37.07404,-88.62685,11132.12,5077.80,0.50,0.80,0.39,WESTERN BAPTIST HOSPITAL
5.20,2.20,38.23898,-85.63941,17106.95,5125.43,0.67,0.57,0.74,BAPTIST HOSPITAL EAST
5.21,2.31,30.20227,-92.01906,17152.22,5564.72,0.50,0.74,0.30,LAFAYETTE GENERAL MEDICAL CENTER
5.37,2.28,29.59851,-90.71397,17791.27,5430.73,0.25,0.69,0.69,TERREBONNE GENERAL MEDICAL CENTER
18.55,2.61,30.46813,-90.45814,70446.43,6759.14,0.75,0.71,0.74,NORTH OAKS MEDICAL CENTER LLC
8.76,3.70,31.28258,-92.46060,31325.81,11119.31,0.50,0.65,0.80,CHRISTUS ST FRANCES CABRINI HOSPITAL
8.00,2.44,31.31451,-92.44997,28272.23,6089.92,0.67,0.40,0.39,RAPIDES REGIONAL MEDICAL CENTER
7.95,2.41,30.21521,-93.22682,28107.15,5973.62,0.50,0.64,0.64,CHRISTUS ST PATRICK HOSPITAL
6.89,2.65,30.01875,-90.19452,23845.59,6921.12,0.67,0.61,0.63,OCHSNER FOUNDATION HOSPITAL
6.54,2.44,29.89089,-90.09395,22474.09,6098.91,0.50,0.65,0.86,WEST JEFFERSON MEDICAL CENTER
11.09,2.28,30.46834,-90.11383,40621.07,5431.14,0.50,0.70,0.08,ST TAMMANY PARISH HOSPITAL
4.98,2.54,30.40118,-91.11160,16248.11,6464.44,0.83,0.51,0.33,OUR LADY OF THE LAKE REGIONAL MEDICAL CENTER
4.61,3.02,32.48177,-93.76264,14760.73,8392.09,1.00,0.80,0.00,LSU HEALTH SCIENCES CENTER - SHREVEPORT
8.29,2.47,32.48393,-93.77884,29462.37,6200.37,0.50,0.64,0.63,WILLIS KNIGHTON MEDICAL CENTER
6.57,2.36,30.01438,-90.18155,22585.88,5768.00,0.67,0.69,0.74,EAST JEFFERSON GENERAL HOSPITAL
4.74,2.24,32.51315,-92.15713,15275.73,5293.00,0.00,0.00,0.00,GLENWOOD REGIONAL MEDICAL CENTER
4.77,2.76,43.65325,-70.27533,15403.61,7370.86,0.17,0.47,0.01,MAINE MEDICAL CENTER
3.13,2.38,43.90901,-69.89611,8844.75,5828.25,0.00,0.00,0.00,MID COAST HOSPITAL
4.89,2.48,44.10107,-70.21432,15850.36,6261.00,0.67,0.70,0.58,CENTRAL MAINE MEDICAL CENTER
4.62,2.61,44.80988,-68.74929,14784.79,6757.14,0.50,0.59,0.38,EASTERN MAINE MEDICAL CENTER
3.27,3.21,39.62183,-77.68219,9401.45,9166.82,0.00,0.00,0.00,MERITUS MEDICAL CENTER
4.81,4.58,39.28817,-76.62438,15540.61,14641.94,0.00,0.00,0.00,UNIVERSITY OF MARYLAND MEDICAL CENTER
2.98,2.88,39.01578,-77.03591,8248.68,7846.00,0.00,0.00,0.00,HOLY CROSS HOSPITAL
3.08,2.95,39.42366,-77.41386,8652.12,8132.84,0.00,0.00,0.00,FREDERICK MEMORIAL HOSPITAL
3.16,3.02,39.38813,-76.61068,8954.76,8417.53,0.00,0.00,0.00,SAINT JOSEPH MEDICAL CENTER
3.27,3.13,39.29297,-76.61314,9387.50,8824.17,0.00,0.00,0.00,MERCY MEDICAL CENTER INC
5.13,4.89,39.29688,-76.59242,16815.24,15867.00,0.00,0.00,0.00,JOHNS HOPKINS HOSPITAL THE
2.86,2.75,39.27352,-76.67219,7779.79,7312.79,0.00,0.00,0.00,SAINT AGNES HOSPITAL
3.37,3.24,39.35262,-76.66196,9818.00,9274.15,0.00,0.00,0.00,SINAI HOSPITAL OF BALTIMORE
3.30,3.16,39.35169,-76.47919,9519.62,8948.46,0.00,0.00,0.00,FRANKLIN SQUARE HOSPITAL CENTER
3.13,3.00,39.15402,-77.05431,8840.14,8309.64,0.00,0.00,0.00,MONTGOMERY GENERAL HOSPITAL INC
3.27,3.15,38.36248,-75.59799,9402.61,8899.67,0.00,0.00,0.00,PENINSULA REGIONAL MEDICAL CENTER
3.09,2.96,38.99743,-77.11048,8660.25,8140.67,0.00,0.00,0.00,SUBURBAN HOSPITAL
2.80,2.73,38.99014,-76.53398,7529.12,7251.44,0.00,0.00,0.00,ANNE ARUNDEL MEDICAL CENTER
3.68,3.51,39.32930,-76.61432,11038.12,10375.69,0.00,0.00,0.00,UNION MEMORIAL HOSPITAL
3.54,3.39,39.64928,-78.73206,10493.50,9863.85,0.00,0.00,0.00,WESTERN MARYLAND REGIONAL MEDICAL CENTER
2.49,2.42,38.29124,-76.63579,6299.45,5985.90,0.00,0.00,0.00,SAINT MARY'S HOSPITAL
4.43,4.22,39.29100,-76.54623,14029.07,13187.27,0.00,0.00,0.00,JOHNS HOPKINS BAYVIEW MEDICAL CENTER
3.46,3.31,39.21770,-76.06494,10171.33,9561.08,0.00,0.00,0.00,CHESTER RIVER HOSPITAL CENTER
2.76,2.65,39.55808,-76.99107,7352.84,6911.76,0.00,0.00,0.00,CARROLL HOSPITAL CENTER
3.02,2.89,38.76970,-76.07697,8402.33,7898.25,0.00,0.00,0.00,MEMORIAL HOSPITAL AT EASTON
3.15,3.01,38.55963,-76.59455,8906.69,8372.31,0.00,0.00,0.00,CALVERT MEMORIAL HOSPITAL
2.74,2.63,39.35852,-76.78208,7293.16,6855.56,0.00,0.00,0.00,NORTHWEST HOSPITAL CENTER
3.00,2.87,39.13732,-76.62228,8311.80,7813.12,0.00,0.00,0.00,BALTIMORE WASHINGTON  MEDICAL CENTER
3.39,3.25,39.39017,-76.62216,9896.61,9302.87,0.00,0.00,0.00,GREATER BALTIMORE MEDICAL CENTER
3.16,3.04,39.51870,-76.34688,8956.54,8469.85,0.00,0.00,0.00,UPPER CHESAPEAKE MEDICAL CENTER
2.87,2.76,38.96851,-76.86203,7816.65,7347.65,0.00,0.00,0.00,DOCTORS'  COMMUNITY HOSPITAL
3.24,3.10,38.74827,-76.87590,9264.95,8709.00,0.00,0.00,0.00,SOUTHERN MARYLAND HOSPITAL CENTER
3.75,3.58,39.35962,-76.58851,11323.74,10644.16,0.00,0.00,0.00,GOOD SAMARITAN HOSPITAL
2.88,2.76,39.09796,-77.19799,7851.95,7380.81,0.00,0.00,0.00,SHADY GROVE ADVENTIST HOSPITAL
4.07,2.69,42.37441,-71.13378,12594.24,7069.41,0.67,0.85,0.17,MOUNT AUBURN HOSPITAL
5.67,2.91,41.65298,-70.27484,18991.31,7943.81,0.50,0.56,0.96,CAPE COD HOSPITAL
3.90,3.76,42.35843,-71.05977,11923.00,11350.09,0.67,0.51,0.00,BOSTON MEDICAL CENTER CORPORATION
3.44,2.58,42.56407,-70.87543,10066.75,6649.25,0.50,0.62,0.64,BEVERLY HOSPITAL CORPORATION
3.14,3.29,42.34896,-71.14768,8864.75,9498.50,0.50,0.69,0.58,ST ELIZABETH'S MEDICAL CENTER
4.67,2.78,51.46599,-1.28140,14989.85,7433.85,0.50,0.76,0.20,BERKSHIRE MEDICAL CENTER INC
2.59,2.48,41.94445,-70.64511,6685.55,6228.64,0.50,0.82,0.25,JORDAN HOSPITAL INC
4.75,2.52,42.11449,-72.59502,15318.83,6411.42,0.50,0.78,0.76,MERCY MEDICAL CENTER
3.25,2.61,42.46049,-71.06203,9302.44,6760.89,0.50,0.53,0.76,HALLMARK HEALTH SYSTEM
9.48,3.24,42.36227,-71.06941,34192.26,9274.78,0.50,0.44,0.16,MASSACHUSETTS GENERAL HOSPITAL
4.33,2.79,41.70928,-71.14519,13627.59,7481.77,0.25,0.51,0.89,SOUTHCOAST HOSPITAL GROUP INC
5.08,2.99,42.12077,-72.60525,16611.03,8279.84,0.33,0.61,0.83,BAYSTATE MEDICAL CENTER
2.75,2.57,42.72846,-71.16830,7310.08,6611.00,0.50,0.74,0.33,HOLY FAMILY HOSPITAL
5.69,3.43,42.33719,-71.10939,19061.15,10036.79,0.33,0.71,0.33,BETH ISRAEL DEACONESS MEDICAL CENTER
4.92,2.46,42.13234,-71.52825,15982.82,6156.00,0.50,0.71,0.96,MILFORD REGIONAL MEDICAL CENTER
3.92,2.44,42.17644,-70.95398,11997.25,6093.50,0.67,0.70,0.48,SOUTH SHORE HOSPITAL
2.78,2.33,42.46581,-71.12210,7458.91,5632.45,0.50,0.59,0.25,WINCHESTER HOSPITAL
10.51,3.40,42.33600,-71.10704,38312.08,9908.25,0.67,0.40,0.20,BRIGHAM AND WOMEN'S HOSPITAL
2.63,2.67,42.09864,-71.06607,6832.50,7017.83,0.50,0.59,0.93,GOOD SAMARITAN MEDICAL CENTER
5.65,3.49,42.34951,-71.06331,18908.21,10281.18,0.50,0.64,0.86,TUFTS MEDICAL CENTER
2.96,2.38,42.18869,-71.20197,8169.26,5837.47,0.50,0.78,0.82,NORWOOD HOSPITAL
8.19,3.65,42.27720,-71.75922,29033.69,10915.07,0.50,0.36,0.30,UMASS MEMORIAL MEDICAL CENTER INC
3.90,2.86,42.48585,-71.20686,11910.62,7766.71,0.67,0.76,0.16,LAHEY CLINIC HOSPITAL
3.78,2.75,42.28385,-71.41896,11429.95,7324.82,0.50,0.76,0.86,METROWEST MEDICAL CENTER
3.48,2.36,42.39466,-83.40537,10250.31,5780.44,0.50,0.60,0.64,ST MARY MERCY HOSPITAL
3.23,2.45,43.20588,-86.20839,9233.17,6129.58,0.50,0.76,0.58,MERCY HEALTH PARTNERS MERCY CAMPUS
5.42,2.75,42.28551,-85.58042,17974.46,7322.85,0.67,0.82,0.14,BRONSON METHODIST HOSPITAL
4.76,2.68,42.45741,-83.20513,15339.66,7059.93,0.83,0.57,0.48,PROVIDENCE HOSPITAL AND MEDICAL CENTERS
5.31,2.65,42.29077,-83.21504,17546.25,6940.79,0.33,0.49,0.70,OAKWOOD HOSPITAL AND MEDICAL CENTER
4.83,2.48,42.08955,-86.47781,15646.38,6246.75,0.33,0.69,0.89,LAKELAND HOSPITAL ST JOSEPH
4.48,3.07,42.41911,-83.18228,14221.31,8609.69,0.83,0.46,0.21,SINAI-GRACE HOSPITAL
3.75,2.88,42.61425,-83.27602,11313.56,7826.56,0.67,0.53,0.80,ST JOSEPH MERCY OAKLAND
5.11,2.87,42.96881,-85.66649,16764.21,7793.87,0.33,0.66,0.83,SPECTRUM HEALTH - BUTTERWORTH CAMPUS
5.14,2.30,43.58941,-83.86908,16882.62,5533.28,0.33,0.55,0.99,MCLAREN BAY REGION
7.79,3.81,42.28388,-83.72960,27444.51,11541.81,0.50,0.61,0.43,UNIVERSITY OF MICHIGAN HEALTH SYSTEM
3.91,2.30,42.61490,-82.96060,11938.09,5539.17,0.50,0.66,0.54,HENRY FORD MACOMB HOSPITAL
5.54,3.15,42.36762,-83.08461,18475.18,8924.97,0.67,0.47,0.08,HENRY FORD HOSPITAL
3.97,2.75,42.95817,-85.66253,12199.18,7337.73,0.50,0.54,0.91,SAINT MARY'S HEALTH CARE
5.33,2.43,43.42857,-83.95556,17626.54,6032.54,0.83,0.61,0.64,COVENANT MEDICAL CENTER INC
5.72,2.50,43.42612,-83.94185,19172.08,6314.75,0.67,0.64,0.58,ST MARY'S OF MICHIGAN MEDICAL CENTER
4.87,2.34,42.38392,-82.91480,15777.54,5672.23,0.50,0.62,0.51,BEAUMONT HOSPITAL GROSSE POINTE
5.51,2.31,42.25117,-84.39240,18354.00,5582.00,0.50,0.85,0.99,ALLEGIANCE HEALTH
7.23,2.65,44.76156,-85.64143,25197.09,6908.09,0.50,0.41,0.58,MUNSON MEDICAL CENTER
4.13,2.30,41.91643,-83.39771,12826.73,5523.64,0.50,0.69,0.38,MERCY MEMORIAL HOSPITAL SYSTEM
4.57,3.45,42.35230,-83.05676,14575.33,10104.20,0.67,0.62,0.64,HARPER UNIVERSITY HOSPITAL
4.85,2.71,45.37209,-84.97065,15691.43,7157.57,0.50,0.78,0.25,NORTHERN MICHIGAN REGIONAL HOSPITAL
6.65,2.51,42.30489,-85.56152,22898.75,6368.50,0.67,0.47,0.76,BORGESS MEDICAL CENTER
6.30,2.70,42.51418,-83.19259,21482.77,7136.73,0.67,0.60,0.16,WILLIAM BEAUMONT HOSPITAL
4.73,2.65,43.01399,-83.73250,15243.38,6922.15,0.50,0.60,0.33,MCLAREN FLINT
4.12,2.37,42.21065,-83.14861,12793.50,5802.25,0.50,0.70,0.96,HENRY FORD WYANDOTTE HOSPITAL
4.15,3.05,42.46176,-83.37629,12919.84,8538.00,0.50,0.79,0.25,BOTSFORD HOSPITAL
5.97,2.54,42.26181,-83.66003,20182.42,6476.23,0.67,0.62,0.33,ST JOSEPH MERCY HOSPITAL
5.55,2.81,42.41975,-82.91442,18513.74,7580.57,0.67,0.72,0.10,ST JOHN HOSPITAL AND MEDICAL CENTER
3.87,2.56,42.70417,-84.55488,11801.00,6574.25,0.33,0.76,0.21,MCLAREN - GREATER LANSING
4.92,2.56,42.50514,-83.00422,15982.00,6573.33,0.67,0.56,0.86,ST JOHN MACOMB-OAKLAND HOSPITAL-MACOMB CENTER
5.11,2.80,42.89254,-83.63621,16761.08,7520.42,0.67,0.70,0.14,GENESYS REGIONAL MEDICAL CENTER - HEALTH PARK
4.26,2.32,42.98625,-82.42802,13365.00,5601.24,0.50,0.62,0.30,PORT HURON HOSPITAL
4.53,2.47,43.63618,-84.26187,14428.21,6212.79,0.50,0.72,0.70,MIDMICHIGAN MEDICAL CENTER-MIDLAND
6.83,2.73,42.73767,-84.51698,23625.52,7242.11,0.83,0.69,0.01,EDWARD W SPARROW HOSPITAL
4.67,2.39,42.67850,-83.14771,15006.18,5882.35,0.50,0.65,0.80,CRITTENTON HOSPITAL MEDICAL CENTER
6.72,2.38,42.61826,-83.09239,23159.80,5830.27,0.83,0.60,0.63,WILLIAM BEAUMONT HOSPITAL-TROY
5.04,2.32,42.53914,-83.40777,16488.31,5612.15,0.50,0.54,0.39,HENRY FORD WEST BLOOMFIELD HOSPITAL
7.16,2.50,45.01403,-93.32177,24920.93,6324.87,0.67,0.69,0.83,NORTH MEMORIAL MEDICAL CENTER
4.80,2.49,46.79380,-92.09573,15490.38,6284.46,0.83,0.75,0.80,ESSENTIA HEALTH ST MARY'S MEDICAL CENTER
4.96,3.73,44.97210,-93.26240,16167.00,11224.13,0.33,0.38,0.30,HENNEPIN COUNTY MEDICAL CENTER
5.42,3.19,44.02052,-92.48292,17989.52,9081.09,0.83,0.42,0.32,MAYO CLINIC - SAINT MARYS HOSPITAL
6.20,2.76,45.57390,-94.16942,21101.63,7378.59,0.50,0.61,0.38,ST CLOUD HOSPITAL
7.75,2.46,44.94214,-93.10858,27295.61,6155.32,0.50,0.86,0.33,UNITED HOSPITAL
4.77,2.52,46.79634,-92.08793,15372.00,6401.92,0.50,0.71,0.30,ST LUKES HOSPITAL
4.93,3.31,44.93031,-93.36276,16014.24,9558.41,0.67,0.72,0.94,PARK NICOLLET METHODIST HOSPITAL
7.49,2.57,44.95248,-93.26196,26271.76,6590.62,0.50,0.70,0.64,ABBOTT NORTHWESTERN HOSPITAL
5.69,2.50,44.88645,-93.32693,19062.47,6314.21,0.67,0.62,0.94,FAIRVIEW SOUTHDALE HOSPITAL
9.48,3.46,44.96766,-93.23640,34192.09,10167.68,0.67,0.56,0.58,UNIVERSITY OF MINNESOTA  MEDICAL CENTER FAIRVIEW
4.28,2.49,44.16396,-94.00412,13423.77,6281.38,0.50,0.57,0.76,MAYO CLINIC HEALTH SYSTEM - MANKATO
8.80,3.06,44.95570,-93.09429,31494.40,8553.67,0.50,0.79,0.17,REGIONS HOSPITAL
5.52,2.83,45.18355,-93.36789,18388.74,7651.37,0.50,0.74,0.96,MERCY HOSPITAL
6.18,2.44,45.02892,-93.03418,21034.75,6099.81,0.50,0.75,0.25,HEALTHEAST ST JOHN'S HOSPITAL
5.94,2.92,32.33069,-90.17030,20070.82,8017.45,0.67,0.51,0.07,UNIVERSITY OF MISSISSIPPI MED CENTER
5.56,2.40,34.24336,-88.71753,18537.85,5937.00,0.67,0.61,0.48,NORTH MISSISSIPPI MEDICAL CENTER
8.63,2.38,30.36674,-89.11535,30802.88,5825.12,0.50,0.66,0.69,MEMORIAL HOSPITAL AT GULFPORT
8.91,2.76,32.35265,-90.87788,31927.94,7370.67,0.50,0.80,0.38,RIVER REGION HEALTH SYSTEM
6.34,2.27,30.37516,-88.53226,21663.67,5391.83,0.50,0.70,0.03,SINGING RIVER HOSPITAL
5.80,2.30,32.33616,-90.15652,19510.35,5517.39,0.50,0.60,0.45,ST DOMINIC-JACKSON MEMORIAL HOSPITAL
5.24,2.42,31.31872,-89.32955,17263.35,5984.47,0.50,0.57,0.54,FORREST GENERAL HOSPITAL
5.47,2.17,32.31643,-90.17922,18169.50,5004.29,0.67,0.44,0.86,MISSISSIPPI BAPTIST MEDICAL CENTER
5.33,2.41,34.96927,-89.99709,17607.56,5948.83,0.50,0.69,0.11,BAPTIST MEMORIAL HOSPITAL DESOTO
5.95,2.66,39.77393,-94.77089,20121.29,6960.76,0.50,0.59,0.51,HEARTLAND REGIONAL MEDICAL CENTER
5.92,2.29,38.64281,-90.44448,19993.58,5474.04,0.83,0.57,0.74,MERCY HOSPITAL ST LOUIS
3.59,2.25,38.16498,-90.38082,10662.92,5331.25,0.50,0.84,0.83,JEFFERSON REGIONAL MEDICAL CENTER
6.51,2.85,38.63524,-90.26508,22347.24,7737.38,0.50,0.56,0.12,BARNES JEWISH HOSPITAL
5.04,2.36,37.14560,-93.28037,16486.83,5759.25,0.50,0.61,0.86,COX MEDICAL CENTER
5.13,2.30,37.17999,-93.27409,16812.56,5531.32,0.67,0.61,0.25,ST JOHN'S REGIONAL HEALTH CENTER
4.11,2.11,38.94903,-92.31563,12736.75,4770.40,0.67,0.74,0.43,BOONE HOSPITAL CENTER
4.64,2.16,38.50661,-90.38025,14861.22,4974.26,0.67,0.57,0.14,ST ANTHONY'S MEDICAL CENTER
5.93,2.48,38.52738,-90.47501,20023.50,6224.50,0.50,0.65,0.45,SSM ST CLARE HEALTH CENTER
8.52,2.27,38.93592,-94.60376,30356.36,5403.86,0.50,0.75,0.89,ST JOSEPH MEDICAL CENTER
6.42,2.79,38.63268,-90.31089,21998.08,7495.92,0.83,0.78,0.58,SSM ST MARYS HEALTH CENTER
9.82,2.77,39.04749,-94.34105,35580.31,7402.00,0.50,0.72,0.39,CENTERPOINT MEDICAL CENTER OF INDEPENDENCE LLC
5.72,2.22,39.14957,-94.55148,19172.11,5199.74,0.50,0.59,0.64,NORTH KANSAS CITY HOSPITAL
5.71,3.03,38.62280,-90.24049,19158.91,8423.09,0.50,0.46,0.05,ST LOUIS UNIVERSITY HOSPITAL
5.43,2.15,38.63702,-90.44699,18017.38,4911.05,0.67,0.69,0.48,MISSOURI BAPTIST MEDICAL CENTER
7.34,2.80,36.78510,-90.42779,25659.67,7505.80,0.50,0.60,0.39,POPLAR BLUFF REGIONAL MEDICAL CENTER
10.72,2.66,39.04761,-94.59037,39165.40,6968.60,0.67,0.50,0.17,ST LUKES HOSPITAL OF KANSAS CITY
7.16,2.74,38.95171,-92.33407,24951.29,7298.29,0.67,0.60,0.64,UNIVERSITY OF MISSOURI HEALTH CARE
11.07,2.25,38.58103,-90.45144,40563.33,5331.17,0.50,0.70,0.43,DES PERES HOSPITAL
4.63,2.19,39.27591,-94.42572,14847.36,5102.29,0.33,0.60,0.33,LIBERTY HOSPITAL
4.86,2.25,38.65123,-90.50301,15767.08,5334.38,0.67,0.68,0.12,ST LUKES HOSPITAL
6.36,2.33,38.77576,-90.23906,21752.95,5656.60,0.67,0.75,0.05,CHRISTIAN HOSPITAL NORTHEAST
5.13,2.15,38.79427,-90.58049,16840.33,4937.92,0.50,0.75,0.32,BARNES-JEWISH ST PETERS HOSPITAL
5.29,2.36,40.78318,-96.63709,17460.00,5778.88,0.67,0.70,0.64,BRYANLGH MEDICAL CENTER
8.92,2.94,41.25522,-95.97892,31976.72,8063.97,0.50,0.53,0.51,THE NEBRASKA MEDICAL CENTER
8.34,3.03,41.26509,-95.95494,29668.91,8457.64,0.50,0.68,0.00,CREIGHTON UNIVERSITY MEDICAL CENTER - SAINT JOSEPH
5.62,2.29,41.25797,-96.04164,18797.81,5495.94,0.50,0.74,0.33,THE NEBRASKA METHODIST HOSPITAL
5.06,2.13,41.23771,-96.18052,16555.64,4863.73,0.00,0.00,0.00,ALEGENT HEALTH LAKESIDE HOSPITAL
7.67,2.52,39.52637,-119.79456,26976.22,6385.78,0.50,0.66,0.17,RENOWN REGIONAL MEDICAL CENTER
14.00,3.12,36.15896,-115.16558,52265.33,8808.00,0.33,0.60,0.00,UMC OF SOUTHERN NEVADA
5.89,2.71,39.20247,-119.78446,19872.82,7145.12,0.50,0.56,0.70,CARSON TAHOE REGIONAL MEDICAL CENTER
12.08,2.45,36.21599,-115.25095,44579.00,6114.90,0.67,0.57,0.14,MOUNTAINVIEW HOSPITAL
13.00,2.50,36.16586,-115.32436,48248.31,6317.31,0.83,0.72,0.28,SUMMERLIN HOSPITAL MEDICAL CENTER
11.46,2.43,36.00527,-115.11618,42099.00,6036.67,0.50,0.50,0.33,SAINT ROSE DOMINICAN HOSPITAL - SIENA CAMPUS
4.31,2.36,43.19846,-71.56230,13562.00,5782.75,0.33,0.64,0.94,CONCORD HOSPITAL
4.78,3.10,43.67286,-72.27232,15416.81,8735.74,0.50,0.39,0.01,MARY HITCHCOCK MEMORIAL HOSPITAL
4.56,2.28,43.00792,-71.46807,14562.82,5428.27,0.50,0.57,0.21,ELLIOT HOSPITAL
6.60,2.41,43.21231,-70.87499,22690.92,5953.00,0.50,0.74,0.03,WENTWORTH-DOUGLASS HOSPITAL
4.75,2.22,42.98369,-70.93511,15307.08,5209.00,0.00,0.00,0.00,EXETER HOSPITAL INC
5.55,2.34,43.06469,-70.78916,18491.92,5701.17,0.50,0.76,0.48,PORTSMOUTH REGIONAL HOSPITAL
6.49,2.32,42.99121,-71.47426,22248.62,5585.38,0.33,0.64,0.93,CATHOLIC MEDICAL CENTER
14.15,2.89,40.88346,-74.05564,52850.88,7864.00,0.50,0.59,0.86,HACKENSACK UNIVERSITY MEDICAL CENTER
17.07,3.67,40.71011,-74.21368,64510.17,11013.07,0.67,0.56,0.11,NEWARK BETH ISRAEL MEDICAL CENTER
13.69,2.70,40.78556,-74.17598,51009.71,7107.00,0.67,0.84,0.96,CLARA MAASS MEDICAL CENTER
8.67,2.56,40.35684,-74.66166,30958.67,6561.58,0.50,0.56,0.21,UNIVERSITY MEDICAL CENTER AT PRINCETON
5.49,2.42,39.08752,-74.81657,18274.58,6021.00,0.50,0.74,0.48,CAPE REGIONAL MEDICAL CENTER INC
7.65,2.55,40.98359,-74.10047,26885.85,6519.35,0.50,0.79,0.21,VALLEY HOSPITAL
14.50,3.21,39.94152,-75.11680,54263.32,9169.42,0.67,0.42,0.03,COOPER UNIVERSITY HOSPITAL
9.50,2.86,40.78883,-74.46620,34296.33,7752.67,0.67,0.44,0.39,MORRISTOWN MEMORIAL HOSPITAL
9.38,2.48,40.95858,-74.31000,33813.82,6239.73,0.50,0.62,0.01,CHILTON HOSPITAL
16.17,3.17,40.90215,-74.16634,60915.10,8985.24,0.17,0.54,0.94,ST JOSEPH'S REGIONAL MEDICAL CENTER
15.38,2.58,39.78261,-74.91670,57749.97,6658.21,0.50,0.53,0.74,VIRTUA WEST JERSEY HOSPITALS BERLIN
11.15,2.77,39.92695,-75.09537,40867.79,7398.43,0.50,0.70,0.11,OUR LADY OF LOURDES MEDICAL CENTER
17.67,2.42,40.35309,-74.06484,66919.64,6018.18,0.33,0.61,0.70,RIVERVIEW MEDICAL CENTER
15.66,3.04,40.49581,-74.44980,58887.57,8493.36,0.67,0.51,0.01,ROBERT WOOD JOHNSON UNIVERSITY HOSPITAL
11.46,2.84,40.51891,-74.28183,42131.18,7687.09,0.75,0.69,0.69,RARITAN BAY MEDICAL CENTER
9.77,2.29,39.96484,-74.21708,35342.79,5499.83,0.50,0.47,0.89,COMMUNITY MEDICAL CENTER
19.96,3.00,40.56804,-74.59579,76057.47,8324.65,0.50,0.68,0.30,SOMERSET MEDICAL CENTER
12.06,2.49,40.89538,-74.46479,44527.14,6297.07,0.50,0.64,0.70,SAINT CLARE'S HOSPITAL
7.85,2.78,40.71264,-74.35460,27710.15,7431.15,0.50,0.53,0.58,OVERLOOK HOSPITAL
14.02,2.38,40.07832,-74.13009,52332.14,5835.86,0.50,0.57,0.48,OCEAN MEDICAL CENTER
13.08,2.40,39.98588,-74.79393,48590.86,5910.82,0.67,0.55,0.54,VIRTUA MEMORIAL HOSPITAL OF BURLINGTON COUNTY
9.54,2.65,40.70180,-75.17825,34430.75,6924.50,0.00,0.00,0.00,ST LUKE'S WARREN HOSPITAL
18.06,2.59,39.35775,-74.43449,68453.90,6683.00,0.67,0.65,0.89,ATLANTICARE REGIONAL MEDICAL CENTER - CITY DIV
13.07,2.94,40.50214,-74.46015,48527.88,8091.75,0.50,0.54,0.30,SAINT PETER'S UNIVERSITY HOSPITAL
12.89,2.62,40.21065,-74.03566,47820.70,6794.65,0.50,0.59,0.07,JERSEY SHORE UNIVERSITY MEDICAL CENTER
18.53,3.13,40.76190,-74.30335,70364.88,8833.29,0.83,0.54,0.03,SAINT BARNABAS MEDICAL CENTER
15.18,2.39,39.84392,-75.14985,56950.83,5866.25,0.50,0.70,0.33,UNDERWOOD - MEMORIAL HOSPITAL
11.50,2.53,40.07503,-74.21832,42290.92,6450.67,0.50,0.71,0.76,KIMBALL MEDICAL CENTER
15.01,2.85,39.82811,-75.00895,56288.31,7729.75,0.67,0.60,0.69,KENNEDY UNIVERSITY HOSPITAL - STRATFORD DIV
17.22,2.71,40.55784,-74.34970,65103.75,7156.50,0.50,0.71,0.58,JFK MEDICAL CTR - ANTHONY M. YELENCSICS COMMUNITY
13.01,2.33,40.21575,-74.67273,48321.57,5633.95,0.50,0.68,0.80,ROBERT WOOD JOHNSON UNIVERSITY HOSPITAL HAMILTON
8.45,2.37,40.23861,-74.31289,30068.72,5801.80,0.33,0.69,0.14,CENTRASTATE MEDICAL CENTER
8.99,2.23,39.66213,-74.26392,32232.55,5242.73,0.50,0.62,0.70,SOUTHERN OCEAN MEDICAL CENTER
5.67,2.82,36.72387,-108.21749,18990.92,7593.33,0.50,0.71,0.83,SAN JUAN REGIONAL MEDICAL CENTER
6.44,2.54,35.08102,-106.63392,22045.47,6500.35,0.33,0.51,0.03,PRESBYTERIAN HOSPITAL
4.71,2.79,42.87482,-78.84942,15132.06,7493.72,0.33,0.45,0.08,KALEIDA HEALTH
2.78,2.24,42.09299,-75.93704,7425.86,5277.36,0.50,0.74,1.00,OUR LADY OF LOURDES MEMORIAL HOSPITAL INC
8.38,2.95,42.65345,-73.77543,29800.89,8127.28,0.67,0.60,0.64,ALBANY MEDICAL CENTER HOSPITAL
8.04,2.58,41.69441,-73.93432,28433.11,6653.61,0.83,0.82,0.54,VASSAR BROTHERS MEDICAL CENTER
8.72,3.87,40.79041,-73.95386,31168.37,11781.14,0.83,0.39,0.05,MOUNT SINAI HOSPITAL
3.97,3.65,40.72548,-73.55287,12192.33,10936.42,0.50,0.89,0.05,NASSAU UNIVERSITY MEDICAL CENTER
7.62,2.60,40.87946,-73.41621,26788.94,6705.24,0.50,0.66,0.39,HUNTINGTON HOSPITAL
7.17,3.59,40.80556,-73.96131,24988.21,10689.18,0.33,0.56,0.05,ST LUKE'S ROOSEVELT HOSPITAL
8.14,3.21,40.74722,-73.82521,28861.35,9164.39,0.67,0.64,0.80,NEW YORK HOSPITAL MEDICAL CENTER OF QUEENS
6.10,3.93,40.68983,-73.97794,20684.55,12050.36,0.83,0.71,0.14,BROOKLYN HOSPITAL CENTER AT DOWNTOWN CAMPUS
13.91,3.96,40.87987,-73.87996,51883.95,12164.33,0.50,0.39,0.45,MONTEFIORE MEDICAL CENTER
3.23,2.38,42.92866,-78.84819,9228.09,5839.09,0.50,0.55,0.30,SISTERS OF CHARITY HOSPITAL
3.30,2.31,42.10076,-76.82800,9510.58,5554.83,0.50,0.65,0.33,ARNOT OGDEN MEDICAL CENTER
10.81,4.11,40.76487,-73.95398,39495.70,12770.29,0.33,0.33,0.74,NEW YORK-PRESBYTERIAN HOSPITAL
9.78,2.79,41.09642,-73.92501,35408.76,7500.71,0.67,0.78,0.76,NYACK HOSPITAL
10.27,3.38,40.77686,-73.70212,37346.52,9840.86,0.33,0.61,0.69,NORTH SHORE UNIVERSITY HOSPITAL
13.37,3.18,40.77362,-73.96093,49722.08,9022.17,0.33,0.46,0.11,LENOX HILL HOSPITAL
3.21,2.39,43.19244,-77.58590,9142.65,5882.15,0.67,0.46,0.17,ROCHESTER GENERAL HOSPITAL
10.64,2.63,41.44138,-74.36821,38822.88,6859.83,0.50,0.62,0.70,ORANGE REGIONAL MEDICAL CENTER
5.16,3.20,42.69590,-74.92278,16958.69,9116.31,0.50,0.84,0.76,MARY IMOGENE BASSETT HOSPITAL
4.07,2.50,43.05571,-76.14981,12603.90,6324.03,0.83,0.38,0.20,ST JOSEPH'S HOSPITAL HEALTH CENTER
11.60,2.87,40.78000,-72.97763,42656.73,7793.09,0.33,0.60,0.32,BROOKHAVEN MEMORIAL HOSPITAL MEDICAL CENTER
5.27,2.30,42.81963,-73.91653,17368.74,5532.16,0.50,0.69,0.21,ELLIS HOSPITAL
6.45,3.20,40.58440,-74.08507,22086.26,9119.89,0.67,0.71,0.38,STATEN ISLAND UNIVERSITY HOSPITAL
10.31,3.03,40.74083,-73.64306,37507.74,8422.05,0.67,0.50,0.74,WINTHROP-UNIVERSITY HOSPITAL
9.71,3.63,40.73265,-73.98162,35112.57,10845.33,0.50,0.60,0.39,BETH ISRAEL MEDICAL CENTER
8.24,2.75,40.80462,-73.67023,29267.90,7308.23,0.83,0.72,0.94,ST FRANCIS HOSPITAL ROSLYN
9.80,2.50,40.94000,-73.05510,35498.73,6325.91,0.50,0.64,0.64,JOHN T MATHER MEMORIAL HOSPITAL  OF PORT JEFFERSON
3.84,2.18,43.30652,-73.64663,11687.62,5027.52,0.50,0.64,0.91,GLENS FALLS HOSPITAL
13.29,4.18,40.63937,-73.99851,49413.84,13027.58,0.50,0.45,0.54,MAIMONIDES MEDICAL CENTER
8.23,3.57,40.75332,-73.70899,29192.79,10579.08,0.50,0.45,0.91,LONG ISLAND JEWISH MEDICAL CENTER
3.45,3.72,40.58549,-73.96558,10123.15,11190.10,0.25,0.72,0.30,CONEY ISLAND HOSPITAL
6.17,2.63,40.65189,-73.63096,21000.74,6839.74,0.50,0.53,0.43,SOUTH NASSAU COMMUNITIES HOSPITAL
4.00,2.62,43.04139,-76.13803,12304.92,6814.83,0.50,0.41,0.02,CROUSE HOSPITAL
6.16,3.05,40.74335,-73.97408,20924.70,8537.05,0.33,0.64,0.21,NYU HOSPITALS CENTER
18.19,4.52,41.08773,-73.80395,69005.50,14381.94,0.50,0.42,0.64,WESTCHESTER MEDICAL CENTER
4.25,3.44,40.66762,-73.97850,13325.63,10060.39,0.33,0.55,0.30,NEW YORK METHODIST HOSPITAL
4.95,3.07,43.04269,-76.14043,16103.15,8614.69,0.67,0.41,0.03,UNIVERSITY HOSPITAL S U N Y HEALTH SCIENCE CENTER
3.77,2.31,43.08176,-75.26587,11397.07,5576.00,0.67,0.62,0.25,ST ELIZABETH MEDICAL CENTER
5.56,2.92,44.70022,-73.47100,18534.45,8015.64,0.50,0.55,0.01,CHAMPLAIN VALLEY PHYSICIANS HOSPITAL MEDICAL CTR
3.34,2.25,42.84782,-78.81264,9660.73,5321.45,0.50,0.69,0.14,MERCY HOSPITAL
4.30,2.99,43.12266,-77.62360,13517.52,8290.43,0.50,0.55,0.21,STRONG MEMORIAL HOSPITAL
8.82,3.04,40.69327,-73.29412,31572.65,8467.35,0.50,0.70,0.74,GOOD SAMARITAN HOSPITAL MEDICAL CENTER
4.98,2.48,41.02614,-73.76978,16245.92,6251.54,0.50,0.62,0.45,WHITE PLAINS HOSPITAL CENTER
3.37,3.49,40.64666,-74.02049,9795.83,10265.33,0.50,0.68,0.05,LUTHERAN MEDICAL CENTER
5.61,2.55,40.77481,-73.47968,18763.55,6517.45,0.50,0.56,0.20,PLAINVIEW HOSPITAL
7.62,3.39,40.90922,-73.11520,26788.97,9880.39,0.50,0.60,0.45,UNIVERSITY HOSPITAL ( STONY BROOK )
6.15,4.06,40.59803,-73.75296,20887.82,12572.64,0.50,0.64,0.08,ST JOHN'S EPISCOPAL HOSPITAL AT SOUTH SHORE
8.18,2.50,40.85738,-73.18681,28993.00,6338.13,0.50,0.76,0.89,ST CATHERINE OF SIENA HOSPITAL
3.70,2.43,35.43754,-80.60147,11135.35,6060.24,0.67,0.65,0.16,CAROLINAS MEDICAL CENTER-NORTHEAST
4.56,2.51,35.57658,-82.54922,14543.48,6353.52,0.67,0.40,0.82,MEMORIAL MISSION HOSPITAL AND ASHEVILLE SURGERY CE
5.68,2.39,35.95000,-80.00000,19009.55,5868.09,0.50,0.66,0.39,HIGH POINT REGIONAL HOSPITAL
4.37,2.54,36.07581,-80.29779,13774.50,6501.91,0.50,0.53,0.39,FORSYTH MEMORIAL HOSPITAL
4.22,2.20,35.68172,-80.47072,13178.45,5143.09,0.50,0.80,0.76,ROWAN REGIONAL MEDICAL CENTER
6.00,2.55,35.03156,-78.93205,20309.17,6533.12,0.50,0.50,0.19,CAPE FEAR VALLEY MEDICAL CENTER
8.10,3.32,36.00850,-78.94006,28685.06,9612.85,0.67,0.44,0.76,DUKE UNIVERSITY HOSPITAL
4.41,2.57,35.27341,-81.13688,13944.46,6595.69,0.50,0.70,0.70,GASTON MEMORIAL HOSPITAL
6.34,2.92,35.60726,-77.40477,21652.96,8014.79,0.50,0.46,0.01,PITT COUNTY MEMORIAL HOSPITAL
5.13,3.27,36.09062,-80.27161,16830.00,9411.60,0.83,0.55,0.58,NORTH CAROLINA BAPTIST HOSPITAL
5.83,2.45,35.22196,-80.83287,19626.21,6103.79,0.50,0.64,0.14,PRESBYTERIAN HOSPITAL
4.86,3.32,35.90529,-79.04963,15761.79,9597.00,0.67,0.41,0.01,UNIVERSITY OF NORTH CAROLINA HOSPITAL
6.25,2.54,35.78523,-78.58836,21311.00,6494.67,0.33,0.50,0.80,WAKEMED RALEIGH CAMPUS
5.17,2.63,35.30715,-78.63474,16985.38,6847.88,0.00,0.00,0.00,BETSY JOHNSON REGIONAL  HOSPITAL
4.24,2.53,36.09251,-79.78855,13272.54,6446.63,0.67,0.66,0.51,MOSES H CONE MEMORIAL HOSPITAL THE
6.27,2.30,35.21029,-80.82084,21364.47,5542.79,0.50,0.54,0.51,CAROLINAS MED CENTER-MERCY
8.19,3.21,35.20397,-80.83908,29031.85,9152.79,0.67,0.64,0.25,CAROLINAS MEDICAL CENTER/BEHAV HEALTH
5.70,2.25,35.81801,-78.70283,19091.05,5305.55,0.50,0.65,0.54,REX HOSPITAL
4.74,2.35,35.20554,-79.45645,15250.48,5728.26,0.67,0.60,0.45,FIRSTHEALTH MOORE REGIONAL HOSPITAL
6.60,2.49,35.71850,-77.94518,22684.17,6283.33,0.50,0.69,0.89,WILSON MEDICAL CENTER
4.04,2.67,35.11420,-77.06568,12457.42,7000.74,0.33,0.74,0.91,CAROLINA EAST MEDICAL CENTER
5.15,2.60,34.23786,-77.94764,16926.10,6712.43,0.83,0.70,0.58,NEW HANOVER REGIONAL MEDICAL CENTER
4.99,2.27,35.11432,-80.71971,16256.36,5411.86,0.00,0.00,0.00,PRESBYTERIAN HOSPITAL MATTHEWS
3.53,2.47,46.88496,-96.78609,10448.39,6190.43,0.67,0.61,0.48,SANFORD MEDICAL CENTER FARGO
4.05,2.48,47.91045,-97.06742,12516.46,6248.54,0.83,0.54,0.01,ALTRU HOSPITAL
6.21,3.31,39.13707,-84.50392,21149.07,9546.25,0.67,0.45,0.21,UNIVERSITY HOSPITAL INC
6.03,2.39,40.03064,-83.03440,20421.22,5897.15,0.83,0.71,0.21,RIVERSIDE METHODIST HOSPITAL
3.81,2.50,38.75320,-82.97800,11554.50,6336.92,0.50,0.61,0.69,SOUTHERN OHIO MEDICAL CENTER
5.04,2.39,40.57098,-83.12972,16450.93,5871.57,0.50,0.91,0.48,MARION GENERAL HOSPITAL
3.98,2.45,40.11479,-82.94677,12238.13,6137.40,0.50,0.66,0.12,MOUNT CARMEL ST ANN'S HOSPITAL
6.05,2.72,39.96098,-82.99077,20490.89,7194.67,0.67,0.79,0.21,GRANT MEDICAL CENTER
7.93,2.47,41.08161,-81.50007,28000.29,6187.07,0.67,0.64,0.33,SUMMA HEALTH SYSTEMS HOSPITALS
6.28,2.32,41.44642,-82.70864,21405.62,5605.85,0.50,0.86,0.19,FIRELANDS REGIONAL MEDICAL CENTER
6.91,2.53,41.07747,-81.53042,23934.50,6452.17,0.67,0.70,0.64,AKRON GENERAL MEDICAL CENTER
4.00,2.42,39.95805,-83.02191,12329.64,5990.32,0.67,0.42,0.02,MOUNT CARMEL HEALTH
4.99,2.95,39.97510,-82.01812,16260.21,8133.38,0.50,0.79,0.93,GENESIS HEALTHCARE SYSTEM
5.96,2.93,41.61788,-83.61632,20162.80,8050.00,0.67,0.69,0.07,UNIVERSITY OF TOLEDO MEDICAL CENTER
9.14,2.56,39.74547,-84.18523,32862.65,6561.61,0.67,0.45,0.02,MIAMI VALLEY HOSPITAL
9.00,2.44,39.78778,-84.23493,32288.64,6064.25,0.67,0.56,0.16,GOOD SAMARITAN HOSPITAL
4.60,2.30,39.31257,-84.51774,14711.79,5508.71,0.50,0.90,0.70,MERCY HOSPITAL FAIRFIELD
4.77,3.21,41.46088,-81.69763,15388.17,9169.75,0.50,0.60,0.25,METRO HEALTH MEDICAL CENTER
5.56,2.41,41.11441,-80.65565,18532.21,5943.84,0.83,0.49,0.21,ST ELIZABETH HEALTH CENTER
5.41,2.26,40.74115,-84.11804,17958.91,5380.95,0.67,0.74,0.07,ST RITA'S MEDICAL CENTER
8.34,2.50,41.67775,-83.59589,29658.23,6312.77,0.33,0.70,0.58,TOLEDO HOSPITAL THE
4.50,2.45,39.71750,-82.57772,14298.63,6108.21,0.50,0.82,0.91,FAIRFIELD MEDICAL CENTER
9.04,2.38,39.49896,-84.31496,32437.73,5846.80,0.50,0.64,0.33,ATRIUM MEDICAL CENTER
6.13,2.40,41.45013,-81.82397,20805.08,5924.42,0.67,0.60,0.19,FAIRVIEW HOSPITAL
5.41,2.25,41.17554,-81.24915,17931.91,5331.09,0.50,0.76,0.38,ROBINSON MEMORIAL HOSPITAL
7.66,2.52,39.69724,-84.19232,26935.75,6412.33,0.67,0.80,0.58,KETTERING MEDICAL CENTER
3.96,2.38,40.79609,-81.40360,12158.47,5834.05,0.50,0.64,0.17,AULTMAN HOSPITAL
11.28,3.00,39.99445,-83.01872,41391.74,8327.89,0.67,0.50,0.03,OHIO STATE UNIVERSITY HOSPITALS
5.40,2.33,39.92755,-83.81573,17895.73,5663.36,0.50,0.68,0.48,SPRINGFIELD REGIONAL MEDICAL CENTER
5.73,2.25,41.55725,-83.68141,19219.91,5328.45,0.50,0.65,0.86,ST LUKE'S HOSPITAL
9.90,3.13,41.66810,-83.54275,35883.31,8828.62,0.50,0.70,0.05,MERCY ST VINCENT MEDICAL CENTER
5.03,2.25,40.75264,-82.52803,16445.00,5313.88,0.83,0.81,0.93,MEDCENTRAL HEALTH SYSTEM
4.94,2.32,41.43653,-81.94451,16062.00,5595.20,0.50,0.72,0.76,ST JOHN MEDICAL CENTER
9.79,3.00,39.13975,-84.52173,35455.54,8303.92,0.67,0.84,0.69,GOOD SAMARITAN HOSPITAL
11.07,3.38,41.50772,-81.60592,40564.96,9828.18,0.83,0.46,0.45,UNIVERSITY HOSPITALS OF CLEVELAND
5.74,2.39,41.44829,-81.53736,19255.71,5873.18,0.50,0.81,0.21,SOUTH POINTE HOSPITAL
4.66,2.21,41.36649,-82.09708,14937.65,5180.40,0.67,0.75,0.98,EMH REGIONAL MEDICAL CENTER
5.69,2.18,41.37028,-81.83189,19077.43,5061.00,0.50,0.71,0.74,SOUTHWEST GENERAL HEALTH CENTER
5.21,2.47,39.12105,-84.51059,17132.48,6220.76,0.83,0.46,0.89,CHRIST HOSPITAL
6.69,2.38,39.25076,-84.34341,23065.89,5862.89,0.50,0.62,0.99,BETHESDA NORTH HOSPITAL
9.34,2.72,41.50248,-81.62110,33642.91,7192.16,0.33,0.33,0.25,CLEVELAND CLINIC
3.71,2.22,40.35601,-80.62502,11164.92,5208.85,0.50,0.81,0.64,TRINITY MEDICAL CTR EAST&TRINITY MEDICAL CTR WEST
4.53,2.29,41.52013,-81.43291,14421.13,5477.87,0.67,0.45,0.38,HILLCREST HOSPITAL
8.93,2.73,36.14687,-95.96841,32007.69,7261.54,0.83,0.76,0.32,HILLCREST MEDICAL CENTER
8.03,2.26,35.22999,-97.44074,28407.18,5352.55,0.50,0.74,0.21,NORMAN REGIONAL HEALTH SYSTEM
4.58,2.15,35.75351,-95.40612,14616.55,4908.27,0.50,0.70,0.03,MUSKOGEE REGIONAL MEDICAL CENTER
15.40,3.17,35.52960,-97.57496,57847.38,9001.62,1.00,0.76,0.91,INTEGRIS BAPTIST MEDICAL CENTER
5.58,2.34,36.06135,-95.95154,18644.12,5690.75,0.83,0.61,0.45,SAINT FRANCIS HOSPITAL INC
13.22,3.49,35.48138,-97.49624,49149.25,10258.75,0.67,0.45,0.01,O U MEDICAL CENTER
7.89,2.22,35.46721,-97.39370,27850.75,5204.00,0.50,0.76,0.93,MIDWEST REGIONAL MEDICAL CENTER
7.59,2.40,35.42168,-97.53306,26637.45,5925.36,0.67,0.70,0.25,INTEGRIS SOUTHWEST MEDICAL CENTER
5.33,2.39,36.13393,-95.96718,17641.67,5875.00,0.50,0.51,0.11,ST JOHN MEDICAL CENTER INC
5.69,2.11,35.60901,-97.59429,19065.92,4761.69,0.75,0.96,0.30,OKLAHOMA HEART HOSPITAL
5.63,2.04,35.38969,-97.42688,18813.08,4476.50,0.50,1.00,0.90,OKLAHOMA HEART HOSPITAL SOUTH
6.04,3.31,45.49956,-122.68802,20448.91,9555.83,0.67,0.47,0.07,OHSU HOSPITAL AND CLINICS
4.88,3.34,44.93267,-123.03418,15828.73,9677.18,0.67,0.72,0.25,SALEM HOSPITAL
6.80,2.13,40.25296,-76.92151,23498.08,4832.46,0.83,0.85,0.96,HOLY SPIRIT HOSPITAL
9.11,3.06,40.96789,-76.60506,32724.67,8555.86,0.33,0.56,0.14,GEISINGER MEDICAL CENTER
8.38,2.48,42.11102,-80.07912,29790.36,6229.36,0.50,0.72,0.58,SAINT VINCENT HEALTH CENTER
21.49,3.86,40.00504,-75.15155,82170.62,11745.25,0.83,0.57,0.33,TEMPLE UNIVERSITY HOSPITAL
3.55,2.34,40.71251,-80.32136,10535.62,5668.00,0.33,0.66,0.48,HERITAGE VALLEY BEAVER
6.49,2.72,40.33271,-75.95020,22267.56,7197.00,0.50,0.68,0.21,READING HOSPITAL MEDICAL CENTER
4.74,2.37,41.24548,-77.01438,15272.64,5823.27,0.50,0.57,0.38,WILLIAMSPORT REGIONAL MEDICAL CENTER
5.30,2.71,39.94604,-76.71884,17497.00,7166.95,0.67,0.45,0.08,YORK HOSPITAL
7.52,2.51,40.60811,-75.39260,26370.32,6377.47,0.67,0.54,0.58,ST LUKE'S HOSPITAL BETHLEHEM
8.50,2.89,40.45705,-80.00363,30284.59,7875.41,0.83,0.70,0.45,ALLEGHENY GENERAL HOSPITAL
3.97,2.17,40.52204,-78.39824,12187.58,4990.67,0.83,0.61,0.39,ALTOONA REGIONAL HEALTH SYSTEM
4.45,2.45,41.98012,-76.52072,14095.45,6123.00,0.50,0.65,0.48,ROBERT PACKER HOSPITAL
4.43,2.10,41.36116,-79.70065,14042.69,4713.92,0.00,0.00,0.00,UPMC NORTHWEST
4.75,2.49,40.37587,-75.97750,15303.73,6273.27,0.50,0.70,0.51,ST JOSEPH MEDICAL CENTER
5.61,2.32,40.04740,-76.30540,18751.63,5616.63,0.67,0.60,0.83,LANCASTER GENERAL HOSPITAL
5.65,2.70,40.48928,-79.89596,18915.82,7119.55,0.50,0.72,0.64,UPMC ST MARGARET
4.80,2.10,40.57319,-80.01455,15494.55,4705.82,0.50,0.57,0.48,UPMC PASSAVANT
4.25,2.42,40.32674,-78.92197,13332.38,5994.81,0.50,0.61,0.03,CONEMAUGH VALLEY MEMORIAL HOSPITAL
11.81,3.25,39.95045,-75.19259,43515.42,9331.88,0.50,0.34,0.39,HOSPITAL OF UNIV OF PENNSYLVANIA
11.58,2.30,40.24397,-75.61364,42572.00,5512.27,0.50,0.84,0.48,POTTSTOWN MEMORIAL MEDICAL CENTER
13.56,2.33,40.12344,-75.51493,50489.09,5651.45,0.50,0.62,0.13,PHOENIXVILLE HOSPITAL
8.40,2.61,40.60000,-75.47000,29893.22,6765.50,0.67,0.59,0.54,LEHIGH VALLEY HOSPITAL
7.48,2.38,41.25860,-75.86729,26198.65,5829.39,0.50,0.60,0.80,WILKES-BARRE GENERAL HOSPITAL
17.42,3.14,40.01883,-75.32115,65919.17,8898.67,0.50,0.71,0.86,MAIN LINE HOSPITAL BRYN MAWR CAMPUS
13.24,4.02,40.03678,-75.14351,49208.25,12407.17,0.67,0.62,0.05,ALBERT EINSTEIN MEDICAL CENTER
5.78,2.36,39.93492,-77.64744,19429.05,5782.58,0.50,0.59,0.48,CHAMBERSBURG HOSPITAL
9.64,2.36,40.04475,-75.50425,34840.93,5762.87,0.50,0.71,0.20,MAIN LINE HOSPITAL PAOLI
12.60,2.53,40.68708,-75.24272,46673.57,6456.57,0.67,0.69,0.03,EASTON HOSPITAL
16.42,3.24,40.44190,-79.96044,61925.32,9297.23,0.83,0.55,0.11,UPMC PRESBYTERIAN SHADYSIDE
4.36,2.20,40.86656,-79.88351,13765.64,5121.27,0.33,0.86,0.70,BUTLER MEMORIAL HOSPITAL
11.51,3.21,39.94969,-75.15712,42320.78,9166.76,0.67,0.41,0.58,THOMAS JEFFERSON UNIVERSITY HOSPITAL
30.00,2.87,39.85598,-75.36791,116163.94,7814.35,0.67,0.56,0.14,CROZER CHESTER MEDICAL CENTER
8.81,2.75,39.98905,-75.27707,31541.68,7322.16,0.50,0.54,0.25,MAIN LINE HOSPITAL LANKENAU
9.79,2.96,39.95825,-75.19909,35455.53,8150.35,0.67,0.54,0.54,PENN PRESBYTERIAN MEDICAL CENTER
11.17,2.77,39.94560,-75.15561,40958.44,7383.44,0.50,0.56,0.70,PENNSYLVANIA HOSP OF THE UNIV OF PA HEALTH SYS
12.60,2.55,40.12077,-75.11818,46674.38,6507.09,0.83,0.51,0.43,ABINGTON MEMORIAL HOSPITAL
5.45,2.22,41.41276,-75.65399,18119.14,5191.21,0.50,0.68,0.86,REGIONAL HOSPITAL OF SCRANTON
6.08,3.08,40.26468,-76.67582,20606.10,8627.13,0.67,0.40,0.03,MILTON S HERSHEY MEDICAL CENTER
6.56,2.39,40.20064,-74.92952,22554.52,5890.11,0.33,0.71,0.45,ST MARY MEDICAL CENTER
9.68,2.50,40.64463,-75.40842,34985.06,6339.53,0.67,0.66,0.08,LEHIGH VALLEY HOSPITAL - MUHLENBERG
6.95,2.70,40.81936,-77.84273,24110.83,7116.61,0.50,0.91,0.58,MOUNT NITTANY MEDICAL CENTER
27.43,3.77,39.95658,-75.16249,105884.94,11376.69,0.83,0.71,0.07,HAHNEMANN UNIVERSITY HOSPITAL
4.94,2.57,40.02887,-75.20948,16064.36,6609.73,0.00,0.00,0.00,ROXBOROUGH MEMORIAL HOSPITAL
13.52,3.85,41.81254,-71.40760,50345.54,11731.17,0.33,0.49,0.07,RHODE ISLAND HOSPITAL
8.82,3.40,41.70541,-71.47790,31562.91,9915.55,0.50,0.50,0.39,KENT COUNTY MEMORIAL HOSPITAL
6.15,2.56,41.85172,-71.39826,20914.42,6557.67,0.67,0.51,0.64,MIRIAM HOSPITAL
6.44,2.39,34.95535,-81.05137,22041.75,5893.17,0.50,0.75,0.33,PIEDMONT MEDICAL CENTER
5.83,3.36,32.78272,-79.94543,19613.12,9775.48,0.33,0.76,0.70,MUSC MEDICAL CENTER
6.51,2.60,34.96733,-81.94021,22330.08,6724.60,0.33,0.60,0.54,SPARTANBURG REGIONAL MEDICAL CENTER
4.66,2.37,34.69403,-82.98884,14947.16,5814.21,0.00,0.00,0.00,OCONEE MEDICAL CENTER
9.01,2.92,34.02839,-81.03539,32333.96,8014.61,0.33,0.44,0.21,PALMETTO HEALTH RICHLAND
9.32,2.27,34.83965,-82.42147,33580.27,5415.40,0.67,0.66,0.11,ST FRANCIS-DOWNTOWN
4.96,2.18,34.01469,-81.01343,16146.00,5060.87,0.50,0.85,0.30,SISTERS OF CHARITY PROVIDENCE HOSPITALS
8.91,2.52,34.51119,-82.64683,31911.00,6403.53,0.50,0.61,0.94,ANMED HEALTH
7.09,2.22,34.24654,-80.60702,24653.45,5201.18,0.50,0.74,0.33,KERSHAW HEALTH
5.51,2.43,34.19543,-79.76256,18364.33,6046.76,0.50,0.50,0.80,MCLEOD REGIONAL MEDICAL CENTER-PEE DEE
9.51,2.94,34.17571,-82.15791,34322.15,8066.00,0.67,0.65,0.20,SELF REGIONAL HEALTHCARE
9.81,2.27,34.00533,-81.11393,35528.83,5400.83,0.67,0.64,0.48,LEXINGTON MEDICAL CENTER
7.47,3.22,34.81904,-82.41308,26188.50,9192.94,0.50,0.55,0.17,GREENVILLE MEMORIAL HOSPITAL
8.01,2.60,32.97605,-80.07302,28315.33,6729.50,0.50,0.56,0.48,TRIDENT MEDICAL CENTER
6.45,2.21,33.70704,-78.89487,22096.33,5172.92,0.67,0.50,0.58,GRAND STRAND REG MED CENTER
6.94,2.25,32.78211,-79.95018,24076.81,5327.19,0.50,0.66,0.30,ROPER HOSPITAL
13.32,2.34,34.19543,-79.76256,49526.57,5673.14,0.33,0.66,0.14,CAROLINAS HOSPITAL SYSTEM
7.60,2.43,43.53562,-96.74305,26696.00,6036.38,0.67,0.82,0.58,SANFORD USD MEDICAL CENTER
4.97,2.35,35.63906,-88.83207,16179.22,5722.22,0.67,0.54,0.28,JACKSON-MADISON COUNTY GENERAL HOSPITAL
4.78,2.26,35.93917,-85.01865,15447.08,5383.23,0.50,0.65,0.45,CUMBERLAND MEDICAL CENTER
5.82,2.11,35.75588,-83.95808,19586.42,4770.25,0.50,0.75,0.48,BLOUNT MEMORIAL HOSPITAL
8.75,2.88,35.93985,-83.94326,31282.85,7829.85,0.33,0.62,0.20,UNIVERSITY OF TN MEMORIAL HOSPITAL
4.17,2.18,36.55401,-82.55483,12979.62,5030.06,0.50,0.59,0.33,WELLMONT HOLSTON VALLEY MEDICAL CENTER
7.55,2.95,36.14316,-86.80048,26476.98,8119.15,0.50,0.44,0.43,VANDERBILT UNIVERSITY HOSPITAL
7.50,2.61,35.12837,-89.86202,26294.89,6772.44,0.50,0.44,0.39,BAPTIST MEMORIAL HOSPITAL
6.75,2.68,35.13640,-90.01928,23282.65,7027.35,0.67,0.51,0.38,METHODIST HEALTHCARE MEMPHIS HOSPITALS
4.68,2.37,35.86074,-86.42434,15049.23,5800.69,0.33,0.88,0.16,MIDDLE TENNESSEE MEDICAL CENTER INC
3.27,2.29,36.17121,-85.50938,9401.71,5471.42,0.50,0.74,0.99,COOKEVILLE REGIONAL MEDICAL CENTER
5.78,2.39,36.30767,-82.38497,19417.84,5893.72,0.83,0.50,0.21,JOHNSON CITY MEDICAL CENTER
3.52,2.20,35.60668,-87.06635,10405.69,5135.00,0.50,0.72,0.74,MAURY REGIONAL HOSPITAL
5.26,2.22,36.12859,-86.84559,17356.60,5198.30,0.17,0.75,0.99,ST THOMAS HOSPITAL
6.83,2.25,35.04157,-85.26037,23637.09,5335.66,0.33,0.72,0.99,MEMORIAL HEALTHCARE SYSTEM INC
6.26,2.59,35.05068,-85.28823,21346.53,6663.65,0.50,0.53,0.00,ERLANGER MEDICAL CENTER
5.56,2.13,35.99233,-83.92697,18550.00,4836.64,0.50,0.56,0.85,TENNOVA HEALTHCARE
4.79,2.36,36.15388,-86.80249,15458.22,5763.11,0.67,0.66,0.64,BAPTIST HOSPITAL
8.20,2.53,35.03467,-85.26735,29079.86,6432.29,0.50,0.56,0.33,PARKRIDGE MEDICAL CENTER
7.40,2.51,36.15310,-86.80910,25890.21,6347.84,0.67,0.69,0.82,CENTENNIAL MEDICAL CENTER
3.62,2.14,35.91765,-84.10080,10806.29,4904.00,0.33,0.72,0.83,PARKWEST MEDICAL CENTER
6.06,2.24,35.17731,-84.86873,20540.47,5269.82,0.50,0.69,0.38,SKYRIDGE MEDICAL CENTER
5.45,4.18,29.31233,-94.77317,18122.40,13035.25,0.67,0.55,0.21,UNIVERSITY OF TEXAS MEDICAL BRANCH GAL
5.85,3.03,32.78994,-96.78044,19719.66,8432.03,0.83,0.59,0.33,BAYLOR UNIVERSITY MEDICAL CENTER
4.80,2.36,30.08729,-94.13292,15526.21,5776.63,0.67,0.86,0.80,CHRISTUS HOSPITAL
7.14,2.28,32.50219,-94.73025,24874.00,5442.33,0.50,0.74,0.86,GOOD SHEPHERD MEDICAL CENTER
12.30,2.34,33.57524,-101.89272,45476.08,5683.38,0.50,0.41,0.48,COVENANT MEDICAL CENTER
4.79,2.24,31.51444,-97.19927,15466.25,5290.05,0.50,0.50,0.33,PROVIDENCE HEALTH CENTER
8.31,2.74,32.81224,-96.83795,29513.32,7291.75,0.33,0.64,0.30,UT SOUTHWESTERN UNIVERSITY HOSPITAL
8.83,2.44,27.77751,-97.39515,31606.00,6087.85,0.83,0.57,0.96,CHRISTUS SPOHN HOSPITAL CORPUS CHRISTI
4.34,2.59,31.07837,-97.36403,13663.90,6671.00,0.50,0.56,0.86,SCOTT & WHITE MEMORIAL HOSPITAL
11.98,2.64,30.30491,-97.74540,44179.07,6884.81,0.17,0.56,0.64,SETON MEDICAL CENTER AUSTIN
7.71,2.48,29.43360,-98.49265,27134.49,6231.28,0.67,0.61,0.25,BAPTIST MEDICAL CENTER
8.74,3.57,29.71431,-95.39680,31235.14,10606.76,0.67,0.46,0.14,MEMORIAL HERMANN TEXAS MEDICAL CENTER
15.66,2.46,32.33824,-95.29122,58900.60,6164.07,0.50,0.55,0.93,EAST TEXAS MEDICAL CENTER
9.29,2.32,32.34280,-95.29201,33453.56,5593.88,0.50,0.60,0.98,MOTHER FRANCES HOSPITAL
10.50,2.80,26.26353,-98.18455,38268.25,7533.19,0.67,0.91,0.74,SOUTH TEXAS HEALTH SYSTEM
7.13,2.42,32.73780,-97.33899,24805.60,5993.00,0.67,0.55,0.58,TEXAS HEALTH HARRIS METHODIST FORT WORTH
5.02,2.52,32.73070,-97.34379,16383.67,6408.83,0.67,0.57,0.74,BAYLOR ALL SAINTS MEDICAL CENTER AT FW
5.63,2.53,29.81230,-95.43010,18813.58,6461.29,0.67,0.62,0.70,MEMORIAL HERMANN HOSPITAL SYSTEM
11.67,2.95,29.70719,-95.40048,42942.76,8101.18,0.67,0.44,0.01,ST LUKES EPISCOPAL HOSPITAL
8.77,2.25,31.33632,-94.74205,31386.33,5317.33,0.50,0.71,0.64,MEMORIAL HEALTH SYSTEM OF EAST TEXAS- LUFKIN
12.65,2.63,30.28473,-95.46714,46881.62,6830.10,0.33,0.53,0.48,CONROE REGIONAL MEDICAL CENTER
6.03,2.24,32.47171,-99.73315,20439.92,5288.67,0.67,0.86,0.39,HENDRICK MEDICAL CENTER
7.88,2.22,35.19533,-101.91907,27814.36,5222.07,0.67,0.60,0.21,BAPTIST ST ANTHONYS HEALTH SYSTEM-BAPTIST CAMPUS
6.39,2.91,29.42825,-98.49859,21875.48,7960.12,0.50,0.80,0.20,CHRISTUS SANTA ROSA HOSPITAL
4.59,2.35,30.07104,-94.11927,14689.73,5724.82,0.83,0.64,0.86,MEMORIAL HERMANN BAPTIST BEAUMONT HOSPITAL
13.05,2.95,29.71020,-95.39956,48445.15,8101.33,1.00,0.60,0.14,METHODIST HOSPITALTHE
8.39,2.47,29.50795,-98.57224,29852.08,6202.46,0.67,0.62,0.58,METHODIST HOSPITAL
11.18,2.65,33.15951,-96.63675,41004.46,6905.69,0.67,0.65,0.03,MEDICAL CENTER OF MCKINNEY
5.66,2.62,30.28957,-97.72584,18951.31,6796.88,0.67,0.81,0.64,ST DAVIDS MEDICAL CENTER
7.07,2.81,32.88076,-96.76226,24592.07,7566.14,0.67,0.66,0.03,TEXAS HEALTH PRESBYTERIAN HOSPITAL  DALLAS
9.74,2.30,32.40574,-99.76486,35249.58,5510.50,0.75,0.57,0.76,ABILENE REGIONAL MEDICAL CENTER
4.63,2.56,31.46574,-100.43466,14810.83,6559.58,0.50,0.72,0.80,SHANNON MEDICAL CENTER
7.33,2.42,29.54043,-95.12730,25616.73,6018.40,0.67,0.51,0.21,CLEAR LAKE REGIONAL MEDICAL CENTER
9.99,2.38,33.17345,-97.11382,36257.74,5843.63,0.83,0.72,0.54,DENTON REGIONAL MEDICAL CENTER
9.70,2.65,30.01994,-95.44379,35083.00,6935.50,0.50,0.65,0.69,HOUSTON NORTHWEST MEDICAL CENTER
7.47,2.23,32.83479,-97.12428,26160.50,5233.50,0.50,0.62,0.89,TEXAS HEALTH HARRIS METHODIST HURST-EULESS-BEDFORD
13.49,2.61,32.91132,-96.77424,50223.95,6752.74,0.83,0.51,0.07,MEDICAL CITY DALLAS HOSPITAL
9.54,2.33,33.02168,-96.76621,34441.85,5658.15,0.50,0.68,0.11,MEDICAL CENTER OF PLANO
10.85,2.74,25.97780,-97.51442,39670.67,7293.92,0.50,0.60,0.45,VALLEY REGIONAL MEDICAL CENTER
9.06,2.42,32.73563,-97.34483,32514.42,6020.54,0.83,0.41,0.74,PLAZA MEDICAL CENTER OF FORT WORTH
4.17,2.39,32.70698,-96.27851,12992.92,5878.58,0.00,0.00,0.00,RENAISSANCE HOSPITAL TERRELL
5.07,2.79,33.58838,-101.89214,16600.00,7480.69,0.50,0.50,0.25,UNIVERSITY MEDICAL CENTER
9.40,2.76,26.18586,-98.22085,33883.36,7354.82,0.50,0.66,0.48,RIO GRANDE REGIONAL HOSPITAL
9.41,2.36,30.22723,-97.77447,33904.05,5771.70,0.50,0.44,0.70,ST DAVID'S SOUTH AUSTIN MEDICAL CENTER
7.15,2.37,30.41163,-97.70649,24906.17,5801.75,0.33,0.65,0.29,NORTH AUSTIN MEDICAL CENTER
9.90,2.32,29.96603,-95.55127,35861.75,5591.25,0.50,0.78,0.94,METHODIST WILLOWBROOK HOSPITAL
4.46,2.17,33.60310,-101.91587,14155.15,4997.85,0.00,0.00,0.00,LUBBOCK HEART HOSPITAL LP
6.89,3.28,40.77170,-111.83681,23845.50,9436.96,0.33,0.54,0.08,UNIVERSITY HEALTH CARE/UNIV HOSPITALS AND  CLINICS
7.21,2.73,40.65922,-111.89189,25127.59,7231.06,0.33,0.59,0.54,INTERMOUNTAIN MEDICAL CENTER
4.75,7.06,44.47966,-73.19412,15319.81,24526.71,0.67,0.50,0.14,FLETCHER ALLEN HOSPITAL OF VERMONT
4.82,2.43,38.40552,-78.85730,15608.62,6037.75,0.50,0.70,0.93,ROCKINGHAM MEMORIAL HOSPITAL
4.33,2.45,39.19345,-78.19599,13644.81,6137.14,0.67,0.60,0.74,WINCHESTER MEDICAL CENTER INC
9.90,3.83,36.86268,-76.30355,35869.51,11622.94,0.83,0.59,0.05,SENTARA NORFOLK GENERAL HOSPITAL
24.46,7.60,38.02573,-78.51526,94036.33,26704.11,0.33,0.35,0.25,UNIVERSITY OF VIRGINIA MEDICAL CENTER
4.02,2.39,38.09436,-78.98659,12378.07,5881.57,0.50,0.82,1.00,AUGUSTA HEALTH
3.69,2.28,37.41368,-79.16870,11071.82,5438.42,0.50,0.70,0.58,CENTRA  HEALTH INC
8.07,2.53,38.31158,-77.48061,28556.35,6429.15,0.67,0.74,0.17,MARY WASHINGTON HOSPITAL INC
5.23,2.54,37.25129,-79.94125,17230.62,6485.38,0.50,0.61,0.01,CARILION ROANOKE MEMORIAL CENTER
7.29,3.93,37.54330,-77.42932,25436.96,12044.65,0.67,0.49,0.00,MEDICAL COLLEGE OF VIRGINIA HOSPITALS
4.83,2.26,36.77378,-76.57856,15637.91,5350.82,0.50,0.78,0.51,SENTARA OBICI HOSPITAL
4.24,2.27,36.85098,-76.18989,13282.24,5421.71,0.50,0.65,0.76,SENTARA LEIGH HOSPITAL
6.16,2.21,37.26336,-80.03166,20934.29,5149.86,0.50,0.49,0.08,LEWISGALE MEDICAL CENTER
3.43,2.57,37.06523,-76.48417,10044.00,6587.23,0.50,0.69,0.45,RIVERSIDE REGIONAL MEDICAL CENTER
5.81,2.24,36.86449,-76.02844,19529.36,5288.77,0.67,0.62,0.39,SENTARA VIRGINIA BEACH GENERAL HOSPITAL
5.92,2.26,37.58440,-77.51252,19967.84,5359.40,0.50,0.66,0.70,BON SECOURS - ST MARYS HOSPITAL OF RICHMOND
6.00,2.91,38.85764,-77.22772,20289.73,7977.80,0.83,0.54,0.01,INOVA FAIRFAX HOSPITAL
4.91,2.35,37.62931,-77.38804,15930.11,5739.83,0.50,0.68,0.70,BON SECOURS - MEMORIAL REGIONAL MEDICAL
4.69,2.22,37.05580,-76.39048,15077.91,5198.82,0.67,0.66,0.74,SENTARA CAREPLEX HOSPITAL
11.38,2.36,37.51021,-77.59525,41807.06,5745.81,0.83,0.53,0.32,CJW MEDICAL CENTER
12.47,2.32,37.60459,-77.53929,46130.42,5585.92,0.67,0.64,0.30,HENRICO DOCTORS' HOSPITAL
6.47,3.81,47.64928,-122.30681,22180.96,11560.57,0.67,0.29,0.45,UNIVERSITY OF WASHINGTON MEDICAL CTR
4.93,2.50,46.59643,-120.52005,16021.18,6304.09,0.50,0.78,0.03,YAKIMA REGIONAL MEDICAL AND CARDIAC CENTER
4.75,2.55,47.40667,-120.32000,15310.38,6508.69,0.50,0.75,0.02,CENTRAL WASHINGTON HOSPITAL
6.76,2.57,47.15452,-122.50105,23355.57,6583.43,0.00,0.00,0.00,SAINT CLARE HOSPITAL
8.65,2.72,47.05286,-122.84707,30880.83,7206.67,0.50,0.41,0.11,PROVIDENCE ST PETER HOSPITAL
6.27,2.54,48.77371,-122.47344,21379.33,6477.00,0.50,0.68,0.33,ST JOSEPH MEDICAL CENTER
10.75,2.82,47.58295,-122.62506,39283.38,7618.69,0.67,0.57,0.33,HARRISON MEDICAL CENTER
5.27,2.65,47.65191,-117.42329,17368.54,6936.92,0.50,0.57,0.14,DEACONESS HOSPITAL
6.32,2.53,45.62460,-122.58145,21578.17,6457.25,0.67,0.54,0.82,PEACEHEALTH SOUTHWEST MEDICAL CENTER
6.40,2.35,47.61943,-122.18605,21885.75,5728.00,0.50,0.57,0.76,OVERLAKE HOSPITAL MEDICAL CENTER
12.14,3.11,47.64936,-117.41194,44823.09,8745.18,0.67,0.76,0.33,PROVIDENCE SACRED HEART MEDICAL CENTER
8.06,2.49,47.17742,-122.28943,28519.60,6297.60,0.50,0.96,0.11,MULTICARE GOOD SAMARITAN HOSPITAL
6.37,2.70,47.44243,-122.21392,21782.92,7117.92,0.50,0.55,0.48,VALLEY MEDICAL CENTER
8.44,2.90,47.24670,-122.44841,30062.48,7913.29,0.67,0.66,0.21,ST JOSEPH MEDICAL CENTER
7.43,2.69,47.25980,-122.45243,26017.00,7068.91,0.83,0.50,0.58,TACOMA GENERAL ALLENMORE HOSPITAL
3.92,2.95,39.65498,-79.95814,11994.55,8104.55,0.83,0.31,0.05,WEST VIRGINIA UNIVERSITY HOSPITALS
3.37,2.35,39.32836,-80.23964,9801.77,5723.46,0.67,0.61,0.76,UNITED HOSPITAL CENTER
3.62,2.35,38.43236,-82.40067,10786.19,5716.67,0.67,0.60,0.17,ST MARY'S MEDICAL CENTER
6.23,3.14,38.34739,-81.62600,21219.71,8888.86,0.67,0.59,0.11,CHARLESTON AREA MEDICAL CENTER
3.77,2.12,39.66383,-79.94681,11392.00,4793.23,0.50,0.78,0.98,MONONGALIA COUNTY GENERAL HOSPITAL
2.48,2.00,37.36312,-81.11184,6223.29,4326.00,0.50,0.79,0.86,PRINCETON COMMUNITY HOSPITAL
4.92,2.25,40.05809,-80.68471,16003.33,5318.92,0.67,0.69,0.30,WHEELING HOSPITAL
4.08,2.76,38.40959,-82.42708,12624.53,7345.40,0.50,0.51,0.08,CABELL-HUNTINGTON HOSPITAL INC
5.29,2.20,39.27035,-81.56026,17461.44,5120.44,0.50,0.51,0.11,CAMDEN CLARK MEDICAL CENTER
2.82,2.31,37.79878,-81.16820,7615.62,5567.50,0.50,0.72,0.48,BECKLEY ARH HOSPITAL
3.49,2.34,37.78754,-81.20183,10283.28,5671.06,0.67,0.74,0.83,RALEIGH GENERAL HOSPITAL
3.83,2.33,37.25551,-81.23539,11627.36,5655.86,0.00,0.00,0.00,BLUEFIELD REGIONAL MEDICAL CENTER
6.27,2.87,43.01152,-88.24308,21400.58,7817.17,0.50,0.55,0.25,WAUKESHA MEMORIAL HOSPITAL
5.85,2.36,42.57776,-87.81939,19702.91,5756.00,0.67,0.65,0.20,UNITED HSPTL SYS
5.49,2.95,44.67759,-90.17818,18268.74,8133.58,0.50,0.57,0.14,MINISTRY SAINT JOSEPH'S HOSPITAL
4.71,2.64,44.81192,-91.51352,15165.88,6893.56,0.25,0.55,0.70,MAYO CLINIC HEALTH SYSTEM EAU CLAIRE HOSPITAL
5.95,2.74,43.05867,-89.40269,20121.67,7264.72,0.67,0.78,0.70,ST MARY'S HOSPITAL
7.71,2.66,43.06432,-89.40100,27139.07,6961.80,0.67,0.44,0.57,MERITER HSPTL
6.18,3.73,43.07633,-89.43133,21022.00,11220.55,0.50,0.35,0.16,UNIVERSITY OF WI  HOSPITALS & CLINICS AUTHORITY
8.13,2.70,42.98958,-87.95079,28817.13,7120.04,0.50,0.65,0.38,AURORA ST LUKES MEDICAL CENTER
5.50,2.34,43.00120,-88.02675,18292.56,5690.88,0.50,0.71,0.64,AURORA WEST ALLIS MEDICAL CENTER
6.40,3.31,43.04008,-88.02523,21909.11,9570.78,0.67,0.36,0.11,FROEDTERT MEM LUTHERAN HSPTL
