size_charge,size_pay,lat,lon,state,charge,pay,AcquiredInfect,AcquiredConditions,PatientSafetySummary,name
7.43,2.37,31.21673,-85.36307,AL,26000,6000,50,51,21,Southeast Alabama Medical Center
3.56,2.27,34.22148,-86.15966,AL,11000,5000,50,91,54,Marshall Medical Center South
8.14,2.19,34.80175,-87.67514,AL,29000,5000,50,65,2,Eliza Coffee Memorial Hospital
7.71,2.26,33.25607,-86.81035,AL,27000,5000,83,70,63,Shelby Baptist Medical Center
4.26,2.24,34.74649,-87.69895,AL,13000,5000,50,91,33,Helen Keller Memorial Hospital
6.92,2.47,32.32785,-86.27750,AL,24000,6000,50,67,54,Baptist Medical Center South
2.73,2.29,32.63806,-85.40413,AL,7000,5000,50,80,13,East Alabama Medical Center And Snf
10.57,3.05,33.50619,-86.80210,AL,39000,9000,66,45,11,University Of Alabama Hospital
7.15,2.62,34.72007,-86.58108,AL,25000,7000,50,65,44,Huntsville Hospital
4.45,2.24,33.50734,-86.78958,AL,14000,5000,50,72,21,St Vincent'S Birmingham
7.47,2.22,33.65640,-85.82284,AL,26000,5000,50,60,5,Northeast Alabama Regional Med Center
5.16,2.33,33.20521,-87.52546,AL,17000,6000,66,66,21,D C H Regional Medical Center
7.26,2.36,33.49854,-86.84633,AL,25000,6000,66,70,8,Baptist Medical Center-Princeton
10.48,2.30,33.51420,-86.74859,AL,38000,6000,66,27,11,Trinity Medical Center
6.67,2.62,30.69697,-88.08081,AL,23000,7000,66,55,24,Mobile Infirmary
14.69,2.41,33.46420,-86.77409,AL,55000,6000,50,65,29,Brookwood Medical Center
6.21,2.66,33.46514,-112.05797,AZ,21000,7000,50,48,69,Banner Good Samaritan Medical Center
5.54,2.50,32.25294,-110.88135,AZ,18000,6000,50,48,3,Tucson Medical Center
7.75,2.38,32.22685,-110.85520,AZ,27000,6000,66,55,21,Carondelet St Josephs Hospital
6.51,2.60,34.56017,-112.48217,AZ,22000,7000,25,67,17,Yavapai Regional Medical Center
6.07,2.58,32.68274,-114.63506,AZ,21000,7000,50,63,69,Yuma Regional Medical Center
12.09,2.67,33.29750,-111.87461,AZ,45000,7000,50,78,54,Chandler Regional Medical Center
7.50,2.22,33.60432,-112.28378,AZ,26000,5000,83,75,95,Banner Boswell Medical Center
8.07,3.48,32.24152,-110.94631,AZ,29000,10000,50,37,39,University Of Arizona Medical Ctr-Universit The
6.94,2.35,32.32103,-111.01102,AZ,24000,6000,50,71,20,Northwest Medical Center
6.08,2.38,33.41128,-111.68916,AZ,21000,6000,50,70,63,Banner Baywood Medical Center
7.11,2.66,33.60949,-112.18129,AZ,25000,7000,66,73,76,Banner Thunderbird Medical Center
7.29,2.32,33.65965,-112.37283,AZ,25000,6000,50,77,97,Banner Del E Webb Medical Center
8.23,2.64,33.65497,-112.20040,AZ,29000,7000,50,90,39,Arrowhead Hospital
6.50,2.93,33.65947,-111.95626,AZ,22000,8000,66,53,95,Mayo Clinic Hospital
5.24,2.30,34.75031,-92.33897,AR,17000,6000,66,63,82,St Vincent Infirmary Medical Center
4.98,2.22,36.31007,-94.18471,AR,16000,5000,50,67,44,Mercy Medical Center
5.22,2.80,34.74866,-92.35422,AR,17000,8000,50,51,33,Uams Medical Center
2.95,2.40,35.83746,-90.70386,AR,8000,6000,50,75,2,St Bernards Medical Ctr
4.79,2.28,34.46784,-93.06667,AR,15000,5000,66,66,85,St Josephs Mercy Health Center Inc
3.15,2.15,36.34295,-92.39442,AR,9000,5000,50,65,57,Baxter Regional Medical Center
4.18,2.23,35.08546,-92.45774,AR,13000,5000,50,72,79,Conway Regional Medical Center
4.91,2.23,34.77770,-92.12539,AR,16000,5000,50,60,13,Baptist Health Medical Center North Little Rock
8.46,2.72,33.22053,-92.67102,AR,30000,7000,50,70,13,Medical Center South Arkansas
6.83,2.35,34.74866,-92.35422,AR,24000,6000,50,43,21,Baptist Health Medical Center-Little Rock
4.33,2.12,34.73868,-92.39307,AR,14000,5000,75,86,79,Arkansas Heart Hospital
12.31,3.43,38.57053,-121.45216,CA,46000,10000,83,53,27,Mercy General Hospital
10.59,3.84,32.75426,-117.16592,CA,39000,12000,50,72,69,University Of California San Diego Medical Center
10.87,2.68,32.77495,-117.01467,CA,40000,7000,83,71,33,Grossmont Hospital
14.37,2.55,39.74221,-121.85000,CA,54000,7000,83,71,48,Enloe Medical Center
20.80,3.58,37.82206,-122.26275,CA,79000,11000,50,63,32,Alta Bates Summit Medical Center
15.23,3.82,37.79100,-122.43125,CA,57000,12000,83,63,11,California Pacific Medical Ctr-Pacific Campus Hosp
15.56,3.17,32.75143,-117.16083,CA,58000,9000,33,62,69,Scripps Mercy Hospital
13.92,2.90,37.96987,-121.28873,CA,52000,8000,83,68,97,St Josephs Med Center Of Stockton
6.87,2.67,36.83532,-119.76562,CA,24000,7000,50,66,57,Saint Agnes Medical Center
17.70,5.17,32.79949,-117.15394,CA,67000,17000,66,62,11,Sharp Memorial Hospital
14.95,3.09,38.57155,-121.46874,CA,56000,9000,83,77,79,Sutter General Hospital
11.50,2.86,34.02685,-118.48651,CA,42000,8000,50,76,21,Santa Monica - Ucla Med Ctr & Orthopaedic Hospital
13.37,2.92,34.22014,-118.53410,CA,50000,8000,33,56,44,Northridge Hospital Medical Center
8.12,2.72,39.13822,-121.59436,CA,29000,7000,50,51,21,Rideout Memorial Hospital
14.22,3.02,36.57886,-121.91316,CA,53000,8000,66,56,57,Community Hospital Of The Monterey Peninsula
19.31,2.78,37.91341,-122.04163,CA,73000,7000,50,62,33,John Muir Medical Center - Walnut Creek Campus
7.99,2.44,33.62229,-117.92995,CA,28000,6000,50,70,51,Hoag Memorial Hospital Presbyterian
16.55,4.39,34.06675,-118.44613,CA,62000,14000,50,27,33,Ronald Reagan Ucla Medical Center
18.05,2.83,34.27915,-118.46006,CA,68000,8000,50,80,24,Providence Holy Cross Medical Center
10.86,2.92,40.58654,-122.39168,CA,40000,8000,83,71,44,Mercy Medical Center Redding
9.05,2.73,34.50107,-117.17285,CA,32000,7000,50,87,20,St Mary Medical Center
14.53,3.45,37.85593,-122.25730,CA,54000,10000,50,56,8,Alta Bates Summit Medical Center - Alta Bates Camp
13.55,2.86,37.36934,-122.08047,CA,50000,8000,66,48,6,El Camino Hospital
9.93,2.68,38.76514,-121.24979,CA,36000,7000,66,77,16,Sutter Roseville Medical Center
19.44,4.84,34.05076,-117.26395,CA,74000,16000,50,55,16,Loma Linda University Medical Center
12.99,2.55,33.81131,-118.34364,CA,48000,7000,66,67,88,Torrance Memorial Medical Center
13.15,2.62,33.83891,-118.35677,CA,49000,7000,50,86,94,Providence Little Company Of Mary Med Ctr Torrance
23.43,3.70,37.94748,-122.53677,CA,90000,11000,50,63,16,Marin General Hospital
15.82,2.93,37.25153,-121.94684,CA,60000,8000,33,63,3,Good Samaritan Hospital
6.48,3.13,34.08802,-117.89341,CA,22000,9000,66,67,29,Citrus Valley Medical Center-Ic Campus
14.35,3.01,34.42951,-119.72333,CA,54000,8000,66,72,32,Santa Barbara Cottage Hospital
8.30,2.71,34.13364,-118.15275,CA,30000,7000,66,65,57,Huntington Memorial Hospital
24.80,4.33,37.43436,-122.18013,CA,95000,14000,50,58,27,Stanford Hospital
10.38,3.07,37.34027,-120.46817,CA,38000,9000,50,77,37,Mercy Medical Center
14.24,4.18,37.76421,-122.45716,CA,53000,13000,66,52,90,Ucsf Medical Center
10.30,2.79,35.38338,-119.01969,CA,37000,7000,33,86,6,San Joaquin Community Hospital
12.43,3.19,34.05336,-118.26558,CA,46000,9000,50,68,79,Good Samaritan Hospital
15.77,2.47,34.20285,-118.62962,CA,59000,6000,50,61,13,West Hills Hospital & Medical Center
7.75,2.87,33.80861,-118.18661,CA,27000,8000,66,65,27,Long Beach Memorial Medical Center
10.38,3.11,37.69824,-122.08730,CA,38000,9000,66,61,54,Eden Medical Center
11.30,3.06,37.98224,-121.80362,CA,41000,9000,50,58,24,Sutter Delta Medical Center
12.82,2.90,34.20777,-118.88305,CA,48000,8000,50,51,69,Los Robles Hospital & Medical Center
10.24,2.68,37.66867,-120.97339,CA,37000,7000,66,80,54,Memorial  Medical Center
12.62,2.53,33.56100,-117.66530,CA,47000,6000,66,58,12,Mission Hospital Regional Med Center
14.81,2.54,33.76335,-116.40628,CA,55000,6000,50,56,39,Eisenhower Medical Center
15.76,3.89,38.55484,-121.45628,CA,59000,12000,50,50,3,University Of California Davis Medical Center
13.85,2.55,34.39755,-118.55330,CA,52000,7000,50,60,21,Henry Mayo Newhall Memorial Hospital
19.62,3.24,34.07664,-118.37955,CA,75000,9000,100,58,48,Cedars-Sinai Medical Center
6.79,2.60,33.55876,-117.18329,CA,23000,7000,66,73,74,Southwest Healthcare System
11.04,2.99,33.95076,-118.34828,CA,40000,8000,50,71,99,Centinela Hospital Medical Center
9.37,2.72,40.58532,-122.38702,CA,34000,7000,50,78,98,Shasta Regional Medical Center
7.54,2.59,40.57315,-105.05741,CO,26000,7000,50,68,95,Poudre Valley Hospital
9.89,2.72,39.74615,-104.96682,CO,36000,7000,66,47,17,Presbyterian/St Luke'S Medical Center
8.00,2.38,38.28184,-104.61256,CO,28000,6000,66,68,29,Parkview Medical Center Inc
7.65,2.55,38.83903,-104.80024,CO,27000,7000,66,68,33,Memorial Hospital Central
9.45,2.63,39.09046,-108.56190,CO,34000,7000,50,48,57,St Marys Hospital And Medical Center
10.84,3.40,39.74234,-104.84156,CO,40000,10000,66,66,69,University Of Colorado Hospital Anschutz Inpatient
6.33,2.45,38.86559,-104.82182,CO,22000,6000,50,70,37,Centura Health-Penrose St Francis Health Services
10.68,2.53,39.73231,-104.93396,CO,39000,6000,75,50,32,Rose Medical Center
7.91,2.44,39.65399,-104.98116,CO,28000,6000,33,47,17,Swedish Medical Center
9.42,2.44,39.68859,-104.83205,CO,34000,6000,50,61,13,Medical Center Of Aurora The
12.41,2.67,39.52910,-104.87121,CO,46000,7000,50,76,79,Sky Ridge Medical Center
10.03,2.35,39.57629,-104.98610,CO,36000,6000,50,78,54,Centura Health-Littleton Adventist Hospital
6.27,2.79,41.30978,-72.93806,CT,21000,7000,66,57,8,Hospital Of St Raphael
7.05,2.93,41.77507,-72.69941,CT,24000,8000,50,53,85,St Francis Hospital & Medical Center
4.69,2.59,41.33722,-72.10380,CT,15000,7000,50,72,92,Lawrence & Memorial Hospital
8.28,2.62,41.03431,-73.63020,CT,29000,7000,50,48,63,Greenwich Hospital Association
9.31,3.81,41.30400,-72.93502,CT,34000,12000,66,41,3,Yale-New Haven Hospital
5.23,2.65,41.54301,-72.08799,CT,17000,7000,50,70,44,William W Backus Hospital
6.13,3.06,41.75412,-72.67927,CT,21000,9000,50,47,9,Hartford Hospital
7.05,2.85,41.20049,-73.20281,CT,25000,8000,66,78,63,St Vincent'S Medical Center
4.49,2.91,41.40474,-73.44739,CT,14000,8000,50,66,57,Danbury Hospital
7.45,2.76,41.11147,-73.42010,CT,26000,7000,50,72,92,Norwalk Hospital Association
4.04,2.66,41.66107,-72.78671,CT,12000,7000,50,52,8,Hospital Of Central Connecticut The
5.83,2.84,39.69005,-75.68408,DE,20000,8000,66,58,39,Christiana Care Health Services Inc.
5.37,2.56,39.74954,-75.56662,DE,18000,7000,50,81,79,St Francis Hospital
5.25,2.41,39.15135,-75.52309,DE,17000,6000,50,58,90,Bayhealth - Kent General Hospital
8.21,2.93,38.77159,-75.14210,DE,29000,8000,50,90,81,Beebe Medical Center
9.70,3.04,38.90106,-77.05079,DC,35000,8000,50,50,13,George Washington Univ Hospital
13.41,4.32,38.91221,-77.07588,DC,50000,14000,66,65,0,Georgetown University Hospital
4.64,2.91,38.94397,-76.99040,DC,15000,8000,50,57,24,Providence Hospital
7.95,3.05,38.92944,-77.01473,DC,28000,9000,33,58,1,Washington Hospital Center
9.15,3.19,30.34913,-81.66391,FL,33000,9000,50,62,0,Shands Jacksonville Medical Center
8.96,2.49,26.50479,-80.06979,FL,32000,6000,50,53,99,Bethesda Memorial Hospital
9.17,2.68,28.52517,-81.37729,FL,33000,7000,66,47,29,Orlando Health
9.33,2.75,28.57345,-81.36990,FL,34000,7000,83,66,24,Florida Hospital
14.55,3.50,25.68309,-80.34038,FL,54000,10000,50,62,85,Baptist Hospital Of Miami Inc
8.71,2.77,25.78846,-80.21644,FL,31000,7000,83,56,0,University Of Miami Hospital
6.33,2.34,26.62849,-81.87423,FL,22000,6000,66,52,16,Lee Memorial Hospital
4.70,2.35,29.20117,-81.05828,FL,15000,6000,66,76,79,Halifax Health Medical Center
6.60,2.28,26.15053,-81.79919,FL,23000,5000,66,62,39,Naples Community Hospital
8.17,2.24,28.08771,-80.61362,FL,29000,5000,66,58,17,Holmes Regional Medical Center
10.35,4.25,25.79143,-80.21250,FL,38000,13000,83,48,4,Jackson Memorial Hospital
5.46,2.64,30.47650,-87.21219,FL,18000,7000,50,41,39,Sacred Heart Hospital
5.06,2.28,30.15963,-85.64818,FL,17000,5000,66,73,43,Bay Medical Center
10.33,3.10,25.86166,-80.21398,FL,38000,9000,50,83,69,North Shore Medical Center
11.35,2.83,25.81317,-80.13996,FL,42000,8000,66,47,24,Mount Sinai Medical Center
7.12,2.58,26.01867,-80.17981,FL,25000,7000,83,63,76,Memorial Regional Hospital
4.83,2.28,30.30835,-81.68919,FL,16000,5000,50,68,82,St Vincent'S Medical Center
9.25,2.33,27.19837,-80.24306,FL,33000,6000,66,70,57,Martin Memorial Medical Center
8.46,2.29,29.04263,-81.31635,FL,30000,5000,50,86,98,Florida Hospital Deland
8.26,2.16,26.94042,-82.04094,FL,29000,5000,50,72,85,Charlotte Regional Medical Center
6.27,2.22,27.46707,-81.43358,FL,21000,5000,0,0,0,Highlands Regional Medical Center
7.08,2.79,25.86856,-80.31222,FL,25000,7000,50,88,92,Palm Springs General Hospital
7.39,2.35,28.55140,-81.72120,FL,26000,6000,0,0,0,South Lake Hospital
6.77,2.35,28.02768,-81.72466,FL,23000,6000,50,62,2,Winter Haven Hospital
5.45,2.23,28.82358,-81.71133,FL,18000,5000,50,71,48,Florida Hospital Waterman
6.63,2.23,29.17594,-82.13898,FL,23000,5000,50,60,94,Munroe Regional Medical Center
6.16,2.25,27.78088,-82.65126,FL,21000,5000,50,68,57,St Anthony'S Hospital
5.10,2.09,29.24333,-81.10760,FL,17000,5000,50,67,95,Florida Hospital Memorial Medical Center
6.67,2.16,27.09043,-82.44499,FL,23000,5000,50,76,48,Venice Regional Medical Center
7.39,2.29,26.18711,-80.11941,FL,26000,5000,83,57,37,Holy Cross Hospital Inc
5.89,2.46,27.98242,-82.49025,FL,20000,6000,66,60,29,St Joseph'S Hospital
6.29,2.31,26.98905,-82.09559,FL,21000,6000,50,68,43,Peace River Regional Medical Center
9.17,2.39,26.59805,-80.09271,FL,33000,6000,100,60,27,Jfk Medical Center
6.89,2.26,28.80659,-81.86906,FL,24000,5000,33,67,24,Leesburg Regional Medical Center
7.51,2.39,26.27623,-80.12220,FL,26000,6000,75,72,57,Broward Health North Broward Medical Center
6.29,2.26,27.31827,-82.53140,FL,21000,5000,33,37,69,Sarasota Memorial Hospital
6.34,2.37,30.31525,-81.66398,FL,22000,6000,66,47,12,Baptist Medical Center
7.79,2.44,29.86371,-81.31749,FL,27000,6000,66,76,29,Flagler Hospital
7.74,2.83,28.33522,-80.72319,FL,27000,8000,50,63,97,Wuesthoff Medical Center  Rockledge
7.10,2.31,30.43066,-87.23191,FL,25000,6000,50,72,17,Baptist Hospital
4.72,2.32,27.65832,-80.39307,FL,15000,6000,66,76,99,Indian River Medical Center
5.10,2.22,27.50001,-81.43962,FL,17000,5000,50,61,85,Florida Hospital Heartland Medical Center
10.62,2.43,28.29946,-81.41021,FL,39000,6000,50,63,51,Osceola Regional Medical Center
7.28,3.24,29.64155,-82.34844,FL,25000,9000,66,53,29,Shands Hospital At The University Of Florida
7.16,2.13,30.27449,-81.40071,FL,25000,5000,66,93,69,Baptist Medical Center  Beaches
9.76,2.22,30.73540,-86.56171,FL,35000,5000,50,90,97,North Okaloosa Medical Center
11.16,2.41,27.95192,-82.80379,FL,41000,6000,66,62,9,Morton Plant Hospital
19.17,3.33,27.93740,-82.45927,FL,73000,10000,66,66,0,Tampa General Hospital
10.04,2.41,25.96994,-80.14533,FL,36000,6000,50,63,79,Aventura Hospital And Medical Center
6.17,2.35,30.45726,-84.26175,FL,21000,6000,66,57,63,Tallahassee Memorial Healthcare
5.94,2.94,30.26389,-81.44283,FL,20000,8000,83,62,90,Mayo Clinic
7.66,2.34,28.06172,-81.95304,FL,27000,6000,50,52,3,Lakeland Regional Medical Center
6.05,2.28,26.35875,-80.10203,FL,20000,5000,66,46,43,Boca Raton Regional Hospital
8.19,2.27,28.07111,-82.42342,FL,29000,5000,50,68,37,Florida Hospital Tampa
9.17,2.27,26.83035,-80.08655,FL,33000,5000,100,56,37,Palm Beach Gardens Medical Center
12.87,2.27,30.28793,-81.60103,FL,48000,5000,33,48,24,Memorial Hospital Jacksonville
9.91,2.38,26.26259,-80.20292,FL,36000,6000,50,51,97,Northwest Medical Center
10.64,2.22,28.19342,-82.46987,FL,39000,5000,50,77,43,Medical Center Of Trinity
10.40,2.28,29.66085,-82.41172,FL,38000,5000,33,52,17,North Florida Regional Medical Center
7.21,2.46,29.17550,-82.13680,FL,25000,6000,83,55,85,Ocala Regional Medical Center
8.59,2.22,27.48213,-82.62126,FL,31000,5000,50,75,69,Blake Medical Center
7.10,2.36,26.52735,-81.83337,FL,25000,6000,50,58,63,Gulf Coast Medical Center Lee Mem Health System
11.03,2.21,30.16550,-81.73775,FL,40000,5000,33,68,57,Orange Park Medical Center
9.10,2.25,30.51624,-87.21856,FL,33000,5000,50,65,4,West Florida Hospital
8.75,2.25,26.98884,-82.09877,FL,31000,5000,50,80,57,Fawcett Memorial Hospital
9.94,2.29,27.82545,-82.70122,FL,36000,5000,50,65,33,Northside Hospital
8.05,2.37,27.93259,-82.28759,FL,28000,6000,66,67,21,Brandon Regional Hospital
7.47,2.20,26.63958,-81.94164,FL,26000,5000,50,52,21,Cape Coral Hospital
12.78,2.54,27.43392,-80.34350,FL,47000,6000,83,53,29,Lawnwood Regional Medical Center & Heart Institute
12.88,2.40,27.91458,-82.80382,FL,48000,6000,50,48,24,Largo Medical Center
8.69,2.27,26.92138,-80.09708,FL,31000,5000,50,61,54,Jupiter Medical Center
9.46,2.40,28.36128,-82.68883,FL,34000,6000,66,67,90,Regional Medical Center Bayonet Point
12.35,2.41,26.43709,-80.12728,FL,46000,6000,83,72,92,Delray Medical Center
9.62,2.30,27.28861,-80.29431,FL,35000,6000,50,65,54,St Lucie Medical Center
14.98,2.16,28.53585,-82.53404,FL,56000,5000,66,71,57,Oak Hill Hospital
6.62,2.10,28.03957,-82.70875,FL,23000,5000,66,66,54,Mease Countryside Hospital
10.58,2.47,26.01394,-80.30980,FL,39000,6000,66,71,63,Memorial Hospital West
8.52,2.20,26.21388,-81.73257,FL,30000,5000,33,80,33,Physicians Regional Medical Center - Pine Ridge
7.63,2.33,26.08155,-80.36449,FL,27000,6000,100,57,48,Cleveland Clinic Hospital
5.29,2.12,28.94952,-81.95843,FL,17000,5000,33,80,94,Villages Regional Hospital The
4.32,2.21,31.22516,-82.34898,GA,14000,5000,50,93,33,Satilla Regional Medical Center
7.61,4.03,33.79230,-84.32107,GA,27000,12000,50,41,8,Emory University Hospital
4.65,2.36,33.03204,-85.05781,GA,15000,6000,50,78,95,West Georgia Medical Center
4.69,2.36,33.47096,-81.98176,GA,15000,6000,50,51,21,University Hospital
4.92,2.39,34.30335,-83.81737,GA,16000,6000,66,58,44,Northeast Georgia Medical Center Inc
8.37,2.39,33.23886,-84.26706,GA,30000,6000,33,78,69,Spalding Regional Medical Center
5.26,3.18,33.47091,-81.98988,GA,17000,9000,66,45,37,Medical College Of Ga Hospitals And Clinics
6.90,2.33,33.96770,-84.55011,GA,24000,6000,66,62,44,Wellstar Kennestone Hospital
5.07,2.61,32.03185,-81.09158,GA,17000,7000,66,61,24,Memorial Health Univ Med Cen Inc
9.67,2.22,31.98515,-81.15475,GA,35000,5000,66,72,33,St Joseph'S Hospital - Savannah
4.88,2.49,34.26000,-85.17000,GA,16000,6000,50,67,88,Floyd Medical Center
4.20,2.33,32.61642,-83.63065,GA,13000,6000,50,73,74,Houston Medical Center
6.56,2.51,33.96117,-83.39832,GA,23000,6000,50,68,92,Athens Regional Medical Center
5.50,2.54,33.78956,-84.28077,GA,18000,6000,50,83,11,Dekalb Medical Center
5.17,2.60,33.76810,-84.38616,GA,17000,7000,33,45,9,Emory University Hospital Midtown
4.77,3.08,33.75205,-84.38272,GA,15000,9000,33,56,0,Grady Memorial Hospital
5.17,2.20,33.90877,-84.35180,GA,17000,5000,50,55,3,Saint Joseph'S Hospital Of Atlanta Inc
7.50,2.40,33.81003,-84.39568,GA,26000,6000,33,57,44,Piedmont Hospital
4.67,2.42,33.96351,-84.01769,GA,15000,6000,50,90,44,Gwinnett Medical Center
5.29,2.51,32.83041,-83.63476,GA,17000,6000,66,48,44,Medical Center Of Central Georgia
5.57,2.37,30.86250,-83.28630,GA,19000,6000,66,67,74,South Georgia Medical Center
5.27,2.24,32.50679,-84.95933,GA,17000,5000,83,67,69,St Francis Hospital Inc
4.41,2.39,32.84705,-83.61823,GA,14000,6000,66,62,9,Coliseum Medical Center
6.67,2.30,33.73938,-84.73111,GA,23000,6000,50,91,57,Wellstar Douglas Hospital
7.56,3.43,21.30780,-157.85505,HI,27000,10000,66,68,44,The Queens Medical Center
5.08,2.31,43.61218,-116.19234,ID,17000,6000,66,61,16,St Lukes Regional Medical Center
6.56,2.74,47.69645,-116.79476,ID,23000,7000,50,71,48,Kootenai Medical Center
8.95,2.63,41.52896,-88.13550,IL,32000,7000,50,75,82,Provena St Joseph Medical Center
7.76,2.67,42.06550,-87.68428,IL,27000,7000,33,55,57,Evanston Hospital
6.61,2.35,41.84429,-89.48014,IL,23000,6000,0,0,0,Katherine Shaw Bethea Hospital
6.71,2.72,39.93563,-91.39833,IL,23000,7000,50,55,92,Blessing Hospital
8.37,2.49,42.07012,-88.33180,IL,30000,6000,50,82,24,Sherman Hospital
6.77,3.18,41.89141,-87.77618,IL,23000,9000,50,72,92,West Suburban Medical Center
7.44,3.68,42.05624,-87.74012,IL,26000,11000,50,75,85,Skokie Hospital
6.21,2.50,39.80726,-89.64496,IL,21000,6000,50,58,79,St Johns Hospital
5.54,2.70,41.83195,-87.79266,IL,18000,7000,50,78,57,Macneal  Hospital
7.35,2.24,41.66900,-87.81414,IL,26000,5000,50,72,95,Palos Community Hospital
8.50,2.58,41.79660,-87.88627,IL,30000,7000,83,63,37,Adventist La Grange Memorial Hospital
8.96,2.52,40.70200,-89.59222,IL,32000,6000,66,57,3,Saint Francis Medical Center
6.12,2.95,41.96698,-87.64941,IL,21000,8000,50,70,43,Louis A Weiss Memorial Hospital
8.03,2.57,42.37840,-87.83329,IL,28000,7000,50,73,62,Vista Medical Center East
12.40,3.60,41.78829,-87.60485,IL,46000,11000,66,66,11,The University Of Chicago Medical Center
10.39,2.54,40.11696,-88.21506,IL,38000,6000,33,63,13,Carle Foundation Hospital
6.96,2.84,41.98743,-87.81440,IL,24000,8000,66,62,69,Resurrection Medical Center
5.58,2.49,41.65880,-87.67729,IL,19000,6000,50,65,94,Metrosouth Medical Center
11.09,3.83,41.87497,-87.66927,IL,41000,12000,50,42,33,Rush University Medical Center
6.55,2.37,41.80555,-87.92059,IL,23000,6000,50,67,54,Hinsdale Hospital
5.63,2.24,40.49639,-88.99106,IL,19000,5000,0,0,0,Bromenn Healthcare
4.97,2.36,39.80893,-89.65530,IL,16000,6000,83,57,11,Memorial Medical Center
8.28,3.92,41.86927,-87.67052,IL,29000,12000,50,76,29,University Of Illinois Hospital
5.95,2.54,40.48254,-88.95519,IL,20000,6000,50,91,29,St Joseph Medical Center
4.38,2.33,37.72790,-89.22058,IL,14000,6000,50,63,90,Memorial Hospital Of Carbondale
5.42,2.66,41.52283,-87.71111,IL,18000,7000,50,75,33,Franciscan St James Health
8.00,2.89,41.78566,-88.32886,IL,28000,8000,50,72,48,Provena Mercy Medical Center
5.21,2.37,42.27597,-88.40019,IL,17000,6000,50,71,56,Centegra Health System - Woodstock Hospital
6.08,2.47,41.72094,-87.69220,IL,21000,6000,16,63,69,Little Company Of Mary Hospital
9.60,3.19,41.93641,-87.65295,IL,35000,9000,50,77,85,Advocate Illinois Masonic Medical Center
9.53,2.31,37.74480,-88.99329,IL,34000,6000,50,62,92,Heartland Regional Medical Center
5.79,2.26,38.55020,-90.02146,IL,19000,5000,66,81,21,Memorial Hospital
5.56,2.44,41.60726,-87.66060,IL,19000,6000,50,65,76,Ingalls Memorial Hospital
7.04,2.29,41.86362,-87.93567,IL,24000,5000,50,76,92,Elmhurst Memorial Hospital
7.68,2.42,42.27447,-87.95764,IL,27000,6000,50,70,79,Advocate Condell Medical Center
7.54,3.29,41.72031,-87.73249,IL,26000,9000,50,57,74,Advocate Christ Hospital & Medical Center
5.77,2.48,40.70065,-89.59505,IL,19000,6000,50,78,48,Methodist Medical Center Of Illinois
6.42,2.81,42.03837,-87.84820,IL,22000,8000,83,77,69,Advocate Lutheran General Hospital
8.34,2.44,42.26584,-89.07428,IL,30000,6000,50,65,76,Swedish American Hospital
8.93,2.32,41.76076,-88.15016,IL,32000,6000,50,68,29,Edward Hospital
7.98,2.26,42.26634,-89.00900,IL,28000,5000,50,50,29,Saint Anthony Medical Center
9.51,2.23,41.87269,-88.15684,IL,34000,5000,66,62,88,Central Dupage Hospital
5.05,2.42,41.56720,-87.69566,IL,17000,6000,50,80,63,Advocate South Suburban Hospital
7.94,2.49,42.06732,-87.99368,IL,28000,6000,66,67,57,Northwest Community Hospital
6.20,2.33,42.00413,-88.01745,IL,21000,6000,66,78,88,Alexian Brothers Medical Center
6.06,3.14,41.86110,-87.83404,IL,21000,9000,66,46,4,Loyola University Medical Center
3.85,2.22,41.48200,-90.57158,IL,12000,5000,50,58,63,Trinity Rock Island
9.28,3.71,41.89477,-87.62131,IL,33000,11000,50,61,94,Northwestern Memorial Hospital
5.91,2.39,41.81791,-88.00907,IL,20000,6000,50,86,95,Advocate Good Samaritan Hospital
7.39,2.90,42.19586,-88.17286,IL,26000,8000,50,80,95,Advocate Good Shepherd Hospital
5.36,2.57,41.59920,-87.35764,IN,18000,7000,50,65,94,Methodist Hospitals Inc
5.18,2.28,38.28244,-85.74923,IN,17000,5000,50,83,48,Clark Memorial Hospital
5.22,2.64,41.70877,-86.17026,IN,17000,7000,50,88,57,Saint Joseph Regional Medical Center
6.94,2.67,41.03874,-85.24876,IN,24000,7000,66,63,32,Lutheran Hospital Of Indiana
4.56,2.33,41.04659,-85.10906,IN,15000,6000,83,60,44,Parkview Regional Medical Center
6.15,2.43,39.48518,-87.40893,IN,21000,6000,50,62,33,Union Hospital Inc
4.12,3.09,39.78091,-86.17629,IN,13000,9000,33,70,27,William N Wishard Memorial Hospital
6.71,2.35,41.46729,-87.05130,IN,23000,6000,50,75,63,Porter Valparaiso Hospital
5.44,2.16,38.30195,-85.83409,IN,18000,5000,66,85,85,Floyd Memorial Hospital And Health Services
6.64,2.35,39.16006,-86.54038,IN,23000,6000,50,56,24,Indiana University Health Bloomington Hospital
8.63,3.39,39.79009,-86.16260,IN,31000,10000,50,51,79,Indiana University Health
5.88,2.22,37.98293,-87.57072,IN,20000,5000,83,66,13,Deaconess Hospital Inc
8.57,3.01,39.91001,-86.19660,IN,31000,8000,66,47,88,St Vincent Hospital & Health Services
7.13,2.43,40.19679,-85.41573,IN,25000,6000,66,62,85,Indiana University Health Ball Memorial Hospital
5.78,2.33,41.49222,-87.52429,IN,19000,6000,50,85,54,Franciscan St Margaret Health - Dyer
4.36,2.25,37.96320,-87.50292,IN,14000,5000,66,67,32,St Mary'S Medical Center Of Evansville Inc
6.19,2.34,41.55065,-87.50619,IN,21000,6000,50,75,85,Community Hospital
4.17,2.32,41.39576,-87.36689,IN,13000,6000,50,83,51,Franciscan St Anthony Health - Crown Point
5.26,2.22,39.94017,-86.15975,IN,17000,5000,50,81,94,St Vincent Heart Center Of Indiana Llc
5.42,2.52,39.78047,-86.34084,IN,18000,6000,0,0,0,Iu Health West Hospital
7.39,2.18,40.40296,-86.80885,IN,26000,5000,50,83,97,Indiana University Health Arnett Hospital
4.38,2.26,42.03321,-93.61164,IA,14000,5000,0,0,0,Mary Greeley Medical Center
4.06,2.27,41.54190,-90.55691,IA,13000,5000,66,58,97,Genesis Medical Center-Davenport
4.92,2.34,41.98570,-91.66093,IA,16000,6000,66,75,90,St Lukes Hospital
9.00,4.13,41.66092,-91.54800,IA,32000,13000,16,38,63,University Of Iowa Hospital & Clinics
4.82,2.38,43.15063,-93.21718,IA,16000,6000,50,82,63,Mercy Medical Center-North Iowa
5.08,2.15,41.97864,-91.65507,IA,17000,5000,50,80,99,Mercy Medical Center - Cedar Rapids
4.98,2.42,41.58955,-93.63248,IA,16000,6000,66,37,82,Iowa Methodist Medical Center
8.28,2.71,41.59886,-93.62344,IA,29000,7000,83,75,29,Mercy Medical Center-Des Moines
4.11,2.24,42.52665,-92.33957,IA,13000,5000,50,81,6,Allen Memorial Hospital
3.88,2.30,42.49250,-96.39975,IA,12000,6000,66,71,54,Mercy Medical Center-Sioux City
5.92,2.56,38.07731,-97.89183,KS,20000,7000,50,80,90,Hutchinson Regional Medical Center Inc
9.16,2.94,39.05583,-94.60912,KS,33000,8000,66,53,63,University Of Kansas Hospital
7.89,2.46,39.05128,-95.69572,KS,28000,6000,66,71,10,Stormont-Vail Healthcare
8.35,2.40,37.70405,-97.31386,KS,30000,6000,66,68,21,Via Christi Hospitals Wichita Inc
9.37,2.49,37.69556,-97.29785,KS,34000,6000,66,52,5,Wesley Medical Center
5.08,2.35,38.47021,-82.63498,KY,17000,6000,66,60,54,King'S Daughters' Medical Center
3.39,2.22,38.03140,-84.52194,KY,10000,5000,83,67,79,Saint Joseph Hospital
4.90,2.40,39.06704,-84.49946,KY,16000,6000,33,58,79,St Elizabeth Medical Center North
5.63,2.34,38.50697,-82.69222,KY,19000,6000,50,80,90,Our Lady Of Bellefonte Hospital
3.60,2.62,37.76518,-87.10197,KY,11000,7000,50,66,29,Owensboro Medical Health System
6.20,2.55,38.24927,-85.75081,KY,21000,7000,66,51,8,Jewish Hospital & St Mary'S Healthcare
7.62,2.68,37.47264,-82.52605,KY,27000,7000,75,86,9,Pikeville Medical Center
7.37,3.09,38.03282,-84.50674,KY,26000,9000,33,62,33,University Of Kentucky Hospital
6.94,2.54,38.24806,-85.75125,KY,24000,6000,50,35,39,Norton Hospitals Inc
3.65,2.52,37.33959,-87.48988,KY,11000,6000,50,86,17,Regional Medical Center Of Hopkins County
5.36,2.33,38.01849,-84.51236,KY,18000,6000,50,71,57,Central Baptist Hospital
3.70,2.19,37.07404,-88.62685,KY,11000,5000,50,80,39,Western Baptist Hospital
5.20,2.20,38.23898,-85.63941,KY,17000,5000,66,57,74,Baptist Hospital East
5.21,2.31,30.20227,-92.01906,LA,17000,6000,50,73,29,Lafayette General Medical Center
5.37,2.28,29.59851,-90.71397,LA,18000,5000,25,68,69,Terrebonne General Medical Center
18.55,2.61,30.46813,-90.45814,LA,70000,7000,75,71,74,North Oaks Medical Center Llc
8.76,3.70,31.28258,-92.46060,LA,31000,11000,50,65,79,Christus St Frances Cabrini Hospital
8.00,2.44,31.31451,-92.44997,LA,28000,6000,66,40,39,Rapides Regional Medical Center
7.95,2.41,30.21521,-93.22682,LA,28000,6000,50,63,63,Christus St Patrick Hospital
6.89,2.65,30.01875,-90.19452,LA,24000,7000,66,61,62,Ochsner Foundation Hospital
6.54,2.44,29.89089,-90.09395,LA,22000,6000,50,65,85,West Jefferson Medical Center
11.09,2.28,30.46834,-90.11383,LA,41000,5000,50,70,8,St Tammany Parish Hospital
4.98,2.54,30.40118,-91.11160,LA,16000,6000,83,51,33,Our Lady Of The Lake Regional Medical Center
4.61,3.02,32.48177,-93.76264,LA,15000,8000,100,80,0,Lsu Health Sciences Center - Shreveport
8.29,2.47,32.48393,-93.77884,LA,29000,6000,50,63,62,Willis Knighton Medical Center
6.57,2.36,30.01438,-90.18155,LA,23000,6000,66,68,74,East Jefferson General Hospital
4.74,2.24,32.51315,-92.15713,LA,15000,5000,0,0,0,Glenwood Regional Medical Center
4.77,2.76,43.65325,-70.27533,ME,15000,7000,16,47,0,Maine Medical Center
3.13,2.38,43.90901,-69.89611,ME,9000,6000,0,0,0,Mid Coast Hospital
4.89,2.48,44.10107,-70.21432,ME,16000,6000,66,70,57,Central Maine Medical Center
4.62,2.61,44.80988,-68.74929,ME,15000,7000,50,58,37,Eastern Maine Medical Center
3.27,3.21,39.62183,-77.68219,MD,9000,9000,0,0,0,Meritus Medical Center
4.81,4.58,39.28817,-76.62438,MD,16000,15000,0,0,0,University Of Maryland Medical Center
2.98,2.88,39.01578,-77.03591,MD,8000,8000,0,0,0,Holy Cross Hospital
3.08,2.95,39.42366,-77.41386,MD,9000,8000,0,0,0,Frederick Memorial Hospital
3.16,3.02,39.38813,-76.61068,MD,9000,8000,0,0,0,Saint Joseph Medical Center
3.27,3.13,39.29297,-76.61314,MD,9000,9000,0,0,0,Mercy Medical Center Inc
5.13,4.89,39.29688,-76.59242,MD,17000,16000,0,0,0,Johns Hopkins Hospital The
2.86,2.75,39.27352,-76.67219,MD,8000,7000,0,0,0,Saint Agnes Hospital
3.37,3.24,39.35262,-76.66196,MD,10000,9000,0,0,0,Sinai Hospital Of Baltimore
3.30,3.16,39.35169,-76.47919,MD,10000,9000,0,0,0,Franklin Square Hospital Center
3.13,3.00,39.15402,-77.05431,MD,9000,8000,0,0,0,Montgomery General Hospital Inc
3.27,3.15,38.36248,-75.59799,MD,9000,9000,0,0,0,Peninsula Regional Medical Center
3.09,2.96,38.99743,-77.11048,MD,9000,8000,0,0,0,Suburban Hospital
2.80,2.73,38.99014,-76.53398,MD,8000,7000,0,0,0,Anne Arundel Medical Center
3.68,3.51,39.32930,-76.61432,MD,11000,10000,0,0,0,Union Memorial Hospital
3.54,3.39,39.64928,-78.73206,MD,10000,10000,0,0,0,Western Maryland Regional Medical Center
2.49,2.42,38.29124,-76.63579,MD,6000,6000,0,0,0,Saint Mary'S Hospital
4.43,4.22,39.29100,-76.54623,MD,14000,13000,0,0,0,Johns Hopkins Bayview Medical Center
3.46,3.31,39.21770,-76.06494,MD,10000,10000,0,0,0,Chester River Hospital Center
2.76,2.65,39.55808,-76.99107,MD,7000,7000,0,0,0,Carroll Hospital Center
3.02,2.89,38.76970,-76.07697,MD,8000,8000,0,0,0,Memorial Hospital At Easton
3.15,3.01,38.55963,-76.59455,MD,9000,8000,0,0,0,Calvert Memorial Hospital
2.74,2.63,39.35852,-76.78208,MD,7000,7000,0,0,0,Northwest Hospital Center
3.00,2.87,39.13732,-76.62228,MD,8000,8000,0,0,0,Baltimore Washington  Medical Center
3.39,3.25,39.39017,-76.62216,MD,10000,9000,0,0,0,Greater Baltimore Medical Center
3.16,3.04,39.51870,-76.34688,MD,9000,8000,0,0,0,Upper Chesapeake Medical Center
2.87,2.76,38.96851,-76.86203,MD,8000,7000,0,0,0,Doctors'  Community Hospital
3.24,3.10,38.74827,-76.87590,MD,9000,9000,0,0,0,Southern Maryland Hospital Center
3.75,3.58,39.35962,-76.58851,MD,11000,11000,0,0,0,Good Samaritan Hospital
2.88,2.76,39.09796,-77.19799,MD,8000,7000,0,0,0,Shady Grove Adventist Hospital
4.07,2.69,42.37441,-71.13378,MA,13000,7000,66,85,17,Mount Auburn Hospital
5.67,2.91,41.65298,-70.27484,MA,19000,8000,50,56,95,Cape Cod Hospital
3.90,3.76,42.35843,-71.05977,MA,12000,11000,66,51,0,Boston Medical Center Corporation
3.44,2.58,42.56407,-70.87543,MA,10000,7000,50,62,63,Beverly Hospital Corporation
3.14,3.29,42.34896,-71.14768,MA,9000,9000,50,68,57,St Elizabeth'S Medical Center
4.67,2.78,51.46599,-1.28140,MA,15000,7000,50,76,20,Berkshire Medical Center Inc
2.59,2.48,41.94445,-70.64511,MA,7000,6000,50,82,24,Jordan Hospital Inc
4.75,2.52,42.11449,-72.59502,MA,15000,6000,50,77,76,Mercy Medical Center
3.25,2.61,42.46049,-71.06203,MA,9000,7000,50,52,76,Hallmark Health System
9.48,3.24,42.36227,-71.06941,MA,34000,9000,50,43,16,Massachusetts General Hospital
4.33,2.79,41.70928,-71.14519,MA,14000,7000,25,51,88,Southcoast Hospital Group Inc
5.08,2.99,42.12077,-72.60525,MA,17000,8000,33,61,82,Baystate Medical Center
2.75,2.57,42.72846,-71.16830,MA,7000,7000,50,73,33,Holy Family Hospital
5.69,3.43,42.33719,-71.10939,MA,19000,10000,33,71,33,Beth Israel Deaconess Medical Center
4.92,2.46,42.13234,-71.52825,MA,16000,6000,50,71,95,Milford Regional Medical Center
3.92,2.44,42.17644,-70.95398,MA,12000,6000,66,70,48,South Shore Hospital
2.78,2.33,42.46581,-71.12210,MA,7000,6000,50,58,24,Winchester Hospital
10.51,3.40,42.33600,-71.10704,MA,38000,10000,66,40,20,Brigham And Women'S Hospital
2.63,2.67,42.09864,-71.06607,MA,7000,7000,50,58,92,Good Samaritan Medical Center
5.65,3.49,42.34951,-71.06331,MA,19000,10000,50,63,85,Tufts Medical Center
2.96,2.38,42.18869,-71.20197,MA,8000,6000,50,77,81,Norwood Hospital
8.19,3.65,42.27720,-71.75922,MA,29000,11000,50,36,29,Umass Memorial Medical Center Inc
3.90,2.86,42.48585,-71.20686,MA,12000,8000,66,76,16,Lahey Clinic Hospital
3.78,2.75,42.28385,-71.41896,MA,11000,7000,50,76,85,Metrowest Medical Center
3.48,2.36,42.39466,-83.40537,MI,10000,6000,50,60,63,St Mary Mercy Hospital
3.23,2.45,43.20588,-86.20839,MI,9000,6000,50,76,57,Mercy Health Partners Mercy Campus
5.42,2.75,42.28551,-85.58042,MI,18000,7000,66,82,13,Bronson Methodist Hospital
4.76,2.68,42.45741,-83.20513,MI,15000,7000,83,57,48,Providence Hospital And Medical Centers
5.31,2.65,42.29077,-83.21504,MI,18000,7000,33,48,69,Oakwood Hospital And Medical Center
4.83,2.48,42.08955,-86.47781,MI,16000,6000,33,68,88,Lakeland Hospital St Joseph
4.48,3.07,42.41911,-83.18228,MI,14000,9000,83,46,21,Sinai-Grace Hospital
3.75,2.88,42.61425,-83.27602,MI,11000,8000,66,52,79,St Joseph Mercy Oakland
5.11,2.87,42.96881,-85.66649,MI,17000,8000,33,66,82,Spectrum Health - Butterworth Campus
5.14,2.30,43.58941,-83.86908,MI,17000,6000,33,55,98,Mclaren Bay Region
7.79,3.81,42.28388,-83.72960,MI,27000,12000,50,61,43,University Of Michigan Health System
3.91,2.30,42.61490,-82.96060,MI,12000,6000,50,66,54,Henry Ford Macomb Hospital
5.54,3.15,42.36762,-83.08461,MI,18000,9000,66,47,8,Henry Ford Hospital
3.97,2.75,42.95817,-85.66253,MI,12000,7000,50,53,90,Saint Mary'S Health Care
5.33,2.43,43.42857,-83.95556,MI,18000,6000,83,61,63,Covenant Medical Center Inc
5.72,2.50,43.42612,-83.94185,MI,19000,6000,66,63,57,St Mary'S Of Michigan Medical Center
4.87,2.34,42.38392,-82.91480,MI,16000,6000,50,62,51,Beaumont Hospital Grosse Pointe
5.51,2.31,42.25117,-84.39240,MI,18000,6000,50,85,98,Allegiance Health
7.23,2.65,44.76156,-85.64143,MI,25000,7000,50,41,57,Munson Medical Center
4.13,2.30,41.91643,-83.39771,MI,13000,6000,50,68,37,Mercy Memorial Hospital System
4.57,3.45,42.35230,-83.05676,MI,15000,10000,66,62,63,Harper University Hospital
4.85,2.71,45.37209,-84.97065,MI,16000,7000,50,77,24,Northern Michigan Regional Hospital
6.65,2.51,42.30489,-85.56152,MI,23000,6000,66,47,76,Borgess Medical Center
6.30,2.70,42.51418,-83.19259,MI,21000,7000,66,60,16,William Beaumont Hospital
4.73,2.65,43.01399,-83.73250,MI,15000,7000,50,60,33,Mclaren Flint
4.12,2.37,42.21065,-83.14861,MI,13000,6000,50,70,95,Henry Ford Wyandotte Hospital
4.15,3.05,42.46176,-83.37629,MI,13000,9000,50,78,24,Botsford Hospital
5.97,2.54,42.26181,-83.66003,MI,20000,6000,66,62,33,St Joseph Mercy Hospital
5.55,2.81,42.41975,-82.91442,MI,19000,8000,66,72,9,St John Hospital And Medical Center
3.87,2.56,42.70417,-84.55488,MI,12000,7000,33,76,21,Mclaren - Greater Lansing
4.92,2.56,42.50514,-83.00422,MI,16000,7000,66,56,85,St John Macomb-Oakland Hospital-Macomb Center
5.11,2.80,42.89254,-83.63621,MI,17000,8000,66,70,13,Genesys Regional Medical Center - Health Park
4.26,2.32,42.98625,-82.42802,MI,13000,6000,50,62,29,Port Huron Hospital
4.53,2.47,43.63618,-84.26187,MI,14000,6000,50,72,69,Midmichigan Medical Center-Midland
6.83,2.73,42.73767,-84.51698,MI,24000,7000,83,68,1,Edward W Sparrow Hospital
4.67,2.39,42.67850,-83.14771,MI,15000,6000,50,65,79,Crittenton Hospital Medical Center
6.72,2.38,42.61826,-83.09239,MI,23000,6000,83,60,62,William Beaumont Hospital-Troy
5.04,2.32,42.53914,-83.40777,MI,16000,6000,50,53,39,Henry Ford West Bloomfield Hospital
7.16,2.50,45.01403,-93.32177,MN,25000,6000,66,68,82,North Memorial Medical Center
4.80,2.49,46.79380,-92.09573,MN,15000,6000,83,75,79,Essentia Health St Mary'S Medical Center
4.96,3.73,44.97210,-93.26240,MN,16000,11000,33,37,29,Hennepin County Medical Center
5.42,3.19,44.02052,-92.48292,MN,18000,9000,83,42,32,Mayo Clinic - Saint Marys Hospital
6.20,2.76,45.57390,-94.16942,MN,21000,7000,50,61,37,St Cloud Hospital
7.75,2.46,44.94214,-93.10858,MN,27000,6000,50,86,33,United Hospital
4.77,2.52,46.79634,-92.08793,MN,15000,6000,50,71,29,St Lukes Hospital
4.93,3.31,44.93031,-93.36276,MN,16000,10000,66,72,94,Park Nicollet Methodist Hospital
7.49,2.57,44.95248,-93.26196,MN,26000,7000,50,70,63,Abbott Northwestern Hospital
5.69,2.50,44.88645,-93.32693,MN,19000,6000,66,62,94,Fairview Southdale Hospital
9.48,3.46,44.96766,-93.23640,MN,34000,10000,66,56,57,University Of Minnesota  Medical Center Fairview
4.28,2.49,44.16396,-94.00412,MN,13000,6000,50,57,76,Mayo Clinic Health System - Mankato
8.80,3.06,44.95570,-93.09429,MN,31000,9000,50,78,17,Regions Hospital
5.52,2.83,45.18355,-93.36789,MN,18000,8000,50,73,95,Mercy Hospital
6.18,2.44,45.02892,-93.03418,MN,21000,6000,50,75,24,Healtheast St John'S Hospital
5.94,2.92,32.33069,-90.17030,MS,20000,8000,66,51,6,University Of Mississippi Med Center
5.56,2.40,34.24336,-88.71753,MS,19000,6000,66,61,48,North Mississippi Medical Center
8.63,2.38,30.36674,-89.11535,MS,31000,6000,50,66,69,Memorial Hospital At Gulfport
8.91,2.76,32.35265,-90.87788,MS,32000,7000,50,80,37,River Region Health System
6.34,2.27,30.37516,-88.53226,MS,22000,5000,50,70,3,Singing River Hospital
5.80,2.30,32.33616,-90.15652,MS,20000,6000,50,60,44,St Dominic-Jackson Memorial Hospital
5.24,2.42,31.31872,-89.32955,MS,17000,6000,50,57,54,Forrest General Hospital
5.47,2.17,32.31643,-90.17922,MS,18000,5000,66,43,85,Mississippi Baptist Medical Center
5.33,2.41,34.96927,-89.99709,MS,18000,6000,50,68,11,Baptist Memorial Hospital Desoto
5.95,2.66,39.77393,-94.77089,MO,20000,7000,50,58,51,Heartland Regional Medical Center
5.92,2.29,38.64281,-90.44448,MO,20000,5000,83,57,74,Mercy Hospital St Louis
3.59,2.25,38.16498,-90.38082,MO,11000,5000,50,83,82,Jefferson Regional Medical Center
6.51,2.85,38.63524,-90.26508,MO,22000,8000,50,56,12,Barnes Jewish Hospital
5.04,2.36,37.14560,-93.28037,MO,16000,6000,50,61,85,Cox Medical Center
5.13,2.30,37.17999,-93.27409,MO,17000,6000,66,61,24,St John'S Regional Health Center
4.11,2.11,38.94903,-92.31563,MO,13000,5000,66,73,43,Boone Hospital Center
4.64,2.16,38.50661,-90.38025,MO,15000,5000,66,57,13,St Anthony'S Medical Center
5.93,2.48,38.52738,-90.47501,MO,20000,6000,50,65,44,Ssm St Clare Health Center
8.52,2.27,38.93592,-94.60376,MO,30000,5000,50,75,88,St Joseph Medical Center
6.42,2.79,38.63268,-90.31089,MO,22000,7000,83,77,57,Ssm St Marys Health Center
9.82,2.77,39.04749,-94.34105,MO,36000,7000,50,72,39,Centerpoint Medical Center Of Independence Llc
5.72,2.22,39.14957,-94.55148,MO,19000,5000,50,58,63,North Kansas City Hospital
5.71,3.03,38.62280,-90.24049,MO,19000,8000,50,46,5,St Louis University Hospital
5.43,2.15,38.63702,-90.44699,MO,18000,5000,66,68,48,Missouri Baptist Medical Center
7.34,2.80,36.78510,-90.42779,MO,26000,8000,50,60,39,Poplar Bluff Regional Medical Center
10.72,2.66,39.04761,-94.59037,MO,39000,7000,66,50,17,St Lukes Hospital Of Kansas City
7.16,2.74,38.95171,-92.33407,MO,25000,7000,66,60,63,University Of Missouri Health Care
11.07,2.25,38.58103,-90.45144,MO,41000,5000,50,70,43,Des Peres Hospital
4.63,2.19,39.27591,-94.42572,MO,15000,5000,33,60,33,Liberty Hospital
4.86,2.25,38.65123,-90.50301,MO,16000,5000,66,67,12,St Lukes Hospital
6.36,2.33,38.77576,-90.23906,MO,22000,6000,66,75,4,Christian Hospital Northeast
5.13,2.15,38.79427,-90.58049,MO,17000,5000,50,75,32,Barnes-Jewish St Peters Hospital
5.29,2.36,40.78318,-96.63709,NE,17000,6000,66,70,63,Bryanlgh Medical Center
8.92,2.94,41.25522,-95.97892,NE,32000,8000,50,52,51,The Nebraska Medical Center
8.34,3.03,41.26509,-95.95494,NE,30000,8000,50,67,0,Creighton University Medical Center - Saint Joseph
5.62,2.29,41.25797,-96.04164,NE,19000,5000,50,73,33,The Nebraska Methodist Hospital
5.06,2.13,41.23771,-96.18052,NE,17000,5000,0,0,0,Alegent Health Lakeside Hospital
7.67,2.52,39.52637,-119.79456,NV,27000,6000,50,66,17,Renown Regional Medical Center
14.00,3.12,36.15896,-115.16558,NV,52000,9000,33,60,0,Umc Of Southern Nevada
5.89,2.71,39.20247,-119.78446,NV,20000,7000,50,56,69,Carson Tahoe Regional Medical Center
12.08,2.45,36.21599,-115.25095,NV,45000,6000,66,57,13,Mountainview Hospital
13.00,2.50,36.16586,-115.32436,NV,48000,6000,83,72,27,Summerlin Hospital Medical Center
11.46,2.43,36.00527,-115.11618,NV,42000,6000,50,50,33,Saint Rose Dominican Hospital - Siena Campus
4.31,2.36,43.19846,-71.56230,NH,14000,6000,33,63,94,Concord Hospital
4.78,3.10,43.67286,-72.27232,NH,15000,9000,50,38,0,Mary Hitchcock Memorial Hospital
4.56,2.28,43.00792,-71.46807,NH,15000,5000,50,57,21,Elliot Hospital
6.60,2.41,43.21231,-70.87499,NH,23000,6000,50,73,3,Wentworth-Douglass Hospital
4.75,2.22,42.98369,-70.93511,NH,15000,5000,0,0,0,Exeter Hospital Inc
5.55,2.34,43.06469,-70.78916,NH,18000,6000,50,76,48,Portsmouth Regional Hospital
6.49,2.32,42.99121,-71.47426,NH,22000,6000,33,63,92,Catholic Medical Center
14.15,2.89,40.88346,-74.05564,NJ,53000,8000,50,58,85,Hackensack University Medical Center
17.07,3.67,40.71011,-74.21368,NJ,65000,11000,66,56,11,Newark Beth Israel Medical Center
13.69,2.70,40.78556,-74.17598,NJ,51000,7000,66,83,95,Clara Maass Medical Center
8.67,2.56,40.35684,-74.66166,NJ,31000,7000,50,56,21,University Medical Center At Princeton
5.49,2.42,39.08752,-74.81657,NJ,18000,6000,50,73,48,Cape Regional Medical Center Inc
7.65,2.55,40.98359,-74.10047,NJ,27000,7000,50,78,21,Valley Hospital
14.50,3.21,39.94152,-75.11680,NJ,54000,9000,66,42,2,Cooper University Hospital
9.50,2.86,40.78883,-74.46620,NJ,34000,8000,66,43,39,Morristown Memorial Hospital
9.38,2.48,40.95858,-74.31000,NJ,34000,6000,50,62,1,Chilton Hospital
16.17,3.17,40.90215,-74.16634,NJ,61000,9000,16,53,94,St Joseph'S Regional Medical Center
15.38,2.58,39.78261,-74.91670,NJ,58000,7000,50,52,74,Virtua West Jersey Hospitals Berlin
11.15,2.77,39.92695,-75.09537,NJ,41000,7000,50,70,10,Our Lady Of Lourdes Medical Center
17.67,2.42,40.35309,-74.06484,NJ,67000,6000,33,61,69,Riverview Medical Center
15.66,3.04,40.49581,-74.44980,NJ,59000,8000,66,51,1,Robert Wood Johnson University Hospital
11.46,2.84,40.51891,-74.28183,NJ,42000,8000,75,68,69,Raritan Bay Medical Center
9.77,2.29,39.96484,-74.21708,NJ,35000,5000,50,47,88,Community Medical Center
19.96,3.00,40.56804,-74.59579,NJ,76000,8000,50,67,29,Somerset Medical Center
12.06,2.49,40.89538,-74.46479,NJ,45000,6000,50,63,69,Saint Clare'S Hospital
7.85,2.78,40.71264,-74.35460,NJ,28000,7000,50,52,57,Overlook Hospital
14.02,2.38,40.07832,-74.13009,NJ,52000,6000,50,57,48,Ocean Medical Center
13.08,2.40,39.98588,-74.79393,NJ,49000,6000,66,55,54,Virtua Memorial Hospital Of Burlington County
9.54,2.65,40.70180,-75.17825,NJ,34000,7000,0,0,0,St Luke'S Warren Hospital
18.06,2.59,39.35775,-74.43449,NJ,68000,7000,66,65,88,Atlanticare Regional Medical Center - City Div
13.07,2.94,40.50214,-74.46015,NJ,49000,8000,50,53,29,Saint Peter'S University Hospital
12.89,2.62,40.21065,-74.03566,NJ,48000,7000,50,58,6,Jersey Shore University Medical Center
18.53,3.13,40.76190,-74.30335,NJ,70000,9000,83,53,2,Saint Barnabas Medical Center
15.18,2.39,39.84392,-75.14985,NJ,57000,6000,50,70,33,Underwood - Memorial Hospital
11.50,2.53,40.07503,-74.21832,NJ,42000,6000,50,71,76,Kimball Medical Center
15.01,2.85,39.82811,-75.00895,NJ,56000,8000,66,60,69,Kennedy University Hospital - Stratford Div
17.22,2.71,40.55784,-74.34970,NJ,65000,7000,50,71,57,Jfk Medical Ctr - Anthony M. Yelencsics Community
13.01,2.33,40.21575,-74.67273,NJ,48000,6000,50,67,79,Robert Wood Johnson University Hospital Hamilton
8.45,2.37,40.23861,-74.31289,NJ,30000,6000,33,68,13,Centrastate Medical Center
8.99,2.23,39.66213,-74.26392,NJ,32000,5000,50,62,69,Southern Ocean Medical Center
5.67,2.82,36.72387,-108.21749,NM,19000,8000,50,71,82,San Juan Regional Medical Center
6.44,2.54,35.08102,-106.63392,NM,22000,7000,33,51,3,Presbyterian Hospital
4.71,2.79,42.87482,-78.84942,NY,15000,7000,33,45,8,Kaleida Health
2.78,2.24,42.09299,-75.93704,NY,7000,5000,50,73,99,Our Lady Of Lourdes Memorial Hospital Inc
8.38,2.95,42.65345,-73.77543,NY,30000,8000,66,60,63,Albany Medical Center Hospital
8.04,2.58,41.69441,-73.93432,NY,28000,7000,83,82,54,Vassar Brothers Medical Center
8.72,3.87,40.79041,-73.95386,NY,31000,12000,83,38,5,Mount Sinai Hospital
3.97,3.65,40.72548,-73.55287,NY,12000,11000,50,88,4,Nassau University Medical Center
7.62,2.60,40.87946,-73.41621,NY,27000,7000,50,66,39,Huntington Hospital
7.17,3.59,40.80556,-73.96131,NY,25000,11000,33,56,5,St Luke'S Roosevelt Hospital
8.14,3.21,40.74722,-73.82521,NY,29000,9000,66,63,79,New York Hospital Medical Center Of Queens
6.10,3.93,40.68983,-73.97794,NY,21000,12000,83,71,13,Brooklyn Hospital Center At Downtown Campus
13.91,3.96,40.87987,-73.87996,NY,52000,12000,50,38,44,Montefiore Medical Center
3.23,2.38,42.92866,-78.84819,NY,9000,6000,50,55,29,Sisters Of Charity Hospital
3.30,2.31,42.10076,-76.82800,NY,10000,6000,50,65,33,Arnot Ogden Medical Center
10.81,4.11,40.76487,-73.95398,NY,39000,13000,33,32,74,New York-Presbyterian Hospital
9.78,2.79,41.09642,-73.92501,NY,35000,8000,66,77,76,Nyack Hospital
10.27,3.38,40.77686,-73.70212,NY,37000,10000,33,61,69,North Shore University Hospital
13.37,3.18,40.77362,-73.96093,NY,50000,9000,33,46,11,Lenox Hill Hospital
3.21,2.39,43.19244,-77.58590,NY,9000,6000,66,46,17,Rochester General Hospital
10.64,2.63,41.44138,-74.36821,NY,39000,7000,50,62,69,Orange Regional Medical Center
5.16,3.20,42.69590,-74.92278,NY,17000,9000,50,83,76,Mary Imogene Bassett Hospital
4.07,2.50,43.05571,-76.14981,NY,13000,6000,83,37,20,St Joseph'S Hospital Health Center
11.60,2.87,40.78000,-72.97763,NY,43000,8000,33,60,32,Brookhaven Memorial Hospital Medical Center
5.27,2.30,42.81963,-73.91653,NY,17000,6000,50,68,21,Ellis Hospital
6.45,3.20,40.58440,-74.08507,NY,22000,9000,66,71,37,Staten Island University Hospital
10.31,3.03,40.74083,-73.64306,NY,38000,8000,66,50,74,Winthrop-University Hospital
9.71,3.63,40.73265,-73.98162,NY,35000,11000,50,60,39,Beth Israel Medical Center
8.24,2.75,40.80462,-73.67023,NY,29000,7000,83,72,94,St Francis Hospital Roslyn
9.80,2.50,40.94000,-73.05510,NY,35000,6000,50,63,63,John T Mather Memorial Hospital  Of Port Jefferson
3.84,2.18,43.30652,-73.64663,NY,12000,5000,50,63,90,Glens Falls Hospital
13.29,4.18,40.63937,-73.99851,NY,49000,13000,50,45,54,Maimonides Medical Center
8.23,3.57,40.75332,-73.70899,NY,29000,11000,50,45,90,Long Island Jewish Medical Center
3.45,3.72,40.58549,-73.96558,NY,10000,11000,25,72,29,Coney Island Hospital
6.17,2.63,40.65189,-73.63096,NY,21000,7000,50,52,43,South Nassau Communities Hospital
4.00,2.62,43.04139,-76.13803,NY,12000,7000,50,41,1,Crouse Hospital
6.16,3.05,40.74335,-73.97408,NY,21000,9000,33,63,21,Nyu Hospitals Center
18.19,4.52,41.08773,-73.80395,NY,69000,14000,50,42,63,Westchester Medical Center
4.25,3.44,40.66762,-73.97850,NY,13000,10000,33,55,29,New York Methodist Hospital
4.95,3.07,43.04269,-76.14043,NY,16000,9000,66,41,3,University Hospital S U N Y Health Science Center
3.77,2.31,43.08176,-75.26587,NY,11000,6000,66,62,24,St Elizabeth Medical Center
5.56,2.92,44.70022,-73.47100,NY,19000,8000,50,55,0,Champlain Valley Physicians Hospital Medical Ctr
3.34,2.25,42.84782,-78.81264,NY,10000,5000,50,68,13,Mercy Hospital
4.30,2.99,43.12266,-77.62360,NY,14000,8000,50,55,21,Strong Memorial Hospital
8.82,3.04,40.69327,-73.29412,NY,32000,8000,50,70,74,Good Samaritan Hospital Medical Center
4.98,2.48,41.02614,-73.76978,NY,16000,6000,50,62,44,White Plains Hospital Center
3.37,3.49,40.64666,-74.02049,NY,10000,10000,50,67,5,Lutheran Medical Center
5.61,2.55,40.77481,-73.47968,NY,19000,7000,50,56,20,Plainview Hospital
7.62,3.39,40.90922,-73.11520,NY,27000,10000,50,60,44,University Hospital ( Stony Brook )
6.15,4.06,40.59803,-73.75296,NY,21000,13000,50,63,7,St John'S Episcopal Hospital At South Shore
8.18,2.50,40.85738,-73.18681,NY,29000,6000,50,76,88,St Catherine Of Siena Hospital
3.70,2.43,35.43754,-80.60147,NC,11000,6000,66,65,16,Carolinas Medical Center-Northeast
4.56,2.51,35.57658,-82.54922,NC,15000,6000,66,40,81,Memorial Mission Hospital And Asheville Surgery Ce
5.68,2.39,35.95000,-80.00000,NC,19000,6000,50,66,39,High Point Regional Hospital
4.37,2.54,36.07581,-80.29779,NC,14000,7000,50,52,39,Forsyth Memorial Hospital
4.22,2.20,35.68172,-80.47072,NC,13000,5000,50,80,76,Rowan Regional Medical Center
6.00,2.55,35.03156,-78.93205,NC,20000,7000,50,50,18,Cape Fear Valley Medical Center
8.10,3.32,36.00850,-78.94006,NC,29000,10000,66,43,76,Duke University Hospital
4.41,2.57,35.27341,-81.13688,NC,14000,7000,50,70,69,Gaston Memorial Hospital
6.34,2.92,35.60726,-77.40477,NC,22000,8000,50,46,1,Pitt County Memorial Hospital
5.13,3.27,36.09062,-80.27161,NC,17000,9000,83,55,57,North Carolina Baptist Hospital
5.83,2.45,35.22196,-80.83287,NC,20000,6000,50,63,13,Presbyterian Hospital
4.86,3.32,35.90529,-79.04963,NC,16000,10000,66,41,1,University Of North Carolina Hospital
6.25,2.54,35.78523,-78.58836,NC,21000,6000,33,50,79,Wakemed Raleigh Campus
5.17,2.63,35.30715,-78.63474,NC,17000,7000,0,0,0,Betsy Johnson Regional  Hospital
4.24,2.53,36.09251,-79.78855,NC,13000,6000,66,66,51,Moses H Cone Memorial Hospital The
6.27,2.30,35.21029,-80.82084,NC,21000,6000,50,53,51,Carolinas Med Center-Mercy
8.19,3.21,35.20397,-80.83908,NC,29000,9000,66,63,24,Carolinas Medical Center/Behav Health
5.70,2.25,35.81801,-78.70283,NC,19000,5000,50,65,54,Rex Hospital
4.74,2.35,35.20554,-79.45645,NC,15000,6000,66,60,44,Firsthealth Moore Regional Hospital
6.60,2.49,35.71850,-77.94518,NC,23000,6000,50,68,88,Wilson Medical Center
4.04,2.67,35.11420,-77.06568,NC,12000,7000,33,73,90,Carolina East Medical Center
5.15,2.60,34.23786,-77.94764,NC,17000,7000,83,70,57,New Hanover Regional Medical Center
4.99,2.27,35.11432,-80.71971,NC,16000,5000,0,0,0,Presbyterian Hospital Matthews
3.53,2.47,46.88496,-96.78609,ND,10000,6000,66,61,48,Sanford Medical Center Fargo
4.05,2.48,47.91045,-97.06742,ND,13000,6000,83,53,1,Altru Hospital
6.21,3.31,39.13707,-84.50392,OH,21000,10000,66,45,21,University Hospital Inc
6.03,2.39,40.03064,-83.03440,OH,20000,6000,83,71,21,Riverside Methodist Hospital
3.81,2.50,38.75320,-82.97800,OH,12000,6000,50,61,69,Southern Ohio Medical Center
5.04,2.39,40.57098,-83.12972,OH,16000,6000,50,91,48,Marion General Hospital
3.98,2.45,40.11479,-82.94677,OH,12000,6000,50,66,12,Mount Carmel St Ann'S Hospital
6.05,2.72,39.96098,-82.99077,OH,20000,7000,66,78,21,Grant Medical Center
7.93,2.47,41.08161,-81.50007,OH,28000,6000,66,63,33,Summa Health Systems Hospitals
6.28,2.32,41.44642,-82.70864,OH,21000,6000,50,86,18,Firelands Regional Medical Center
6.91,2.53,41.07747,-81.53042,OH,24000,6000,66,70,63,Akron General Medical Center
4.00,2.42,39.95805,-83.02191,OH,12000,6000,66,42,1,Mount Carmel Health
4.99,2.95,39.97510,-82.01812,OH,16000,8000,50,78,92,Genesis Healthcare System
5.96,2.93,41.61788,-83.61632,OH,20000,8000,66,68,6,University Of Toledo Medical Center
9.14,2.56,39.74547,-84.18523,OH,33000,7000,66,45,1,Miami Valley Hospital
9.00,2.44,39.78778,-84.23493,OH,32000,6000,66,56,16,Good Samaritan Hospital
4.60,2.30,39.31257,-84.51774,OH,15000,6000,50,90,69,Mercy Hospital Fairfield
4.77,3.21,41.46088,-81.69763,OH,15000,9000,50,60,24,Metro Health Medical Center
5.56,2.41,41.11441,-80.65565,OH,19000,6000,83,48,21,St Elizabeth Health Center
5.41,2.26,40.74115,-84.11804,OH,18000,5000,66,73,6,St Rita'S Medical Center
8.34,2.50,41.67775,-83.59589,OH,30000,6000,33,70,57,Toledo Hospital The
4.50,2.45,39.71750,-82.57772,OH,14000,6000,50,82,90,Fairfield Medical Center
9.04,2.38,39.49896,-84.31496,OH,32000,6000,50,63,33,Atrium Medical Center
6.13,2.40,41.45013,-81.82397,OH,21000,6000,66,60,18,Fairview Hospital
5.41,2.25,41.17554,-81.24915,OH,18000,5000,50,76,37,Robinson Memorial Hospital
7.66,2.52,39.69724,-84.19232,OH,27000,6000,66,80,57,Kettering Medical Center
3.96,2.38,40.79609,-81.40360,OH,12000,6000,50,63,17,Aultman Hospital
11.28,3.00,39.99445,-83.01872,OH,41000,8000,66,50,2,Ohio State University Hospitals
5.40,2.33,39.92755,-83.81573,OH,18000,6000,50,67,48,Springfield Regional Medical Center
5.73,2.25,41.55725,-83.68141,OH,19000,5000,50,65,85,St Luke'S Hospital
9.90,3.13,41.66810,-83.54275,OH,36000,9000,50,70,5,Mercy St Vincent Medical Center
5.03,2.25,40.75264,-82.52803,OH,16000,5000,83,81,92,Medcentral Health System
4.94,2.32,41.43653,-81.94451,OH,16000,6000,50,72,76,St John Medical Center
9.79,3.00,39.13975,-84.52173,OH,35000,8000,66,83,69,Good Samaritan Hospital
11.07,3.38,41.50772,-81.60592,OH,41000,10000,83,46,44,University Hospitals Of Cleveland
5.74,2.39,41.44829,-81.53736,OH,19000,6000,50,81,21,South Pointe Hospital
4.66,2.21,41.36649,-82.09708,OH,15000,5000,66,75,98,Emh Regional Medical Center
5.69,2.18,41.37028,-81.83189,OH,19000,5000,50,71,74,Southwest General Health Center
5.21,2.47,39.12105,-84.51059,OH,17000,6000,83,46,88,Christ Hospital
6.69,2.38,39.25076,-84.34341,OH,23000,6000,50,62,99,Bethesda North Hospital
9.34,2.72,41.50248,-81.62110,OH,34000,7000,33,32,24,Cleveland Clinic
3.71,2.22,40.35601,-80.62502,OH,11000,5000,50,81,63,Trinity Medical Ctr East&Trinity Medical Ctr West
4.53,2.29,41.52013,-81.43291,OH,14000,5000,66,45,37,Hillcrest Hospital
8.93,2.73,36.14687,-95.96841,OK,32000,7000,83,76,32,Hillcrest Medical Center
8.03,2.26,35.22999,-97.44074,OK,28000,5000,50,73,21,Norman Regional Health System
4.58,2.15,35.75351,-95.40612,OK,15000,5000,50,70,3,Muskogee Regional Medical Center
15.40,3.17,35.52960,-97.57496,OK,58000,9000,100,76,90,Integris Baptist Medical Center
5.58,2.34,36.06135,-95.95154,OK,19000,6000,83,61,44,Saint Francis Hospital Inc
13.22,3.49,35.48138,-97.49624,OK,49000,10000,66,45,1,O U Medical Center
7.89,2.22,35.46721,-97.39370,OK,28000,5000,50,76,92,Midwest Regional Medical Center
7.59,2.40,35.42168,-97.53306,OK,27000,6000,66,70,24,Integris Southwest Medical Center
5.33,2.39,36.13393,-95.96718,OK,18000,6000,50,51,11,St John Medical Center Inc
5.69,2.11,35.60901,-97.59429,OK,19000,5000,75,96,29,Oklahoma Heart Hospital
5.63,2.04,35.38969,-97.42688,OK,19000,4000,50,100,90,Oklahoma Heart Hospital South
6.04,3.31,45.49956,-122.68802,OR,20000,10000,66,47,6,Ohsu Hospital And Clinics
4.88,3.34,44.93267,-123.03418,OR,16000,10000,66,72,24,Salem Hospital
6.80,2.13,40.25296,-76.92151,PA,23000,5000,83,85,95,Holy Spirit Hospital
9.11,3.06,40.96789,-76.60506,PA,33000,9000,33,56,13,Geisinger Medical Center
8.38,2.48,42.11102,-80.07912,PA,30000,6000,50,72,57,Saint Vincent Health Center
21.49,3.86,40.00504,-75.15155,PA,82000,12000,83,57,33,Temple University Hospital
3.55,2.34,40.71251,-80.32136,PA,11000,6000,33,66,48,Heritage Valley Beaver
6.49,2.72,40.33271,-75.95020,PA,22000,7000,50,67,21,Reading Hospital Medical Center
4.74,2.37,41.24548,-77.01438,PA,15000,6000,50,57,37,Williamsport Regional Medical Center
5.30,2.71,39.94604,-76.71884,PA,17000,7000,66,45,8,York Hospital
7.52,2.51,40.60811,-75.39260,PA,26000,6000,66,53,57,St Luke'S Hospital Bethlehem
8.50,2.89,40.45705,-80.00363,PA,30000,8000,83,70,44,Allegheny General Hospital
3.97,2.17,40.52204,-78.39824,PA,12000,5000,83,61,39,Altoona Regional Health System
4.45,2.45,41.98012,-76.52072,PA,14000,6000,50,65,48,Robert Packer Hospital
4.43,2.10,41.36116,-79.70065,PA,14000,5000,0,0,0,Upmc Northwest
4.75,2.49,40.37587,-75.97750,PA,15000,6000,50,70,51,St Joseph Medical Center
5.61,2.32,40.04740,-76.30540,PA,19000,6000,66,60,82,Lancaster General Hospital
5.65,2.70,40.48928,-79.89596,PA,19000,7000,50,72,63,Upmc St Margaret
4.80,2.10,40.57319,-80.01455,PA,15000,5000,50,57,48,Upmc Passavant
4.25,2.42,40.32674,-78.92197,PA,13000,6000,50,61,3,Conemaugh Valley Memorial Hospital
11.81,3.25,39.95045,-75.19259,PA,44000,9000,50,33,39,Hospital Of Univ Of Pennsylvania
11.58,2.30,40.24397,-75.61364,PA,43000,6000,50,83,48,Pottstown Memorial Medical Center
13.56,2.33,40.12344,-75.51493,PA,50000,6000,50,62,12,Phoenixville Hospital
8.40,2.61,40.60000,-75.47000,PA,30000,7000,66,58,54,Lehigh Valley Hospital
7.48,2.38,41.25860,-75.86729,PA,26000,6000,50,60,79,Wilkes-Barre General Hospital
17.42,3.14,40.01883,-75.32115,PA,66000,9000,50,71,85,Main Line Hospital Bryn Mawr Campus
13.24,4.02,40.03678,-75.14351,PA,49000,12000,66,62,4,Albert Einstein Medical Center
5.78,2.36,39.93492,-77.64744,PA,19000,6000,50,58,48,Chambersburg Hospital
9.64,2.36,40.04475,-75.50425,PA,35000,6000,50,71,20,Main Line Hospital Paoli
12.60,2.53,40.68708,-75.24272,PA,47000,6000,66,68,3,Easton Hospital
16.42,3.24,40.44190,-79.96044,PA,62000,9000,83,55,11,Upmc Presbyterian Shadyside
4.36,2.20,40.86656,-79.88351,PA,14000,5000,33,86,69,Butler Memorial Hospital
11.51,3.21,39.94969,-75.15712,PA,42000,9000,66,41,57,Thomas Jefferson University Hospital
30.00,2.87,39.85598,-75.36791,PA,116000,8000,66,56,13,Crozer Chester Medical Center
8.81,2.75,39.98905,-75.27707,PA,32000,7000,50,53,24,Main Line Hospital Lankenau
9.79,2.96,39.95825,-75.19909,PA,35000,8000,66,53,54,Penn Presbyterian Medical Center
11.17,2.77,39.94560,-75.15561,PA,41000,7000,50,56,69,Pennsylvania Hosp Of The Univ Of Pa Health Sys
12.60,2.55,40.12077,-75.11818,PA,47000,7000,83,51,43,Abington Memorial Hospital
5.45,2.22,41.41276,-75.65399,PA,18000,5000,50,67,85,Regional Hospital Of Scranton
6.08,3.08,40.26468,-76.67582,PA,21000,9000,66,40,3,Milton S Hershey Medical Center
6.56,2.39,40.20064,-74.92952,PA,23000,6000,33,71,44,St Mary Medical Center
9.68,2.50,40.64463,-75.40842,PA,35000,6000,66,66,8,Lehigh Valley Hospital - Muhlenberg
6.95,2.70,40.81936,-77.84273,PA,24000,7000,50,91,57,Mount Nittany Medical Center
27.43,3.77,39.95658,-75.16249,PA,106000,11000,83,71,6,Hahnemann University Hospital
4.94,2.57,40.02887,-75.20948,PA,16000,7000,0,0,0,Roxborough Memorial Hospital
13.52,3.85,41.81254,-71.40760,RI,50000,12000,33,48,6,Rhode Island Hospital
8.82,3.40,41.70541,-71.47790,RI,32000,10000,50,50,39,Kent County Memorial Hospital
6.15,2.56,41.85172,-71.39826,RI,21000,7000,66,51,63,Miriam Hospital
6.44,2.39,34.95535,-81.05137,SC,22000,6000,50,75,33,Piedmont Medical Center
5.83,3.36,32.78272,-79.94543,SC,20000,10000,33,76,69,Musc Medical Center
6.51,2.60,34.96733,-81.94021,SC,22000,7000,33,60,54,Spartanburg Regional Medical Center
4.66,2.37,34.69403,-82.98884,SC,15000,6000,0,0,0,Oconee Medical Center
9.01,2.92,34.02839,-81.03539,SC,32000,8000,33,43,21,Palmetto Health Richland
9.32,2.27,34.83965,-82.42147,SC,34000,5000,66,66,11,St Francis-Downtown
4.96,2.18,34.01469,-81.01343,SC,16000,5000,50,85,29,Sisters Of Charity Providence Hospitals
8.91,2.52,34.51119,-82.64683,SC,32000,6000,50,61,94,Anmed Health
7.09,2.22,34.24654,-80.60702,SC,25000,5000,50,73,33,Kershaw Health
5.51,2.43,34.19543,-79.76256,SC,18000,6000,50,50,79,Mcleod Regional Medical Center-Pee Dee
9.51,2.94,34.17571,-82.15791,SC,34000,8000,66,65,20,Self Regional Healthcare
9.81,2.27,34.00533,-81.11393,SC,36000,5000,66,63,48,Lexington Medical Center
7.47,3.22,34.81904,-82.41308,SC,26000,9000,50,55,17,Greenville Memorial Hospital
8.01,2.60,32.97605,-80.07302,SC,28000,7000,50,56,48,Trident Medical Center
6.45,2.21,33.70704,-78.89487,SC,22000,5000,66,50,57,Grand Strand Reg Med Center
6.94,2.25,32.78211,-79.95018,SC,24000,5000,50,66,29,Roper Hospital
13.32,2.34,34.19543,-79.76256,SC,50000,6000,33,66,13,Carolinas Hospital System
7.60,2.43,43.53562,-96.74305,SD,27000,6000,66,82,57,Sanford Usd Medical Center
4.97,2.35,35.63906,-88.83207,TN,16000,6000,66,53,27,Jackson-Madison County General Hospital
4.78,2.26,35.93917,-85.01865,TN,15000,5000,50,65,44,Cumberland Medical Center
5.82,2.11,35.75588,-83.95808,TN,20000,5000,50,75,48,Blount Memorial Hospital
8.75,2.88,35.93985,-83.94326,TN,31000,8000,33,62,20,University Of Tn Memorial Hospital
4.17,2.18,36.55401,-82.55483,TN,13000,5000,50,58,33,Wellmont Holston Valley Medical Center
7.55,2.95,36.14316,-86.80048,TN,26000,8000,50,43,43,Vanderbilt University Hospital
7.50,2.61,35.12837,-89.86202,TN,26000,7000,50,43,39,Baptist Memorial Hospital
6.75,2.68,35.13640,-90.01928,TN,23000,7000,66,51,37,Methodist Healthcare Memphis Hospitals
4.68,2.37,35.86074,-86.42434,TN,15000,6000,33,87,16,Middle Tennessee Medical Center Inc
3.27,2.29,36.17121,-85.50938,TN,9000,5000,50,73,98,Cookeville Regional Medical Center
5.78,2.39,36.30767,-82.38497,TN,19000,6000,83,50,21,Johnson City Medical Center
3.52,2.20,35.60668,-87.06635,TN,10000,5000,50,72,74,Maury Regional Hospital
5.26,2.22,36.12859,-86.84559,TN,17000,5000,16,75,98,St Thomas Hospital
6.83,2.25,35.04157,-85.26037,TN,24000,5000,33,72,99,Memorial Healthcare System Inc
6.26,2.59,35.05068,-85.28823,TN,21000,7000,50,52,0,Erlanger Medical Center
5.56,2.13,35.99233,-83.92697,TN,19000,5000,50,56,85,Tennova Healthcare
4.79,2.36,36.15388,-86.80249,TN,15000,6000,66,66,63,Baptist Hospital
8.20,2.53,35.03467,-85.26735,TN,29000,6000,50,56,33,Parkridge Medical Center
7.40,2.51,36.15310,-86.80910,TN,26000,6000,66,68,81,Centennial Medical Center
3.62,2.14,35.91765,-84.10080,TN,11000,5000,33,72,82,Parkwest Medical Center
6.06,2.24,35.17731,-84.86873,TN,21000,5000,50,68,37,Skyridge Medical Center
5.45,4.18,29.31233,-94.77317,TX,18000,13000,66,55,21,University Of Texas Medical Branch Gal
5.85,3.03,32.78994,-96.78044,TX,20000,8000,83,58,33,Baylor University Medical Center
4.80,2.36,30.08729,-94.13292,TX,16000,6000,66,86,79,Christus Hospital
7.14,2.28,32.50219,-94.73025,TX,25000,5000,50,73,85,Good Shepherd Medical Center
12.30,2.34,33.57524,-101.89272,TX,45000,6000,50,41,48,Covenant Medical Center
4.79,2.24,31.51444,-97.19927,TX,15000,5000,50,50,33,Providence Health Center
8.31,2.74,32.81224,-96.83795,TX,30000,7000,33,63,29,Ut Southwestern University Hospital
8.83,2.44,27.77751,-97.39515,TX,32000,6000,83,57,95,Christus Spohn Hospital Corpus Christi
4.34,2.59,31.07837,-97.36403,TX,14000,7000,50,56,85,Scott & White Memorial Hospital
11.98,2.64,30.30491,-97.74540,TX,44000,7000,16,56,63,Seton Medical Center Austin
7.71,2.48,29.43360,-98.49265,TX,27000,6000,66,61,24,Baptist Medical Center
8.74,3.57,29.71431,-95.39680,TX,31000,11000,66,46,13,Memorial Hermann Texas Medical Center
15.66,2.46,32.33824,-95.29122,TX,59000,6000,50,55,92,East Texas Medical Center
9.29,2.32,32.34280,-95.29201,TX,33000,6000,50,60,98,Mother Frances Hospital
10.50,2.80,26.26353,-98.18455,TX,38000,8000,66,91,74,South Texas Health System
7.13,2.42,32.73780,-97.33899,TX,25000,6000,66,55,57,Texas Health Harris Methodist Fort Worth
5.02,2.52,32.73070,-97.34379,TX,16000,6000,66,57,74,Baylor All Saints Medical Center At Fw
5.63,2.53,29.81230,-95.43010,TX,19000,6000,66,62,69,Memorial Hermann Hospital System
11.67,2.95,29.70719,-95.40048,TX,43000,8000,66,43,1,St Lukes Episcopal Hospital
8.77,2.25,31.33632,-94.74205,TX,31000,5000,50,71,63,Memorial Health System Of East Texas- Lufkin
12.65,2.63,30.28473,-95.46714,TX,47000,7000,33,52,48,Conroe Regional Medical Center
6.03,2.24,32.47171,-99.73315,TX,20000,5000,66,86,39,Hendrick Medical Center
7.88,2.22,35.19533,-101.91907,TX,28000,5000,66,60,21,Baptist St Anthonys Health System-Baptist Campus
6.39,2.91,29.42825,-98.49859,TX,22000,8000,50,80,20,Christus Santa Rosa Hospital
4.59,2.35,30.07104,-94.11927,TX,15000,6000,83,63,85,Memorial Hermann Baptist Beaumont Hospital
13.05,2.95,29.71020,-95.39956,TX,48000,8000,100,60,13,Methodist Hospitalthe
8.39,2.47,29.50795,-98.57224,TX,30000,6000,66,62,57,Methodist Hospital
11.18,2.65,33.15951,-96.63675,TX,41000,7000,66,65,2,Medical Center Of Mckinney
5.66,2.62,30.28957,-97.72584,TX,19000,7000,66,81,63,St Davids Medical Center
7.07,2.81,32.88076,-96.76226,TX,25000,8000,66,66,3,Texas Health Presbyterian Hospital  Dallas
9.74,2.30,32.40574,-99.76486,TX,35000,6000,75,57,76,Abilene Regional Medical Center
4.63,2.56,31.46574,-100.43466,TX,15000,7000,50,72,79,Shannon Medical Center
7.33,2.42,29.54043,-95.12730,TX,26000,6000,66,51,21,Clear Lake Regional Medical Center
9.99,2.38,33.17345,-97.11382,TX,36000,6000,83,72,54,Denton Regional Medical Center
9.70,2.65,30.01994,-95.44379,TX,35000,7000,50,65,69,Houston Northwest Medical Center
7.47,2.23,32.83479,-97.12428,TX,26000,5000,50,62,88,Texas Health Harris Methodist Hurst-Euless-Bedford
13.49,2.61,32.91132,-96.77424,TX,50000,7000,83,51,6,Medical City Dallas Hospital
9.54,2.33,33.02168,-96.76621,TX,34000,6000,50,67,11,Medical Center Of Plano
10.85,2.74,25.97780,-97.51442,TX,40000,7000,50,60,44,Valley Regional Medical Center
9.06,2.42,32.73563,-97.34483,TX,33000,6000,83,41,74,Plaza Medical Center Of Fort Worth
4.17,2.39,32.70698,-96.27851,TX,13000,6000,0,0,0,Renaissance Hospital Terrell
5.07,2.79,33.58838,-101.89214,TX,17000,7000,50,50,24,University Medical Center
9.40,2.76,26.18586,-98.22085,TX,34000,7000,50,66,48,Rio Grande Regional Hospital
9.41,2.36,30.22723,-97.77447,TX,34000,6000,50,43,69,St David'S South Austin Medical Center
7.15,2.37,30.41163,-97.70649,TX,25000,6000,33,65,29,North Austin Medical Center
9.90,2.32,29.96603,-95.55127,TX,36000,6000,50,77,94,Methodist Willowbrook Hospital
4.46,2.17,33.60310,-101.91587,TX,14000,5000,0,0,0,Lubbock Heart Hospital Lp
6.89,3.28,40.77170,-111.83681,UT,24000,9000,33,53,8,University Health Care/Univ Hospitals And  Clinics
7.21,2.73,40.65922,-111.89189,UT,25000,7000,33,58,54,Intermountain Medical Center
4.75,7.06,44.47966,-73.19412,VT,15000,25000,66,50,13,Fletcher Allen Hospital Of Vermont
4.82,2.43,38.40552,-78.85730,VA,16000,6000,50,70,92,Rockingham Memorial Hospital
4.33,2.45,39.19345,-78.19599,VA,14000,6000,66,60,74,Winchester Medical Center Inc
9.90,3.83,36.86268,-76.30355,VA,36000,12000,83,58,4,Sentara Norfolk General Hospital
24.46,7.60,38.02573,-78.51526,VA,94000,27000,33,35,24,University Of Virginia Medical Center
4.02,2.39,38.09436,-78.98659,VA,12000,6000,50,82,99,Augusta Health
3.69,2.28,37.41368,-79.16870,VA,11000,5000,50,70,57,Centra  Health Inc
8.07,2.53,38.31158,-77.48061,VA,29000,6000,66,73,17,Mary Washington Hospital Inc
5.23,2.54,37.25129,-79.94125,VA,17000,6000,50,61,1,Carilion Roanoke Memorial Center
7.29,3.93,37.54330,-77.42932,VA,25000,12000,66,48,0,Medical College Of Virginia Hospitals
4.83,2.26,36.77378,-76.57856,VA,16000,5000,50,77,51,Sentara Obici Hospital
4.24,2.27,36.85098,-76.18989,VA,13000,5000,50,65,76,Sentara Leigh Hospital
6.16,2.21,37.26336,-80.03166,VA,21000,5000,50,48,8,Lewisgale Medical Center
3.43,2.57,37.06523,-76.48417,VA,10000,7000,50,68,44,Riverside Regional Medical Center
5.81,2.24,36.86449,-76.02844,VA,20000,5000,66,62,39,Sentara Virginia Beach General Hospital
5.92,2.26,37.58440,-77.51252,VA,20000,5000,50,66,69,Bon Secours - St Marys Hospital Of Richmond
6.00,2.91,38.85764,-77.22772,VA,20000,8000,83,53,1,Inova Fairfax Hospital
4.91,2.35,37.62931,-77.38804,VA,16000,6000,50,67,69,Bon Secours - Memorial Regional Medical
4.69,2.22,37.05580,-76.39048,VA,15000,5000,66,66,74,Sentara Careplex Hospital
11.38,2.36,37.51021,-77.59525,VA,42000,6000,83,52,32,Cjw Medical Center
12.47,2.32,37.60459,-77.53929,VA,46000,6000,66,63,29,Henrico Doctors' Hospital
6.47,3.81,47.64928,-122.30681,WA,22000,12000,66,28,44,University Of Washington Medical Ctr
4.93,2.50,46.59643,-120.52005,WA,16000,6000,50,77,2,Yakima Regional Medical And Cardiac Center
4.75,2.55,47.40667,-120.32000,WA,15000,7000,50,75,1,Central Washington Hospital
6.76,2.57,47.15452,-122.50105,WA,23000,7000,0,0,0,Saint Clare Hospital
8.65,2.72,47.05286,-122.84707,WA,31000,7000,50,41,11,Providence St Peter Hospital
6.27,2.54,48.77371,-122.47344,WA,21000,6000,50,67,33,St Joseph Medical Center
10.75,2.82,47.58295,-122.62506,WA,39000,8000,66,57,33,Harrison Medical Center
5.27,2.65,47.65191,-117.42329,WA,17000,7000,50,57,13,Deaconess Hospital
6.32,2.53,45.62460,-122.58145,WA,22000,6000,66,53,81,Peacehealth Southwest Medical Center
6.40,2.35,47.61943,-122.18605,WA,22000,6000,50,57,76,Overlake Hospital Medical Center
12.14,3.11,47.64936,-117.41194,WA,45000,9000,66,76,33,Providence Sacred Heart Medical Center
8.06,2.49,47.17742,-122.28943,WA,29000,6000,50,96,11,Multicare Good Samaritan Hospital
6.37,2.70,47.44243,-122.21392,WA,22000,7000,50,55,48,Valley Medical Center
8.44,2.90,47.24670,-122.44841,WA,30000,8000,66,66,21,St Joseph Medical Center
7.43,2.69,47.25980,-122.45243,WA,26000,7000,83,50,57,Tacoma General Allenmore Hospital
3.92,2.95,39.65498,-79.95814,WV,12000,8000,83,31,5,West Virginia University Hospitals
3.37,2.35,39.32836,-80.23964,WV,10000,6000,66,61,76,United Hospital Center
3.62,2.35,38.43236,-82.40067,WV,11000,6000,66,60,17,St Mary'S Medical Center
6.23,3.14,38.34739,-81.62600,WV,21000,9000,66,58,10,Charleston Area Medical Center
3.77,2.12,39.66383,-79.94681,WV,11000,5000,50,77,98,Monongalia County General Hospital
2.48,2.00,37.36312,-81.11184,WV,6000,4000,50,78,85,Princeton Community Hospital
4.92,2.25,40.05809,-80.68471,WV,16000,5000,66,68,29,Wheeling Hospital
4.08,2.76,38.40959,-82.42708,WV,13000,7000,50,51,8,Cabell-Huntington Hospital Inc
5.29,2.20,39.27035,-81.56026,WV,17000,5000,50,51,10,Camden Clark Medical Center
2.82,2.31,37.79878,-81.16820,WV,8000,6000,50,72,48,Beckley Arh Hospital
3.49,2.34,37.78754,-81.20183,WV,10000,6000,66,73,82,Raleigh General Hospital
3.83,2.33,37.25551,-81.23539,WV,12000,6000,0,0,0,Bluefield Regional Medical Center
6.27,2.87,43.01152,-88.24308,WI,21000,8000,50,55,24,Waukesha Memorial Hospital
5.85,2.36,42.57776,-87.81939,WI,20000,6000,66,65,20,United Hsptl Sys
5.49,2.95,44.67759,-90.17818,WI,18000,8000,50,57,13,Ministry Saint Joseph'S Hospital
4.71,2.64,44.81192,-91.51352,WI,15000,7000,25,55,69,Mayo Clinic Health System Eau Claire Hospital
5.95,2.74,43.05867,-89.40269,WI,20000,7000,66,77,69,St Mary'S Hospital
7.71,2.66,43.06432,-89.40100,WI,27000,7000,66,43,56,Meriter Hsptl
6.18,3.73,43.07633,-89.43133,WI,21000,11000,50,35,16,University Of Wi  Hospitals & Clinics Authority
8.13,2.70,42.98958,-87.95079,WI,29000,7000,50,65,37,Aurora St Lukes Medical Center
5.50,2.34,43.00120,-88.02675,WI,18000,6000,50,71,63,Aurora West Allis Medical Center
6.40,3.31,43.04008,-88.02523,WI,22000,10000,66,36,11,Froedtert Mem Lutheran Hsptl
