size_charge,size_pay,lat,lon,state,charge,pay,AcquiredInfect,AcquiredConditions,PatientSafetySummary,name
6.54,2.21,31.21673,-85.36307,AL,60000,14000,50,51,21,Southeast Alabama Medical Center
6.36,2.14,34.80175,-87.67514,AL,58000,14000,50,65,2,Eliza Coffee Memorial Hospital
3.73,2.12,34.36605,-86.42127,AL,30000,13000,0,0,0,Marshall Medical Center North
3.73,2.14,33.59616,-86.66750,AL,30000,14000,66,78,1,St Vincent'S East
7.64,2.27,33.25607,-86.81035,AL,72000,15000,83,70,63,Shelby Baptist Medical Center
6.21,2.47,32.32785,-86.27750,AL,56000,17000,50,67,54,Baptist Medical Center South
6.43,2.21,32.36656,-86.28572,AL,59000,14000,50,68,82,Jackson Hospital & Clinic Inc
3.23,2.23,32.63806,-85.40413,AL,25000,15000,50,80,13,East Alabama Medical Center And Snf
7.75,2.89,33.50619,-86.80210,AL,73000,22000,66,45,11,University Of Alabama Hospital
10.37,2.13,33.66767,-85.83420,AL,100000,14000,0,0,0,Stringfellow Memorial Hospital
7.16,2.32,34.72007,-86.58108,AL,67000,16000,50,65,44,Huntsville Hospital
13.68,2.12,34.00941,-85.97078,AL,135000,14000,66,67,27,Gadsden Regional Medical Center
8.40,2.12,34.00426,-86.00339,AL,80000,14000,75,81,90,Riverview Regional Medical Center
11.32,2.35,31.23767,-85.45625,AL,110000,16000,50,55,79,Flowers Hospital
4.32,2.16,33.50734,-86.78958,AL,37000,14000,50,72,21,St Vincent'S Birmingham
4.15,2.15,32.94573,-85.98570,AL,35000,14000,50,71,5,Russell Hospital
5.38,2.16,33.65640,-85.82284,AL,48000,14000,50,60,5,Northeast Alabama Regional Med Center
4.22,2.21,34.80351,-86.97726,AL,36000,14000,0,0,0,Athens-Limestone Hospital
7.29,2.08,30.42700,-87.68386,AL,68000,13000,50,95,24,South Baldwin Regional Medical Center
2.77,2.19,34.59052,-86.97262,AL,20000,14000,50,77,54,Decatur General Hospital
3.64,2.66,30.70623,-88.09909,AL,29000,19000,25,61,2,Univ Of South Alabama Medical Center
7.63,2.23,33.83218,-87.30385,AL,71000,15000,50,78,95,Walker Baptist Medical Center
5.97,2.22,30.68199,-88.19897,AL,54000,15000,83,86,0,Providence Hospital
7.25,2.30,33.20521,-87.52546,AL,67000,15000,66,66,21,D C H Regional Medical Center
3.88,2.02,30.51916,-87.88842,AL,32000,12000,50,90,17,Thomas Hospital
10.74,2.28,33.49854,-86.84633,AL,104000,15000,66,70,8,Baptist Medical Center-Princeton
12.09,2.39,33.51420,-86.74859,AL,118000,16000,66,27,11,Trinity Medical Center
5.35,2.29,30.69697,-88.08081,AL,47000,15000,66,55,24,Mobile Infirmary
6.02,2.22,33.37328,-86.99163,AL,55000,15000,50,67,6,Medical West An Affiliate Of Uab Health System
10.90,2.22,34.69279,-86.57179,AL,106000,15000,50,77,33,Crestwood Medical Center
14.64,2.13,33.46420,-86.77409,AL,145000,14000,50,65,29,Brookwood Medical Center
4.66,2.03,30.68546,-88.13170,AL,40000,12000,50,81,6,Springhill Medical Center
5.26,2.32,32.38797,-86.17576,AL,47000,16000,50,52,90,Baptist Medical Center East
5.73,2.05,34.74506,-87.67557,AL,51000,13000,0,0,0,Shoals Hospital
7.53,2.29,33.16547,-86.25380,AL,70000,15000,0,0,0,Coosa Valley Medical Center
6.76,2.94,60.94901,-149.17033,AK,62000,22000,50,81,90,Providence Alaska Medical Center
10.31,3.41,61.56297,-149.25782,AK,100000,27000,0,0,0,Mat-Su Regional Medical Center
7.30,4.70,64.83188,-147.73905,AK,68000,41000,0,0,0,Fairbanks Memorial Hospital
9.21,2.77,61.21082,-149.82866,AK,88000,20000,50,90,43,Alaska Regional Hospital
8.57,3.89,61.18268,-149.79897,AK,81000,32000,0,0,0,Alaska Native Medical Center
6.72,2.73,33.46514,-112.05797,AZ,62000,20000,50,48,69,Banner Good Samaritan Medical Center
6.71,2.56,32.25294,-110.88135,AZ,62000,18000,50,48,3,Tucson Medical Center
9.67,3.06,34.73471,-112.03149,AZ,93000,23000,50,73,82,Verde Valley Medical Center
6.86,2.40,32.22734,-111.00065,AZ,63000,16000,33,75,63,Carondelet St  Marys Hospital
7.04,2.27,32.22685,-110.85520,AZ,65000,15000,66,55,21,Carondelet St Josephs Hospital
5.68,2.58,34.56017,-112.48217,AZ,51000,18000,25,67,17,Yavapai Regional Medical Center
5.89,2.52,32.68274,-114.63506,AZ,53000,18000,50,63,69,Yuma Regional Medical Center
6.56,2.50,33.56894,-112.07108,AZ,60000,17000,50,80,16,John C Lincoln North Mountain Hospital
5.38,2.47,32.88123,-111.71067,AZ,48000,17000,50,81,11,Casa Grande Regional Medical Center
7.32,3.38,35.20923,-111.64486,AZ,68000,27000,66,78,88,Flagstaff Medical Center
8.58,3.06,33.48073,-112.07948,AZ,82000,23000,33,52,11,St Joseph'S Hospital And Medical Center
9.76,2.52,34.25095,-111.31972,AZ,94000,18000,0,0,0,Payson Regional Medical Center
8.46,2.40,33.29750,-111.87461,AZ,80000,16000,50,78,54,Chandler Regional Medical Center
6.90,2.44,33.48885,-111.92387,AZ,64000,17000,66,76,54,Scottsdale Healthcare-Osborn Medical Center
6.87,2.76,31.55116,-110.27248,AZ,64000,20000,0,0,0,Sierra Vista Regional Health Center Inc
7.52,2.59,35.22024,-114.03585,AZ,70000,18000,66,66,54,Kingman Regional Medical Center
7.20,2.31,33.60432,-112.28378,AZ,67000,15000,83,75,95,Banner Boswell Medical Center
4.90,2.90,34.20195,-110.01913,AZ,43000,22000,50,78,74,Summit Healthcare Regional Medical Center
7.56,3.19,32.24152,-110.94631,AZ,71000,25000,50,37,39,University Of Arizona Medical Ctr-Universit The
7.12,2.49,33.39097,-111.87638,AZ,66000,17000,66,80,56,Banner Desert Medical Center
4.46,3.12,34.13552,-114.28477,AZ,38000,24000,0,0,0,La Paz Regional Hospital
8.04,2.47,34.47988,-114.33938,AZ,76000,17000,50,70,56,Havasu Regional Medical Center
9.76,2.36,32.32103,-111.01102,AZ,94000,16000,50,71,20,Northwest Medical Center
8.04,2.40,33.58235,-111.88527,AZ,76000,16000,66,68,63,Scottsdale Healthcare-Shea Medical Center
8.19,2.37,33.41128,-111.68916,AZ,77000,16000,50,70,63,Banner Baywood Medical Center
7.74,2.68,33.60949,-112.18129,AZ,73000,19000,66,73,76,Banner Thunderbird Medical Center
7.38,2.39,33.66596,-112.11618,AZ,69000,16000,50,73,69,John C Lincoln Deer Valley Hospital
7.78,2.30,33.65965,-112.37283,AZ,73000,15000,50,77,97,Banner Del E Webb Medical Center
5.68,2.54,33.65497,-112.20040,AZ,51000,18000,50,90,39,Arrowhead Hospital
14.75,2.54,35.11068,-114.55505,AZ,147000,18000,50,87,63,Western Arizona Regional Medical Ctr
6.64,2.80,33.65947,-111.95626,AZ,61000,21000,66,53,95,Mayo Clinic Hospital
8.05,2.16,32.42929,-110.94843,AZ,76000,14000,50,73,85,Oro Valley Hospital
9.57,2.33,33.28686,-111.75246,AZ,92000,16000,50,63,63,Mercy Gilbert Medical Center
12.75,2.49,33.39128,-111.61125,AZ,125000,17000,50,60,11,Mountain Vista Medical Center Lp
7.24,2.30,33.38269,-111.72100,AZ,67000,15000,50,70,57,Banner Gateway Medical Center
8.17,2.50,33.67102,-111.92184,AZ,77000,17000,50,88,92,Scottsdale Healthcare-Thompson Peak Hospital
3.18,2.35,35.46436,-93.44495,AR,25000,16000,0,0,0,Johnson Regional Medical Center
5.87,2.26,36.10940,-94.16036,AR,53000,15000,33,77,74,Washington Regional Med Ctr At North Hills
6.00,2.28,34.75031,-92.33897,AR,54000,15000,66,63,82,St Vincent Infirmary Medical Center
3.96,2.14,36.31007,-94.18471,AR,33000,14000,50,67,44,Mercy Medical Center
5.38,2.20,35.25046,-91.70056,AR,48000,14000,50,61,63,White County Medical Center
4.92,2.69,34.74866,-92.35422,AR,43000,20000,50,51,33,Uams Medical Center
2.72,2.33,35.83746,-90.70386,AR,20000,16000,50,75,2,St Bernards Medical Ctr
8.13,2.48,36.18082,-94.13644,AR,77000,17000,50,68,29,Nw Arkansas Hospitals Llc
5.77,2.23,34.46784,-93.06667,AR,52000,15000,66,66,85,St Josephs Mercy Health Center Inc
4.13,2.14,36.34295,-92.39442,AR,35000,14000,50,65,57,Baxter Regional Medical Center
4.00,2.28,35.08546,-92.45774,AR,33000,15000,50,72,79,Conway Regional Medical Center
5.00,2.24,34.77770,-92.12539,AR,44000,15000,50,60,13,Baptist Health Medical Center North Little Rock
11.17,2.59,35.28275,-93.14901,AR,109000,18000,0,0,0,St Marys Regional Medical Center
5.15,2.20,35.37445,-94.41868,AR,45000,14000,50,53,85,Sparks Regional Medical Center
6.58,2.35,35.35395,-94.35262,AR,60000,16000,50,66,11,St Edward Mercy Medical Center
8.13,2.41,34.18894,-92.01886,AR,77000,16000,50,75,4,Jefferson Regional Medical Center
12.14,2.25,34.48600,-93.03521,AR,119000,15000,50,51,8,National Park Medical Center
5.08,2.35,34.57290,-92.58508,AR,45000,16000,50,88,72,Saline Memorial Hospital
6.70,2.27,33.22053,-92.67102,AR,62000,15000,50,70,13,Medical Center South Arkansas
5.70,2.21,34.74866,-92.35422,AR,51000,14000,50,43,21,Baptist Health Medical Center-Little Rock
5.54,2.32,35.80838,-90.66658,AR,49000,16000,50,57,69,Nea Baptist Memorial Hospital
6.15,2.33,35.76927,-91.63408,AR,56000,16000,33,63,37,White River Medical Center
9.87,2.78,40.78366,-124.14246,CA,95000,20000,50,63,63,St Joseph Hospital
12.40,2.70,37.59283,-122.38249,CA,122000,20000,50,71,33,Peninsula Medical Center
15.91,2.99,38.32472,-122.29671,CA,159000,23000,50,72,82,Queen Of The Valley Medical Center
9.15,2.48,35.11346,-120.59054,CA,88000,17000,0,0,0,Arroyo Grande Community Hospital
9.20,2.83,38.57053,-121.45216,CA,88000,21000,83,53,27,Mercy General Hospital
11.18,2.81,33.97659,-117.38184,CA,109000,21000,50,65,57,Riverside Community Hospital
7.69,3.35,32.75426,-117.16592,CA,72000,26000,50,72,69,University Of California San Diego Medical Center
9.66,2.52,32.77495,-117.01467,CA,93000,18000,83,71,33,Grossmont Hospital
7.70,2.69,35.38736,-119.01690,CA,72000,20000,33,85,79,Bakersfield Memorial Hospital
9.68,4.37,37.31288,-121.93329,CA,93000,37000,66,65,1,Santa Clara Valley Medical Center
9.74,2.58,39.74221,-121.85000,CA,94000,18000,83,71,48,Enloe Medical Center
10.52,2.72,40.14813,-122.21934,CA,102000,20000,0,0,0,St Elizabeth Community Hospital
19.64,4.08,37.82206,-122.26275,CA,198000,34000,50,63,32,Alta Bates Summit Medical Center
12.83,4.05,37.79100,-122.43125,CA,126000,34000,83,63,11,California Pacific Medical Ctr-Pacific Campus Hosp
8.33,2.92,34.67486,-118.15771,CA,79000,22000,50,67,44,Antelope Valley Hospital Med Center
9.15,2.84,36.32737,-119.29548,CA,88000,21000,50,56,12,Kaweah Delta Medical Center
10.12,3.20,34.12834,-118.25777,CA,98000,25000,50,72,44,Glendale Mem Hospital & Hlth Center
8.03,3.14,36.73000,-119.78000,CA,76000,24000,50,71,0,Community Regional Medical Center
8.25,2.52,33.78036,-117.86495,CA,78000,18000,50,60,88,St Joseph Hospital
12.14,3.07,32.75143,-117.16083,CA,119000,23000,33,62,69,Scripps Mercy Hospital
10.88,2.79,34.21674,-119.15631,CA,106000,21000,50,63,6,St Johns Regional Medical Center
10.65,2.83,37.96987,-121.28873,CA,103000,21000,83,68,97,St Josephs Med Center Of Stockton
8.07,2.61,36.83532,-119.76562,CA,76000,19000,50,66,57,Saint Agnes Medical Center
6.68,2.48,34.10130,-117.63651,CA,61000,17000,50,66,85,San Antonio Community Hospital
11.47,2.75,32.79949,-117.15394,CA,112000,20000,66,62,11,Sharp Memorial Hospital
13.77,3.26,38.13118,-122.23732,CA,136000,25000,50,81,29,Sutter Solano Medical Center
11.41,2.74,34.95099,-120.41322,CA,111000,20000,50,93,48,Marian Medical Center
11.29,3.00,38.57155,-121.46874,CA,110000,23000,83,77,79,Sutter General Hospital
8.84,2.95,34.02685,-118.48651,CA,84000,22000,50,76,21,Santa Monica - Ucla Med Ctr & Orthopaedic Hospital
9.84,2.72,33.12535,-117.07336,CA,95000,20000,50,55,69,Palomar Medical Center
13.26,2.81,34.22014,-118.53410,CA,131000,21000,33,56,44,Northridge Hospital Medical Center
10.42,3.06,36.32362,-119.66726,CA,101000,23000,50,88,24,Adventist Medical Center
30.00,4.54,37.36257,-121.84974,CA,307000,39000,50,70,1,Regional Medical Center Of San Jose
8.16,3.08,34.19494,-118.46319,CA,77000,24000,50,77,76,Valley Presbyterian Hospital
10.81,2.80,33.18402,-117.29661,CA,105000,21000,50,57,21,Tri-City Medical Center
9.38,2.87,34.13495,-117.27603,CA,90000,21000,50,66,48,St Bernardine Medical Center
15.32,4.17,39.13822,-121.59436,CA,152000,35000,50,51,21,Rideout Memorial Hospital
16.61,3.13,38.25455,-122.63177,CA,166000,24000,0,0,0,Petaluma Valley Hospital
11.69,3.35,36.57886,-121.91316,CA,114000,26000,66,56,57,Community Hospital Of The Monterey Peninsula
9.47,2.65,39.22809,-121.04721,CA,91000,19000,0,0,0,Sierra Nevada Memorial Hospital
17.14,3.45,37.32710,-121.93863,CA,172000,27000,66,71,37,O'Connor Hospital
8.65,2.35,33.89465,-117.92716,CA,82000,16000,66,71,90,St Jude Medical Center
12.71,2.57,33.96860,-118.04831,CA,125000,18000,50,46,16,Presbyterian Intercommunity Hospital
15.27,3.02,38.44369,-122.70138,CA,152000,23000,66,86,57,Santa Rosa Memorial Hospital
10.32,2.63,37.51164,-120.83800,CA,100000,19000,33,86,16,Emanuel Medical Center Inc
15.29,2.85,37.91341,-122.04163,CA,152000,21000,50,62,33,John Muir Medical Center - Walnut Creek Campus
19.21,3.36,37.55717,-121.98126,CA,194000,27000,50,53,88,Washington Hospital
17.47,2.98,37.48000,-122.25441,CA,175000,22000,0,0,0,Sequoia Hospital
13.21,2.80,32.61972,-117.02278,CA,130000,21000,50,71,57,Sharp Chula Vista Medical Center
9.43,2.44,33.62229,-117.92995,CA,90000,17000,50,70,51,Hoag Memorial Hospital Presbyterian
16.53,2.72,39.75720,-121.57018,CA,165000,20000,50,65,57,Feather River Hospital
10.19,2.62,33.84780,-117.93661,CA,98000,19000,50,73,57,Ahmc Anaheim Regional Medical Center
11.44,3.06,34.07709,-117.75063,CA,112000,23000,33,73,97,Pomona Valley Hospital Medical Center
10.78,2.47,35.27882,-120.65047,CA,105000,17000,0,0,0,French Hospital Medical Center
15.75,2.82,34.15601,-118.32834,CA,157000,21000,50,80,97,Providence Saint Joseph Medical Ctr
9.89,2.68,34.28920,-118.74484,CA,95000,19000,50,90,92,Simi Valley Hospital & Health Care Services
10.67,2.80,34.13973,-118.03534,CA,104000,21000,50,45,10,Methodist Hospital Of Southern Ca
10.58,3.13,34.14987,-118.23117,CA,103000,24000,66,75,88,Glendale Adventist Medical Center
15.46,3.46,36.98999,-121.98357,CA,154000,28000,50,63,63,Dominican Hospital
16.30,2.76,33.83862,-116.54557,CA,163000,20000,66,81,2,Desert Regional Medical Center
18.56,3.08,38.72562,-120.79096,CA,187000,24000,50,81,1,Marshall Medical Center (1-Rh)
10.14,4.21,34.06675,-118.44613,CA,98000,35000,50,27,33,Ronald Reagan Ucla Medical Center
6.55,2.43,34.03721,-117.20474,CA,60000,17000,50,92,69,Redlands Community Hospital
12.13,6.65,38.00655,-122.13312,CA,119000,61000,50,66,28,Contra Costa Regional Medical Center
16.88,2.90,34.27915,-118.46006,CA,169000,22000,50,80,24,Providence Holy Cross Medical Center
8.18,2.81,40.58654,-122.39168,CA,77000,21000,83,71,44,Mercy Medical Center Redding
11.66,2.86,37.69502,-121.88095,CA,114000,21000,50,71,82,Valleycare Medical Center
7.78,2.50,34.03009,-118.47833,CA,73000,17000,50,81,76,Saint John'S Health Center
8.73,2.68,35.37279,-119.02817,CA,83000,19000,50,70,82,Mercy Hospital
11.63,2.69,34.50107,-117.17285,CA,114000,19000,50,87,20,St Mary Medical Center
8.57,2.69,39.15350,-123.20435,CA,81000,19000,0,0,0,Ukiah Valley Medical Center/Hospital D
16.07,3.64,37.85593,-122.25730,CA,160000,29000,50,56,8,Alta Bates Summit Medical Center - Alta Bates Camp
14.38,2.94,37.36934,-122.08047,CA,143000,22000,66,48,6,El Camino Hospital
10.64,2.69,38.76514,-121.24979,CA,103000,19000,66,77,16,Sutter Roseville Medical Center
12.56,2.49,32.88461,-117.22244,CA,123000,17000,50,63,29,Scripps Memorial Hospital La Jolla
11.01,3.39,34.05076,-117.26395,CA,107000,27000,50,55,16,Loma Linda University Medical Center
10.18,3.44,36.65910,-121.64630,CA,98000,27000,50,70,37,Salinas Valley Memorial Hospital
12.28,2.92,37.97780,-120.37150,CA,120000,22000,0,0,0,Sonora Regional Medical Center
27.08,2.85,38.12186,-121.28665,CA,276000,21000,100,70,94,Lodi Memorial Hospital
18.00,3.75,33.78798,-117.89026,CA,181000,31000,66,56,11,University Of California Irvine Med Center
10.30,2.55,33.81131,-118.34364,CA,100000,18000,66,67,88,Torrance Memorial Medical Center
13.42,2.63,33.83891,-118.35677,CA,133000,19000,50,86,94,Providence Little Company Of Mary Med Ctr Torrance
17.67,3.05,37.94748,-122.53677,CA,177000,23000,50,63,16,Marin General Hospital
14.07,3.13,37.25153,-121.94684,CA,139000,24000,33,63,3,Good Samaritan Hospital
7.68,2.95,34.08802,-117.89341,CA,72000,22000,66,67,29,Citrus Valley Medical Center-Ic Campus
10.04,2.71,33.75117,-116.96028,CA,97000,20000,50,73,82,Hemet Valley Medical Center
11.52,2.54,34.27459,-119.25812,CA,112000,18000,50,53,8,Community Memorial Hospital San Buenaventura
9.58,2.72,34.42951,-119.72333,CA,92000,20000,66,72,32,Santa Barbara Cottage Hospital
11.92,2.53,38.67039,-121.14552,CA,117000,18000,50,77,24,Mercy Hospital Of Folsom
11.27,2.62,32.89810,-117.24217,CA,110000,19000,50,75,37,Scripps Green Hospital
12.35,2.90,34.13364,-118.15275,CA,121000,22000,66,65,57,Huntington Memorial Hospital
20.17,4.54,37.43436,-122.18013,CA,204000,39000,50,58,27,Stanford Hospital
15.30,3.19,37.34027,-120.46817,CA,152000,25000,50,77,37,Mercy Medical Center
16.49,4.56,37.76421,-122.45716,CA,165000,39000,66,52,90,Ucsf Medical Center
8.54,2.64,35.38338,-119.01969,CA,81000,19000,33,86,6,San Joaquin Community Hospital
14.57,3.00,37.66540,-120.99743,CA,145000,23000,66,66,9,Doctors Medical Center
14.56,2.50,34.20285,-118.62962,CA,145000,17000,50,61,13,West Hills Hospital & Medical Center
9.42,2.93,33.80861,-118.18661,CA,90000,22000,66,65,27,Long Beach Memorial Medical Center
6.43,2.56,36.83863,-119.66183,CA,59000,18000,50,85,48,Clovis Community Medical Center
18.89,3.19,37.98396,-122.03464,CA,190000,25000,50,76,97,John Muir Medical Center - Concord Campus
9.13,2.62,38.94514,-121.10174,CA,87000,19000,50,92,48,Sutter Auburn Faith Hospital
10.20,3.25,34.06389,-118.27347,CA,99000,25000,50,80,98,Saint Vincent Medical Center
11.23,2.51,33.03634,-117.28487,CA,109000,18000,50,65,5,Scripps Memorial Hospital - Encinitas
16.12,2.61,35.29188,-120.66635,CA,161000,19000,50,86,81,Sierra Vista Regional Medical Center
8.58,2.75,38.66956,-121.31378,CA,81000,20000,66,66,29,Mercy San Juan Medical Center
14.89,3.35,34.20777,-118.88305,CA,148000,26000,50,51,69,Los Robles Hospital & Medical Center
15.15,2.47,33.80441,-118.06665,CA,151000,17000,50,50,48,Los Alamitos Medical Center
12.06,2.66,37.66867,-120.97339,CA,118000,19000,66,80,54,Memorial  Medical Center
10.80,2.51,33.56100,-117.66530,CA,105000,18000,66,58,12,Mission Hospital Regional Med Center
13.22,3.11,33.71466,-117.93322,CA,130000,24000,50,86,33,Fountain Valley Regional Hospital & Medical Center
11.78,2.35,33.76335,-116.40628,CA,115000,16000,50,56,39,Eisenhower Medical Center
24.90,4.18,38.55484,-121.45628,CA,253000,35000,50,50,3,University Of California Davis Medical Center
9.44,2.38,33.60883,-117.70881,CA,91000,16000,50,70,90,Saddleback Memorial Medical Center
12.40,2.40,34.24359,-119.01992,CA,122000,16000,50,73,69,St Johns Pleasant Valley Hospital
15.40,2.52,34.39755,-118.55330,CA,153000,18000,50,60,21,Henry Mayo Newhall Memorial Hospital
16.59,3.36,34.07664,-118.37955,CA,166000,27000,100,58,48,Cedars-Sinai Medical Center
16.74,2.47,35.55536,-120.72067,CA,168000,17000,0,0,0,Twin Cities Community Hospital
8.40,2.34,32.99711,-117.05783,CA,80000,16000,50,85,78,Pomerado Hospital
10.10,2.78,33.70167,-117.95566,CA,97000,20000,50,82,88,Orange Coast Memorial Medical Center
14.87,3.22,37.03560,-121.57109,CA,148000,25000,50,91,3,Saint Louise Regional Hospital
13.61,3.08,37.77577,-121.95824,CA,135000,24000,50,66,3,San Ramon Regional Medical Ctr
17.05,3.76,34.06193,-118.20157,CA,171000,31000,33,71,3,Keck Hospital Of Usc
7.03,2.58,33.55876,-117.18329,CA,65000,18000,66,73,74,Southwest Healthcare System
7.59,2.46,36.85992,-119.78858,CA,71000,17000,0,0,0,Fresno Heart And Surgical Hospital
18.99,3.41,34.06760,-118.12291,CA,191000,27000,50,93,85,Garfield Medical Center
17.43,2.69,34.05723,-118.36025,CA,175000,20000,50,63,69,Olympia Medical Center
17.48,2.79,34.17067,-118.53200,CA,175000,20000,50,57,63,Providence Tarzana Medical Center
11.83,2.70,40.58532,-122.38702,CA,116000,20000,50,78,98,Shasta Regional Medical Center
8.14,2.44,40.41481,-104.70890,CO,77000,17000,50,73,57,North Colorado Medical Center
6.85,2.37,40.18134,-105.12769,CO,63000,16000,50,71,76,Longmont United Hospital
8.25,2.28,39.76893,-105.09006,CO,78000,15000,50,47,79,Exempla Lutheran Medical Center
7.42,2.41,40.57315,-105.05741,CO,69000,17000,50,68,95,Poudre Valley Hospital
6.62,2.88,37.23629,-107.82578,CO,61000,21000,0,0,0,Mercy Regional Medical Center
9.32,2.64,39.74615,-104.96682,CO,89000,19000,66,47,17,Presbyterian/St Luke'S Medical Center
7.44,2.31,39.71712,-105.12874,CO,70000,15000,33,67,16,Centura Health-St Anthony Hospital
6.94,2.53,38.45565,-105.23021,CO,64000,18000,0,0,0,Centura Health-St Thomas More Hospital
7.80,2.29,38.28184,-104.61256,CO,73000,15000,66,68,29,Parkview Medical Center Inc
6.46,2.46,38.83903,-104.80024,CO,59000,17000,66,68,33,Memorial Hospital Central
5.59,2.54,39.09046,-108.56190,CO,50000,18000,50,48,57,St Marys Hospital And Medical Center
10.08,3.43,39.74234,-104.84156,CO,97000,27000,66,66,69,University Of Colorado Hospital Anschutz Inpatient
8.81,2.32,40.02615,-105.28391,CO,84000,16000,50,91,82,Boulder Community Hospital
11.24,2.92,39.74601,-104.96909,CO,110000,22000,66,71,90,Exempla Saint Joseph Hospital
5.94,2.20,40.41320,-105.05139,CO,54000,14000,50,92,69,Mckee Medical Center
7.46,2.23,38.86559,-104.82182,CO,70000,15000,50,70,37,Centura Health-Penrose St Francis Health Services
8.16,2.38,39.73231,-104.93396,CO,77000,16000,75,50,32,Rose Medical Center
8.29,2.34,39.65399,-104.98116,CO,78000,16000,33,47,17,Swedish Medical Center
4.35,2.19,39.08601,-108.55355,CO,37000,14000,0,0,0,Community Hospital
8.06,2.46,39.67005,-104.97490,CO,76000,17000,50,75,79,Centura Health-Porter Adventist Hospital
6.34,3.30,40.61244,-103.22063,CO,58000,26000,0,0,0,Sterling Regional Medcenter
8.24,2.49,39.68859,-104.83205,CO,78000,17000,50,61,13,Medical Center Of Aurora The
8.94,2.20,39.52910,-104.87121,CO,85000,14000,50,76,79,Sky Ridge Medical Center
7.61,2.17,39.57629,-104.98610,CO,71000,14000,50,78,54,Centura Health-Littleton Adventist Hospital
7.34,2.14,39.54881,-104.77119,CO,68000,14000,50,60,12,Parker Adventist Hospital
6.98,2.41,40.45184,-105.19608,CO,65000,16000,50,78,44,Medical Center Of The Rockies
7.56,2.80,41.30978,-72.93806,CT,71000,21000,66,57,8,Hospital Of St Raphael
4.82,2.85,41.77507,-72.69941,CT,42000,21000,50,53,85,St Francis Hospital & Medical Center
9.23,2.67,41.55959,-73.05941,CT,88000,19000,33,57,69,Waterbury Hospital
10.57,3.39,41.05562,-73.55390,CT,102000,27000,50,52,10,Stamford Hospital
6.35,2.58,41.33722,-72.10380,CT,58000,18000,50,72,92,Lawrence & Memorial Hospital
4.96,2.39,41.97762,-72.39127,CT,43000,16000,0,0,0,Johnson Memorial Hospital
7.82,3.24,41.18881,-73.16645,CT,74000,25000,50,51,21,Bridgeport Hospital
3.26,2.35,41.79153,-73.13382,CT,25000,16000,25,78,54,Charlotte Hungerford Hospital
5.47,2.72,41.55241,-73.03554,CT,49000,20000,50,56,39,Saint Marys Hospital
4.29,2.36,41.54874,-72.80148,CT,36000,16000,50,60,79,Midstate Medical Center
7.20,2.61,41.03431,-73.63020,CT,67000,19000,50,48,63,Greenwich Hospital Association
7.47,2.65,41.55473,-72.64872,CT,70000,19000,33,61,92,Middlesex Hospital
3.46,2.91,41.71622,-72.22399,CT,28000,22000,0,0,0,Windham Comm Mem Hosp & Hatch Hosp
8.48,3.31,41.30400,-72.93502,CT,81000,26000,66,41,3,Yale-New Haven Hospital
4.02,2.53,41.54301,-72.08799,CT,34000,18000,50,70,44,William W Backus Hospital
5.31,3.02,41.75412,-72.67927,CT,47000,23000,50,47,9,Hartford Hospital
4.39,2.41,41.78185,-72.52591,CT,37000,17000,50,68,1,Manchester Memorial Hospital
4.97,2.70,41.20049,-73.20281,CT,44000,20000,66,78,63,St Vincent'S Medical Center
4.93,2.39,41.67540,-72.93617,CT,43000,16000,50,73,33,Bristol Hospital
6.90,2.55,41.33493,-73.08978,CT,64000,18000,50,77,92,Griffin Hospital
6.38,2.74,41.40474,-73.44739,CT,58000,20000,50,66,57,Danbury Hospital
6.85,2.88,41.11147,-73.42010,CT,63000,21000,50,72,92,Norwalk Hospital Association
4.89,2.63,41.66107,-72.78671,CT,43000,19000,50,52,8,Hospital Of Central Connecticut The
5.76,3.71,41.73545,-72.79489,CT,52000,30000,25,60,8,John Dempsey Hospital
4.43,2.69,39.69005,-75.68408,DE,38000,19000,66,58,39,Christiana Care Health Services Inc.
4.93,2.48,39.15135,-75.52309,DE,43000,17000,50,58,90,Bayhealth - Kent General Hospital
5.02,2.70,38.64231,-75.60660,DE,44000,20000,0,0,0,Nanticoke Memorial Hospital
6.70,2.35,38.77159,-75.14210,DE,62000,16000,50,90,81,Beebe Medical Center
10.28,3.08,38.90106,-77.05079,DC,99000,24000,50,50,13,George Washington Univ Hospital
6.87,3.15,38.91221,-77.07588,DC,64000,24000,66,65,0,Georgetown University Hospital
5.11,2.37,38.93576,-77.10909,DC,45000,16000,50,76,97,Sibley Memorial Hospital
4.88,2.81,38.94397,-76.99040,DC,43000,21000,50,57,24,Providence Hospital
8.17,2.99,38.92944,-77.01473,DC,77000,23000,33,58,1,Washington Hospital Center
7.56,2.42,26.50479,-80.06979,FL,71000,17000,50,53,99,Bethesda Memorial Hospital
11.41,2.72,28.52517,-81.37729,FL,111000,20000,66,47,29,Orlando Health
9.45,2.62,28.57345,-81.36990,FL,91000,19000,83,66,24,Florida Hospital
12.43,2.83,25.68309,-80.34038,FL,122000,21000,50,62,85,Baptist Hospital Of Miami Inc
13.16,3.01,25.78846,-80.21644,FL,130000,23000,83,56,0,University Of Miami Hospital
6.80,2.28,26.62849,-81.87423,FL,63000,15000,66,52,16,Lee Memorial Hospital
4.50,2.29,29.20117,-81.05828,FL,39000,15000,66,76,79,Halifax Health Medical Center
5.71,2.30,26.15053,-81.79919,FL,51000,15000,66,62,39,Naples Community Hospital
7.17,2.24,28.08771,-80.61362,FL,67000,15000,66,58,17,Holmes Regional Medical Center
8.81,4.25,25.79143,-80.21250,FL,84000,36000,83,48,4,Jackson Memorial Hospital
7.10,2.12,28.83363,-82.33561,FL,66000,13000,50,55,44,Citrus Memorial Hospital
4.86,2.42,30.47650,-87.21219,FL,42000,17000,50,41,39,Sacred Heart Hospital
4.89,2.21,30.15963,-85.64818,FL,43000,14000,66,73,43,Bay Medical Center
7.44,2.24,28.63051,-80.82437,FL,70000,15000,50,68,98,Parrish Medical Center
7.10,2.32,28.54917,-81.52746,FL,66000,16000,50,70,57,Health Central
10.57,2.59,27.76332,-82.64325,FL,102000,18000,50,82,20,Bayfront Medical Center Inc
11.97,2.74,25.81317,-80.13996,FL,117000,20000,66,47,24,Mount Sinai Medical Center
8.19,2.37,27.49789,-82.56220,FL,77000,16000,50,55,29,Manatee Memorial Hospital
13.91,3.06,26.01867,-80.17981,FL,138000,23000,83,63,76,Memorial Regional Hospital
6.67,2.30,30.30835,-81.68919,FL,61000,15000,50,68,82,St Vincent'S Medical Center
8.54,2.36,27.19837,-80.24306,FL,81000,16000,66,70,57,Martin Memorial Medical Center
6.62,2.29,29.04263,-81.31635,FL,61000,15000,50,86,98,Florida Hospital Deland
10.44,2.54,28.26092,-82.18802,FL,101000,18000,50,62,88,Florida Hospital Zephyrhills
7.12,2.08,26.94042,-82.04094,FL,66000,13000,50,72,85,Charlotte Regional Medical Center
7.90,2.16,27.46707,-81.43358,FL,74000,14000,0,0,0,Highlands Regional Medical Center
9.31,2.38,28.55140,-81.72120,FL,89000,16000,0,0,0,South Lake Hospital
9.20,2.37,28.02768,-81.72466,FL,88000,16000,50,62,2,Winter Haven Hospital
6.00,2.14,28.82358,-81.71133,FL,54000,14000,50,71,48,Florida Hospital Waterman
9.74,2.56,25.74067,-80.21244,FL,94000,18000,0,0,0,Mercy Hospital Inc
7.25,2.15,29.17594,-82.13898,FL,67000,14000,50,60,94,Munroe Regional Medical Center
7.19,2.36,27.78088,-82.65126,FL,67000,16000,50,68,57,St Anthony'S Hospital
4.35,2.11,29.24333,-81.10760,FL,37000,13000,50,67,95,Florida Hospital Memorial Medical Center
7.84,2.16,27.09043,-82.44499,FL,74000,14000,50,76,48,Venice Regional Medical Center
13.17,2.24,28.53906,-82.44193,FL,130000,15000,50,75,57,Brooksville Regional Hospital
5.86,2.13,28.91403,-81.28480,FL,53000,14000,83,75,5,Florida Hospital Fish Memorial
9.63,2.23,26.18711,-80.11941,FL,93000,15000,83,57,37,Holy Cross Hospital Inc
7.74,2.52,27.98242,-82.49025,FL,73000,18000,66,60,29,St Joseph'S Hospital
9.00,2.22,26.98905,-82.09559,FL,86000,15000,50,68,43,Peace River Regional Medical Center
12.19,2.40,26.59805,-80.09271,FL,120000,16000,100,60,27,Jfk Medical Center
5.94,2.17,28.80659,-81.86906,FL,54000,14000,33,67,24,Leesburg Regional Medical Center
5.77,2.21,27.31827,-82.53140,FL,52000,14000,33,37,69,Sarasota Memorial Hospital
7.72,2.52,30.31525,-81.66398,FL,72000,18000,66,47,12,Baptist Medical Center
7.98,2.39,29.86371,-81.31749,FL,75000,16000,66,76,29,Flagler Hospital
6.22,2.19,28.33522,-80.72319,FL,57000,14000,50,63,97,Wuesthoff Medical Center  Rockledge
6.09,2.26,30.43066,-87.23191,FL,55000,15000,50,72,17,Baptist Hospital
11.16,2.11,27.89590,-81.56547,FL,109000,13000,0,0,0,Lake Wales Medical Center
4.16,2.40,27.65832,-80.39307,FL,35000,16000,66,76,99,Indian River Medical Center
5.93,2.26,27.50001,-81.43962,FL,54000,15000,50,61,85,Florida Hospital Heartland Medical Center
13.71,2.42,28.29946,-81.41021,FL,136000,17000,50,63,51,Osceola Regional Medical Center
6.86,3.11,29.64155,-82.34844,FL,63000,24000,66,53,29,Shands Hospital At The University Of Florida
7.93,2.16,30.27449,-81.40071,FL,75000,14000,66,93,69,Baptist Medical Center  Beaches
7.76,2.71,29.47897,-81.18915,FL,73000,20000,50,51,39,Florida Hospital Flagler
11.77,2.67,27.75214,-82.73951,FL,115000,19000,50,62,85,Palms Of Pasadena Hospital
6.45,2.21,27.95192,-82.80379,FL,59000,14000,66,62,9,Morton Plant Hospital
14.24,3.20,27.93740,-82.45927,FL,141000,25000,66,66,0,Tampa General Hospital
15.24,2.42,25.96994,-80.14533,FL,152000,17000,50,63,79,Aventura Hospital And Medical Center
5.73,2.39,30.45726,-84.26175,FL,51000,16000,66,57,63,Tallahassee Memorial Healthcare
6.54,2.77,30.26389,-81.44283,FL,60000,20000,83,62,90,Mayo Clinic
10.09,2.54,30.18340,-82.68783,FL,97000,18000,0,0,0,Lake City Medical Center
8.12,2.43,28.06172,-81.95304,FL,77000,17000,50,52,3,Lakeland Regional Medical Center
8.47,2.21,28.81611,-81.28351,FL,80000,14000,50,56,97,Central Florida Regional Hospital
9.38,2.18,27.30187,-82.45428,FL,90000,14000,33,67,95,Doctors Hospital Of Sarasota
13.86,2.57,26.12647,-80.20519,FL,137000,18000,50,81,6,Plantation General Hospital
6.30,2.18,26.35875,-80.10203,FL,58000,14000,66,46,43,Boca Raton Regional Hospital
7.62,2.34,28.07111,-82.42342,FL,71000,16000,50,68,37,Florida Hospital Tampa
10.71,2.29,26.83035,-80.08655,FL,104000,15000,100,56,37,Palm Beach Gardens Medical Center
6.31,2.15,28.36005,-80.62309,FL,58000,14000,50,87,57,Cape Canaveral Hospital
11.75,2.48,30.28793,-81.60103,FL,115000,17000,33,48,24,Memorial Hospital Jacksonville
15.55,2.33,27.80541,-82.72694,FL,155000,16000,33,48,8,St Petersburg General Hospital
11.66,2.84,25.88563,-80.32635,FL,114000,21000,66,78,90,Palmetto General Hospital
14.93,2.32,26.26259,-80.20292,FL,148000,16000,50,51,97,Northwest Medical Center
14.75,2.32,28.19342,-82.46987,FL,147000,16000,50,77,43,Medical Center Of Trinity
12.41,2.35,29.66085,-82.41172,FL,122000,16000,33,52,17,North Florida Regional Medical Center
6.78,2.62,27.93758,-82.48933,FL,63000,19000,50,77,41,Memorial Hospital Of Tampa
11.65,2.83,25.73195,-80.38580,FL,114000,21000,33,51,79,Kendall Regional Medical Center
11.93,2.19,29.17550,-82.13680,FL,117000,14000,83,55,85,Ocala Regional Medical Center
9.25,2.10,27.48213,-82.62126,FL,89000,13000,50,75,69,Blake Medical Center
10.15,2.17,27.84359,-80.48849,FL,98000,14000,0,0,0,Sebastian River Medical Center
7.36,2.22,26.52735,-81.83337,FL,69000,15000,50,58,63,Gulf Coast Medical Center Lee Mem Health System
16.26,2.32,30.45448,-86.63362,FL,162000,16000,50,72,63,Fort Walton Beach Medical Center
14.30,2.28,30.16550,-81.73775,FL,142000,15000,33,68,57,Orange Park Medical Center
11.01,2.30,26.12354,-80.25951,FL,107000,15000,50,57,74,Westside Regional Medical Center
9.16,2.41,26.02951,-80.24607,FL,88000,16000,50,55,78,Memorial Hospital Pembroke
9.74,2.12,30.51624,-87.21856,FL,94000,13000,50,65,4,West Florida Hospital
11.74,2.09,26.98884,-82.09877,FL,115000,13000,50,80,57,Fawcett Memorial Hospital
13.58,2.25,30.18657,-85.66513,FL,134000,15000,50,63,99,Gulf Coast Medical Center
11.96,2.40,27.93259,-82.28759,FL,117000,16000,66,67,21,Brandon Regional Hospital
6.84,2.18,26.63958,-81.94164,FL,63000,14000,50,52,21,Cape Coral Hospital
15.28,2.50,27.43392,-80.34350,FL,152000,17000,83,53,29,Lawnwood Regional Medical Center & Heart Institute
12.19,2.31,27.91458,-82.80382,FL,120000,16000,50,48,24,Largo Medical Center
13.08,2.19,28.95195,-82.62421,FL,129000,14000,50,72,21,Seven Rivers Regional Medical Center
8.01,2.22,26.92138,-80.09708,FL,76000,14000,50,61,54,Jupiter Medical Center
9.56,2.28,30.47616,-84.23140,FL,92000,15000,50,66,57,Capital Regional Medical Center
14.30,2.17,28.36128,-82.68883,FL,142000,14000,66,67,90,Regional Medical Center Bayonet Point
10.90,2.19,26.43709,-80.12728,FL,106000,14000,83,72,92,Delray Medical Center
9.55,2.06,27.71350,-82.36512,FL,92000,13000,33,66,33,South Bay Hospital
12.90,2.31,27.28861,-80.29431,FL,127000,15000,50,65,54,St Lucie Medical Center
16.21,2.15,28.53585,-82.53404,FL,162000,14000,66,71,57,Oak Hill Hospital
7.25,2.25,28.03957,-82.70875,FL,68000,15000,66,66,54,Mease Countryside Hospital
5.75,2.07,30.35772,-87.16046,FL,52000,13000,0,0,0,Gulf Breeze Hospital
7.90,2.26,26.35614,-80.19956,FL,74000,15000,50,80,82,West Boca Medical Center
10.51,2.54,26.68337,-80.25269,FL,102000,18000,66,67,37,Palms West Hospital
5.42,2.29,26.26841,-80.25571,FL,48000,15000,50,67,90,Coral Springs Medical Center
10.15,2.40,26.01394,-80.30980,FL,98000,16000,66,71,63,Memorial Hospital West
10.91,2.23,26.21388,-81.73257,FL,106000,15000,33,80,33,Physicians Regional Medical Center - Pine Ridge
9.22,2.33,26.70181,-80.05055,FL,88000,16000,50,58,63,Good Samaritan Medical Center
7.75,2.27,26.08155,-80.36449,FL,73000,15000,100,57,48,Cleveland Clinic Hospital
7.22,2.13,28.94952,-81.95843,FL,67000,14000,33,80,94,Villages Regional Hospital The
6.79,2.23,28.10969,-80.67280,FL,63000,15000,50,72,37,Wuesthoff Medical Center - Melbourne
7.97,2.25,30.25377,-81.58270,FL,75000,15000,50,77,29,St Vincent'S Medical Center Southside
4.53,2.28,34.78963,-84.98398,GA,39000,15000,50,76,10,Hamilton Medical Center
4.70,2.22,31.22516,-82.34898,GA,41000,15000,50,93,33,Satilla Regional Medical Center
6.49,2.23,34.17863,-84.13992,GA,60000,15000,66,63,46,Northside Hospital Forsyth
7.20,2.57,33.94791,-83.40531,GA,67000,18000,50,78,95,St Mary'S Hospital
6.41,2.63,31.59023,-84.15756,GA,59000,19000,50,53,11,Phoebe Putney Memorial Hospital
6.29,2.82,33.79230,-84.32107,GA,57000,21000,50,41,8,Emory University Hospital
5.06,2.27,33.56970,-85.07276,GA,44000,15000,25,78,90,Tanner Medical Center - Carrollton
5.68,2.43,33.03204,-85.05781,GA,51000,17000,50,78,95,West Georgia Medical Center
4.61,2.24,33.60237,-83.84809,GA,40000,15000,0,0,0,Newton Medical Center
6.10,2.29,34.51192,-84.92579,GA,55000,15000,50,88,57,Gordon Hospital
6.07,2.32,32.02825,-81.09977,GA,55000,16000,83,81,1,Candler Hospital
4.54,2.80,31.17425,-81.48459,GA,39000,21000,50,61,17,Southeast Georgia Health System- Brunswick Campus
4.92,2.32,33.47096,-81.98176,GA,43000,16000,50,51,21,University Hospital
5.99,2.28,34.30335,-83.81737,GA,54000,15000,66,58,44,Northeast Georgia Medical Center Inc
10.11,2.38,34.19990,-84.79378,GA,98000,16000,50,62,39,Cartersville Medical Center
7.18,3.37,33.47091,-81.98988,GA,67000,27000,66,45,37,Medical College Of Ga Hospitals And Clinics
5.02,2.34,33.96770,-84.55011,GA,44000,16000,66,62,44,Wellstar Kennestone Hospital
7.67,2.59,32.03185,-81.09158,GA,72000,18000,66,61,24,Memorial Health Univ Med Cen Inc
5.58,2.25,30.82614,-83.97393,GA,50000,15000,50,75,48,John D Archbold Memorial Hospital
5.71,2.22,33.46767,-82.01807,GA,51000,14000,0,0,0,Trinity Hospital Of Augusta
7.62,2.29,31.98515,-81.15475,GA,71000,15000,66,72,33,St Joseph'S Hospital - Savannah
6.06,2.77,34.26000,-85.17000,GA,55000,20000,50,67,88,Floyd Medical Center
7.03,2.87,32.46602,-84.98695,GA,65000,21000,33,86,63,Medical Center The
4.88,2.27,32.61642,-83.63065,GA,43000,15000,50,73,74,Houston Medical Center
6.21,2.34,33.96117,-83.39832,GA,57000,16000,50,68,92,Athens Regional Medical Center
8.75,2.42,32.41483,-81.76990,GA,83000,17000,50,82,39,East Georgia Regional Medical Center
5.28,2.56,33.78956,-84.28077,GA,47000,18000,50,83,11,Dekalb Medical Center
6.91,2.67,33.76810,-84.38616,GA,64000,19000,33,45,9,Emory University Hospital Midtown
13.19,3.26,33.75205,-84.38272,GA,130000,25000,33,56,0,Grady Memorial Hospital
4.67,2.20,33.90877,-84.35180,GA,40000,14000,50,55,3,Saint Joseph'S Hospital Of Atlanta Inc
6.42,2.24,33.81003,-84.39568,GA,59000,15000,33,57,44,Piedmont Hospital
5.05,2.45,33.96351,-84.01769,GA,44000,17000,50,90,44,Gwinnett Medical Center
4.92,2.46,33.68072,-84.00200,GA,43000,17000,50,56,33,Rockdale Medical Center
6.86,2.58,31.47069,-83.50473,GA,63000,18000,16,80,32,Tift Regional Medical Center
4.53,2.34,31.17991,-83.78906,GA,39000,16000,0,0,0,Colquitt Regional Medical Center
5.12,2.54,32.83041,-83.63476,GA,45000,18000,66,48,44,Medical Center Of Central Georgia
16.79,3.12,33.76372,-84.37315,GA,168000,24000,50,71,11,Atlanta Medical Center
5.04,2.42,30.86250,-83.28630,GA,44000,17000,66,67,74,South Georgia Medical Center
5.01,2.19,32.50679,-84.95933,GA,44000,14000,83,67,69,St Francis Hospital Inc
5.02,2.52,33.85638,-84.60446,GA,44000,18000,50,56,33,Wellstar Cobb Hospital
7.01,2.43,33.08014,-83.23210,GA,65000,17000,50,88,4,Oconee Regional Medical Center
6.45,2.43,33.90903,-84.35410,GA,59000,17000,66,63,19,Northside Hospital
7.65,2.37,31.53017,-84.17516,GA,72000,16000,0,0,0,Phoebe North
6.55,2.26,32.84705,-83.61823,GA,60000,15000,66,62,9,Coliseum Medical Center
5.48,2.42,33.57843,-84.38897,GA,49000,17000,50,78,24,Southern Regional Medical Center
5.44,2.14,34.25704,-85.16467,GA,48000,14000,50,87,24,Redmond Regional Medical Center
6.00,2.22,33.73938,-84.73111,GA,54000,15000,50,91,57,Wellstar Douglas Hospital
5.94,2.32,33.51144,-84.22200,GA,54000,16000,50,91,92,Henry Medical Center Inc
7.46,2.24,33.87683,-84.02136,GA,70000,15000,50,77,44,Emory Eastside Medical Center
5.89,2.18,33.45252,-84.50697,GA,53000,14000,50,60,33,Piedmont Fayette Hospital
17.69,2.61,33.68000,-84.42685,GA,177000,19000,50,85,28,South Fulton Medical Center
4.46,2.19,34.06670,-84.17643,GA,38000,14000,50,77,88,Emory Johns Creek Hospital
6.17,3.28,21.30780,-157.85505,HI,56000,26000,66,68,44,The Queens Medical Center
5.07,3.21,19.71761,-155.11327,HI,45000,25000,50,82,67,Hilo Medical Center
6.05,2.71,21.32239,-157.85662,HI,55000,20000,50,73,4,Kuakini Medical Center
6.50,2.72,21.30226,-157.85092,HI,60000,20000,75,83,16,Straub Clinic And Hospital
4.79,2.39,42.59072,-114.49627,ID,42000,16000,50,63,29,St Lukes Magic Valley Rmc
5.70,2.70,46.41668,-117.02441,ID,51000,20000,50,71,39,St Joseph Regional Medical Center
5.14,2.57,43.61218,-116.19234,ID,45000,18000,66,61,16,St Lukes Regional Medical Center
4.88,2.30,43.61359,-116.25484,ID,42000,15000,66,78,24,St Alphonsus Regional Medical Center
5.59,2.46,43.46987,-111.99208,ID,50000,17000,66,66,57,Eastern Idaho Regional Medical Center
5.61,2.74,42.87331,-112.42180,ID,50000,20000,33,76,39,Portneuf Medical Center
4.04,2.37,47.69645,-116.79476,ID,34000,16000,50,71,48,Kootenai Medical Center
6.95,2.48,41.52896,-88.13550,IL,64000,17000,50,75,82,Provena St Joseph Medical Center
13.88,2.30,41.91082,-87.84451,IL,137000,15000,33,81,57,Loyola Gottlieb Memorial Hospital
6.21,2.59,42.06550,-87.68428,IL,57000,18000,33,55,57,Evanston Hospital
6.29,2.48,37.80207,-89.02660,IL,57000,17000,0,0,0,Herrin Hospital
5.04,2.08,40.75318,-89.59321,IL,44000,13000,50,75,56,Proctor Hospital
5.62,2.45,39.93563,-91.39833,IL,50000,17000,50,55,92,Blessing Hospital
5.34,2.86,41.11319,-88.83500,IL,47000,21000,0,0,0,St Marys Hospital
11.34,2.50,41.72930,-88.26976,IL,111000,17000,50,90,63,Copley Memorial Hospital
8.14,3.14,42.07012,-88.33180,IL,77000,24000,50,82,24,Sherman Hospital
4.51,2.14,39.12680,-88.55059,IL,39000,14000,0,0,0,St Anthonys Memorial Hospital
7.44,2.94,38.52908,-89.11604,IL,70000,22000,50,86,17,St Marys Hospital
6.05,2.22,41.80160,-89.69714,IL,55000,14000,0,0,0,Cgh Medical Center
5.81,2.19,38.32292,-88.91026,IL,52000,14000,50,81,90,Good Samaritan Regional Hlth Center
6.25,2.61,41.72636,-87.56727,IL,57000,19000,50,65,74,Advocate Trinity Hospital
8.03,2.85,41.89141,-87.77618,IL,76000,21000,50,72,92,West Suburban Medical Center
7.73,2.53,42.05624,-87.74012,IL,73000,18000,50,75,85,Skokie Hospital
6.32,2.48,39.80726,-89.64496,IL,58000,17000,50,58,79,St Johns Hospital
7.89,2.63,41.83195,-87.79266,IL,74000,19000,50,78,57,Macneal  Hospital
7.00,2.66,39.74629,-90.25907,IL,65000,19000,0,0,0,Passavant Area Hospital
8.39,2.46,41.66900,-87.81414,IL,79000,17000,50,72,95,Palos Community Hospital
6.24,2.68,40.98818,-90.36374,IL,57000,19000,0,0,0,St Mary Medical Center
6.66,2.42,41.79660,-87.88627,IL,61000,17000,83,63,37,Adventist La Grange Memorial Hospital
7.46,2.47,40.70200,-89.59222,IL,70000,17000,66,57,3,Saint Francis Medical Center
12.84,2.53,42.37840,-87.83329,IL,126000,18000,50,73,62,Vista Medical Center East
10.03,3.60,41.78829,-87.60485,IL,97000,29000,66,66,11,The University Of Chicago Medical Center
6.64,2.57,40.11696,-88.21506,IL,61000,18000,33,63,13,Carle Foundation Hospital
6.77,2.32,40.13811,-87.64569,IL,62000,16000,0,0,0,Provena United Samaritans Medctr-Logan
5.29,2.22,41.36897,-88.42537,IL,47000,15000,0,0,0,Morris Hospital & Healthcare Centers
6.08,2.32,41.35763,-88.82439,IL,55000,16000,0,0,0,Ottawa Regional Hospital & Healthcare Center
8.95,2.39,40.11739,-88.22714,IL,85000,16000,50,62,21,Provena Covenant Medical Center- Urbana
10.75,2.68,41.97532,-87.69958,IL,104000,19000,50,85,51,Swedish Covenant Hospital
5.68,2.27,42.31832,-88.27920,IL,51000,15000,50,83,24,Centegra Health System - Mc Henry Hospital
8.90,2.71,41.98743,-87.81440,IL,85000,20000,66,62,69,Resurrection Medical Center
9.63,3.36,41.87497,-87.66927,IL,93000,27000,50,42,33,Rush University Medical Center
6.78,2.37,41.80555,-87.92059,IL,63000,16000,50,67,54,Hinsdale Hospital
4.48,4.07,41.87381,-87.67421,IL,38000,34000,83,55,16,John H Stroger Jr Hospital
6.13,2.40,40.49639,-88.99106,IL,56000,16000,0,0,0,Bromenn Healthcare
4.73,2.17,42.25244,-87.86528,IL,41000,14000,25,90,21,Lake Forest Hospital
4.86,2.21,39.86644,-88.96090,IL,42000,14000,50,60,69,Decatur Memorial Hospital
3.80,2.29,38.62608,-89.52336,IL,31000,15000,0,0,0,St Josephs Hospital
6.23,2.39,39.80893,-89.65530,IL,57000,16000,83,57,11,Memorial Medical Center
7.97,3.94,41.86927,-87.67052,IL,75000,33000,50,76,29,University Of Illinois Hospital
5.17,3.02,41.84639,-87.62345,IL,46000,23000,25,46,39,Mercy Hospital And Medical Center
6.86,2.31,42.29592,-89.63773,IL,63000,15000,0,0,0,Fhn Memorial Hospital
8.07,2.68,40.48254,-88.95519,IL,76000,19000,50,91,29,St Joseph Medical Center
5.84,2.32,37.72790,-89.22058,IL,53000,16000,50,63,90,Memorial Hospital Of Carbondale
5.72,2.37,39.82659,-88.93119,IL,51000,16000,50,71,82,St Marys Hospital
7.09,2.91,41.52283,-87.71111,IL,66000,22000,50,75,33,Franciscan St James Health
9.80,2.42,41.78566,-88.32886,IL,94000,17000,50,72,48,Provena Mercy Medical Center
5.62,2.36,42.27597,-88.40019,IL,50000,16000,50,71,56,Centegra Health System - Woodstock Hospital
7.20,2.58,41.72094,-87.69220,IL,67000,18000,16,63,69,Little Company Of Mary Hospital
11.05,3.31,41.90414,-87.68254,IL,108000,26000,75,50,54,St Mary & Elizabeth Med Ctr-Division Campus
11.44,4.03,41.93641,-87.65295,IL,112000,34000,50,77,85,Advocate Illinois Masonic Medical Center
8.91,2.23,37.74480,-88.99329,IL,85000,15000,50,62,92,Heartland Regional Medical Center
5.67,2.48,38.55020,-90.02146,IL,51000,17000,66,81,21,Memorial Hospital
5.56,2.44,41.12572,-87.88526,IL,50000,17000,50,72,81,Riverside Medical Center
5.51,2.22,38.51081,-89.99014,IL,49000,15000,50,65,6,St Elizabeth Hospital
6.39,2.32,39.48849,-88.27581,IL,58000,16000,0,0,0,Sarah Bush Lincoln Health Center
6.71,2.41,41.60726,-87.66060,IL,62000,17000,50,65,76,Ingalls Memorial Hospital
9.97,2.62,41.86362,-87.93567,IL,96000,19000,50,76,92,Elmhurst Memorial Hospital
9.91,2.54,42.27447,-87.95764,IL,95000,18000,50,70,79,Advocate Condell Medical Center
6.65,2.88,41.72031,-87.73249,IL,61000,21000,50,57,74,Advocate Christ Hospital & Medical Center
7.23,2.42,40.70065,-89.59505,IL,67000,17000,50,78,48,Methodist Medical Center Of Illinois
6.49,2.27,41.88566,-88.34311,IL,59000,15000,50,81,4,Delnor Community Hospital
5.34,2.21,41.54446,-87.98379,IL,47000,14000,50,68,88,Silver Cross Hospital  And Medical Centers
14.30,3.28,42.03576,-88.32575,IL,142000,26000,50,65,99,Provena - Saint Joseph Hospital
7.31,2.91,42.03837,-87.84820,IL,68000,22000,83,77,69,Advocate Lutheran General Hospital
8.12,2.86,41.93418,-87.63579,IL,77000,21000,50,61,29,Saint Joseph Hospital
8.68,3.06,42.26584,-89.07428,IL,83000,23000,50,65,76,Swedish American Hospital
5.13,2.25,41.76076,-88.15016,IL,45000,15000,50,68,29,Edward Hospital
6.84,2.30,42.26634,-89.00900,IL,63000,15000,50,50,29,Saint Anthony Medical Center
5.04,2.77,42.29844,-89.09897,IL,44000,20000,50,87,56,Rockford Memorial Hospital
7.87,2.28,41.87269,-88.15684,IL,74000,15000,66,62,88,Central Dupage Hospital
7.15,2.57,41.56720,-87.69566,IL,66000,18000,50,80,63,Advocate South Suburban Hospital
6.29,2.13,41.94560,-87.76897,IL,57000,14000,50,75,21,Our Lady Of The Resurrection Med Ctr
6.11,2.33,42.06732,-87.99368,IL,55000,16000,66,67,57,Northwest Community Hospital
7.80,2.38,42.00413,-88.01745,IL,73000,16000,66,78,88,Alexian Brothers Medical Center
6.81,3.09,41.86110,-87.83404,IL,63000,24000,66,46,4,Loyola University Medical Center
4.24,2.20,41.48200,-90.57158,IL,36000,14000,50,58,63,Trinity Rock Island
9.34,3.05,41.89477,-87.62131,IL,90000,23000,50,61,94,Northwestern Memorial Hospital
6.87,2.22,41.96185,-88.72130,IL,63000,15000,50,81,3,Kishwaukee Community Hospital
7.69,2.63,41.81791,-88.00907,IL,72000,19000,50,86,95,Advocate Good Samaritan Hospital
3.94,2.11,38.73818,-89.94728,IL,33000,13000,50,87,29,Anderson Hospital
8.57,2.39,42.05260,-88.14173,IL,81000,16000,50,80,57,St Alexius Medical Center
5.82,2.15,42.19586,-88.17286,IL,52000,14000,50,80,95,Advocate Good Shepherd Hospital
7.41,2.59,41.59920,-87.35764,IN,69000,18000,50,65,94,Methodist Hospitals Inc
6.55,2.82,41.61514,-87.52413,IN,60000,21000,50,81,74,Franciscan St Margaret Health - Hammond
4.95,2.21,39.76255,-86.50165,IN,43000,14000,0,0,0,Hendricks Regional Health
7.96,2.23,41.61055,-86.72511,IN,75000,15000,0,0,0,Indiana University Health La Porte Hospital
5.04,2.11,40.44665,-86.12707,IN,44000,13000,50,80,54,Howard Regional Health System
4.58,2.26,38.28244,-85.74923,IN,39000,15000,50,83,48,Clark Memorial Hospital
6.29,2.29,40.56435,-85.66576,IN,57000,15000,50,70,88,Marion General Hospital
5.56,2.35,41.70877,-86.17026,IN,50000,16000,50,88,57,Saint Joseph Regional Medical Center
4.48,2.22,41.70639,-86.89936,IN,38000,15000,0,0,0,Franciscan St Anthony Health - Michigan City
7.66,2.31,41.03874,-85.24876,IN,72000,15000,66,63,32,Lutheran Hospital Of Indiana
6.17,2.56,41.70568,-85.93404,IN,56000,18000,66,53,69,Elkhart General Hospital
7.00,2.43,41.04659,-85.10906,IN,65000,17000,83,60,44,Parkview Regional Medical Center
6.86,2.32,39.48518,-87.40893,IN,63000,16000,50,62,33,Union Hospital Inc
4.54,3.07,39.78091,-86.17629,IN,39000,23000,33,70,27,William N Wishard Memorial Hospital
5.49,2.37,41.56352,-85.83039,IN,49000,16000,25,82,13,Iu Health Goshen Hospital
5.01,2.17,39.72432,-86.10055,IN,44000,14000,0,0,0,Franciscan St Francis Health - Beech Grove
4.30,2.30,41.51266,-87.26125,IN,36000,15000,50,78,85,St Mary Medical Center Inc
9.17,2.46,41.46729,-87.05130,IN,88000,17000,50,75,63,Porter Valparaiso Hospital
4.69,2.20,38.67313,-87.53370,IN,41000,14000,50,72,81,Good Samaritan Hospital
5.10,2.18,38.30195,-85.83409,IN,45000,14000,66,85,85,Floyd Memorial Hospital And Health Services
7.57,2.21,39.41951,-87.40898,IN,71000,14000,50,92,9,Terre Haute Regional Hospital
4.13,2.43,39.86405,-84.88413,IN,35000,17000,100,63,27,Reid Hospital & Health Care Services
5.52,2.36,39.16006,-86.54038,IN,49000,16000,50,56,24,Indiana University Health Bloomington Hospital
8.42,3.33,39.79009,-86.16260,IN,80000,26000,50,51,79,Indiana University Health
4.46,2.15,39.60783,-86.35573,IN,38000,14000,0,0,0,Franciscan St Francis Health - Mooresville
5.55,2.32,41.68479,-86.25217,IN,50000,16000,66,60,8,Memorial Hospital Of South Bend
6.85,2.32,40.04526,-86.02297,IN,63000,16000,50,88,82,Riverview Hospital
6.04,2.37,39.78704,-86.07673,IN,55000,16000,50,82,82,Community Hospital East
5.83,2.19,37.98293,-87.57072,IN,53000,14000,83,66,13,Deaconess Hospital Inc
7.25,2.79,39.91001,-86.19660,IN,67000,21000,66,47,88,St Vincent Hospital & Health Services
6.52,2.56,40.19679,-85.41573,IN,60000,18000,66,62,85,Indiana University Health Ball Memorial Hospital
6.03,2.31,41.49222,-87.52429,IN,55000,15000,50,85,54,Franciscan St Margaret Health - Dyer
5.36,2.16,37.96320,-87.50292,IN,48000,14000,66,67,32,St Mary'S Medical Center Of Evansville Inc
6.98,2.29,40.39424,-86.83516,IN,65000,15000,66,82,17,Franciscan St Elizabeth Health - Lafayette East
4.47,2.29,39.21585,-85.89683,IN,38000,15000,50,76,95,Columbus Regional Hospital
4.69,2.23,40.12998,-85.69436,IN,41000,15000,50,86,37,Community Hospital Of Anderson And Madison County
3.43,2.07,38.39499,-86.94089,IN,27000,13000,0,0,0,Memorial Hospital And Health Care Center
5.13,2.31,41.55065,-87.50619,IN,45000,15000,50,75,85,Community Hospital
4.90,2.25,41.39576,-87.36689,IN,43000,15000,50,83,51,Franciscan St Anthony Health - Crown Point
5.13,2.14,39.63776,-86.13260,IN,45000,14000,50,68,76,Community Hospital South
5.87,2.26,39.98275,-86.14343,IN,53000,15000,50,68,97,St Vincent Carmel Hospital Inc
5.95,2.43,39.78047,-86.34084,IN,54000,17000,0,0,0,Iu Health West Hospital
6.47,2.58,39.95930,-86.16016,IN,59000,18000,50,75,92,Indiana University Health North Hospital
6.02,2.29,39.64935,-86.07960,IN,54000,15000,66,80,90,Franciscan St Francis Health - Indianapolis
6.78,2.45,39.12069,-86.57191,IN,63000,17000,0,0,0,Monroe Hospital
6.62,2.42,39.90060,-86.04218,IN,61000,17000,50,77,76,Community Hospital North
7.18,3.16,40.40296,-86.80885,IN,67000,24000,50,83,97,Indiana University Health Arnett Hospital
5.41,2.41,41.60051,-93.61086,IA,48000,17000,0,0,0,Iowa Lutheran Hospital
6.99,2.40,41.26886,-95.83923,IA,65000,16000,0,0,0,Alegent Health Mercy Hospital
5.23,2.19,41.66411,-91.52841,IA,46000,14000,50,65,48,Mercy Hospital
5.03,2.24,42.03321,-93.61164,IA,44000,15000,0,0,0,Mary Greeley Medical Center
4.82,2.25,41.54190,-90.55691,IA,42000,15000,66,58,97,Genesis Medical Center-Davenport
4.58,2.26,41.98570,-91.66093,IA,39000,15000,66,75,90,St Lukes Hospital
3.94,2.19,40.81009,-91.17356,IA,33000,14000,0,0,0,Great River Medical Center
6.29,3.11,41.66092,-91.54800,IA,57000,24000,16,38,63,University Of Iowa Hospital & Clinics
5.03,2.28,43.15063,-93.21718,IA,44000,15000,50,82,63,Mercy Medical Center-North Iowa
5.46,2.29,42.46407,-92.34532,IA,49000,15000,0,0,0,Covenant Medical Center
4.86,2.06,42.49227,-90.67404,IA,42000,13000,50,75,95,Mercy Medical Center-Dubuque
4.03,2.10,41.97864,-91.65507,IA,34000,13000,50,80,99,Mercy Medical Center - Cedar Rapids
5.08,2.45,41.86141,-90.18921,IA,45000,17000,0,0,0,Mercy Medical Center-Clinton
5.28,2.42,41.58955,-93.63248,IA,47000,17000,66,37,82,Iowa Methodist Medical Center
5.33,2.30,41.59886,-93.62344,IA,47000,15000,83,75,29,Mercy Medical Center-Des Moines
4.16,2.23,42.52665,-92.33957,IA,35000,15000,50,81,6,Allen Memorial Hospital
3.76,2.22,43.14994,-95.14317,IA,31000,15000,0,0,0,Spencer Municipal Hospital
4.67,2.16,42.49632,-90.68587,IA,40000,14000,0,0,0,The Finley Hospital
5.13,2.42,42.51846,-96.40581,IA,45000,17000,50,60,90,St Lukes Regional Medical Center
5.27,2.19,42.49250,-96.39975,IA,47000,14000,66,71,54,Mercy Medical Center-Sioux City
5.99,2.36,38.83324,-97.61028,KS,54000,16000,50,85,27,Salina Regional Health Center
8.21,2.65,38.87847,-99.29923,KS,78000,19000,50,58,11,Hays Medical Center
4.06,2.21,39.05660,-95.69599,KS,34000,14000,33,51,33,St Francis Health Center Inc
4.92,2.40,38.07731,-97.89183,KS,43000,16000,50,80,90,Hutchinson Regional Medical Center Inc
9.46,2.89,39.05583,-94.60912,KS,91000,22000,66,53,63,University Of Kansas Hospital
5.88,2.25,38.85279,-94.82413,KS,53000,15000,50,58,62,Olathe Medical Center
6.85,2.38,39.05128,-95.69572,KS,63000,16000,66,71,10,Stormont-Vail Healthcare
4.48,2.11,38.02419,-97.33117,KS,38000,13000,0,0,0,Newton Medical Center
8.44,2.23,38.99549,-94.69061,KS,80000,15000,66,46,21,Shawnee Mission Medical Center
5.97,2.32,37.70405,-97.31386,KS,54000,16000,66,68,21,Via Christi Hospitals Wichita Inc
7.66,2.46,37.69556,-97.29785,KS,72000,17000,66,52,5,Wesley Medical Center
4.19,2.26,38.97848,-95.24771,KS,35000,15000,0,0,0,Lawrence Memorial Hospital
5.15,2.17,39.20164,-96.60003,KS,45000,14000,0,0,0,Mercy Regional Health Center
8.49,2.39,39.12677,-94.78643,KS,81000,16000,50,60,82,Providence Medical Center
8.85,2.26,38.91047,-94.65205,KS,84000,15000,50,66,11,Menorah Medical Center
3.53,2.13,37.73142,-97.26078,KS,28000,14000,0,0,0,Galichia Heart Hospital Llc
5.20,2.15,37.72341,-97.14628,KS,46000,14000,0,0,0,Kansas Medical Center Llc
5.75,2.46,39.07816,-84.46695,KY,52000,17000,50,81,51,St Elizabeth Ft Thomas
4.46,2.26,38.47021,-82.63498,KY,38000,15000,66,60,54,King'S Daughters' Medical Center
4.41,2.27,38.03140,-84.52194,KY,38000,15000,83,67,79,Saint Joseph Hospital
4.69,2.35,37.11784,-84.10910,KY,41000,16000,50,75,63,Saint Joseph Hospital London
3.84,2.17,37.71183,-85.87623,KY,32000,14000,83,78,39,Hardin Memorial Hospital
5.42,2.34,36.99641,-86.43006,KY,48000,16000,66,52,33,The Medical Center At Bowling Green
4.26,2.38,37.01079,-85.90342,KY,36000,16000,0,0,0,T J Samson Community Hospital
5.68,2.44,39.06704,-84.49946,KY,51000,17000,33,58,79,St Elizabeth Medical Center North
6.90,2.30,38.50697,-82.69222,KY,64000,15000,50,80,90,Our Lady Of Bellefonte Hospital
4.26,2.54,37.76518,-87.10197,KY,36000,18000,50,66,29,Owensboro Medical Health System
5.39,2.49,38.24927,-85.75081,KY,48000,17000,66,51,8,Jewish Hospital & St Mary'S Healthcare
7.51,2.59,37.47264,-82.52605,KY,70000,18000,75,86,9,Pikeville Medical Center
5.64,2.41,39.01660,-84.63078,KY,50000,17000,50,75,63,St Elizabeth Florence
4.70,2.32,37.64378,-84.77272,KY,41000,16000,0,0,0,Ephraim Mcdowell Regional Medical Center
2.91,2.41,37.73107,-84.29238,KY,22000,17000,0,0,0,Pattie A Clay Regional Medical Center
4.35,2.25,36.86034,-87.49528,KY,37000,15000,50,83,4,Jennie Stuart Medical Center
4.85,2.38,37.85504,-87.58345,KY,42000,16000,50,100,29,Methodist Hospital
5.86,3.18,38.03282,-84.50674,KY,53000,25000,33,62,33,University Of Kentucky Hospital
5.04,2.38,37.36583,-85.33917,KY,44000,16000,0,0,0,Taylor Regional Hospital
6.49,2.50,38.24806,-85.75125,KY,60000,17000,50,35,39,Norton Hospitals Inc
4.65,2.66,37.33959,-87.48988,KY,40000,19000,50,86,17,Regional Medical Center Of Hopkins County
6.34,2.32,37.06431,-88.67523,KY,58000,16000,50,42,20,Lourdes Hospital
4.71,2.29,38.01849,-84.51236,KY,41000,15000,50,71,57,Central Baptist Hospital
5.45,2.17,37.07404,-88.62685,KY,49000,14000,50,80,39,Western Baptist Hospital
7.41,2.32,36.96603,-86.43639,KY,69000,16000,50,85,94,Greenview Regional Hospital
4.24,2.16,38.23898,-85.63941,KY,36000,14000,66,57,74,Baptist Hospital East
7.92,2.44,37.08724,-84.61828,KY,75000,17000,66,60,17,Lake Cumberland Regional Hospital
10.24,3.28,38.24802,-85.74464,KY,99000,26000,25,81,8,University Of Louisville Hospital
6.58,2.41,30.20227,-92.01906,LA,60000,17000,50,73,29,Lafayette General Medical Center
6.25,2.17,29.77956,-90.80568,LA,57000,14000,50,73,92,Thibodaux Regional Medical Center
6.14,2.27,29.59851,-90.71397,LA,56000,15000,25,68,69,Terrebonne General Medical Center
3.74,2.08,30.22981,-93.36867,LA,31000,13000,50,83,81,West Calcasieu Cameron Hospital
10.02,2.41,30.46813,-90.45814,LA,97000,17000,75,71,74,North Oaks Medical Center Llc
4.14,2.33,30.54354,-92.07608,LA,35000,16000,33,73,3,Opelousas General Health System
7.81,2.29,31.28258,-92.46060,LA,73000,15000,50,65,79,Christus St Frances Cabrini Hospital
9.20,2.40,31.31451,-92.44997,LA,88000,16000,66,40,39,Rapides Regional Medical Center
7.14,2.14,30.21521,-93.22682,LA,66000,14000,50,63,63,Christus St Patrick Hospital
7.00,2.56,30.01875,-90.19452,LA,65000,18000,66,61,62,Ochsner Foundation Hospital
7.11,2.38,29.89089,-90.09395,LA,66000,16000,50,65,85,West Jefferson Medical Center
9.75,2.29,30.28456,-89.77038,LA,94000,15000,50,82,37,Slidell Memorial Hospital And Medical Center
5.96,2.31,32.49443,-93.75011,LA,54000,15000,50,68,13,Christus Schumpert Health System
9.29,2.58,29.92596,-90.09191,LA,89000,18000,66,67,63,Touro Infirmary
6.94,2.07,29.98815,-91.78471,LA,64000,13000,0,0,0,Iberia General Hospital And Medical Center
7.11,2.36,30.20458,-93.19774,LA,66000,16000,50,80,6,Lake Charles Memorial Hospital
5.51,2.35,30.40118,-91.11160,LA,49000,16000,83,51,33,Our Lady Of The Lake Regional Medical Center
4.93,2.52,30.45015,-91.15273,LA,43000,18000,33,76,37,Baton Rouge General Medical Center
9.39,2.30,32.51544,-92.63343,LA,90000,15000,50,63,21,Northern Louisiana Medical Center
3.95,2.94,32.48177,-93.76264,LA,33000,22000,100,80,0,Lsu Health Sciences Center - Shreveport
6.34,2.41,30.15052,-92.03698,LA,58000,16000,50,71,57,Our Lady Of Lourdes Regional Medical Center Inc
6.25,2.35,32.48393,-93.77884,LA,57000,16000,50,63,62,Willis Knighton Medical Center
6.69,2.43,32.49997,-92.11359,LA,62000,17000,66,62,98,St Francis Medical Center
4.91,2.20,30.01438,-90.18155,LA,43000,14000,66,68,74,East Jefferson General Hospital
9.20,2.35,32.51315,-92.15713,LA,88000,16000,0,0,0,Glenwood Regional Medical Center
11.21,3.53,29.95570,-90.07587,LA,109000,28000,33,41,0,Tulane Medical Center
6.53,2.12,32.55761,-93.71874,LA,60000,13000,50,88,94,Willis Knighton Bossier Health Center
12.80,2.63,29.99409,-90.24174,LA,126000,19000,50,81,76,Ochsner Medical Center-Kenner Llc
4.50,2.29,44.81469,-68.77153,ME,38000,15000,0,0,0,St Joseph Hospital
3.62,2.35,43.65159,-70.26482,ME,29000,16000,0,0,0,Mercy Hospital
4.39,2.76,43.65325,-70.27533,ME,37000,20000,16,47,0,Maine Medical Center
5.26,2.36,43.47840,-70.49221,ME,46000,16000,0,0,0,Southern Maine Medical Center
7.33,2.54,53.96230,-1.08188,ME,68000,18000,0,0,0,York Hospital
4.19,2.29,43.90901,-69.89611,ME,35000,15000,0,0,0,Mid Coast Hospital
4.94,2.36,44.10107,-70.21432,ME,43000,16000,66,70,57,Central Maine Medical Center
4.21,2.48,44.80988,-68.74929,ME,36000,17000,50,58,37,Eastern Maine Medical Center
6.70,2.65,44.10276,-70.20093,ME,62000,19000,0,0,0,St Marys Regional Medical Center
4.35,2.41,45.25378,-69.44547,ME,37000,17000,50,48,51,Maine General Medical Center
5.22,2.39,44.54695,-68.41654,ME,46000,16000,0,0,0,Maine Coast Memorial Hospital
4.30,2.69,44.14436,-69.08577,ME,36000,19000,0,0,0,Penobscot Bay Medical Center
2.96,2.85,39.62183,-77.68219,MD,22000,21000,0,0,0,Meritus Medical Center
4.81,4.59,39.28817,-76.62438,MD,42000,39000,0,0,0,University Of Maryland Medical Center
2.66,2.56,39.01578,-77.03591,MD,19000,18000,0,0,0,Holy Cross Hospital
3.06,2.93,39.42366,-77.41386,MD,23000,22000,0,0,0,Frederick Memorial Hospital
2.82,2.71,39.38813,-76.61068,MD,21000,20000,0,0,0,Saint Joseph Medical Center
3.68,3.52,39.29297,-76.61314,MD,30000,28000,0,0,0,Mercy Medical Center Inc
4.87,4.65,39.29688,-76.59242,MD,42000,40000,0,0,0,Johns Hopkins Hospital The
3.43,3.28,39.27352,-76.67219,MD,27000,26000,0,0,0,Saint Agnes Hospital
3.62,3.47,39.35262,-76.66196,MD,29000,28000,0,0,0,Sinai Hospital Of Baltimore
3.72,3.55,39.35169,-76.47919,MD,30000,29000,0,0,0,Franklin Square Hospital Center
3.68,3.52,38.98482,-77.00139,MD,30000,28000,0,0,0,Washington Adventist Hospital
3.07,2.93,39.41339,-79.40103,MD,23000,22000,0,0,0,Garrett County Memorial Hospital
2.55,2.45,39.15402,-77.05431,MD,18000,17000,0,0,0,Montgomery General Hospital Inc
2.87,2.75,38.36248,-75.59799,MD,21000,20000,0,0,0,Peninsula Regional Medical Center
2.52,2.42,38.99743,-77.11048,MD,18000,17000,0,0,0,Suburban Hospital
2.61,2.50,38.99014,-76.53398,MD,19000,17000,0,0,0,Anne Arundel Medical Center
4.23,4.03,39.32930,-76.61432,MD,36000,34000,0,0,0,Union Memorial Hospital
3.19,3.04,39.64928,-78.73206,MD,25000,23000,0,0,0,Western Maryland Regional Medical Center
3.41,3.25,39.29100,-76.54623,MD,27000,25000,0,0,0,Johns Hopkins Bayview Medical Center
3.19,3.05,39.60859,-75.83201,MD,25000,23000,0,0,0,Union Hospital Of Cecil County
3.48,3.32,39.55808,-76.99107,MD,28000,26000,0,0,0,Carroll Hospital Center
2.78,2.66,39.25189,-76.61399,MD,20000,19000,0,0,0,Harbor Hospital
2.80,2.68,38.52905,-76.97068,MD,21000,19000,0,0,0,Civista Medical Center
2.86,2.74,38.76970,-76.07697,MD,21000,20000,0,0,0,Memorial Hospital At Easton
3.61,3.44,39.35852,-76.78208,MD,29000,27000,0,0,0,Northwest Hospital Center
3.27,3.13,39.13732,-76.62228,MD,26000,24000,0,0,0,Baltimore Washington  Medical Center
3.09,2.96,39.39017,-76.62216,MD,24000,22000,0,0,0,Greater Baltimore Medical Center
2.55,2.45,39.21273,-76.88526,MD,18000,17000,0,0,0,Howard County General Hospital
2.76,2.65,39.51870,-76.34688,MD,20000,19000,0,0,0,Upper Chesapeake Medical Center
3.36,3.21,38.96851,-76.86203,MD,26000,25000,0,0,0,Doctors'  Community Hospital
3.01,2.88,38.74827,-76.87590,MD,23000,21000,0,0,0,Southern Maryland Hospital Center
3.10,2.97,39.35962,-76.58851,MD,24000,22000,0,0,0,Good Samaritan Hospital
2.82,2.71,39.09796,-77.19799,MD,21000,20000,0,0,0,Shady Grove Adventist Hospital
3.29,3.15,38.33876,-75.21128,MD,26000,24000,0,0,0,Atlantic General Hospital
3.05,3.48,42.37441,-71.13378,MA,23000,28000,66,85,17,Mount Auburn Hospital
3.72,2.48,41.94236,-71.27364,MA,30000,17000,50,66,13,Sturdy Memorial Hospital
4.57,2.71,42.70912,-71.14877,MA,39000,20000,50,71,79,Lawrence General Hospital
4.56,3.22,42.37451,-71.10418,MA,39000,25000,50,87,94,Cambridge Health Alliance
3.88,2.82,41.65298,-70.27484,MA,32000,21000,50,56,95,Cape Cod Hospital
5.12,2.31,42.33185,-72.65422,MA,45000,15000,50,87,88,Cooley Dickinson Hospital Incthe
3.95,2.32,42.59584,-72.59255,MA,33000,16000,0,0,0,Baystate Franklin Medical Center
3.82,3.31,42.27872,-71.06625,MA,31000,26000,0,0,0,Carney Hospital
3.94,2.59,41.69217,-71.16474,MA,33000,18000,50,100,85,Saint Anne'S Hospital
3.66,2.40,42.20038,-72.62762,MA,30000,16000,0,0,0,Holyoke Medical Center
3.36,2.38,42.81476,-70.89068,MA,27000,16000,0,0,0,Anna Jaques Hospital
4.93,3.53,42.35843,-71.05977,MA,43000,28000,66,51,0,Boston Medical Center Corporation
3.82,2.59,42.56407,-70.87543,MA,31000,18000,50,62,63,Beverly Hospital Corporation
6.13,2.57,42.51078,-70.90712,MA,56000,18000,33,47,69,North Shore Medical Center
4.49,3.19,42.34896,-71.14768,MA,38000,25000,50,68,57,St Elizabeth'S Medical Center
5.02,2.75,51.46599,-1.28140,MA,44000,20000,50,76,20,Berkshire Medical Center Inc
3.74,2.80,42.03597,-71.09792,MA,31000,21000,50,61,57,Signature Healthcare Brockton Hospital
4.34,2.32,41.94445,-70.64511,MA,37000,16000,50,82,24,Jordan Hospital Inc
3.71,2.59,42.64636,-71.34118,MA,30000,18000,50,87,95,Lowell General Hospital
4.81,2.58,42.11449,-72.59502,MA,42000,18000,50,77,76,Mercy Medical Center
4.46,2.53,42.25105,-71.01411,MA,38000,18000,0,0,0,Quincy Medical Center
4.21,2.70,42.46049,-71.06203,MA,35000,20000,50,52,76,Hallmark Health System
8.14,3.01,42.36227,-71.06941,MA,77000,23000,50,43,16,Massachusetts General Hospital
2.34,2.44,41.90456,-71.09562,MA,16000,17000,50,85,24,Morton Hospital
4.97,2.59,41.70928,-71.14519,MA,44000,18000,25,51,88,Southcoast Hospital Group Inc
5.01,2.87,42.12077,-72.60525,MA,44000,21000,33,61,82,Baystate Medical Center
3.63,2.51,42.72846,-71.16830,MA,29000,18000,50,73,33,Holy Family Hospital
4.71,2.28,42.43082,-71.37554,MA,41000,15000,50,43,57,Emerson Hospital
4.63,3.17,42.33719,-71.10939,MA,40000,25000,33,71,33,Beth Israel Deaconess Medical Center
4.55,2.36,42.13234,-71.52825,MA,39000,16000,50,71,95,Milford Regional Medical Center
3.90,2.37,42.17644,-70.95398,MA,32000,16000,66,70,48,South Shore Hospital
7.18,2.57,42.33149,-71.24568,MA,67000,18000,66,70,99,Newton-Wellesley Hospital
2.52,2.35,42.46581,-71.12210,MA,18000,16000,50,58,24,Winchester Hospital
3.85,2.41,42.25232,-71.07515,MA,32000,17000,0,0,0,Milton Hospital Inc
9.53,3.13,42.33600,-71.10704,MA,91000,24000,66,40,20,Brigham And Women'S Hospital
4.14,2.72,42.09864,-71.06607,MA,35000,20000,50,58,92,Good Samaritan Medical Center
6.82,3.24,42.34951,-71.06331,MA,63000,25000,50,63,85,Tufts Medical Center
6.86,2.82,42.30049,-71.12771,MA,63000,21000,50,96,3,Faulkner Hospital
3.78,2.24,42.18869,-71.20197,MA,31000,15000,50,77,81,Norwood Hospital
4.40,2.47,41.56412,-70.62200,MA,37000,17000,50,68,94,Falmouth Hospital
5.86,3.22,42.27720,-71.75922,MA,53000,25000,50,36,29,Umass Memorial Medical Center Inc
3.61,2.73,42.48585,-71.20686,MA,29000,20000,66,76,16,Lahey Clinic Hospital
3.53,2.58,42.28385,-71.41896,MA,28000,18000,50,76,85,Metrowest Medical Center
4.04,2.82,42.26633,-71.79760,MA,34000,21000,33,75,57,St Vincent Hospital
4.34,2.22,42.39466,-83.40537,MI,37000,15000,50,60,63,St Mary Mercy Hospital
3.78,2.26,43.20588,-86.20839,MI,31000,15000,50,76,57,Mercy Health Partners Mercy Campus
7.24,3.14,42.28551,-85.58042,MI,67000,24000,66,82,13,Bronson Methodist Hospital
5.76,2.61,42.45741,-83.20513,MI,52000,19000,83,57,48,Providence Hospital And Medical Centers
6.35,2.58,42.29077,-83.21504,MI,58000,18000,33,48,69,Oakwood Hospital And Medical Center
3.49,2.24,42.08955,-86.47781,MI,28000,15000,33,68,88,Lakeland Hospital St Joseph
4.00,2.31,41.93815,-84.98935,MI,33000,15000,0,0,0,Community Health Center Of Branch County
7.62,3.12,42.41911,-83.18228,MI,71000,24000,83,46,21,Sinai-Grace Hospital
5.50,2.78,42.61425,-83.27602,MI,49000,20000,66,52,79,St Joseph Mercy Oakland
3.53,2.21,42.95582,-82.43222,MI,28000,14000,50,88,79,St Joseph Mercy Port Huron
4.93,2.54,45.07773,-83.45146,MI,43000,18000,0,0,0,Alpena Regional Medical Center
4.09,2.60,42.96881,-85.66649,MI,34000,19000,33,66,82,Spectrum Health - Butterworth Campus
5.55,2.25,43.58941,-83.86908,MI,50000,15000,33,55,98,Mclaren Bay Region
7.75,3.62,42.28388,-83.72960,MI,73000,29000,50,61,43,University Of Michigan Health System
4.14,2.32,42.61490,-82.96060,MI,35000,16000,50,66,54,Henry Ford Macomb Hospital
6.19,3.13,42.36762,-83.08461,MI,56000,24000,66,47,8,Henry Ford Hospital
3.53,2.59,46.54758,-87.39560,MI,28000,18000,83,67,48,Marquette General Hospital
4.74,2.71,42.95817,-85.66253,MI,41000,20000,50,53,90,Saint Mary'S Health Care
3.36,2.39,43.22169,-86.24283,MI,27000,16000,0,0,0,Mercy Health Partners Hackley Campus
5.53,2.39,43.42857,-83.95556,MI,49000,16000,83,61,63,Covenant Medical Center Inc
4.73,2.36,42.33111,-85.17817,MI,41000,16000,50,83,63,Bronson Battle Creek Hospital
3.87,2.39,43.42612,-83.94185,MI,32000,16000,66,63,57,St Mary'S Of Michigan Medical Center
4.37,2.26,44.24532,-85.38950,MI,37000,15000,0,0,0,Mercy Hospital - Cadillac
4.53,2.30,42.38392,-82.91480,MI,39000,15000,50,62,51,Beaumont Hospital Grosse Pointe
6.66,2.31,42.25117,-84.39240,MI,61000,15000,50,85,98,Allegiance Health
3.84,2.44,41.79423,-85.40861,MI,32000,17000,0,0,0,Sturgis Hospital
4.54,2.50,44.76156,-85.64143,MI,39000,17000,50,41,57,Munson Medical Center
4.55,2.28,41.91643,-83.39771,MI,39000,15000,50,68,37,Mercy Memorial Hospital System
5.82,3.38,42.35230,-83.05676,MI,52000,27000,66,62,63,Harper University Hospital
4.17,2.48,45.37209,-84.97065,MI,35000,17000,50,77,24,Northern Michigan Regional Hospital
5.07,2.48,43.95934,-86.42921,MI,45000,17000,0,0,0,Memorial Medical Center Of West Michigan
8.52,2.77,42.30489,-85.56152,MI,81000,20000,66,47,76,Borgess Medical Center
4.57,2.62,42.51418,-83.19259,MI,39000,19000,66,60,16,William Beaumont Hospital
8.41,3.47,43.02135,-83.70308,MI,80000,28000,66,68,6,Hurley Medical Center
5.13,2.55,43.01399,-83.73250,MI,45000,18000,50,60,33,Mclaren Flint
7.87,2.83,42.27424,-83.36580,MI,74000,21000,50,70,48,Oakwood Annapolis Hospital
4.04,2.36,42.21065,-83.14861,MI,34000,16000,50,70,95,Henry Ford Wyandotte Hospital
4.58,2.71,42.46176,-83.37629,MI,39000,20000,50,78,24,Botsford Hospital
5.24,2.51,42.26181,-83.66003,MI,46000,18000,66,62,33,St Joseph Mercy Hospital
5.54,2.73,42.41975,-82.91442,MI,49000,20000,66,72,9,St John Hospital And Medical Center
4.33,2.47,42.70417,-84.55488,MI,37000,17000,33,76,21,Mclaren - Greater Lansing
6.73,2.47,42.11695,-83.21365,MI,62000,17000,33,70,79,Oakwood Southshore Medical Center
4.40,2.25,43.06290,-83.32082,MI,38000,15000,50,63,90,Lapeer Regional Medical Center
5.09,2.44,42.50514,-83.00422,MI,45000,17000,66,56,85,St John Macomb-Oakland Hospital-Macomb Center
4.68,2.62,42.89254,-83.63621,MI,40000,19000,66,70,13,Genesys Regional Medical Center - Health Park
4.34,2.28,42.98625,-82.42802,MI,37000,15000,50,62,29,Port Huron Hospital
5.30,2.61,43.63618,-84.26187,MI,47000,19000,50,72,69,Midmichigan Medical Center-Midland
5.74,2.49,42.58900,-82.89799,MI,52000,17000,66,61,63,Mount Clemens Regional Medical Center
5.86,2.70,42.73767,-84.51698,MI,53000,20000,83,68,1,Edward W Sparrow Hospital
3.13,2.51,42.33215,-83.31195,MI,24000,18000,50,82,37,Garden City Hospital
6.06,2.33,42.67850,-83.14771,MI,55000,16000,50,65,79,Crittenton Hospital Medical Center
3.83,2.35,42.31028,-84.01594,MI,31000,16000,0,0,0,Chelsea Community Hospital
4.82,2.37,42.61826,-83.09239,MI,42000,16000,83,60,62,William Beaumont Hospital-Troy
10.16,3.29,42.35295,-83.05447,MI,98000,26000,66,65,5,Detroit Receiving Hospital & Univ Health Center
7.26,2.54,42.59290,-83.49920,MI,68000,18000,66,48,54,Huron Valley-Sinai Hospital
5.70,2.74,42.35178,-83.05779,MI,51000,20000,0,0,0,Karmanos Cancer Center
5.45,2.19,42.53914,-83.40777,MI,49000,14000,50,53,39,Henry Ford West Bloomfield Hospital
7.20,2.60,45.01403,-93.32177,MN,67000,19000,66,68,82,North Memorial Medical Center
4.78,2.56,46.79380,-92.09573,MN,41000,18000,83,75,79,Essentia Health St Mary'S Medical Center
6.17,3.18,44.02052,-92.48292,MN,56000,25000,83,42,32,Mayo Clinic - Saint Marys Hospital
4.15,2.40,45.87327,-95.37599,MN,35000,16000,0,0,0,Douglas County Hospital
6.02,2.75,45.57390,-94.16942,MN,55000,20000,50,61,37,St Cloud Hospital
6.91,2.67,44.94214,-93.10858,MN,64000,19000,50,86,33,United Hospital
5.11,2.49,46.79634,-92.08793,MN,45000,17000,50,71,29,St Lukes Hospital
4.29,2.43,44.93031,-93.36276,MN,36000,17000,66,72,94,Park Nicollet Methodist Hospital
4.34,2.21,44.84294,-93.79336,MN,37000,14000,0,0,0,Ridgeview Medical Center
7.94,2.46,44.95248,-93.26196,MN,75000,17000,50,70,63,Abbott Northwestern Hospital
4.29,2.93,44.02354,-92.46588,MN,36000,22000,50,35,97,Mayo Clinic Methodist Hospital
6.02,2.45,44.94898,-93.10016,MN,55000,17000,33,66,57,St Joseph'S Hospital
3.71,2.27,45.04805,-92.81903,MN,30000,15000,0,0,0,Lakeview Memorial Hospital
5.10,2.45,46.36166,-94.20573,MN,45000,17000,0,0,0,Essentia Health St Joseph'S Medical Center
5.39,2.31,44.88645,-93.32693,MN,48000,16000,66,62,94,Fairview Southdale Hospital
7.71,3.35,44.96766,-93.23640,MN,72000,26000,66,56,57,University Of Minnesota  Medical Center Fairview
4.34,2.64,45.11989,-95.04525,MN,37000,19000,0,0,0,Rice Memorial Hospital
4.69,2.59,44.16396,-94.00412,MN,41000,18000,50,57,76,Mayo Clinic Health System - Mankato
4.03,2.38,47.50390,-94.89776,MN,34000,16000,0,0,0,Sanford Bemidji Medical Center
6.69,2.93,44.95570,-93.09429,MN,62000,22000,50,78,17,Regions Hospital
6.92,2.58,45.18355,-93.36789,MN,64000,18000,50,73,95,Mercy Hospital
7.78,2.68,45.10789,-93.25685,MN,73000,19000,33,85,85,Unity Hospital
4.84,2.65,44.87576,-94.37391,MN,42000,19000,0,0,0,Hutchinson Area Health Care
4.64,2.40,44.74846,-93.27289,MN,40000,16000,50,83,97,Fairview Ridges Hospital
6.39,2.50,45.02892,-93.03418,MN,58000,17000,50,75,24,Healtheast St John'S Hospital
5.83,3.05,32.33069,-90.17030,MS,53000,23000,66,51,6,University Of Mississippi Med Center
4.49,2.32,34.24336,-88.71753,MS,38000,16000,66,61,48,North Mississippi Medical Center
15.99,3.36,30.39599,-88.89061,MS,160000,27000,50,80,48,Biloxi Regional Medical Center
7.30,2.26,34.93596,-88.55955,MS,68000,15000,50,72,79,Magnolia Regional Health Center
11.81,2.46,30.36674,-89.11535,MS,116000,17000,50,66,69,Memorial Hospital At Gulfport
7.40,2.21,33.97458,-88.47761,MS,69000,14000,0,0,0,Gilmore Memorial Hospital
10.83,2.58,32.35265,-90.87788,MS,105000,18000,50,80,37,River Region Health System
4.66,2.29,34.34899,-89.52062,MS,40000,15000,50,68,24,Baptist Memorial Hospital North Ms
8.24,2.32,30.37516,-88.53226,MS,78000,16000,50,70,3,Singing River Hospital
4.57,2.22,32.33616,-90.15652,MS,39000,14000,50,60,44,St Dominic-Jackson Memorial Hospital
3.77,2.19,31.69405,-89.13061,MS,31000,14000,50,72,16,South Central Reg Med Ctr
4.70,2.22,32.36983,-88.69702,MS,41000,15000,50,83,4,Rush Foundation Hospital
3.73,2.37,31.31872,-89.32955,MS,30000,16000,50,57,54,Forrest General Hospital
4.34,2.39,33.41099,-91.03479,MS,37000,16000,33,85,51,Delta Regional Medical Center
10.01,2.19,31.56671,-91.38800,MS,97000,14000,0,0,0,Natchez Regional Medical Center
6.24,2.14,33.74750,-90.71908,MS,57000,14000,0,0,0,Bolivar Medical Center
6.71,2.26,31.32573,-89.36670,MS,62000,15000,50,56,20,Wesley Medical Center
3.61,2.35,31.24000,-90.45000,MS,29000,16000,50,83,81,Southwest Ms Regional Medical Center
6.12,2.45,33.51824,-90.19832,MS,56000,17000,0,0,0,Greenwood Leflore Hospital
4.55,2.29,33.52568,-88.42742,MS,39000,15000,50,67,54,Baptist Mem Hosp/Golden Triangle Inc
5.54,2.19,32.31643,-90.17922,MS,49000,14000,66,43,85,Mississippi Baptist Medical Center
5.36,2.11,32.37280,-88.69954,MS,48000,13000,50,77,39,Anderson Regional Medical Center
5.98,2.35,30.52996,-89.68782,MS,54000,16000,0,0,0,Highland Community  Hospital
13.49,2.62,32.32541,-90.10520,MS,133000,19000,0,0,0,River Oaks Hospital
5.47,2.37,34.96927,-89.99709,MS,49000,16000,50,68,11,Baptist Memorial Hospital Desoto
6.27,2.18,37.06032,-94.52747,MO,57000,14000,0,0,0,St John'S Regional Medical Center
5.02,2.23,38.78060,-90.48379,MO,44000,15000,50,76,37,Ssm St Joseph Health Center
5.75,2.77,39.77393,-94.77089,MO,52000,20000,50,58,51,Heartland Regional Medical Center
3.59,2.20,38.69946,-93.22211,MO,29000,14000,50,82,63,Bothwell Regional Health Center
5.08,2.08,38.57670,-92.17352,MO,45000,13000,50,86,0,St Marys Health Center
6.23,2.59,37.95144,-91.75940,MO,57000,18000,50,88,48,Phelps County Regional Medical Center
5.84,2.30,38.64281,-90.44448,MO,53000,15000,83,57,74,Mercy Hospital St Louis
3.56,2.13,38.16498,-90.38082,MO,29000,14000,50,83,82,Jefferson Regional Medical Center
5.49,2.45,39.71116,-91.45071,MO,49000,17000,0,0,0,Hannibal Regional Hospital
8.74,2.34,39.00717,-94.55925,MO,83000,16000,33,82,5,Research Medical Center
5.41,2.60,38.63524,-90.26508,MO,48000,18000,50,56,12,Barnes Jewish Hospital
5.23,2.28,37.14560,-93.28037,MO,46000,15000,50,61,85,Cox Medical Center
5.00,2.39,38.56571,-92.18204,MO,44000,16000,50,83,57,Capital Region Medical Center
5.79,2.25,38.55199,-91.00029,MO,52000,15000,50,90,57,Mercy Hospital Washington
7.15,2.30,39.24809,-94.64928,MO,66000,15000,0,0,0,St Lukes Northland Hospital
7.00,2.40,37.17999,-93.27409,MO,65000,16000,66,61,24,St John'S Regional Health Center
4.05,2.05,38.94903,-92.31563,MO,34000,13000,66,73,43,Boone Hospital Center
4.41,2.08,38.50661,-90.38025,MO,38000,13000,66,57,13,St Anthony'S Medical Center
4.71,2.35,36.73801,-91.87553,MO,41000,16000,0,0,0,Ozarks Medical Center
5.39,2.25,38.52738,-90.47501,MO,48000,15000,50,65,44,Ssm St Clare Health Center
7.19,2.25,38.93592,-94.60376,MO,67000,15000,50,75,88,St Joseph Medical Center
6.53,2.72,38.63268,-90.31089,MO,60000,20000,83,77,57,Ssm St Marys Health Center
8.42,2.26,39.04749,-94.34105,MO,80000,15000,50,72,39,Centerpoint Medical Center Of Independence Llc
5.66,2.18,39.14957,-94.55148,MO,51000,14000,50,58,63,North Kansas City Hospital
5.77,2.38,38.75097,-90.43255,MO,52000,16000,66,68,43,Ssm Depaul Health Center
4.28,2.13,38.63702,-90.44699,MO,36000,14000,66,68,48,Missouri Baptist Medical Center
6.60,2.21,37.31072,-89.53990,MO,61000,14000,50,72,8,Southeast Missouri Hospital
7.58,2.43,36.88988,-89.58365,MO,71000,17000,0,0,0,Missouri Delta Medical Center
9.61,2.48,36.78510,-90.42779,MO,92000,17000,50,60,39,Poplar Bluff Regional Medical Center
5.08,2.36,37.05238,-94.52777,MO,45000,16000,83,67,85,Freeman Health System - Freeman West
9.36,2.72,39.04761,-94.59037,MO,90000,20000,66,50,17,St Lukes Hospital Of Kansas City
6.10,2.75,38.95171,-92.33407,MO,55000,20000,66,60,63,University Of Missouri Health Care
4.26,2.16,38.67655,-90.46573,MO,36000,14000,50,95,13,Barnes-Jewish West County Hospital
5.19,2.17,39.27591,-94.42572,MO,46000,14000,33,60,33,Liberty Hospital
5.12,2.26,38.65123,-90.50301,MO,45000,15000,66,67,12,St Lukes Hospital
5.14,2.25,38.77576,-90.23906,MO,45000,15000,66,75,4,Christian Hospital Northeast
8.01,2.33,37.30401,-89.57190,MO,75000,16000,50,65,11,St Francis Medical Center
3.41,2.24,38.79427,-90.58049,MO,27000,15000,50,75,32,Barnes-Jewish St Peters Hospital
5.71,2.30,39.02539,-94.26453,MO,51000,15000,50,70,98,St Mary'S Medical Center
4.31,2.43,37.60022,-93.42237,MO,37000,17000,0,0,0,Citizens Memorial Hospital
5.26,2.14,38.80334,-90.77619,MO,47000,14000,50,65,82,Ssm St Joseph Hospital West
7.74,2.36,38.94062,-94.37842,MO,73000,16000,0,0,0,Saint Luke'S East Lee'S Summit Hospital
3.84,2.40,45.78958,-108.51283,MT,32000,16000,50,86,88,Billings Clinic Hospital
4.20,2.40,47.49139,-111.26255,MT,35000,16000,50,61,57,Benefis Hospitals Inc
4.70,2.21,46.87545,-114.00033,MT,41000,14000,50,77,69,St Patrick Hospital
4.18,2.70,46.00924,-112.54613,MT,35000,20000,0,0,0,St James Healthcare
5.11,2.78,46.84691,-114.04640,MT,45000,20000,0,0,0,Community Medical Center Inc
3.24,2.30,45.79337,-108.51928,MT,25000,15000,50,81,54,St Vincent Healthcare
5.22,2.51,48.21465,-114.32386,MT,46000,18000,50,83,57,Kalispell Regional Medical Center
5.28,2.45,45.66969,-111.01991,MT,47000,17000,50,88,24,Bozeman Deaconess Hospital
5.68,2.39,40.78318,-96.63709,NE,51000,16000,66,70,63,Bryanlgh Medical Center
4.92,2.56,40.70646,-99.08136,NE,43000,18000,50,68,51,Good Samaritan Hospital
8.52,2.92,41.25522,-95.97892,NE,81000,22000,50,52,51,The Nebraska Medical Center
5.53,2.33,40.80816,-96.62689,NE,49000,16000,50,66,20,Saint Elizabeth Regional Medical Center
5.03,2.28,40.92425,-98.37053,NE,44000,15000,50,81,33,St Francis Medical Center
16.38,3.27,41.26509,-95.95494,NE,164000,26000,50,67,0,Creighton University Medical Center - Saint Joseph
3.27,2.25,40.59160,-98.38755,NE,26000,15000,0,0,0,Mary Lanning Memorial Hospital
5.98,2.24,41.25797,-96.04164,NE,54000,15000,50,73,33,The Nebraska Methodist Hospital
6.49,2.28,41.23897,-96.03162,NE,59000,15000,50,46,82,Alegent Health Bergan Mercy Medical Center
6.57,2.81,41.88690,-103.66400,NE,60000,21000,50,58,85,Regional West Medical Center
4.32,2.34,41.12081,-100.77062,NE,37000,16000,0,0,0,Great Plains Regional Medical Center
6.33,2.70,41.45152,-96.49184,NE,58000,20000,0,0,0,Fremont Area Medical Center
6.14,2.42,41.32182,-96.02133,NE,56000,17000,25,71,51,Alegent Health Immanuel Medical Center
5.94,2.51,39.52637,-119.79456,NV,54000,18000,50,66,17,Renown Regional Medical Center
11.75,2.63,36.13459,-115.13576,NV,115000,19000,66,68,9,Sunrise Hospital And Medical Center
11.11,2.85,36.15896,-115.16558,NV,108000,21000,33,60,0,Umc Of Southern Nevada
7.24,2.37,39.53066,-119.82067,NV,67000,16000,66,76,44,Saint Mary'S Regional Medical Center
10.10,2.42,36.03931,-114.98259,NV,97000,17000,75,76,54,Saint Rose Dominican Hospital - De Lima
7.57,2.69,39.20247,-119.78446,NV,71000,19000,50,56,69,Carson Tahoe Regional Medical Center
12.86,2.36,36.11363,-115.12573,NV,127000,16000,83,70,63,Desert Springs Hospital
6.39,2.14,39.54241,-119.69736,NV,58000,14000,0,0,0,Northern Nevada Medical Center
9.39,2.39,36.21599,-115.25095,NV,90000,16000,66,57,13,Mountainview Hospital
13.68,2.71,36.16586,-115.32436,NV,135000,20000,83,72,27,Summerlin Hospital Medical Center
8.65,2.42,36.00527,-115.11618,NV,82000,17000,50,50,33,Saint Rose Dominican Hospital - Siena Campus
9.23,2.52,36.07216,-115.29538,NV,88000,18000,50,81,1,Southern Hills Hospital And Medical Center
10.68,2.50,36.05712,-115.27116,NV,104000,17000,50,78,18,Saint Rose Dominican Hospital - San Martin Campus
7.76,2.83,43.19846,-71.56230,NH,73000,21000,33,63,94,Concord Hospital
5.14,2.98,43.67286,-72.27232,NH,45000,23000,50,38,0,Mary Hitchcock Memorial Hospital
6.33,2.48,43.52835,-71.46291,NH,58000,17000,0,0,0,Lakes Region General Hospital
5.42,2.37,42.75004,-71.48100,NH,48000,16000,0,0,0,St Joseph Hospital
4.19,2.33,43.00792,-71.46807,NH,35000,16000,50,57,21,Elliot Hospital
6.38,2.29,42.87652,-71.31722,NH,58000,15000,0,0,0,Parkland Medical Center
6.07,2.43,43.21231,-70.87499,NH,55000,17000,50,73,3,Wentworth-Douglass Hospital
4.85,2.64,42.94925,-72.28978,NH,42000,19000,0,0,0,Cheshire Medical Center
4.27,2.42,42.75623,-71.46059,NH,36000,17000,50,81,54,Southern Nh Medical Center
4.47,2.39,42.98369,-70.93511,NH,38000,16000,0,0,0,Exeter Hospital Inc
8.03,2.30,43.06469,-70.78916,NH,76000,15000,50,76,48,Portsmouth Regional Hospital
7.29,2.31,42.99121,-71.47426,NH,68000,16000,33,63,92,Catholic Medical Center
12.87,2.72,40.88346,-74.05564,NJ,127000,20000,50,58,85,Hackensack University Medical Center
12.48,3.51,40.71011,-74.21368,NJ,123000,28000,66,56,11,Newark Beth Israel Medical Center
12.31,2.93,40.79576,-73.99575,NJ,121000,22000,25,62,32,Palisades Medical Ctr-Ny Presbyterian Healthcare S
6.41,2.60,40.53142,-74.86080,NJ,59000,18000,75,55,69,Hunterdon Medical Center
7.80,2.72,40.84945,-74.13768,NJ,73000,20000,50,56,85,St Mary'S Hospital Passaic
7.32,2.61,40.88275,-74.01021,NJ,68000,19000,66,67,57,Holy Name Medical Center
10.21,2.57,40.78556,-74.17598,NJ,99000,18000,66,83,95,Clara Maass Medical Center
7.50,2.39,40.35684,-74.66166,NJ,70000,16000,50,56,21,University Medical Center At Princeton
5.54,2.29,39.08752,-74.81657,NJ,49000,15000,50,73,48,Cape Regional Medical Center Inc
7.00,2.49,40.98359,-74.10047,NJ,65000,17000,50,78,21,Valley Hospital
11.88,3.04,39.94152,-75.11680,NJ,116000,23000,66,42,2,Cooper University Hospital
8.02,2.79,40.78883,-74.46620,NJ,76000,20000,66,43,39,Morristown Memorial Hospital
15.17,2.90,40.73417,-74.04977,NJ,151000,22000,0,0,0,Christ Hospital
8.48,2.60,40.95858,-74.31000,NJ,80000,19000,50,62,1,Chilton Hospital
11.35,3.09,40.90215,-74.16634,NJ,111000,24000,16,53,94,St Joseph'S Regional Medical Center
11.92,2.49,39.78261,-74.91670,NJ,117000,17000,50,52,74,Virtua West Jersey Hospitals Berlin
14.62,2.28,40.61288,-74.29092,NJ,145000,15000,50,80,44,Robert Wood Johnson University Hospital At Rahway
22.84,2.38,40.66805,-74.11334,NJ,232000,16000,50,80,63,Bayonne Hospital Center
9.41,2.81,40.66005,-74.21417,NJ,90000,21000,50,75,39,Trinitas Regional Medical Center
11.14,2.39,41.05754,-74.76857,NJ,108000,16000,50,77,79,Newton Memorial Hospital
16.73,2.76,39.92695,-75.09537,NJ,167000,20000,50,70,10,Our Lady Of Lourdes Medical Center
10.67,2.54,39.44743,-75.05838,NJ,104000,18000,50,62,1,South Jersey Healthcare Regional Medical Center
9.91,2.35,40.35309,-74.06484,NJ,96000,16000,33,61,69,Riverview Medical Center
13.39,2.92,40.49581,-74.44980,NJ,132000,22000,66,51,1,Robert Wood Johnson University Hospital
9.14,2.27,39.96484,-74.21708,NJ,87000,15000,50,47,88,Community Medical Center
17.20,2.64,40.29209,-74.80327,NJ,172000,19000,50,86,29,Capital Health Medical Center - Hopewell
11.11,2.67,40.90400,-73.96847,NJ,108000,19000,66,81,54,Englewood Hospital And Medical Center
11.61,2.46,39.31464,-74.59391,NJ,113000,17000,16,72,82,Shore Medical Center
15.95,2.80,40.56804,-74.59579,NJ,159000,21000,50,67,29,Somerset Medical Center
10.01,2.40,40.89538,-74.46479,NJ,97000,16000,50,63,69,Saint Clare'S Hospital
6.57,2.65,40.71264,-74.35460,NJ,60000,19000,50,52,57,Overlook Hospital
11.14,2.36,40.07832,-74.13009,NJ,108000,16000,50,57,48,Ocean Medical Center
6.19,2.63,40.81058,-74.20459,NJ,56000,19000,50,68,43,Mountainside Hospital
14.07,2.62,39.98588,-74.79393,NJ,139000,19000,66,55,54,Virtua Memorial Hospital Of Burlington County
11.92,2.58,40.70180,-75.17825,NJ,117000,18000,0,0,0,St Luke'S Warren Hospital
14.86,2.42,40.04632,-74.88059,NJ,148000,17000,50,48,6,Lourdes Medical Center Of Burlington County
16.25,2.81,39.35775,-74.43449,NJ,162000,21000,66,65,88,Atlanticare Regional Medical Center - City Div
14.54,2.99,40.50214,-74.46015,NJ,144000,23000,50,53,29,Saint Peter'S University Hospital
13.89,2.72,40.21065,-74.03566,NJ,137000,20000,50,58,6,Jersey Shore University Medical Center
10.57,2.77,40.29563,-73.98518,NJ,103000,20000,50,50,85,Monmouth Medical Center
8.61,2.74,40.76190,-74.30335,NJ,82000,20000,83,53,2,Saint Barnabas Medical Center
8.85,2.32,39.84392,-75.14985,NJ,84000,16000,50,70,33,Underwood - Memorial Hospital
12.06,2.72,39.82811,-75.00895,NJ,118000,20000,66,60,69,Kennedy University Hospital - Stratford Div
11.51,3.06,40.74323,-74.17431,NJ,112000,23000,50,68,51,Saint Michael'S Medical Center Inc
8.05,2.62,40.55784,-74.34970,NJ,76000,19000,50,71,57,Jfk Medical Ctr - Anthony M. Yelencsics Community
12.60,2.28,40.21575,-74.67273,NJ,124000,15000,50,67,79,Robert Wood Johnson University Hospital Hamilton
8.07,2.35,40.23861,-74.31289,NJ,76000,16000,33,68,13,Centrastate Medical Center
9.66,2.36,39.66213,-74.26392,NJ,93000,16000,50,62,69,Southern Ocean Medical Center
5.51,3.40,35.08838,-106.61590,NM,49000,27000,83,46,11,Unm Hospital
5.61,3.01,35.65960,-105.94578,NM,50000,23000,50,65,29,St Vincent Hospital
6.31,2.73,36.72387,-108.21749,NM,58000,20000,50,71,82,San Juan Regional Medical Center
6.58,2.45,35.08603,-106.63950,NM,60000,17000,66,62,54,Lovelace Medical Center
4.83,2.34,32.79562,-108.26130,NM,42000,16000,0,0,0,Gila Regional Medical Center
7.90,3.00,32.29186,-106.73470,NM,74000,23000,50,63,3,Memorial Medical Center Inc
5.02,2.45,35.08102,-106.63392,NM,44000,17000,33,51,3,Presbyterian Hospital
9.48,2.32,32.32310,-106.72900,NM,91000,16000,50,68,16,Mountain View Regional Medical Center
5.45,2.63,41.92720,-73.99535,NY,49000,19000,50,83,39,Kingston Hospital
5.53,2.66,42.87482,-78.84942,NY,49000,19000,33,45,8,Kaleida Health
4.88,2.35,42.09299,-75.93704,NY,43000,16000,50,73,99,Our Lady Of Lourdes Memorial Hospital Inc
5.07,2.70,42.65345,-73.77543,NY,44000,20000,66,60,63,Albany Medical Center Hospital
7.33,2.62,41.69441,-73.93432,NY,68000,19000,83,82,54,Vassar Brothers Medical Center
5.95,3.62,40.79041,-73.95386,NY,54000,29000,83,38,5,Mount Sinai Hospital
8.79,3.28,40.63588,-74.10556,NY,84000,26000,66,52,20,Richmond University Medical Center
6.00,2.78,40.72567,-73.24189,NY,54000,20000,50,58,37,Southside Hospital
5.00,2.24,43.09840,-75.27819,NY,44000,15000,50,60,17,Faxton-St Luke'S Healthcare
6.55,2.49,40.87946,-73.41621,NY,60000,17000,50,66,39,Huntington Hospital
7.56,3.59,40.80556,-73.96131,NY,71000,29000,33,56,5,St Luke'S Roosevelt Hospital
3.37,2.18,42.95425,-74.21527,NY,27000,14000,0,0,0,St Mary'S Hospital At Amsterdam
5.31,3.11,40.74722,-73.82521,NY,47000,24000,66,63,79,New York Hospital Medical Center Of Queens
4.14,2.14,42.65583,-73.80372,NY,35000,14000,33,47,54,St Peter'S Hospital
10.47,3.88,40.87987,-73.87996,NY,101000,32000,50,38,44,Montefiore Medical Center
7.11,2.71,40.94161,-73.83650,NY,66000,20000,33,63,12,Lawrence Hospital Center
6.61,2.85,41.71846,-73.92710,NY,61000,21000,50,80,79,St Francis Hospital
4.52,2.45,42.92866,-78.84819,NY,39000,17000,50,55,29,Sisters Of Charity Hospital
3.09,2.47,44.34524,-74.14476,NY,24000,17000,0,0,0,Adirondack Medical Center
3.09,2.26,42.45748,-75.05244,NY,24000,15000,0,0,0,Aurelia Osborn Fox Memorial Hospital
8.11,3.73,40.76487,-73.95398,NY,77000,30000,33,32,74,New York-Presbyterian Hospital
3.85,2.18,42.97762,-78.88045,NY,32000,14000,50,71,57,Kenmore Mercy Hospital
3.55,2.20,42.09049,-78.42780,NY,29000,14000,50,83,37,Olean General Hospital
8.63,2.70,41.09642,-73.92501,NY,82000,20000,66,77,76,Nyack Hospital
9.33,3.20,40.77686,-73.70212,NY,89000,25000,33,61,69,North Shore University Hospital
7.08,2.47,40.93376,-72.67383,NY,66000,17000,0,0,0,Peconic Bay Medical Center
3.76,2.27,43.07766,-75.65463,NY,31000,15000,0,0,0,Oneida Healthcare Center
14.71,3.51,40.77362,-73.96093,NY,146000,28000,33,46,11,Lenox Hill Hospital
4.15,2.33,43.19244,-77.58590,NY,35000,16000,66,46,17,Rochester General Hospital
6.98,2.57,41.44138,-74.36821,NY,65000,18000,50,62,69,Orange Regional Medical Center
5.09,2.96,42.69590,-74.92278,NY,45000,22000,50,83,76,Mary Imogene Bassett Hospital
4.50,2.54,43.05571,-76.14981,NY,38000,18000,83,37,20,St Joseph'S Hospital Health Center
10.69,2.68,40.78000,-72.97763,NY,104000,19000,33,60,32,Brookhaven Memorial Hospital Medical Center
9.97,3.84,40.68964,-73.99657,NY,96000,32000,0,0,0,Long Island College Hospital
5.70,2.27,42.81963,-73.91653,NY,51000,15000,50,68,21,Ellis Hospital
3.73,3.06,43.96519,-75.91511,NY,30000,23000,50,85,63,Samaritan Medical Center
5.24,2.46,43.00561,-76.17002,NY,46000,17000,0,0,0,Community-General Hospital Of Greater Syracuse
6.27,3.08,40.58440,-74.08507,NY,57000,24000,66,71,37,Staten Island University Hospital
4.23,2.53,41.19677,-73.72572,NY,36000,18000,50,68,69,Northern Westchester Hospital
3.42,2.43,43.13562,-77.60602,NY,27000,17000,50,43,10,Highland Hospital
7.85,2.90,40.74083,-73.64306,NY,74000,22000,66,50,74,Winthrop-University Hospital
9.13,3.60,40.73265,-73.98162,NY,87000,29000,50,60,39,Beth Israel Medical Center
6.72,2.65,40.87062,-73.62249,NY,62000,19000,50,82,85,Glen Cove Hospital
7.83,2.50,40.80462,-73.67023,NY,74000,17000,83,72,94,St Francis Hospital Roslyn
5.47,3.11,40.91276,-73.78720,NY,49000,24000,50,83,6,Sound Shore Medical Center Of Westschester
7.28,2.41,40.94000,-73.05510,NY,68000,17000,50,63,63,John T Mather Memorial Hospital  Of Port Jefferson
3.96,2.11,43.30652,-73.64663,NY,33000,13000,50,63,90,Glens Falls Hospital
10.73,3.91,40.63937,-73.99851,NY,104000,32000,50,45,54,Maimonides Medical Center
8.50,3.60,40.75332,-73.70899,NY,81000,29000,50,45,90,Long Island Jewish Medical Center
3.32,2.41,44.67677,-74.98237,NY,26000,17000,0,0,0,Canton-Potsdam Hospital
5.98,2.56,40.65189,-73.63096,NY,54000,18000,50,52,43,South Nassau Communities Hospital
4.20,2.70,43.04139,-76.13803,NY,35000,20000,50,41,1,Crouse Hospital
6.50,3.12,40.96967,-73.88447,NY,60000,24000,50,75,85,St John'S Riverside Hospital
9.91,3.20,40.74335,-73.97408,NY,96000,25000,33,63,21,Nyu Hospitals Center
4.42,2.25,43.22952,-75.44361,NY,38000,15000,0,0,0,Rome Memorial Hospital Inc
5.10,2.08,43.08561,-73.79712,NY,45000,13000,50,58,29,Saratoga Hospital
18.26,5.12,41.08773,-73.80395,NY,184000,45000,50,42,63,Westchester Medical Center
4.82,2.41,42.94136,-76.56474,NY,42000,16000,0,0,0,Auburn Community Hospital
6.54,3.40,40.66762,-73.97850,NY,60000,27000,33,55,29,New York Methodist Hospital
3.51,2.25,42.08997,-79.23058,NY,28000,15000,0,0,0,Woman'S Christian Association
7.65,3.44,43.04269,-76.14043,NY,72000,27000,66,41,3,University Hospital S U N Y Health Science Center
4.47,2.39,43.08176,-75.26587,NY,38000,16000,66,62,24,St Elizabeth Medical Center
4.32,2.86,44.70022,-73.47100,NY,37000,21000,50,55,0,Champlain Valley Physicians Hospital Medical Ctr
9.12,2.68,40.68896,-73.63259,NY,87000,19000,50,62,37,Mercy Medical Center
6.01,2.87,41.10880,-73.86355,NY,54000,21000,0,0,0,Phelps Memorial Hospital Assn
5.43,2.51,41.50307,-74.01517,NY,48000,18000,33,81,95,St Luke'S Cornwall Hospital
5.71,2.52,41.29201,-73.89529,NY,51000,18000,50,82,76,Hudson Valley Hospital Center
6.88,2.46,41.38421,-73.66323,NY,64000,17000,0,0,0,Putnam Hospital Center
2.95,2.19,42.84782,-78.81264,NY,22000,14000,50,68,13,Mercy Hospital
3.86,2.84,43.12266,-77.62360,NY,32000,21000,50,55,21,Strong Memorial Hospital
7.51,2.63,40.69327,-73.29412,NY,70000,19000,50,70,74,Good Samaritan Hospital Medical Center
5.31,2.50,41.02614,-73.76978,NY,47000,18000,50,62,44,White Plains Hospital Center
3.82,3.60,40.64666,-74.02049,NY,31000,29000,50,67,5,Lutheran Medical Center
2.81,2.27,42.47286,-76.53849,NY,21000,15000,50,78,16,Cayuga Medical Center At Ithaca
6.20,2.77,40.83778,-73.85417,NY,56000,20000,50,66,16,New York Westchester Square Medical Center
8.41,2.84,40.77481,-73.47968,NY,80000,21000,50,56,20,Plainview Hospital
5.76,2.43,40.72593,-73.47844,NY,52000,17000,50,62,56,St Joseph Hospital
4.00,3.78,40.65508,-73.94521,NY,33000,31000,50,66,8,University Hospital Of Brooklyn ( Downstate )
6.98,3.10,40.72931,-73.85219,NY,65000,24000,50,55,13,Forest Hills Hospital
7.51,2.57,40.68104,-73.68633,NY,70000,18000,50,66,69,Franklin Hospital
11.61,3.79,40.90922,-73.11520,NY,113000,31000,50,60,44,University Hospital ( Stony Brook )
5.18,2.49,42.11422,-75.95851,NY,46000,17000,66,48,92,United Health Services Hospitals Inc
8.62,2.47,40.85738,-73.18681,NY,82000,17000,50,76,88,St Catherine Of Siena Hospital
4.95,2.44,35.43754,-80.60147,NC,43000,17000,66,65,16,Carolinas Medical Center-Northeast
4.53,2.45,35.57658,-82.54922,NC,39000,17000,66,40,81,Memorial Mission Hospital And Asheville Surgery Ce
4.30,2.32,35.95000,-80.00000,NC,36000,16000,50,66,39,High Point Regional Hospital
4.22,2.48,35.39772,-77.95250,NC,36000,17000,50,81,8,Wayne Memorial Hospital
5.31,2.63,36.07581,-80.29779,NC,47000,19000,50,52,39,Forsyth Memorial Hospital
4.38,2.24,35.68172,-80.47072,NC,37000,15000,50,80,76,Rowan Regional Medical Center
5.66,2.33,35.38602,-83.20290,NC,51000,16000,0,0,0,Medwest Harris
4.49,2.19,35.32080,-82.46812,NC,38000,14000,0,0,0,Margaret R Pardee Memorial Hospital
9.03,2.29,35.46894,-79.18668,NC,86000,15000,50,77,21,Central Carolina Hospital
4.99,2.27,35.30288,-81.53571,NC,44000,15000,50,71,63,Cleveland Regional Medical Center
5.22,2.47,35.00670,-78.32412,NC,46000,17000,0,0,0,Sampson Regional Medical Center
3.99,2.35,35.29053,-77.58307,NC,33000,16000,50,63,63,Lenoir Memorial Hospital
5.83,2.54,35.03156,-78.93205,NC,53000,18000,50,50,18,Cape Fear Valley Medical Center
6.86,3.16,36.00850,-78.94006,NC,63000,24000,66,43,76,Duke University Hospital
4.06,2.35,35.27341,-81.13688,NC,34000,16000,50,70,69,Gaston Memorial Hospital
3.97,2.40,35.54918,-77.03985,NC,33000,16000,0,0,0,Beaufort County Medical Center
6.34,2.23,35.79986,-80.87863,NC,58000,15000,50,62,95,Iredell Memorial Hospital Inc
6.91,3.09,35.60726,-77.40477,NC,64000,24000,50,46,1,Pitt County Memorial Hospital
4.99,2.52,34.76273,-77.38582,NC,44000,18000,50,58,17,Onslow Memorial Hospital
5.14,3.09,36.09062,-80.27161,NC,45000,24000,83,55,57,North Carolina Baptist Hospital
5.80,2.62,35.22196,-80.83287,NC,52000,19000,50,63,13,Presbyterian Hospital
4.36,2.33,36.49464,-79.73929,NC,37000,16000,0,0,0,Morehead Memorial Hospital
5.08,3.39,35.90529,-79.04963,NC,45000,27000,66,41,1,University Of North Carolina Hospital
3.89,2.43,34.33747,-78.69425,NC,32000,17000,0,0,0,Columbus Regional Healthcare System
7.70,2.61,35.78523,-78.58836,NC,72000,19000,33,50,79,Wakemed Raleigh Campus
3.55,2.32,36.06347,-79.50208,NC,29000,16000,33,60,16,Alamance Regional Medical Center
6.03,2.21,35.82915,-78.61922,NC,55000,14000,50,81,79,Duke Health Raleigh Hospital
5.67,2.31,35.72399,-81.65874,NC,51000,15000,0,0,0,Grace Hospital Inc
5.56,2.49,35.50624,-78.32511,NC,50000,17000,50,55,24,Johnston Memorial Hospital
3.88,2.44,36.09251,-79.78855,NC,32000,17000,66,66,51,Moses H Cone Memorial Hospital The
6.46,2.41,35.21029,-80.82084,NC,59000,17000,50,53,51,Carolinas Med Center-Mercy
5.82,2.63,36.32690,-76.22370,NC,52000,19000,50,76,54,Albemarle Hospital Authority
7.58,2.85,35.20397,-80.83908,NC,71000,21000,66,63,24,Carolinas Medical Center/Behav Health
5.07,2.33,35.81801,-78.70283,NC,45000,16000,50,65,54,Rex Hospital
4.36,2.36,35.20554,-79.45645,NC,37000,16000,66,60,44,Firsthealth Moore Regional Hospital
8.50,2.18,35.73751,-81.33702,NC,81000,14000,50,67,17,Frye Regional Medical Center
4.54,2.30,35.71177,-79.81489,NC,39000,15000,50,55,29,Randolph Hospital
5.88,2.42,35.71850,-77.94518,NC,53000,17000,50,68,88,Wilson Medical Center
4.60,2.57,34.97382,-80.52250,NC,40000,18000,50,68,69,Carolinas Medical Center-Union
4.80,2.50,35.11420,-77.06568,NC,42000,17000,33,73,90,Carolina East Medical Center
4.70,2.49,34.23786,-77.94764,NC,41000,17000,83,70,57,New Hanover Regional Medical Center
3.96,2.53,34.72615,-76.75452,NC,33000,18000,0,0,0,Carteret General Hospital
6.51,2.43,35.71664,-81.26661,NC,60000,17000,50,72,63,Catawba Valley Medical Center
4.54,2.50,35.97538,-77.85012,NC,39000,17000,50,65,13,Nash General Hospital
3.33,2.30,36.07887,-80.29600,NC,26000,15000,0,0,0,Medical Park Hospital
5.73,2.47,36.04960,-78.90617,NC,51000,17000,50,51,69,Durham Regional Hospital
6.12,2.34,34.00906,-78.28992,NC,56000,16000,0,0,0,Brunswick Community Hospital
5.42,2.30,35.74046,-78.78127,NC,48000,15000,50,72,13,Wakemed Cary Hospital
4.85,2.39,35.40634,-80.86005,NC,42000,16000,0,0,0,Presbyterian Hospital Huntersville
5.78,2.24,35.52586,-82.94351,NC,52000,15000,0,0,0,Medwest Haywood
3.04,2.19,46.80739,-100.77773,ND,23000,14000,50,72,76,St Alexius Medical Center
4.84,2.38,48.23258,-101.28843,ND,42000,16000,50,72,48,Trinity Hospitals
4.20,2.49,46.88496,-96.78609,ND,35000,17000,66,61,48,Sanford Medical Center Fargo
2.85,2.39,46.80798,-100.78229,ND,21000,16000,50,77,5,Medcenter One
3.67,2.47,47.91045,-97.06742,ND,30000,17000,83,53,1,Altru Hospital
3.80,2.33,46.83250,-96.82805,ND,31000,16000,33,77,20,Essentia Health-Fargo
5.77,2.29,39.08582,-84.34886,OH,52000,15000,50,72,85,Mercy Hospital Anderson
7.06,3.26,39.13707,-84.50392,OH,66000,26000,66,45,21,University Hospital Inc
6.39,2.36,40.03064,-83.03440,OH,58000,16000,83,71,21,Riverside Methodist Hospital
7.04,2.52,38.75320,-82.97800,OH,65000,18000,50,61,69,Southern Ohio Medical Center
4.62,2.24,40.73578,-84.08630,OH,40000,15000,75,61,13,Lima Memorial Health System
2.42,2.10,40.51393,-81.45644,OH,17000,13000,0,0,0,Union Hospital
4.68,2.28,40.57098,-83.12972,OH,40000,15000,50,91,48,Marion General Hospital
5.47,2.42,40.11479,-82.94677,OH,49000,17000,50,66,12,Mount Carmel St Ann'S Hospital
6.90,2.38,39.20680,-84.38093,OH,64000,16000,50,76,94,Jewish Hospital Llc
7.12,2.86,39.96098,-82.99077,OH,66000,21000,66,78,21,Grant Medical Center
6.79,2.36,41.01476,-81.58913,OH,63000,16000,50,77,43,Summa Health System Barberton Hospital
5.89,2.44,41.08161,-81.50007,OH,53000,17000,66,63,33,Summa Health Systems Hospitals
5.73,2.27,41.44642,-82.70864,OH,51000,15000,50,86,18,Firelands Regional Medical Center
5.52,2.38,41.07747,-81.53042,OH,49000,16000,66,70,63,Akron General Medical Center
3.39,2.15,40.54518,-84.37011,OH,27000,14000,0,0,0,Grand Lake Health System
5.10,2.50,39.95805,-83.02191,OH,45000,17000,66,42,1,Mount Carmel Health
3.62,2.33,39.97510,-82.01812,OH,29000,16000,50,78,92,Genesis Healthcare System
4.21,2.07,41.38265,-81.73127,OH,35000,13000,50,75,94,Parma Community General Hospital
10.69,3.21,41.61788,-83.61632,OH,104000,25000,66,68,6,University Of Toledo Medical Center
9.01,2.53,39.74547,-84.18523,OH,86000,18000,66,45,1,Miami Valley Hospital
11.16,2.44,39.78778,-84.23493,OH,109000,17000,66,56,16,Good Samaritan Hospital
5.27,2.23,38.84439,-82.23902,OH,47000,15000,0,0,0,Holzer Medical Center
5.59,2.22,39.31257,-84.51774,OH,50000,15000,50,90,69,Mercy Hospital Fairfield
5.14,3.02,41.46088,-81.69763,OH,45000,23000,50,60,24,Metro Health Medical Center
5.72,2.27,41.11441,-80.65565,OH,51000,15000,83,48,21,St Elizabeth Health Center
6.84,2.24,40.74115,-84.11804,OH,63000,15000,66,73,6,St Rita'S Medical Center
8.94,2.44,41.67775,-83.59589,OH,85000,17000,33,70,57,Toledo Hospital The
3.56,2.43,40.81219,-81.39625,OH,29000,17000,50,62,43,Mercy Medical Center
4.80,2.31,39.71750,-82.57772,OH,42000,15000,50,82,90,Fairfield Medical Center
6.74,2.32,41.70838,-83.69216,OH,62000,16000,16,86,63,Flower Hospital
7.32,2.25,39.49896,-84.31496,OH,68000,15000,50,63,33,Atrium Medical Center
8.05,2.61,41.45013,-81.82397,OH,76000,19000,66,60,18,Fairview Hospital
4.28,2.16,41.17554,-81.24915,OH,36000,14000,50,76,37,Robinson Memorial Hospital
7.36,2.36,39.69724,-84.19232,OH,69000,16000,66,80,57,Kettering Medical Center
7.73,2.35,41.63639,-83.48640,OH,73000,16000,50,83,56,Mercy St Charles Hospital
2.64,2.26,40.79609,-81.40360,OH,19000,15000,50,63,17,Aultman Hospital
8.60,2.89,39.99445,-83.01872,OH,82000,22000,66,50,2,Ohio State University Hospitals
4.52,2.57,39.92755,-83.81573,OH,39000,18000,50,67,48,Springfield Regional Medical Center
4.64,2.22,41.55725,-83.68141,OH,40000,15000,50,65,85,St Luke'S Hospital
4.24,2.25,41.13762,-81.83820,OH,36000,15000,50,90,85,Medina Hospital
3.59,2.16,41.01785,-83.65165,OH,29000,14000,50,82,69,Blanchard Valley Hospital
5.05,2.11,41.66317,-81.24696,OH,44000,13000,50,73,39,Lake Health
10.34,3.03,41.66810,-83.54275,OH,100000,23000,50,70,5,Mercy St Vincent Medical Center
4.12,2.32,39.13628,-84.60485,OH,35000,16000,50,77,95,Mercy Franciscan Hospital Western Hills
3.82,2.19,40.75264,-82.52803,OH,31000,14000,83,81,92,Medcentral Health System
4.11,2.19,41.43653,-81.94451,OH,34000,14000,50,72,76,St John Medical Center
4.67,2.36,41.88034,-80.79553,OH,40000,16000,0,0,0,Ashtabula County Medical Center
7.39,2.33,39.41551,-84.57263,OH,69000,16000,50,80,29,Fort Hamilton Hughes Memorial Hospital
9.56,2.54,39.76950,-84.20285,OH,92000,18000,66,65,90,Grandview Hospital & Medical Center
6.10,2.44,39.13975,-84.52173,OH,55000,17000,66,83,69,Good Samaritan Hospital
6.45,2.98,41.50772,-81.60592,OH,59000,22000,83,46,44,University Hospitals Of Cleveland
6.04,2.04,41.42112,-81.59808,OH,55000,13000,50,82,21,Marymount Hospital
5.90,2.32,41.44829,-81.53736,OH,53000,16000,50,81,21,South Pointe Hospital
4.32,2.15,41.36649,-82.09708,OH,37000,14000,66,75,98,Emh Regional Medical Center
5.79,2.13,39.43061,-81.46454,OH,52000,14000,50,71,99,Marietta Memorial Hospital
6.40,2.07,41.37028,-81.83189,OH,59000,13000,50,71,74,Southwest General Health Center
