size_charge,size_pay,lat,lon,state,charge,pay,AcquiredInfect,AcquiredConditions,PatientSafetySummary,name
6.34,2.43,31.21673,-85.36307,AL,28000,7000,50,51,21,Southeast Alabama Medical Center
4.10,2.70,34.36605,-86.42127,AL,16000,9000,0,0,0,Marshall Medical Center North
7.38,2.36,33.25607,-86.81035,AL,33000,7000,83,70,63,Shelby Baptist Medical Center
5.06,2.43,34.74649,-87.69895,AL,21000,7000,50,91,33,Helen Keller Memorial Hospital
5.01,2.28,32.36656,-86.28572,AL,21000,7000,50,68,82,Jackson Hospital & Clinic Inc
2.76,2.38,32.63806,-85.40413,AL,9000,7000,50,80,13,East Alabama Medical Center And Snf
5.96,2.88,33.50619,-86.80210,AL,26000,10000,66,45,11,University Of Alabama Hospital
6.29,2.52,34.72007,-86.58108,AL,27000,8000,50,65,44,Huntsville Hospital
12.40,2.32,34.00426,-86.00339,AL,59000,7000,75,81,90,Riverview Regional Medical Center
6.80,2.31,31.23767,-85.45625,AL,30000,7000,50,55,79,Flowers Hospital
4.31,2.30,33.50734,-86.78958,AL,17000,7000,50,72,21,St Vincent'S Birmingham
4.33,2.52,34.48290,-87.28601,AL,17000,8000,0,0,0,Lawrence Medical Center
3.78,2.42,34.80351,-86.97726,AL,14000,7000,0,0,0,Athens-Limestone Hospital
2.92,2.26,34.59052,-86.97262,AL,10000,7000,50,77,54,Decatur General Hospital
7.36,2.43,33.83218,-87.30385,AL,33000,7000,50,78,95,Walker Baptist Medical Center
4.41,2.24,30.68199,-88.19897,AL,18000,6000,83,86,0,Providence Hospital
6.00,2.50,33.20521,-87.52546,AL,26000,8000,66,66,21,D C H Regional Medical Center
4.26,2.21,30.51916,-87.88842,AL,17000,6000,50,90,17,Thomas Hospital
8.47,2.42,33.51420,-86.74859,AL,39000,7000,66,27,11,Trinity Medical Center
6.88,2.68,30.69697,-88.08081,AL,31000,9000,66,55,24,Mobile Infirmary
7.45,2.26,34.69279,-86.57179,AL,33000,7000,50,77,33,Crestwood Medical Center
17.85,2.27,33.46420,-86.77409,AL,87000,7000,50,65,29,Brookwood Medical Center
7.83,2.96,33.46514,-112.05797,AZ,35000,10000,50,48,69,Banner Good Samaritan Medical Center
5.64,2.69,32.25294,-110.88135,AZ,24000,9000,50,48,3,Tucson Medical Center
6.73,2.59,32.22734,-111.00065,AZ,30000,8000,33,75,63,Carondelet St  Marys Hospital
6.92,2.47,32.22685,-110.85520,AZ,31000,8000,66,55,21,Carondelet St Josephs Hospital
6.81,2.68,34.56017,-112.48217,AZ,30000,9000,25,67,17,Yavapai Regional Medical Center
5.14,2.69,32.68274,-114.63506,AZ,21000,9000,50,63,69,Yuma Regional Medical Center
7.53,3.59,35.20923,-111.64486,AZ,34000,13000,66,78,88,Flagstaff Medical Center
7.73,3.23,33.48073,-112.07948,AZ,35000,12000,33,52,11,St Joseph'S Hospital And Medical Center
8.78,2.57,33.29750,-111.87461,AZ,40000,8000,50,78,54,Chandler Regional Medical Center
7.09,2.66,33.48885,-111.92387,AZ,32000,9000,66,76,54,Scottsdale Healthcare-Osborn Medical Center
4.78,2.92,31.55116,-110.27248,AZ,20000,10000,0,0,0,Sierra Vista Regional Health Center Inc
7.08,2.79,35.22024,-114.03585,AZ,32000,9000,66,66,54,Kingman Regional Medical Center
7.77,2.50,33.60432,-112.28378,AZ,35000,8000,83,75,95,Banner Boswell Medical Center
5.65,3.48,32.24152,-110.94631,AZ,24000,13000,50,37,39,University Of Arizona Medical Ctr-Universit The
7.58,2.74,33.39097,-111.87638,AZ,34000,9000,66,80,56,Banner Desert Medical Center
9.03,2.58,34.47988,-114.33938,AZ,42000,8000,50,70,56,Havasu Regional Medical Center
7.31,2.43,32.32103,-111.01102,AZ,33000,7000,50,71,20,Northwest Medical Center
5.86,2.40,33.58235,-111.88527,AZ,25000,7000,66,68,63,Scottsdale Healthcare-Shea Medical Center
6.56,2.53,33.41128,-111.68916,AZ,29000,8000,50,70,63,Banner Baywood Medical Center
9.19,2.66,33.60949,-112.18129,AZ,43000,9000,66,73,76,Banner Thunderbird Medical Center
6.73,2.44,33.65965,-112.37283,AZ,30000,7000,50,77,97,Banner Del E Webb Medical Center
4.85,3.06,33.65947,-111.95626,AZ,20000,11000,66,53,95,Mayo Clinic Hospital
5.86,2.20,32.42929,-110.94843,AZ,25000,6000,50,73,85,Oro Valley Hospital
6.75,2.78,33.47818,-112.25744,AZ,30000,9000,50,58,69,Banner Estrella Medical Center
4.16,2.65,34.58822,-112.33095,AZ,16000,9000,0,0,0,Yavapai Regional Medical Center-East
8.88,2.47,33.28686,-111.75246,AZ,41000,8000,50,63,63,Mercy Gilbert Medical Center
5.65,2.40,36.10940,-94.16036,AR,24000,7000,33,77,74,Washington Regional Med Ctr At North Hills
2.00,2.35,35.05399,-93.38856,AR,5000,7000,0,0,0,John Ed Chambers Mem Hosp Inc
4.23,3.15,34.74866,-92.35422,AR,17000,11000,50,51,33,Uams Medical Center
3.56,2.49,35.83746,-90.70386,AR,13000,8000,50,75,2,St Bernards Medical Ctr
6.92,2.40,36.18082,-94.13644,AR,31000,7000,50,68,29,Nw Arkansas Hospitals Llc
8.24,2.43,34.46784,-93.06667,AR,38000,7000,66,66,85,St Josephs Mercy Health Center Inc
3.33,2.21,36.34295,-92.39442,AR,12000,6000,50,65,57,Baxter Regional Medical Center
4.01,2.36,35.08546,-92.45774,AR,16000,7000,50,72,79,Conway Regional Medical Center
4.85,2.29,34.77770,-92.12539,AR,20000,7000,50,60,13,Baptist Health Medical Center North Little Rock
4.29,2.35,35.37445,-94.41868,AR,17000,7000,50,53,85,Sparks Regional Medical Center
15.77,2.55,34.48600,-93.03521,AR,77000,8000,50,51,8,National Park Medical Center
5.06,2.46,34.74866,-92.35422,AR,21000,8000,50,43,21,Baptist Health Medical Center-Little Rock
11.55,2.92,37.59283,-122.38249,CA,55000,10000,50,71,33,Peninsula Medical Center
9.77,3.06,38.32472,-122.29671,CA,46000,11000,50,72,82,Queen Of The Valley Medical Center
10.93,3.05,33.97659,-117.38184,CA,52000,11000,50,65,57,Riverside Community Hospital
4.45,3.55,32.75426,-117.16592,CA,18000,13000,50,72,69,University Of California San Diego Medical Center
9.09,2.64,32.77495,-117.01467,CA,42000,9000,83,71,33,Grossmont Hospital
5.91,2.72,39.50528,-121.54100,CA,25000,9000,50,73,63,Oroville Hospital
6.40,2.59,39.74221,-121.85000,CA,28000,8000,83,71,48,Enloe Medical Center
12.00,3.27,37.82206,-122.26275,CA,57000,12000,50,63,32,Alta Bates Summit Medical Center
11.38,3.78,37.79100,-122.43125,CA,54000,14000,83,63,11,California Pacific Medical Ctr-Pacific Campus Hosp
7.04,3.09,34.67486,-118.15771,CA,31000,11000,50,67,44,Antelope Valley Hospital Med Center
9.59,2.94,36.32737,-119.29548,CA,45000,10000,50,56,12,Kaweah Delta Medical Center
7.22,3.29,36.73000,-119.78000,CA,32000,12000,50,71,0,Community Regional Medical Center
9.56,3.21,33.78036,-117.86495,CA,44000,11000,50,60,88,St Joseph Hospital
11.47,3.34,32.75143,-117.16083,CA,54000,12000,33,62,69,Scripps Mercy Hospital
10.81,2.89,34.21674,-119.15631,CA,51000,10000,50,63,6,St Johns Regional Medical Center
15.19,3.09,37.96987,-121.28873,CA,74000,11000,83,68,97,St Josephs Med Center Of Stockton
7.22,2.75,36.83532,-119.76562,CA,32000,9000,50,66,57,Saint Agnes Medical Center
8.41,2.73,34.10130,-117.63651,CA,38000,9000,50,66,85,San Antonio Community Hospital
12.76,2.95,32.79949,-117.15394,CA,61000,10000,66,62,11,Sharp Memorial Hospital
9.37,2.99,38.57155,-121.46874,CA,43000,10000,83,77,79,Sutter General Hospital
11.35,2.84,34.02685,-118.48651,CA,54000,10000,50,76,21,Santa Monica - Ucla Med Ctr & Orthopaedic Hospital
13.39,3.03,34.22014,-118.53410,CA,64000,11000,33,56,44,Northridge Hospital Medical Center
18.45,3.88,37.36257,-121.84974,CA,91000,15000,50,70,1,Regional Medical Center Of San Jose
8.71,2.87,33.18402,-117.29661,CA,40000,10000,50,57,21,Tri-City Medical Center
10.64,2.87,39.13822,-121.59436,CA,50000,10000,50,51,21,Rideout Memorial Hospital
11.85,2.95,36.57886,-121.91316,CA,56000,10000,66,56,57,Community Hospital Of The Monterey Peninsula
7.60,2.67,39.22809,-121.04721,CA,34000,9000,0,0,0,Sierra Nevada Memorial Hospital
12.22,3.31,37.32710,-121.93863,CA,58000,12000,66,71,37,O'Connor Hospital
7.58,2.45,33.89465,-117.92716,CA,34000,8000,66,71,90,St Jude Medical Center
11.73,2.73,33.96860,-118.04831,CA,56000,9000,50,46,16,Presbyterian Intercommunity Hospital
15.08,3.15,38.44369,-122.70138,CA,73000,11000,66,86,57,Santa Rosa Memorial Hospital
15.08,2.88,37.51164,-120.83800,CA,73000,10000,33,86,16,Emanuel Medical Center Inc
20.62,3.34,37.91341,-122.04163,CA,102000,12000,50,62,33,John Muir Medical Center - Walnut Creek Campus
23.16,3.42,37.55717,-121.98126,CA,115000,13000,50,53,88,Washington Hospital
14.56,2.92,32.61972,-117.02278,CA,70000,10000,50,71,57,Sharp Chula Vista Medical Center
7.71,2.69,33.62229,-117.92995,CA,35000,9000,50,70,51,Hoag Memorial Hospital Presbyterian
16.22,2.64,39.75720,-121.57018,CA,79000,9000,50,65,57,Feather River Hospital
13.41,3.23,34.07709,-117.75063,CA,64000,12000,33,73,97,Pomona Valley Hospital Medical Center
10.46,2.60,35.27882,-120.65047,CA,49000,8000,0,0,0,French Hospital Medical Center
17.56,3.16,34.15601,-118.32834,CA,86000,11000,50,80,97,Providence Saint Joseph Medical Ctr
9.65,2.84,34.13973,-118.03534,CA,45000,10000,50,45,10,Methodist Hospital Of Southern Ca
13.03,3.41,34.14987,-118.23117,CA,62000,13000,66,75,88,Glendale Adventist Medical Center
14.16,3.24,36.98999,-121.98357,CA,68000,12000,50,63,63,Dominican Hospital
12.23,2.91,33.83862,-116.54557,CA,58000,10000,66,81,2,Desert Regional Medical Center
17.02,3.04,38.72562,-120.79096,CA,83000,11000,50,81,1,Marshall Medical Center (1-Rh)
12.34,4.35,34.06675,-118.44613,CA,59000,17000,50,27,33,Ronald Reagan Ucla Medical Center
10.98,2.74,34.27915,-118.46006,CA,52000,9000,50,80,24,Providence Holy Cross Medical Center
12.91,3.08,37.69502,-121.88095,CA,62000,11000,50,71,82,Valleycare Medical Center
18.75,3.23,37.67947,-122.47447,CA,92000,12000,50,62,24,Seton Medical Center
7.05,2.54,34.03009,-118.47833,CA,31000,8000,50,81,76,Saint John'S Health Center
8.53,2.94,34.50107,-117.17285,CA,39000,10000,50,87,20,St Mary Medical Center
16.78,4.01,37.85593,-122.25730,CA,82000,16000,50,56,8,Alta Bates Summit Medical Center - Alta Bates Camp
13.69,3.03,37.36934,-122.08047,CA,66000,11000,66,48,6,El Camino Hospital
8.18,2.61,38.76514,-121.24979,CA,37000,8000,66,77,16,Sutter Roseville Medical Center
12.09,2.59,32.88461,-117.22244,CA,58000,8000,50,63,29,Scripps Memorial Hospital La Jolla
6.19,3.73,34.05076,-117.26395,CA,27000,14000,50,55,16,Loma Linda University Medical Center
9.57,2.90,33.87236,-117.56809,CA,44000,10000,50,78,81,Corona Regional Medical Center
27.51,2.93,38.12186,-121.28665,CA,138000,10000,100,70,94,Lodi Memorial Hospital
14.72,2.79,33.81131,-118.34364,CA,71000,9000,66,67,88,Torrance Memorial Medical Center
12.95,2.81,33.83891,-118.35677,CA,62000,9000,50,86,94,Providence Little Company Of Mary Med Ctr Torrance
18.50,3.15,37.94748,-122.53677,CA,91000,11000,50,63,16,Marin General Hospital
11.99,2.93,37.25153,-121.94684,CA,57000,10000,33,63,3,Good Samaritan Hospital
7.34,3.21,34.08802,-117.89341,CA,33000,11000,66,67,29,Citrus Valley Medical Center-Ic Campus
8.80,2.80,33.75117,-116.96028,CA,40000,9000,50,73,82,Hemet Valley Medical Center
9.81,3.02,33.93530,-118.13030,CA,46000,10000,50,90,82,Downey Regional Medical Center
10.09,2.73,34.42951,-119.72333,CA,47000,9000,66,72,32,Santa Barbara Cottage Hospital
4.97,2.82,32.89810,-117.24217,CA,21000,9000,50,75,37,Scripps Green Hospital
11.93,2.95,34.13364,-118.15275,CA,57000,10000,66,65,57,Huntington Memorial Hospital
17.71,4.14,37.43436,-122.18013,CA,87000,16000,50,58,27,Stanford Hospital
11.82,3.21,37.34027,-120.46817,CA,56000,11000,50,77,37,Mercy Medical Center
13.00,4.29,37.76421,-122.45716,CA,62000,17000,66,52,90,Ucsf Medical Center
24.47,3.18,37.66540,-120.99743,CA,122000,11000,66,66,9,Doctors Medical Center
11.83,2.61,34.20285,-118.62962,CA,56000,8000,50,61,13,West Hills Hospital & Medical Center
9.08,3.04,33.80861,-118.18661,CA,42000,11000,66,65,27,Long Beach Memorial Medical Center
13.20,3.22,37.69824,-122.08730,CA,63000,12000,66,61,54,Eden Medical Center
7.69,2.74,36.83863,-119.66183,CA,35000,9000,50,85,48,Clovis Community Medical Center
21.29,3.07,37.98396,-122.03464,CA,105000,11000,50,76,97,John Muir Medical Center - Concord Campus
9.38,2.94,38.66956,-121.31378,CA,44000,10000,66,66,29,Mercy San Juan Medical Center
12.36,3.31,37.98224,-121.80362,CA,59000,12000,50,58,24,Sutter Delta Medical Center
15.26,3.17,34.20777,-118.88305,CA,74000,11000,50,51,69,Los Robles Hospital & Medical Center
10.61,2.80,37.66867,-120.97339,CA,50000,9000,66,80,54,Memorial  Medical Center
11.24,2.65,33.56100,-117.66530,CA,53000,9000,66,58,12,Mission Hospital Regional Med Center
14.66,2.66,33.76335,-116.40628,CA,71000,9000,50,56,39,Eisenhower Medical Center
13.43,3.99,38.55484,-121.45628,CA,65000,16000,50,50,3,University Of California Davis Medical Center
8.74,2.68,33.60883,-117.70881,CA,40000,9000,50,70,90,Saddleback Memorial Medical Center
8.51,2.60,34.24359,-119.01992,CA,39000,8000,50,73,69,St Johns Pleasant Valley Hospital
15.18,2.68,34.39755,-118.55330,CA,74000,9000,50,60,21,Henry Mayo Newhall Memorial Hospital
18.54,3.71,34.07664,-118.37955,CA,91000,14000,100,58,48,Cedars-Sinai Medical Center
8.14,2.66,33.70167,-117.95566,CA,37000,9000,50,82,88,Orange Coast Memorial Medical Center
16.78,3.65,34.06193,-118.20157,CA,82000,14000,33,71,3,Keck Hospital Of Usc
7.02,2.74,33.55876,-117.18329,CA,31000,9000,66,73,74,Southwest Healthcare System
16.34,2.70,34.17067,-118.53200,CA,80000,9000,50,57,63,Providence Tarzana Medical Center
9.43,2.88,40.58532,-122.38702,CA,44000,10000,50,78,98,Shasta Regional Medical Center
6.41,2.52,40.41481,-104.70890,CO,28000,8000,50,73,57,North Colorado Medical Center
6.97,2.45,39.76893,-105.09006,CO,31000,8000,50,47,79,Exempla Lutheran Medical Center
4.62,2.54,40.57315,-105.05741,CO,19000,8000,50,68,95,Poudre Valley Hospital
6.08,2.52,38.28184,-104.61256,CO,26000,8000,66,68,29,Parkview Medical Center Inc
7.92,2.50,38.83903,-104.80024,CO,36000,8000,66,68,33,Memorial Hospital Central
7.16,2.71,39.09046,-108.56190,CO,32000,9000,50,48,57,St Marys Hospital And Medical Center
9.73,3.56,39.74234,-104.84156,CO,45000,13000,66,66,69,University Of Colorado Hospital Anschutz Inpatient
6.32,2.36,38.86559,-104.82182,CO,28000,7000,50,70,37,Centura Health-Penrose St Francis Health Services
8.48,2.71,39.73231,-104.93396,CO,39000,9000,75,50,32,Rose Medical Center
8.44,2.43,39.65399,-104.98116,CO,39000,7000,33,47,17,Swedish Medical Center
6.02,2.54,39.84960,-105.01825,CO,26000,8000,50,61,48,Centura Health-St Anthony North Hospital
7.29,2.67,39.52910,-104.87121,CO,33000,9000,50,76,79,Sky Ridge Medical Center
9.33,2.41,39.57629,-104.98610,CO,43000,7000,50,78,54,Centura Health-Littleton Adventist Hospital
5.03,2.28,40.45184,-105.19608,CO,21000,7000,50,78,44,Medical Center Of The Rockies
8.07,2.99,41.30978,-72.93806,CT,37000,10000,66,57,8,Hospital Of St Raphael
6.35,3.07,41.77507,-72.69941,CT,28000,11000,50,53,85,St Francis Hospital & Medical Center
6.53,2.80,41.55959,-73.05941,CT,29000,9000,33,57,69,Waterbury Hospital
8.47,2.90,41.05562,-73.55390,CT,39000,10000,50,52,10,Stamford Hospital
3.95,2.67,41.33722,-72.10380,CT,15000,9000,50,72,92,Lawrence & Memorial Hospital
6.09,3.37,41.18881,-73.16645,CT,26000,12000,50,51,21,Bridgeport Hospital
4.71,3.93,41.55241,-73.03554,CT,19000,15000,50,56,39,Saint Marys Hospital
6.18,2.67,41.54874,-72.80148,CT,27000,9000,50,60,79,Midstate Medical Center
6.40,2.70,41.03431,-73.63020,CT,28000,9000,50,48,63,Greenwich Hospital Association
5.37,2.52,41.21646,-73.06525,CT,23000,8000,50,66,24,Milford Hospital Inc
8.58,3.61,41.30400,-72.93502,CT,39000,14000,66,41,3,Yale-New Haven Hospital
7.56,3.33,41.75412,-72.67927,CT,34000,12000,50,47,9,Hartford Hospital
5.48,2.63,41.78185,-72.52591,CT,23000,8000,50,68,1,Manchester Memorial Hospital
7.01,3.04,41.20049,-73.20281,CT,31000,11000,66,78,63,St Vincent'S Medical Center
5.98,2.59,41.67540,-72.93617,CT,26000,8000,50,73,33,Bristol Hospital
5.88,2.94,41.33493,-73.08978,CT,25000,10000,50,77,92,Griffin Hospital
5.02,2.91,41.40474,-73.44739,CT,21000,10000,50,66,57,Danbury Hospital
7.77,2.99,41.11147,-73.42010,CT,35000,10000,50,72,92,Norwalk Hospital Association
5.20,2.77,41.66107,-72.78671,CT,22000,9000,50,52,8,Hospital Of Central Connecticut The
4.66,3.45,41.73545,-72.79489,CT,19000,13000,25,60,8,John Dempsey Hospital
4.88,2.88,39.69005,-75.68408,DE,20000,10000,66,58,39,Christiana Care Health Services Inc.
6.23,2.61,39.15135,-75.52309,DE,27000,8000,50,58,90,Bayhealth - Kent General Hospital
6.10,2.52,38.77159,-75.14210,DE,26000,8000,50,90,81,Beebe Medical Center
4.88,3.26,38.91221,-77.07588,DC,20000,12000,66,65,0,Georgetown University Hospital
4.18,2.45,38.93576,-77.10909,DC,17000,8000,50,76,97,Sibley Memorial Hospital
7.32,3.20,38.92944,-77.01473,DC,33000,11000,33,58,1,Washington Hospital Center
7.80,3.22,30.34913,-81.66391,FL,35000,12000,50,62,0,Shands Jacksonville Medical Center
11.38,2.63,26.50479,-80.06979,FL,54000,8000,50,53,99,Bethesda Memorial Hospital
7.58,2.67,28.52517,-81.37729,FL,34000,9000,66,47,29,Orlando Health
8.34,2.59,28.57345,-81.36990,FL,38000,8000,83,66,24,Florida Hospital
12.00,3.08,25.68309,-80.34038,FL,57000,11000,50,62,85,Baptist Hospital Of Miami Inc
15.30,2.99,25.78846,-80.21644,FL,74000,10000,83,56,0,University Of Miami Hospital
5.71,2.46,26.62849,-81.87423,FL,24000,8000,66,52,16,Lee Memorial Hospital
5.29,2.53,29.20117,-81.05828,FL,22000,8000,66,76,79,Halifax Health Medical Center
6.80,2.43,26.15053,-81.79919,FL,30000,7000,66,62,39,Naples Community Hospital
6.29,2.37,28.08771,-80.61362,FL,27000,7000,66,58,17,Holmes Regional Medical Center
10.01,4.45,25.79143,-80.21250,FL,47000,18000,83,48,4,Jackson Memorial Hospital
6.56,2.25,28.83363,-82.33561,FL,29000,6000,50,55,44,Citrus Memorial Hospital
4.39,2.51,30.47650,-87.21219,FL,18000,8000,50,41,39,Sacred Heart Hospital
5.22,2.39,30.15963,-85.64818,FL,22000,7000,66,73,43,Bay Medical Center
4.12,2.39,28.63051,-80.82437,FL,16000,7000,50,68,98,Parrish Medical Center
12.14,2.85,25.86166,-80.21398,FL,58000,10000,50,83,69,North Shore Medical Center
12.44,3.00,25.81317,-80.13996,FL,59000,10000,66,47,24,Mount Sinai Medical Center
9.67,2.73,27.49789,-82.56220,FL,45000,9000,50,55,29,Manatee Memorial Hospital
9.17,2.65,26.01867,-80.17981,FL,42000,9000,83,63,76,Memorial Regional Hospital
5.97,2.42,30.30835,-81.68919,FL,26000,7000,50,68,82,St Vincent'S Medical Center
5.49,2.26,28.01404,-82.78368,FL,23000,7000,50,75,54,Mease Hospital Dunedin
9.37,2.46,27.19837,-80.24306,FL,43000,8000,66,70,57,Martin Memorial Medical Center
9.00,2.26,28.26092,-82.18802,FL,42000,7000,50,62,88,Florida Hospital Zephyrhills
5.93,2.91,25.86856,-80.31222,FL,26000,10000,50,88,92,Palm Springs General Hospital
7.16,2.35,28.55140,-81.72120,FL,32000,7000,0,0,0,South Lake Hospital
7.79,2.38,28.02768,-81.72466,FL,35000,7000,50,62,2,Winter Haven Hospital
18.20,3.20,25.84597,-80.26872,FL,89000,11000,75,82,99,Hialeah Hospital
5.49,2.29,28.82358,-81.71133,FL,23000,7000,50,71,48,Florida Hospital Waterman
5.74,2.32,29.17594,-82.13898,FL,25000,7000,50,60,94,Munroe Regional Medical Center
5.72,2.29,28.25431,-82.71447,FL,24000,7000,50,96,39,Morton Plant North Bay Hospital
6.33,2.32,27.78088,-82.65126,FL,28000,7000,50,68,57,St Anthony'S Hospital
6.17,2.35,29.24333,-81.10760,FL,27000,7000,50,67,95,Florida Hospital Memorial Medical Center
7.33,2.33,27.09043,-82.44499,FL,33000,7000,50,76,48,Venice Regional Medical Center
11.22,2.48,28.53906,-82.44193,FL,53000,8000,50,75,57,Brooksville Regional Hospital
5.06,2.27,28.91403,-81.28480,FL,21000,7000,83,75,5,Florida Hospital Fish Memorial
8.23,2.42,26.18711,-80.11941,FL,38000,7000,83,57,37,Holy Cross Hospital Inc
7.18,2.60,27.98242,-82.49025,FL,32000,8000,66,60,29,St Joseph'S Hospital
7.45,2.37,26.98905,-82.09559,FL,33000,7000,50,68,43,Peace River Regional Medical Center
11.96,2.57,26.59805,-80.09271,FL,57000,8000,100,60,27,Jfk Medical Center
4.74,2.28,28.80659,-81.86906,FL,19000,7000,33,67,24,Leesburg Regional Medical Center
5.70,2.37,27.31827,-82.53140,FL,24000,7000,33,37,69,Sarasota Memorial Hospital
7.25,2.44,30.31525,-81.66398,FL,32000,7000,66,47,12,Baptist Medical Center
7.52,2.57,29.86371,-81.31749,FL,34000,8000,66,76,29,Flagler Hospital
5.11,2.41,28.33522,-80.72319,FL,21000,7000,50,63,97,Wuesthoff Medical Center  Rockledge
5.49,2.39,30.43066,-87.23191,FL,23000,7000,50,72,17,Baptist Hospital
3.57,2.51,27.65832,-80.39307,FL,13000,8000,66,76,99,Indian River Medical Center
6.42,2.40,27.50001,-81.43962,FL,28000,7000,50,61,85,Florida Hospital Heartland Medical Center
12.34,2.59,28.29946,-81.41021,FL,59000,8000,50,63,51,Osceola Regional Medical Center
6.16,3.33,29.64155,-82.34844,FL,27000,12000,66,53,29,Shands Hospital At The University Of Florida
6.38,2.28,30.27449,-81.40071,FL,28000,7000,66,93,69,Baptist Medical Center  Beaches
4.71,2.61,29.47897,-81.18915,FL,19000,8000,50,51,39,Florida Hospital Flagler
10.63,2.39,30.73540,-86.56171,FL,50000,7000,50,90,97,North Okaloosa Medical Center
10.10,3.36,25.47971,-80.43038,FL,47000,12000,50,86,69,Homestead Hospital
5.33,2.26,27.75214,-82.73951,FL,22000,7000,50,62,85,Palms Of Pasadena Hospital
5.00,2.42,27.95192,-82.80379,FL,21000,7000,66,62,9,Morton Plant Hospital
11.28,3.15,27.93740,-82.45927,FL,53000,11000,66,66,0,Tampa General Hospital
13.79,3.46,25.96994,-80.14533,FL,66000,13000,50,63,79,Aventura Hospital And Medical Center
5.48,2.45,28.01563,-82.13900,FL,23000,8000,50,92,57,South Florida Baptist Hospital
6.77,2.50,30.45726,-84.26175,FL,30000,8000,66,57,63,Tallahassee Memorial Healthcare
7.26,2.46,28.18120,-81.64018,FL,33000,8000,50,72,57,Heart Of Florida Regional Medical Center
4.99,2.82,30.26389,-81.44283,FL,21000,9000,83,62,90,Mayo Clinic
8.42,2.70,30.18340,-82.68783,FL,39000,9000,0,0,0,Lake City Medical Center
7.88,2.44,28.06172,-81.95304,FL,36000,7000,50,52,3,Lakeland Regional Medical Center
8.01,2.25,27.30187,-82.45428,FL,36000,6000,33,67,95,Doctors Hospital Of Sarasota
5.37,2.40,26.35875,-80.10203,FL,23000,7000,66,46,43,Boca Raton Regional Hospital
5.50,2.36,28.07111,-82.42342,FL,23000,7000,50,68,37,Florida Hospital Tampa
5.18,2.52,27.22739,-81.85108,FL,22000,8000,0,0,0,Desoto Memorial Hospital
11.43,2.40,30.28793,-81.60103,FL,54000,7000,33,48,24,Memorial Hospital Jacksonville
16.90,2.56,27.80541,-82.72694,FL,83000,8000,33,48,8,St Petersburg General Hospital
10.77,3.07,25.70558,-80.29311,FL,51000,11000,0,0,0,Larkin Community Hospital
15.77,3.04,25.88563,-80.32635,FL,77000,11000,66,78,90,Palmetto General Hospital
10.53,2.35,28.19342,-82.46987,FL,49000,7000,50,77,43,Medical Center Of Trinity
11.93,2.39,29.66085,-82.41172,FL,57000,7000,33,52,17,North Florida Regional Medical Center
12.93,2.84,25.73195,-80.38580,FL,62000,10000,33,51,79,Kendall Regional Medical Center
8.43,2.32,29.17550,-82.13680,FL,39000,7000,83,55,85,Ocala Regional Medical Center
7.98,2.33,27.48213,-82.62126,FL,36000,7000,50,75,69,Blake Medical Center
6.21,2.39,26.52735,-81.83337,FL,27000,7000,50,58,63,Gulf Coast Medical Center Lee Mem Health System
10.17,2.35,26.21219,-80.25478,FL,48000,7000,0,0,0,University Hospital And Medical Center
15.27,2.50,30.16550,-81.73775,FL,74000,8000,33,68,57,Orange Park Medical Center
13.19,2.48,26.12354,-80.25951,FL,63000,8000,50,57,74,Westside Regional Medical Center
9.37,2.30,30.51624,-87.21856,FL,43000,7000,50,65,4,West Florida Hospital
12.98,2.28,26.98884,-82.09877,FL,62000,7000,50,80,57,Fawcett Memorial Hospital
5.20,2.31,26.63958,-81.94164,FL,22000,7000,50,52,21,Cape Coral Hospital
14.03,2.61,27.91458,-82.80382,FL,68000,8000,50,48,24,Largo Medical Center
6.05,2.33,28.95195,-82.62421,FL,26000,7000,50,72,21,Seven Rivers Regional Medical Center
8.42,2.52,26.92138,-80.09708,FL,39000,8000,50,61,54,Jupiter Medical Center
8.70,2.49,30.47616,-84.23140,FL,40000,8000,50,66,57,Capital Regional Medical Center
8.40,2.29,28.36128,-82.68883,FL,38000,7000,66,67,90,Regional Medical Center Bayonet Point
13.12,2.48,26.43709,-80.12728,FL,63000,8000,83,72,92,Delray Medical Center
8.46,2.26,27.71350,-82.36512,FL,39000,7000,33,66,33,South Bay Hospital
9.84,2.78,27.28861,-80.29431,FL,46000,9000,50,65,54,St Lucie Medical Center
12.85,2.27,28.53585,-82.53404,FL,62000,7000,66,71,57,Oak Hill Hospital
5.83,2.27,28.03957,-82.70875,FL,25000,7000,66,66,54,Mease Countryside Hospital
8.42,2.22,26.94996,-82.32651,FL,39000,6000,0,0,0,Englewood Community Hospital
10.19,2.49,26.01394,-80.30980,FL,48000,8000,66,71,63,Memorial Hospital West
6.32,3.35,25.74731,-80.31765,FL,28000,12000,50,85,78,Westchester General Hospital
9.23,2.34,26.21388,-81.73257,FL,43000,7000,33,80,33,Physicians Regional Medical Center - Pine Ridge
9.90,2.43,26.70181,-80.05055,FL,46000,7000,50,58,63,Good Samaritan Medical Center
5.53,2.47,26.08155,-80.36449,FL,24000,8000,100,57,48,Cleveland Clinic Hospital
5.24,2.30,28.94952,-81.95843,FL,22000,7000,33,80,94,Villages Regional Hospital The
16.82,3.24,25.72132,-80.27116,FL,82000,12000,0,0,0,Doctors Hospital Inc
6.60,2.40,28.24311,-81.30279,FL,29000,7000,50,86,41,St Cloud Regional Medical Center
7.69,2.29,30.25377,-81.58270,FL,35000,7000,50,77,29,St Vincent'S Medical Center Southside
4.56,2.33,34.78963,-84.98398,GA,18000,7000,50,76,10,Hamilton Medical Center
7.29,2.40,34.17863,-84.13992,GA,33000,7000,66,63,46,Northside Hospital Forsyth
5.29,2.59,31.59023,-84.15756,GA,22000,8000,50,53,11,Phoebe Putney Memorial Hospital
5.19,2.88,33.79230,-84.32107,GA,22000,10000,50,41,8,Emory University Hospital
5.19,2.51,32.02825,-81.09977,GA,22000,8000,83,81,1,Candler Hospital
5.83,2.50,33.47096,-81.98176,GA,25000,8000,50,51,21,University Hospital
5.66,2.57,34.30335,-83.81737,GA,24000,8000,66,58,44,Northeast Georgia Medical Center Inc
6.39,2.57,33.96770,-84.55011,GA,28000,8000,66,62,44,Wellstar Kennestone Hospital
4.06,2.75,32.03185,-81.09158,GA,16000,9000,66,61,24,Memorial Health Univ Med Cen Inc
4.87,2.33,31.98515,-81.15475,GA,20000,7000,66,72,33,St Joseph'S Hospital - Savannah
6.77,2.58,32.61642,-83.63065,GA,30000,8000,50,73,74,Houston Medical Center
4.90,2.50,33.96117,-83.39832,GA,20000,8000,50,68,92,Athens Regional Medical Center
6.75,2.57,32.41483,-81.76990,GA,30000,8000,50,82,39,East Georgia Regional Medical Center
4.22,2.59,33.78956,-84.28077,GA,17000,8000,50,83,11,Dekalb Medical Center
4.54,2.70,33.76810,-84.38616,GA,18000,9000,33,45,9,Emory University Hospital Midtown
6.27,2.51,33.90877,-84.35180,GA,27000,8000,50,55,3,Saint Joseph'S Hospital Of Atlanta Inc
6.30,2.36,33.81003,-84.39568,GA,28000,7000,33,57,44,Piedmont Hospital
4.98,2.51,33.96351,-84.01769,GA,21000,8000,50,90,44,Gwinnett Medical Center
6.37,2.66,32.83041,-83.63476,GA,28000,9000,66,48,44,Medical Center Of Central Georgia
4.09,2.30,32.50679,-84.95933,GA,16000,7000,83,67,69,St Francis Hospital Inc
6.04,2.60,33.85638,-84.60446,GA,26000,8000,50,56,33,Wellstar Cobb Hospital
7.46,2.44,33.90903,-84.35410,GA,34000,7000,66,63,19,Northside Hospital
7.78,2.56,32.84705,-83.61823,GA,35000,8000,66,62,9,Coliseum Medical Center
10.76,2.61,33.48259,-82.09038,GA,51000,8000,50,58,8,Doctors Hospital
6.90,2.41,33.73938,-84.73111,GA,31000,7000,50,91,57,Wellstar Douglas Hospital
5.53,2.51,33.51144,-84.22200,GA,23000,8000,50,91,92,Henry Medical Center Inc
9.59,2.43,33.87683,-84.02136,GA,45000,7000,50,77,44,Emory Eastside Medical Center
18.54,2.59,34.06334,-84.31976,GA,91000,8000,75,70,74,North Fulton Regional Hospital
5.70,2.36,33.45252,-84.50697,GA,24000,7000,50,60,33,Piedmont Fayette Hospital
6.63,2.52,34.42855,-84.48026,GA,29000,8000,0,0,0,Piedmont Mountainside Hospital Inc
4.01,2.53,42.59072,-114.49627,ID,16000,8000,50,63,29,St Lukes Magic Valley Rmc
4.35,2.44,43.61218,-116.19234,ID,17000,7000,66,61,16,St Lukes Regional Medical Center
8.12,2.55,43.46987,-111.99208,ID,37000,8000,66,66,57,Eastern Idaho Regional Medical Center
7.83,2.49,41.52896,-88.13550,IL,35000,8000,50,75,82,Provena St Joseph Medical Center
5.50,2.65,42.06550,-87.68428,IL,23000,9000,33,55,57,Evanston Hospital
4.90,2.36,37.80207,-89.02660,IL,20000,7000,0,0,0,Herrin Hospital
6.20,2.34,40.75318,-89.59321,IL,27000,7000,50,75,56,Proctor Hospital
4.09,2.50,39.93563,-91.39833,IL,16000,8000,50,55,92,Blessing Hospital
9.06,2.55,41.72930,-88.26976,IL,42000,8000,50,90,63,Copley Memorial Hospital
7.20,2.79,42.07012,-88.33180,IL,32000,9000,50,82,24,Sherman Hospital
3.79,2.34,39.12680,-88.55059,IL,14000,7000,0,0,0,St Anthonys Memorial Hospital
3.20,2.48,38.52908,-89.11604,IL,11000,8000,50,86,17,St Marys Hospital
6.97,2.46,40.95560,-90.36618,IL,31000,8000,0,0,0,Galesburg Cottage Hospital
4.12,2.35,38.32292,-88.91026,IL,16000,7000,50,81,90,Good Samaritan Regional Hlth Center
6.63,2.64,42.05624,-87.74012,IL,29000,8000,50,75,85,Skokie Hospital
6.51,2.66,39.80726,-89.64496,IL,29000,9000,50,58,79,St Johns Hospital
6.38,2.97,41.83195,-87.79266,IL,28000,10000,50,78,57,Macneal  Hospital
5.25,2.55,39.74629,-90.25907,IL,22000,8000,0,0,0,Passavant Area Hospital
6.00,2.43,41.66900,-87.81414,IL,26000,7000,50,72,95,Palos Community Hospital
7.25,2.53,41.79660,-87.88627,IL,32000,8000,83,63,37,Adventist La Grange Memorial Hospital
5.98,2.55,40.70200,-89.59222,IL,26000,8000,66,57,3,Saint Francis Medical Center
7.28,3.75,41.78829,-87.60485,IL,33000,14000,66,66,11,The University Of Chicago Medical Center
6.75,2.60,40.11696,-88.21506,IL,30000,8000,33,63,13,Carle Foundation Hospital
7.04,2.66,40.13811,-87.64569,IL,31000,9000,0,0,0,Provena United Samaritans Medctr-Logan
4.61,2.29,41.36897,-88.42537,IL,19000,7000,0,0,0,Morris Hospital & Healthcare Centers
9.09,2.90,41.97532,-87.69958,IL,42000,10000,50,85,51,Swedish Covenant Hospital
6.34,2.73,42.31832,-88.27920,IL,28000,9000,50,83,24,Centegra Health System - Mc Henry Hospital
5.79,2.58,41.98743,-87.81440,IL,25000,8000,66,62,69,Resurrection Medical Center
7.69,3.75,41.87497,-87.66927,IL,35000,14000,50,42,33,Rush University Medical Center
6.37,2.51,41.80555,-87.92059,IL,28000,8000,50,67,54,Hinsdale Hospital
13.66,2.69,38.70148,-90.14382,IL,66000,9000,0,0,0,Gateway Regional Medical Center
4.39,2.76,39.86644,-88.96090,IL,18000,9000,50,60,69,Decatur Memorial Hospital
5.00,2.54,39.80893,-89.65530,IL,21000,8000,83,57,11,Memorial Medical Center
7.13,4.06,41.86927,-87.67052,IL,32000,16000,50,76,29,University Of Illinois Hospital
7.44,2.53,41.12049,-87.87187,IL,33000,8000,50,68,97,Provena St Marys Hospital
4.51,3.14,41.84639,-87.62345,IL,18000,11000,25,46,39,Mercy Hospital And Medical Center
4.64,2.43,42.29592,-89.63773,IL,19000,7000,0,0,0,Fhn Memorial Hospital
4.27,2.33,37.72790,-89.22058,IL,17000,7000,50,63,90,Memorial Hospital Of Carbondale
5.63,2.56,39.82659,-88.93119,IL,24000,8000,50,71,82,St Marys Hospital
6.24,2.92,41.52283,-87.71111,IL,27000,10000,50,75,33,Franciscan St James Health
6.91,2.54,41.72094,-87.69220,IL,31000,8000,16,63,69,Little Company Of Mary Hospital
7.25,3.31,41.93641,-87.65295,IL,32000,12000,50,77,85,Advocate Illinois Masonic Medical Center
6.50,2.38,38.55020,-90.02146,IL,29000,7000,66,81,21,Memorial Hospital
5.11,2.59,41.12572,-87.88526,IL,21000,8000,50,72,81,Riverside Medical Center
4.44,2.36,38.51081,-89.99014,IL,18000,7000,50,65,6,St Elizabeth Hospital
6.38,2.43,39.48849,-88.27581,IL,28000,7000,0,0,0,Sarah Bush Lincoln Health Center
5.66,2.60,41.60726,-87.66060,IL,24000,8000,50,65,76,Ingalls Memorial Hospital
9.51,2.42,41.86362,-87.93567,IL,44000,7000,50,76,92,Elmhurst Memorial Hospital
8.94,2.91,42.27447,-87.95764,IL,41000,10000,50,70,79,Advocate Condell Medical Center
5.95,2.92,41.72031,-87.73249,IL,26000,10000,50,57,74,Advocate Christ Hospital & Medical Center
7.68,3.21,40.70065,-89.59505,IL,35000,11000,50,78,48,Methodist Medical Center Of Illinois
4.77,2.52,41.54446,-87.98379,IL,20000,8000,50,68,88,Silver Cross Hospital  And Medical Centers
4.76,2.82,42.03837,-87.84820,IL,19000,9000,83,77,69,Advocate Lutheran General Hospital
5.45,2.94,41.93418,-87.63579,IL,23000,10000,50,61,29,Saint Joseph Hospital
6.49,2.78,42.26584,-89.07428,IL,28000,9000,50,65,76,Swedish American Hospital
5.72,2.40,41.76076,-88.15016,IL,24000,7000,50,68,29,Edward Hospital
6.04,2.31,42.26634,-89.00900,IL,26000,7000,50,50,29,Saint Anthony Medical Center
5.27,2.78,42.29844,-89.09897,IL,22000,9000,50,87,56,Rockford Memorial Hospital
7.77,2.42,41.87269,-88.15684,IL,35000,7000,66,62,88,Central Dupage Hospital
5.99,3.32,41.56720,-87.69566,IL,26000,12000,50,80,63,Advocate South Suburban Hospital
6.41,2.48,41.94560,-87.76897,IL,28000,8000,50,75,21,Our Lady Of The Resurrection Med Ctr
6.18,2.49,42.06732,-87.99368,IL,27000,8000,66,67,57,Northwest Community Hospital
9.07,2.44,42.00413,-88.01745,IL,42000,7000,66,78,88,Alexian Brothers Medical Center
4.92,3.24,41.86110,-87.83404,IL,20000,12000,66,46,4,Loyola University Medical Center
3.43,2.30,41.48200,-90.57158,IL,13000,7000,50,58,63,Trinity Rock Island
7.64,2.99,41.89477,-87.62131,IL,34000,10000,50,61,94,Northwestern Memorial Hospital
6.13,2.32,41.81791,-88.00907,IL,27000,7000,50,86,95,Advocate Good Samaritan Hospital
7.12,2.47,42.05260,-88.14173,IL,32000,8000,50,80,57,St Alexius Medical Center
6.36,2.67,42.19586,-88.17286,IL,28000,9000,50,80,95,Advocate Good Shepherd Hospital
4.45,2.32,40.42687,-86.88197,IN,18000,7000,0,0,0,Franciscan St Elizabeth Health - Lafayette Central
3.60,2.31,39.76255,-86.50165,IN,13000,7000,0,0,0,Hendricks Regional Health
6.50,2.31,41.61055,-86.72511,IN,29000,7000,0,0,0,Indiana University Health La Porte Hospital
3.82,2.16,40.44665,-86.12707,IN,15000,6000,50,80,54,Howard Regional Health System
4.69,2.35,38.28244,-85.74923,IN,19000,7000,50,83,48,Clark Memorial Hospital
5.53,2.57,41.70877,-86.17026,IN,24000,8000,50,88,57,Saint Joseph Regional Medical Center
6.00,2.47,41.70639,-86.89936,IN,26000,8000,0,0,0,Franciscan St Anthony Health - Michigan City
9.89,2.45,41.03874,-85.24876,IN,46000,8000,66,63,32,Lutheran Hospital Of Indiana
4.21,2.38,41.70568,-85.93404,IN,17000,7000,66,53,69,Elkhart General Hospital
5.58,2.77,41.04659,-85.10906,IN,24000,9000,83,60,44,Parkview Regional Medical Center
5.10,2.49,39.48518,-87.40893,IN,21000,8000,50,62,33,Union Hospital Inc
4.45,2.35,39.72432,-86.10055,IN,18000,7000,0,0,0,Franciscan St Francis Health - Beech Grove
4.31,2.46,41.51266,-87.26125,IN,17000,8000,50,78,85,St Mary Medical Center Inc
5.18,2.32,41.46729,-87.05130,IN,22000,7000,50,75,63,Porter Valparaiso Hospital
3.74,2.25,39.79490,-85.76770,IN,14000,6000,0,0,0,Hancock Regional Hospital
4.81,2.34,38.30195,-85.83409,IN,20000,7000,66,85,85,Floyd Memorial Hospital And Health Services
5.78,2.35,39.41951,-87.40898,IN,25000,7000,50,92,9,Terre Haute Regional Hospital
3.76,2.59,39.86405,-84.88413,IN,14000,8000,100,63,27,Reid Hospital & Health Care Services
6.41,2.58,39.16006,-86.54038,IN,28000,8000,50,56,24,Indiana University Health Bloomington Hospital
7.40,3.19,39.79009,-86.16260,IN,33000,11000,50,51,79,Indiana University Health
5.41,2.62,41.68479,-86.25217,IN,23000,8000,66,60,8,Memorial Hospital Of South Bend
6.35,2.33,37.98293,-87.57072,IN,28000,7000,83,66,13,Deaconess Hospital Inc
6.54,2.82,39.91001,-86.19660,IN,29000,9000,66,47,88,St Vincent Hospital & Health Services
6.00,2.43,40.09594,-85.68152,IN,26000,7000,0,0,0,Saint John'S Health System
7.78,2.69,40.19679,-85.41573,IN,35000,9000,66,62,85,Indiana University Health Ball Memorial Hospital
6.40,2.48,41.49222,-87.52429,IN,28000,8000,50,85,54,Franciscan St Margaret Health - Dyer
4.34,2.43,39.52494,-85.78113,IN,17000,7000,0,0,0,Major Hospital
4.61,2.35,37.96320,-87.50292,IN,19000,7000,66,67,32,St Mary'S Medical Center Of Evansville Inc
5.25,2.50,40.39424,-86.83516,IN,22000,8000,66,82,17,Franciscan St Elizabeth Health - Lafayette East
3.57,2.44,39.21585,-85.89683,IN,13000,7000,50,76,95,Columbus Regional Hospital
4.58,2.47,41.55065,-87.50619,IN,19000,8000,50,75,85,Community Hospital
3.91,2.38,41.39576,-87.36689,IN,15000,7000,50,83,51,Franciscan St Anthony Health - Crown Point
4.61,2.27,39.63776,-86.13260,IN,19000,7000,50,68,76,Community Hospital South
6.23,2.62,39.78047,-86.34084,IN,27000,8000,0,0,0,Iu Health West Hospital
4.83,2.46,39.90060,-86.04218,IN,20000,8000,50,77,76,Community Hospital North
7.39,3.00,40.40296,-86.80885,IN,33000,10000,50,83,97,Indiana University Health Arnett Hospital
3.68,2.34,42.49388,-94.18926,IA,14000,7000,0,0,0,Trinity Regional Medical Center
6.07,2.64,41.60051,-93.61086,IA,26000,9000,0,0,0,Iowa Lutheran Hospital
6.54,2.36,42.03321,-93.61164,IA,29000,7000,0,0,0,Mary Greeley Medical Center
3.91,2.41,41.54190,-90.55691,IA,15000,7000,66,58,97,Genesis Medical Center-Davenport
3.88,2.41,41.98570,-91.66093,IA,15000,7000,66,75,90,St Lukes Hospital
3.98,2.44,40.81009,-91.17356,IA,15000,7000,0,0,0,Great River Medical Center
5.70,3.16,41.66092,-91.54800,IA,24000,11000,16,38,63,University Of Iowa Hospital & Clinics
4.52,2.39,43.15063,-93.21718,IA,18000,7000,50,82,63,Mercy Medical Center-North Iowa
4.25,2.22,42.49227,-90.67404,IA,17000,6000,50,75,95,Mercy Medical Center-Dubuque
4.29,2.27,41.97864,-91.65507,IA,17000,7000,50,80,99,Mercy Medical Center - Cedar Rapids
4.56,2.50,41.86141,-90.18921,IA,18000,8000,0,0,0,Mercy Medical Center-Clinton
6.28,2.58,41.58955,-93.63248,IA,27000,8000,66,37,82,Iowa Methodist Medical Center
5.28,2.53,41.59886,-93.62344,IA,22000,8000,83,75,29,Mercy Medical Center-Des Moines
3.83,2.37,42.52665,-92.33957,IA,15000,7000,50,81,6,Allen Memorial Hospital
4.41,2.53,42.51846,-96.40581,IA,18000,8000,50,60,90,St Lukes Regional Medical Center
4.38,2.34,42.49250,-96.39975,IA,18000,7000,66,71,54,Mercy Medical Center-Sioux City
3.23,2.27,39.05660,-95.69599,KS,12000,7000,33,51,33,St Francis Health Center Inc
6.27,2.60,38.07731,-97.89183,KS,27000,8000,50,80,90,Hutchinson Regional Medical Center Inc
6.96,2.72,39.05583,-94.60912,KS,31000,9000,66,53,63,University Of Kansas Hospital
6.68,2.47,39.05128,-95.69572,KS,29000,8000,66,71,10,Stormont-Vail Healthcare
6.46,2.31,38.99549,-94.69061,KS,28000,7000,66,46,21,Shawnee Mission Medical Center
5.99,2.49,37.70405,-97.31386,KS,26000,8000,66,68,21,Via Christi Hospitals Wichita Inc
11.51,2.87,37.69556,-97.29785,KS,55000,10000,66,52,5,Wesley Medical Center
6.70,2.43,39.12677,-94.78643,KS,30000,7000,50,60,82,Providence Medical Center
8.10,2.26,38.91047,-94.65205,KS,37000,7000,50,66,11,Menorah Medical Center
6.26,2.47,38.90355,-94.66966,KS,27000,8000,0,0,0,Saint Luke'S South Hospital
4.36,2.43,39.07816,-84.46695,KY,17000,7000,50,81,51,St Elizabeth Ft Thomas
4.16,2.31,38.03140,-84.52194,KY,16000,7000,83,67,79,Saint Joseph Hospital
5.09,2.55,37.11784,-84.10910,KY,21000,8000,50,75,63,Saint Joseph Hospital London
5.57,2.53,36.99641,-86.43006,KY,24000,8000,66,52,33,The Medical Center At Bowling Green
5.07,2.34,36.60798,-88.30957,KY,21000,7000,0,0,0,Murray-Calloway County Hospital
4.59,2.49,39.06704,-84.49946,KY,19000,8000,33,58,79,St Elizabeth Medical Center North
4.20,2.78,37.76518,-87.10197,KY,17000,9000,50,66,29,Owensboro Medical Health System
5.09,2.65,38.24927,-85.75081,KY,21000,9000,66,51,8,Jewish Hospital & St Mary'S Healthcare
4.83,2.41,39.01660,-84.63078,KY,20000,7000,50,75,63,St Elizabeth Florence
3.01,2.49,37.64378,-84.77272,KY,10000,8000,0,0,0,Ephraim Mcdowell Regional Medical Center
5.37,3.15,38.03282,-84.50674,KY,23000,11000,33,62,33,University Of Kentucky Hospital
4.35,2.50,36.92128,-84.11838,KY,17000,8000,25,78,82,Baptist Regional Medical Center
5.40,2.60,38.24806,-85.75125,KY,23000,8000,50,35,39,Norton Hospitals Inc
4.39,2.46,37.33959,-87.48988,KY,18000,8000,50,86,17,Regional Medical Center Of Hopkins County
6.01,2.29,37.06431,-88.67523,KY,26000,7000,50,42,20,Lourdes Hospital
5.91,2.46,38.01849,-84.51236,KY,25000,8000,50,71,57,Central Baptist Hospital
3.36,2.28,37.07404,-88.62685,KY,12000,7000,50,80,39,Western Baptist Hospital
4.19,2.28,38.23898,-85.63941,KY,17000,7000,66,57,74,Baptist Hospital East
7.26,2.69,37.08724,-84.61828,KY,33000,9000,66,60,17,Lake Cumberland Regional Hospital
5.20,2.45,30.20227,-92.01906,LA,22000,8000,50,73,29,Lafayette General Medical Center
6.53,2.39,31.28258,-92.46060,LA,29000,7000,50,65,79,Christus St Frances Cabrini Hospital
8.47,2.56,31.31451,-92.44997,LA,39000,8000,66,40,39,Rapides Regional Medical Center
5.05,2.76,30.01875,-90.19452,LA,21000,9000,66,61,62,Ochsner Foundation Hospital
6.76,2.38,30.46834,-90.11383,LA,30000,7000,50,70,8,St Tammany Parish Hospital
5.23,2.26,29.98815,-91.78471,LA,22000,7000,0,0,0,Iberia General Hospital And Medical Center
7.19,2.52,30.20458,-93.19774,LA,32000,8000,50,80,6,Lake Charles Memorial Hospital
4.67,2.49,30.40118,-91.11160,LA,19000,8000,83,51,33,Our Lady Of The Lake Regional Medical Center
4.52,2.42,30.15052,-92.03698,LA,18000,7000,50,71,57,Our Lady Of Lourdes Regional Medical Center Inc
6.01,2.70,32.48393,-93.77884,LA,26000,9000,50,63,62,Willis Knighton Medical Center
6.18,2.45,32.49997,-92.11359,LA,27000,8000,66,62,98,St Francis Medical Center
6.03,2.49,30.01438,-90.18155,LA,26000,8000,66,68,74,East Jefferson General Hospital
7.06,2.42,32.51315,-92.15713,LA,31000,7000,0,0,0,Glenwood Regional Medical Center
6.59,2.35,31.13861,-93.26892,LA,29000,7000,0,0,0,Byrd Regional Hospital
5.36,2.62,30.68494,-92.26601,LA,23000,8000,0,0,0,Mercy Regional Medical Center
3.88,2.43,44.81469,-68.77153,ME,15000,7000,0,0,0,St Joseph Hospital
4.40,2.41,43.65159,-70.26482,ME,18000,7000,0,0,0,Mercy Hospital
4.32,2.70,43.65325,-70.27533,ME,17000,9000,16,47,0,Maine Medical Center
4.29,2.52,43.47840,-70.49221,ME,17000,8000,0,0,0,Southern Maine Medical Center
3.71,2.52,44.10107,-70.21432,ME,14000,8000,66,70,57,Central Maine Medical Center
3.91,2.61,44.80988,-68.74929,ME,15000,8000,50,58,37,Eastern Maine Medical Center
5.92,2.64,45.25378,-69.44547,ME,26000,8000,50,48,51,Maine General Medical Center
3.36,2.44,43.44850,-70.76743,ME,12000,7000,0,0,0,Henrietta D Goodall Hospital
3.25,2.70,44.14436,-69.08577,ME,12000,9000,0,0,0,Penobscot Bay Medical Center
3.14,3.02,39.62183,-77.68219,MD,11000,10000,0,0,0,Meritus Medical Center
2.43,2.34,39.01578,-77.03591,MD,7000,7000,0,0,0,Holy Cross Hospital
3.14,3.02,39.42366,-77.41386,MD,11000,10000,0,0,0,Frederick Memorial Hospital
2.74,2.63,39.38813,-76.61068,MD,9000,8000,0,0,0,Saint Joseph Medical Center
3.12,2.63,39.29297,-76.61314,MD,11000,8000,0,0,0,Mercy Medical Center Inc
4.11,3.93,39.29688,-76.59242,MD,16000,15000,0,0,0,Johns Hopkins Hospital The
3.21,3.08,39.27352,-76.67219,MD,11000,11000,0,0,0,Saint Agnes Hospital
2.87,2.76,39.35262,-76.66196,MD,10000,9000,0,0,0,Sinai Hospital Of Baltimore
3.44,3.31,39.35169,-76.47919,MD,13000,12000,0,0,0,Franklin Square Hospital Center
3.03,2.91,38.98482,-77.00139,MD,11000,10000,0,0,0,Washington Adventist Hospital
2.98,2.87,39.15402,-77.05431,MD,10000,10000,0,0,0,Montgomery General Hospital Inc
3.63,3.79,38.36248,-75.59799,MD,14000,14000,0,0,0,Peninsula Regional Medical Center
2.65,2.56,38.99743,-77.11048,MD,9000,8000,0,0,0,Suburban Hospital
3.02,2.90,38.99014,-76.53398,MD,10000,10000,0,0,0,Anne Arundel Medical Center
4.13,3.95,39.64928,-78.73206,MD,16000,15000,0,0,0,Western Maryland Regional Medical Center
2.83,2.72,39.29100,-76.54623,MD,10000,9000,0,0,0,Johns Hopkins Bayview Medical Center
4.40,4.19,39.21770,-76.06494,MD,18000,17000,0,0,0,Chester River Hospital Center
2.88,2.77,39.55808,-76.99107,MD,10000,9000,0,0,0,Carroll Hospital Center
3.12,2.99,39.25189,-76.61399,MD,11000,10000,0,0,0,Harbor Hospital
2.68,2.58,38.52905,-76.97068,MD,9000,8000,0,0,0,Civista Medical Center
3.74,3.57,38.76970,-76.07697,MD,14000,13000,0,0,0,Memorial Hospital At Easton
4.04,3.86,39.29994,-76.62138,MD,16000,15000,0,0,0,Maryland General  Hospital
2.63,2.53,38.55963,-76.59455,MD,8000,8000,0,0,0,Calvert Memorial Hospital
3.00,2.88,39.35852,-76.78208,MD,10000,10000,0,0,0,Northwest Hospital Center
3.06,2.93,39.13732,-76.62228,MD,11000,10000,0,0,0,Baltimore Washington  Medical Center
3.25,3.11,39.39017,-76.62216,MD,12000,11000,0,0,0,Greater Baltimore Medical Center
3.14,3.01,39.21273,-76.88526,MD,11000,10000,0,0,0,Howard County General Hospital
2.64,2.54,39.51870,-76.34688,MD,9000,8000,0,0,0,Upper Chesapeake Medical Center
3.16,3.03,38.74827,-76.87590,MD,11000,11000,0,0,0,Southern Maryland Hospital Center
2.63,2.53,39.35962,-76.58851,MD,8000,8000,0,0,0,Good Samaritan Hospital
3.47,3.32,39.09796,-77.19799,MD,13000,12000,0,0,0,Shady Grove Adventist Hospital
3.03,2.92,38.33876,-75.21128,MD,11000,10000,0,0,0,Atlantic General Hospital
4.25,2.72,42.54113,-71.76120,MA,17000,9000,50,65,63,Healthalliance Hospitals Inc
3.45,2.77,42.37441,-71.13378,MA,13000,9000,66,85,17,Mount Auburn Hospital
3.22,2.56,41.94236,-71.27364,MA,12000,8000,50,66,13,Sturdy Memorial Hospital
3.84,2.81,42.70912,-71.14877,MA,15000,9000,50,71,79,Lawrence General Hospital
4.08,3.32,42.37451,-71.10418,MA,16000,12000,50,87,94,Cambridge Health Alliance
3.62,3.01,41.65298,-70.27484,MA,14000,10000,50,56,95,Cape Cod Hospital
4.57,2.42,42.33185,-72.65422,MA,19000,7000,50,87,88,Cooley Dickinson Hospital Incthe
3.60,2.68,41.69217,-71.16474,MA,13000,9000,50,100,85,Saint Anne'S Hospital
3.27,2.56,42.20038,-72.62762,MA,12000,8000,0,0,0,Holyoke Medical Center
3.98,3.79,42.35843,-71.05977,MA,15000,14000,66,51,0,Boston Medical Center Corporation
3.28,2.66,42.56407,-70.87543,MA,12000,9000,50,62,63,Beverly Hospital Corporation
6.25,2.70,42.51078,-70.90712,MA,27000,9000,33,47,69,North Shore Medical Center
3.46,3.46,42.34896,-71.14768,MA,13000,13000,50,68,57,St Elizabeth'S Medical Center
4.39,2.83,51.46599,-1.28140,MA,18000,9000,50,76,20,Berkshire Medical Center Inc
3.57,2.99,42.03597,-71.09792,MA,13000,10000,50,61,57,Signature Healthcare Brockton Hospital
2.90,2.64,41.94445,-70.64511,MA,10000,8000,50,82,24,Jordan Hospital Inc
4.00,2.84,42.64636,-71.34118,MA,16000,10000,50,87,95,Lowell General Hospital
5.49,2.78,42.11449,-72.59502,MA,23000,9000,50,77,76,Mercy Medical Center
2.86,2.42,42.25105,-71.01411,MA,10000,7000,0,0,0,Quincy Medical Center
2.77,2.69,42.46049,-71.06203,MA,9000,9000,50,52,76,Hallmark Health System
9.05,3.34,42.36227,-71.06941,MA,42000,12000,50,43,16,Massachusetts General Hospital
2.83,2.53,41.90456,-71.09562,MA,9000,8000,50,85,24,Morton Hospital
4.09,2.80,41.70928,-71.14519,MA,16000,9000,25,51,88,Southcoast Hospital Group Inc
3.80,3.03,42.12077,-72.60525,MA,15000,11000,33,61,82,Baystate Medical Center
3.17,2.66,42.72846,-71.16830,MA,11000,9000,50,73,33,Holy Family Hospital
3.07,2.56,42.64529,-71.30052,MA,11000,8000,0,0,0,Saints  Medical Center Inc
3.86,2.52,42.27743,-71.23690,MA,15000,8000,0,0,0,Beth Israel Deaconess Hospital - Needham
4.31,3.42,42.33719,-71.10939,MA,17000,13000,33,71,33,Beth Israel Deaconess Medical Center
3.64,2.48,42.13234,-71.52825,MA,14000,8000,50,71,95,Milford Regional Medical Center
4.12,2.49,42.17644,-70.95398,MA,16000,8000,66,70,48,South Shore Hospital
4.19,2.46,42.33149,-71.24568,MA,17000,8000,66,70,99,Newton-Wellesley Hospital
3.15,2.55,42.46581,-71.12210,MA,11000,8000,50,58,24,Winchester Hospital
7.69,3.26,42.33600,-71.10704,MA,35000,12000,66,40,20,Brigham And Women'S Hospital
2.38,2.78,42.09864,-71.06607,MA,7000,9000,50,58,92,Good Samaritan Medical Center
5.00,4.29,42.34951,-71.06331,MA,21000,17000,50,63,85,Tufts Medical Center
5.95,2.98,42.30049,-71.12771,MA,26000,10000,50,96,3,Faulkner Hospital
3.06,2.54,42.18869,-71.20197,MA,11000,8000,50,77,81,Norwood Hospital
3.11,2.57,41.56412,-70.62200,MA,11000,8000,50,68,94,Falmouth Hospital
6.23,3.38,42.27720,-71.75922,MA,27000,12000,50,36,29,Umass Memorial Medical Center Inc
3.42,2.77,42.48585,-71.20686,MA,13000,9000,66,76,16,Lahey Clinic Hospital
3.16,2.41,42.76256,-71.04507,MA,11000,7000,0,0,0,Merrimack Valley Hospital
3.74,2.74,42.28385,-71.41896,MA,14000,9000,50,76,85,Metrowest Medical Center
3.33,2.77,42.26633,-71.79760,MA,12000,9000,33,75,57,St Vincent Hospital
4.43,2.40,42.39466,-83.40537,MI,18000,7000,50,60,63,St Mary Mercy Hospital
5.56,2.83,42.28551,-85.58042,MI,24000,9000,66,82,13,Bronson Methodist Hospital
4.69,2.79,42.45741,-83.20513,MI,19000,9000,83,57,48,Providence Hospital And Medical Centers
4.99,2.76,42.29077,-83.21504,MI,21000,9000,33,48,69,Oakwood Hospital And Medical Center
3.36,2.46,42.08955,-86.47781,MI,12000,8000,33,68,88,Lakeland Hospital St Joseph
4.15,2.78,42.61425,-83.27602,MI,16000,9000,66,52,79,St Joseph Mercy Oakland
4.21,2.81,42.96881,-85.66649,MI,17000,9000,33,66,82,Spectrum Health - Butterworth Campus
4.47,2.43,43.58941,-83.86908,MI,18000,7000,33,55,98,Mclaren Bay Region
5.99,3.36,42.28388,-83.72960,MI,26000,12000,50,61,43,University Of Michigan Health System
4.12,2.55,42.61490,-82.96060,MI,16000,8000,50,66,54,Henry Ford Macomb Hospital
5.10,3.34,42.36762,-83.08461,MI,21000,12000,66,47,8,Henry Ford Hospital
4.28,2.92,42.95817,-85.66253,MI,17000,10000,50,53,90,Saint Mary'S Health Care
6.14,2.58,43.42857,-83.95556,MI,27000,8000,83,61,63,Covenant Medical Center Inc
3.68,2.43,42.33111,-85.17817,MI,14000,7000,50,83,63,Bronson Battle Creek Hospital
5.38,2.60,43.42612,-83.94185,MI,23000,8000,66,63,57,St Mary'S Of Michigan Medical Center
3.57,2.53,42.38392,-82.91480,MI,13000,8000,50,62,51,Beaumont Hospital Grosse Pointe
7.39,2.49,42.25117,-84.39240,MI,33000,8000,50,85,98,Allegiance Health
6.72,2.83,44.76156,-85.64143,MI,30000,9000,50,41,57,Munson Medical Center
5.07,2.81,42.51418,-83.19259,MI,21000,9000,66,60,16,William Beaumont Hospital
4.38,2.81,43.01399,-83.73250,MI,18000,9000,50,60,33,Mclaren Flint
4.23,2.59,42.27424,-83.36580,MI,17000,8000,50,70,48,Oakwood Annapolis Hospital
3.55,2.54,42.21065,-83.14861,MI,13000,8000,50,70,95,Henry Ford Wyandotte Hospital
4.07,3.16,42.46176,-83.37629,MI,16000,11000,50,78,24,Botsford Hospital
4.10,2.60,42.26181,-83.66003,MI,16000,8000,66,62,33,St Joseph Mercy Hospital
5.09,2.93,42.41975,-82.91442,MI,21000,10000,66,72,9,St John Hospital And Medical Center
9.10,2.78,42.70417,-84.55488,MI,42000,9000,33,76,21,Mclaren - Greater Lansing
5.60,2.66,42.11695,-83.21365,MI,24000,9000,33,70,79,Oakwood Southshore Medical Center
4.99,2.61,42.50514,-83.00422,MI,21000,8000,66,56,85,St John Macomb-Oakland Hospital-Macomb Center
5.51,2.94,42.89254,-83.63621,MI,23000,10000,66,70,13,Genesys Regional Medical Center - Health Park
5.71,2.42,42.98625,-82.42802,MI,24000,7000,50,62,29,Port Huron Hospital
3.72,2.64,43.63618,-84.26187,MI,14000,9000,50,72,69,Midmichigan Medical Center-Midland
3.30,2.56,42.58900,-82.89799,MI,12000,8000,66,61,63,Mount Clemens Regional Medical Center
8.08,2.84,42.73767,-84.51698,MI,37000,10000,83,68,1,Edward W Sparrow Hospital
3.56,2.78,42.33215,-83.31195,MI,13000,9000,50,82,37,Garden City Hospital
5.24,2.46,42.67850,-83.14771,MI,22000,8000,50,65,79,Crittenton Hospital Medical Center
5.58,2.57,42.61826,-83.09239,MI,24000,8000,83,60,62,William Beaumont Hospital-Troy
4.46,2.54,42.23506,-83.27602,MI,18000,8000,50,60,92,Oakwood Heritage Hospital
4.46,2.63,42.59290,-83.49920,MI,18000,8000,66,48,54,Huron Valley-Sinai Hospital
4.83,2.29,42.53914,-83.40777,MI,20000,7000,50,53,39,Henry Ford West Bloomfield Hospital
5.63,2.59,45.01403,-93.32177,MN,24000,8000,66,68,82,North Memorial Medical Center
4.28,2.69,46.79380,-92.09573,MN,17000,9000,83,75,79,Essentia Health St Mary'S Medical Center
5.20,2.98,44.02052,-92.48292,MN,22000,10000,83,42,32,Mayo Clinic - Saint Marys Hospital
5.54,2.88,45.57390,-94.16942,MN,24000,10000,50,61,37,St Cloud Hospital
7.05,2.59,44.94214,-93.10858,MN,31000,8000,50,86,33,United Hospital
3.38,2.51,46.79634,-92.08793,MN,12000,8000,50,71,29,St Lukes Hospital
3.18,2.53,44.93031,-93.36276,MN,11000,8000,66,72,94,Park Nicollet Methodist Hospital
3.97,2.39,44.84294,-93.79336,MN,15000,7000,0,0,0,Ridgeview Medical Center
7.14,2.63,44.95248,-93.26196,MN,32000,8000,50,70,63,Abbott Northwestern Hospital
3.86,3.08,44.02354,-92.46588,MN,15000,11000,50,35,97,Mayo Clinic Methodist Hospital
4.12,2.59,46.36166,-94.20573,MN,16000,8000,0,0,0,Essentia Health St Joseph'S Medical Center
5.48,2.37,44.88645,-93.32693,MN,23000,7000,66,62,94,Fairview Southdale Hospital
6.89,3.31,44.96766,-93.23640,MN,31000,12000,66,56,57,University Of Minnesota  Medical Center Fairview
5.28,2.90,44.95570,-93.09429,MN,22000,10000,50,78,17,Regions Hospital
6.76,2.81,45.18355,-93.36789,MN,30000,9000,50,73,95,Mercy Hospital
7.04,2.37,45.10789,-93.25685,MN,31000,7000,33,85,85,Unity Hospital
4.89,2.48,44.74846,-93.27289,MN,20000,8000,50,83,97,Fairview Ridges Hospital
5.63,2.55,45.02892,-93.03418,MN,24000,8000,50,75,24,Healtheast St John'S Hospital
4.23,2.52,34.24336,-88.71753,MS,17000,8000,66,61,48,North Mississippi Medical Center
7.58,2.38,34.93596,-88.55955,MS,34000,7000,50,72,79,Magnolia Regional Health Center
4.91,2.45,34.34899,-89.52062,MS,20000,8000,50,68,24,Baptist Memorial Hospital North Ms
7.77,2.41,30.37516,-88.53226,MS,35000,7000,50,70,3,Singing River Hospital
4.96,2.38,32.33616,-90.15652,MS,21000,7000,50,60,44,St Dominic-Jackson Memorial Hospital
3.39,2.48,31.31872,-89.32955,MS,12000,8000,50,57,54,Forrest General Hospital
5.64,2.31,32.31643,-90.17922,MS,24000,7000,66,43,85,Mississippi Baptist Medical Center
3.94,2.27,32.37280,-88.69954,MS,15000,7000,50,77,39,Anderson Regional Medical Center
5.29,2.42,34.96927,-89.99709,MS,22000,7000,50,68,11,Baptist Memorial Hospital Desoto
4.95,2.34,37.06032,-94.52747,MO,20000,7000,0,0,0,St John'S Regional Medical Center
6.07,2.79,39.77393,-94.77089,MO,26000,9000,50,58,51,Heartland Regional Medical Center
5.70,2.74,37.95144,-91.75940,MO,24000,9000,50,88,48,Phelps County Regional Medical Center
6.17,2.45,38.64281,-90.44448,MO,27000,7000,83,57,74,Mercy Hospital St Louis
3.47,2.35,38.16498,-90.38082,MO,13000,7000,50,83,82,Jefferson Regional Medical Center
4.95,2.76,38.63524,-90.26508,MO,21000,9000,50,56,12,Barnes Jewish Hospital
5.57,2.46,37.14560,-93.28037,MO,24000,8000,50,61,85,Cox Medical Center
3.72,2.54,38.56571,-92.18204,MO,14000,8000,50,83,57,Capital Region Medical Center
6.52,2.52,37.17999,-93.27409,MO,29000,8000,66,61,24,St John'S Regional Health Center
5.09,2.20,38.94903,-92.31563,MO,21000,6000,66,73,43,Boone Hospital Center
3.76,2.27,38.50661,-90.38025,MO,14000,7000,66,57,13,St Anthony'S Medical Center
5.33,2.30,38.52738,-90.47501,MO,22000,7000,50,65,44,Ssm St Clare Health Center
9.52,2.57,38.93592,-94.60376,MO,44000,8000,50,75,88,St Joseph Medical Center
6.14,2.85,38.63268,-90.31089,MO,27000,10000,83,77,57,Ssm St Marys Health Center
8.15,2.39,39.04749,-94.34105,MO,37000,7000,50,72,39,Centerpoint Medical Center Of Independence Llc
5.86,2.34,39.14957,-94.55148,MO,25000,7000,50,58,63,North Kansas City Hospital
6.12,2.46,38.75097,-90.43255,MO,27000,8000,66,68,43,Ssm Depaul Health Center
9.12,3.35,38.62280,-90.24049,MO,42000,12000,50,46,5,St Louis University Hospital
4.13,2.32,38.63702,-90.44699,MO,16000,7000,66,68,48,Missouri Baptist Medical Center
6.30,2.36,37.31072,-89.53990,MO,28000,7000,50,72,8,Southeast Missouri Hospital
7.59,2.63,36.78510,-90.42779,MO,34000,8000,50,60,39,Poplar Bluff Regional Medical Center
8.56,2.66,39.04761,-94.59037,MO,39000,9000,66,50,17,St Lukes Hospital Of Kansas City
3.31,2.23,37.78031,-90.43967,MO,12000,6000,0,0,0,Parkland Health Center
4.48,2.34,39.27591,-94.42572,MO,18000,7000,33,60,33,Liberty Hospital
5.25,2.42,38.65123,-90.50301,MO,22000,7000,66,67,12,St Lukes Hospital
5.68,2.42,38.77576,-90.23906,MO,24000,7000,66,75,4,Christian Hospital Northeast
7.16,2.41,37.30401,-89.57190,MO,32000,7000,50,65,11,St Francis Medical Center
6.33,2.73,38.12027,-92.68146,MO,28000,9000,50,52,8,Lake Regional Health System
6.92,2.37,39.02539,-94.26453,MO,31000,7000,50,70,98,St Mary'S Medical Center
5.39,2.43,38.58425,-90.22739,MO,23000,7000,50,58,33,St Alexius Hospital
7.53,2.28,38.94062,-94.37842,MO,34000,7000,0,0,0,Saint Luke'S East Lee'S Summit Hospital
4.35,2.53,45.78958,-108.51283,MT,17000,8000,50,86,88,Billings Clinic Hospital
3.69,2.59,47.49139,-111.26255,MT,14000,8000,50,61,57,Benefis Hospitals Inc
3.80,2.32,46.87545,-114.00033,MT,15000,7000,50,77,69,St Patrick Hospital
4.10,2.47,45.79337,-108.51928,MT,16000,8000,50,81,54,St Vincent Healthcare
5.42,2.44,40.78318,-96.63709,NE,23000,7000,66,70,63,Bryanlgh Medical Center
6.41,2.88,41.25522,-95.97892,NE,28000,10000,50,52,51,The Nebraska Medical Center
5.07,2.53,40.80816,-96.62689,NE,21000,8000,50,66,20,Saint Elizabeth Regional Medical Center
4.00,2.33,40.92425,-98.37053,NE,16000,7000,50,81,33,St Francis Medical Center
6.18,2.44,41.25797,-96.04164,NE,27000,7000,50,73,33,The Nebraska Methodist Hospital
7.22,2.54,41.23897,-96.03162,NE,32000,8000,50,46,82,Alegent Health Bergan Mercy Medical Center
3.58,2.47,41.12081,-100.77062,NE,13000,8000,0,0,0,Great Plains Regional Medical Center
7.02,2.62,39.52637,-119.79456,NV,31000,8000,50,66,17,Renown Regional Medical Center
11.76,3.06,36.13459,-115.13576,NV,56000,11000,66,68,9,Sunrise Hospital And Medical Center
7.40,2.77,39.53066,-119.82067,NV,33000,9000,66,76,44,Saint Mary'S Regional Medical Center
8.31,2.88,39.20247,-119.78446,NV,38000,10000,50,56,69,Carson Tahoe Regional Medical Center
12.39,2.99,36.16380,-115.16574,NV,59000,10000,66,70,54,Valley Hospital Medical Center
14.82,2.61,36.21599,-115.25095,NV,72000,8000,66,57,13,Mountainview Hospital
10.96,2.53,36.00527,-115.11618,NV,52000,8000,50,50,33,Saint Rose Dominican Hospital - Siena Campus
9.57,2.53,36.05712,-115.27116,NV,44000,8000,50,78,18,Saint Rose Dominican Hospital - San Martin Campus
5.51,2.56,43.19846,-71.56230,NH,23000,8000,33,63,94,Concord Hospital
6.34,3.40,43.67286,-72.27232,NH,28000,12000,50,38,0,Mary Hitchcock Memorial Hospital
3.90,2.44,42.75004,-71.48100,NH,15000,7000,0,0,0,St Joseph Hospital
3.70,2.39,43.00792,-71.46807,NH,14000,7000,50,57,21,Elliot Hospital
4.66,2.38,42.98369,-70.93511,NH,19000,7000,0,0,0,Exeter Hospital Inc
4.90,2.39,42.99121,-71.47426,NH,20000,7000,33,63,92,Catholic Medical Center
12.97,2.90,40.88346,-74.05564,NJ,62000,10000,50,58,85,Hackensack University Medical Center
13.78,3.08,40.79576,-73.99575,NJ,66000,11000,25,62,32,Palisades Medical Ctr-Ny Presbyterian Healthcare S
6.90,2.64,40.53142,-74.86080,NJ,31000,9000,75,55,69,Hunterdon Medical Center
7.47,2.88,40.84945,-74.13768,NJ,34000,10000,50,56,85,St Mary'S Hospital Passaic
11.63,2.83,40.88275,-74.01021,NJ,55000,9000,66,67,57,Holy Name Medical Center
12.18,2.79,40.78556,-74.17598,NJ,58000,9000,66,83,95,Clara Maass Medical Center
10.43,2.84,40.35684,-74.66166,NJ,49000,10000,50,56,21,University Medical Center At Princeton
5.44,2.49,39.08752,-74.81657,NJ,23000,8000,50,73,48,Cape Regional Medical Center Inc
8.97,2.65,40.98359,-74.10047,NJ,41000,9000,50,78,21,Valley Hospital
12.19,3.47,39.94152,-75.11680,NJ,58000,13000,66,42,2,Cooper University Hospital
7.79,2.93,40.78883,-74.46620,NJ,35000,10000,66,43,39,Morristown Memorial Hospital
16.46,3.13,40.73417,-74.04977,NJ,80000,11000,0,0,0,Christ Hospital
9.60,2.64,40.95858,-74.31000,NJ,45000,8000,50,62,1,Chilton Hospital
13.50,3.30,40.90215,-74.16634,NJ,65000,12000,16,53,94,St Joseph'S Regional Medical Center
14.57,3.13,39.78261,-74.91670,NJ,70000,11000,50,52,74,Virtua West Jersey Hospitals Berlin
21.86,2.73,40.61288,-74.29092,NJ,108000,9000,50,80,44,Robert Wood Johnson University Hospital At Rahway
30.00,2.71,40.66805,-74.11334,NJ,151000,9000,50,80,63,Bayonne Hospital Center
13.58,3.08,40.66005,-74.21417,NJ,65000,11000,50,75,39,Trinitas Regional Medical Center
14.98,2.60,41.05754,-74.76857,NJ,73000,8000,50,77,79,Newton Memorial Hospital
10.99,2.87,39.92695,-75.09537,NJ,52000,10000,50,70,10,Our Lady Of Lourdes Medical Center
11.80,2.65,39.44743,-75.05838,NJ,56000,9000,50,62,1,South Jersey Healthcare Regional Medical Center
14.77,2.54,40.35309,-74.06484,NJ,72000,8000,33,61,69,Riverview Medical Center
16.13,3.24,40.49581,-74.44980,NJ,79000,12000,66,51,1,Robert Wood Johnson University Hospital
14.25,2.97,40.51891,-74.28183,NJ,69000,10000,75,68,69,Raritan Bay Medical Center
12.76,2.47,39.96484,-74.21708,NJ,61000,8000,50,47,88,Community Medical Center
15.90,2.99,40.90400,-73.96847,NJ,77000,10000,66,81,54,Englewood Hospital And Medical Center
11.18,2.52,39.31464,-74.59391,NJ,53000,8000,16,72,82,Shore Medical Center
20.34,2.95,40.56804,-74.59579,NJ,100000,10000,50,67,29,Somerset Medical Center
10.44,2.62,40.89538,-74.46479,NJ,49000,8000,50,63,69,Saint Clare'S Hospital
7.85,2.91,40.71264,-74.35460,NJ,36000,10000,50,52,57,Overlook Hospital
12.51,2.54,40.07832,-74.13009,NJ,60000,8000,50,57,48,Ocean Medical Center
7.44,2.96,40.81058,-74.20459,NJ,33000,10000,50,68,43,Mountainside Hospital
17.23,2.96,39.98588,-74.79393,NJ,84000,10000,66,55,54,Virtua Memorial Hospital Of Burlington County
10.48,2.87,40.70180,-75.17825,NJ,49000,10000,0,0,0,St Luke'S Warren Hospital
14.78,2.76,39.35775,-74.43449,NJ,72000,9000,66,65,88,Atlanticare Regional Medical Center - City Div
17.92,3.09,40.50214,-74.46015,NJ,88000,11000,50,53,29,Saint Peter'S University Hospital
13.68,2.83,40.21065,-74.03566,NJ,66000,10000,50,58,6,Jersey Shore University Medical Center
18.62,3.25,40.29563,-73.98518,NJ,92000,12000,50,50,85,Monmouth Medical Center
14.06,3.24,40.76190,-74.30335,NJ,68000,12000,83,53,2,Saint Barnabas Medical Center
10.15,2.59,39.84392,-75.14985,NJ,47000,8000,50,70,33,Underwood - Memorial Hospital
11.98,2.62,40.07503,-74.21832,NJ,57000,8000,50,71,76,Kimball Medical Center
13.86,3.00,39.82811,-75.00895,NJ,67000,10000,66,60,69,Kennedy University Hospital - Stratford Div
16.15,2.90,40.23629,-74.75256,NJ,79000,10000,50,77,57,Capital Health System-Fuld Campus
6.03,3.19,40.74323,-74.17431,NJ,26000,11000,50,68,51,Saint Michael'S Medical Center Inc
11.83,2.80,40.55784,-74.34970,NJ,56000,9000,50,71,57,Jfk Medical Ctr - Anthony M. Yelencsics Community
13.53,2.47,40.21575,-74.67273,NJ,65000,8000,50,67,79,Robert Wood Johnson University Hospital Hamilton
9.62,2.51,40.23861,-74.31289,NJ,45000,8000,33,68,13,Centrastate Medical Center
10.60,2.49,40.40516,-74.19203,NJ,50000,8000,50,81,98,Bayshore Community Hospital
8.95,2.48,39.66213,-74.26392,NJ,41000,8000,50,62,69,Southern Ocean Medical Center
5.11,3.07,35.65960,-105.94578,NM,21000,11000,50,65,29,St Vincent Hospital
6.37,2.77,36.72387,-108.21749,NM,28000,9000,50,71,82,San Juan Regional Medical Center
7.51,2.53,33.42340,-104.52748,NM,34000,8000,50,78,12,Eastern New Mexico Medical Center
7.66,3.10,35.08603,-106.63950,NM,35000,11000,66,62,54,Lovelace Medical Center
4.63,2.57,32.29186,-106.73470,NM,19000,8000,50,63,3,Memorial Medical Center Inc
5.83,2.64,35.08102,-106.63392,NM,25000,8000,33,51,3,Presbyterian Hospital
6.54,2.53,32.44263,-104.25776,NM,29000,8000,0,0,0,Carlsbad Medical Center
4.58,2.83,41.92720,-73.99535,NY,19000,10000,50,83,39,Kingston Hospital
3.59,2.91,42.87482,-78.84942,NY,13000,10000,33,45,8,Kaleida Health
4.13,2.43,42.09299,-75.93704,NY,16000,7000,50,73,99,Our Lady Of Lourdes Memorial Hospital Inc
5.85,2.95,42.65345,-73.77543,NY,25000,10000,66,60,63,Albany Medical Center Hospital
8.47,2.74,41.69441,-73.93432,NY,39000,9000,83,82,54,Vassar Brothers Medical Center
8.06,3.95,40.79041,-73.95386,NY,37000,15000,83,38,5,Mount Sinai Hospital
8.09,3.48,40.63588,-74.10556,NY,37000,13000,66,52,20,Richmond University Medical Center
7.67,2.96,40.72567,-73.24189,NY,35000,10000,50,58,37,Southside Hospital
5.52,2.41,43.09840,-75.27819,NY,23000,7000,50,60,17,Faxton-St Luke'S Healthcare
8.02,2.77,40.87946,-73.41621,NY,36000,9000,50,66,39,Huntington Hospital
8.95,3.84,40.80556,-73.96131,NY,41000,15000,33,56,5,St Luke'S Roosevelt Hospital
7.48,3.45,40.74722,-73.82521,NY,34000,13000,66,63,79,New York Hospital Medical Center Of Queens
2.99,2.44,42.87637,-76.98820,NY,10000,7000,0,0,0,Geneva General Hospital
12.11,4.14,40.87987,-73.87996,NY,58000,16000,50,38,44,Montefiore Medical Center
6.76,2.70,40.94161,-73.83650,NY,30000,9000,33,63,12,Lawrence Hospital Center
3.66,2.59,42.10076,-76.82800,NY,14000,8000,50,65,33,Arnot Ogden Medical Center
8.87,3.84,40.76487,-73.95398,NY,41000,15000,33,32,74,New York-Presbyterian Hospital
8.38,2.82,41.09642,-73.92501,NY,38000,9000,66,77,76,Nyack Hospital
11.27,3.39,40.77686,-73.70212,NY,53000,12000,33,61,69,North Shore University Hospital
7.97,2.85,40.93376,-72.67383,NY,36000,10000,0,0,0,Peconic Bay Medical Center
4.73,2.47,42.09221,-76.79733,NY,19000,8000,0,0,0,St Joseph'S Hospital Inc
3.73,2.62,43.07766,-75.65463,NY,14000,8000,0,0,0,Oneida Healthcare Center
12.86,3.28,40.77362,-73.96093,NY,62000,12000,33,46,11,Lenox Hill Hospital
3.78,2.57,43.19244,-77.58590,NY,14000,8000,66,46,17,Rochester General Hospital
9.23,2.72,41.44138,-74.36821,NY,43000,9000,50,62,69,Orange Regional Medical Center
3.35,3.24,42.69590,-74.92278,NY,12000,12000,50,83,76,Mary Imogene Bassett Hospital
4.34,2.68,43.05571,-76.14981,NY,17000,9000,83,37,20,St Joseph'S Hospital Health Center
11.36,2.79,40.78000,-72.97763,NY,54000,9000,33,60,32,Brookhaven Memorial Hospital Medical Center
6.03,2.50,42.81963,-73.91653,NY,26000,8000,50,68,21,Ellis Hospital
7.63,2.91,41.11299,-74.13732,NY,34000,10000,66,82,82,Good Samaritan Hospital Of Suffern
3.95,2.53,43.00561,-76.17002,NY,15000,8000,0,0,0,Community-General Hospital Of Greater Syracuse
6.52,3.34,40.58440,-74.08507,NY,29000,12000,66,71,37,Staten Island University Hospital
5.97,2.68,41.19677,-73.72572,NY,26000,9000,50,68,69,Northern Westchester Hospital
3.78,2.59,43.17738,-78.67123,NY,14000,8000,0,0,0,Eastern Niagara Hospital
2.66,2.42,43.13562,-77.60602,NY,9000,7000,50,43,10,Highland Hospital
10.29,3.31,40.74083,-73.64306,NY,48000,12000,66,50,74,Winthrop-University Hospital
9.89,3.86,40.73265,-73.98162,NY,46000,15000,50,60,39,Beth Israel Medical Center
3.26,2.45,42.60884,-76.18764,NY,12000,8000,50,60,67,Cortland Regional Medical Center Inc
9.27,2.87,40.80462,-73.67023,NY,43000,10000,83,72,94,St Francis Hospital Roslyn
6.96,3.79,40.91276,-73.78720,NY,31000,14000,50,83,6,Sound Shore Medical Center Of Westschester
7.02,2.62,40.94000,-73.05510,NY,31000,8000,50,63,63,John T Mather Memorial Hospital  Of Port Jefferson
3.49,2.21,43.30652,-73.64663,NY,13000,6000,50,63,90,Glens Falls Hospital
8.92,3.99,40.63937,-73.99851,NY,41000,15000,50,45,54,Maimonides Medical Center
9.49,3.77,40.75332,-73.70899,NY,44000,14000,50,45,90,Long Island Jewish Medical Center
4.87,3.91,40.58549,-73.96558,NY,20000,15000,25,72,29,Coney Island Hospital
7.95,2.82,40.65189,-73.63096,NY,36000,9000,50,52,43,South Nassau Communities Hospital
4.19,2.81,43.04139,-76.13803,NY,17000,9000,50,41,1,Crouse Hospital
6.57,3.29,40.96967,-73.88447,NY,29000,12000,50,75,85,St John'S Riverside Hospital
8.82,3.82,40.74335,-73.97408,NY,41000,15000,33,63,21,Nyu Hospitals Center
9.28,3.13,40.59411,-73.65106,NY,43000,11000,0,0,0,Long Beach Medical Center
3.10,2.51,43.19054,-77.70177,NY,11000,8000,50,45,82,Unity Hospital Of Rochester
7.07,2.50,42.74285,-73.67673,NY,32000,8000,50,52,69,Seton Health System-St Mary'S Campus
15.39,3.93,41.08773,-73.80395,NY,75000,15000,50,42,63,Westchester Medical Center
5.69,3.63,40.66762,-73.97850,NY,24000,14000,33,55,29,New York Methodist Hospital
6.17,3.26,43.04269,-76.14043,NY,27000,12000,66,41,3,University Hospital S U N Y Health Science Center
4.55,2.58,43.08176,-75.26587,NY,18000,8000,66,62,24,St Elizabeth Medical Center
10.67,2.82,40.68896,-73.63259,NY,50000,9000,50,62,37,Mercy Medical Center
7.87,2.65,41.38421,-73.66323,NY,36000,9000,0,0,0,Putnam Hospital Center
3.32,2.42,42.14073,-77.04745,NY,12000,7000,0,0,0,Corning Hospital
3.51,2.41,42.84782,-78.81264,NY,13000,7000,50,68,13,Mercy Hospital
3.49,3.00,43.12266,-77.62360,NY,13000,10000,50,55,21,Strong Memorial Hospital
10.37,2.83,40.69327,-73.29412,NY,49000,10000,50,70,74,Good Samaritan Hospital Medical Center
6.66,2.72,41.02614,-73.76978,NY,29000,9000,50,62,44,White Plains Hospital Center
4.63,3.94,40.64666,-74.02049,NY,19000,15000,50,67,5,Lutheran Medical Center
7.71,2.85,40.77481,-73.47968,NY,35000,10000,50,56,20,Plainview Hospital
8.22,2.65,40.72593,-73.47844,NY,37000,9000,50,62,56,St Joseph Hospital
6.56,2.95,40.88512,-72.38030,NY,29000,10000,50,88,73,Southampton Hospital
5.23,4.25,40.65508,-73.94521,NY,22000,17000,50,66,8,University Hospital Of Brooklyn ( Downstate )
7.39,3.28,40.72931,-73.85219,NY,33000,12000,50,55,13,Forest Hills Hospital
9.88,3.82,40.90922,-73.11520,NY,46000,15000,50,60,44,University Hospital ( Stony Brook )
5.86,3.05,42.11422,-75.95851,NY,25000,11000,66,48,92,United Health Services Hospitals Inc
6.90,4.23,40.59803,-73.75296,NY,31000,17000,50,63,7,St John'S Episcopal Hospital At South Shore
10.05,2.62,40.85738,-73.18681,NY,47000,8000,50,76,88,St Catherine Of Siena Hospital
3.95,2.63,35.43754,-80.60147,NC,15000,8000,66,65,16,Carolinas Medical Center-Northeast
3.79,2.57,35.57658,-82.54922,NC,14000,8000,66,40,81,Memorial Mission Hospital And Asheville Surgery Ce
4.81,2.44,35.95000,-80.00000,NC,20000,7000,50,66,39,High Point Regional Hospital
4.78,2.78,36.07581,-80.29779,NC,20000,9000,50,52,39,Forsyth Memorial Hospital
4.03,2.42,35.68172,-80.47072,NC,16000,7000,50,80,76,Rowan Regional Medical Center
4.00,2.43,35.32080,-82.46812,NC,16000,7000,0,0,0,Margaret R Pardee Memorial Hospital
7.41,2.40,35.46894,-79.18668,NC,33000,7000,50,77,21,Central Carolina Hospital
4.56,2.53,35.30288,-81.53571,NC,18000,8000,50,71,63,Cleveland Regional Medical Center
4.38,2.58,35.29053,-77.58307,NC,18000,8000,50,63,63,Lenoir Memorial Hospital
5.43,2.96,35.03156,-78.93205,NC,23000,10000,50,50,18,Cape Fear Valley Medical Center
6.24,3.64,36.00850,-78.94006,NC,27000,14000,66,43,76,Duke University Hospital
4.47,2.55,35.27341,-81.13688,NC,18000,8000,50,70,69,Gaston Memorial Hospital
5.22,2.36,35.79986,-80.87863,NC,22000,7000,50,62,95,Iredell Memorial Hospital Inc
6.12,3.16,35.60726,-77.40477,NC,27000,11000,50,46,1,Pitt County Memorial Hospital
4.04,3.37,36.09062,-80.27161,NC,16000,12000,83,55,57,North Carolina Baptist Hospital
3.46,2.78,36.19878,-81.65223,NC,13000,9000,0,0,0,Watauga Medical Center
6.07,2.63,35.22196,-80.83287,NC,26000,8000,50,63,13,Presbyterian Hospital
5.42,3.71,35.90529,-79.04963,NC,23000,14000,66,41,1,University Of North Carolina Hospital
3.83,2.53,34.33747,-78.69425,NC,15000,8000,0,0,0,Columbus Regional Healthcare System
6.21,2.77,35.78523,-78.58836,NC,27000,9000,33,50,79,Wakemed Raleigh Campus
3.10,2.42,36.06347,-79.50208,NC,11000,7000,33,60,16,Alamance Regional Medical Center
7.40,2.68,35.50624,-78.32511,NC,33000,9000,50,55,24,Johnston Memorial Hospital
3.87,2.64,36.09251,-79.78855,NC,15000,9000,66,66,51,Moses H Cone Memorial Hospital The
4.58,2.44,35.21029,-80.82084,NC,19000,7000,50,53,51,Carolinas Med Center-Mercy
4.67,2.51,35.92115,-77.55585,NC,19000,8000,50,85,6,Heritage Hospital
5.52,3.08,35.20397,-80.83908,NC,23000,11000,66,63,24,Carolinas Medical Center/Behav Health
4.38,2.36,35.81801,-78.70283,NC,18000,7000,50,65,54,Rex Hospital
4.19,2.50,35.20554,-79.45645,NC,17000,8000,66,60,44,Firsthealth Moore Regional Hospital
3.92,2.49,35.71177,-79.81489,NC,15000,8000,50,55,29,Randolph Hospital
5.86,2.61,35.71850,-77.94518,NC,25000,8000,50,68,88,Wilson Medical Center
3.58,2.58,34.97382,-80.52250,NC,13000,8000,50,68,69,Carolinas Medical Center-Union
4.09,2.72,35.11420,-77.06568,NC,16000,9000,33,73,90,Carolina East Medical Center
4.26,2.75,34.23786,-77.94764,NC,17000,9000,83,70,57,New Hanover Regional Medical Center
5.63,2.46,35.47011,-81.23593,NC,24000,8000,0,0,0,Carolinas Medical Center-Lincoln
4.69,2.76,35.97538,-77.85012,NC,19000,9000,50,65,13,Nash General Hospital
4.82,2.63,36.04960,-78.90617,NC,20000,8000,50,51,69,Durham Regional Hospital
4.34,2.39,35.11432,-80.71971,NC,17000,7000,0,0,0,Presbyterian Hospital Matthews
5.39,2.41,35.74046,-78.78127,NC,23000,7000,50,72,13,Wakemed Cary Hospital
4.99,2.81,35.40634,-80.86005,NC,21000,9000,0,0,0,Presbyterian Hospital Huntersville
3.60,2.53,46.88496,-96.78609,ND,13000,8000,66,61,48,Sanford Medical Center Fargo
4.03,2.66,47.91045,-97.06742,ND,16000,9000,83,53,1,Altru Hospital
4.84,2.31,39.08582,-84.34886,OH,20000,7000,50,72,85,Mercy Hospital Anderson
3.78,3.22,39.13707,-84.50392,OH,14000,11000,66,45,21,University Hospital Inc
5.13,2.56,40.03064,-83.03440,OH,21000,8000,83,71,21,Riverside Methodist Hospital
2.87,2.28,40.51393,-81.45644,OH,10000,7000,0,0,0,Union Hospital
4.05,2.59,40.11479,-82.94677,OH,16000,8000,50,66,12,Mount Carmel St Ann'S Hospital
4.28,2.65,39.20680,-84.38093,OH,17000,9000,50,76,94,Jewish Hospital Llc
6.02,2.72,39.96098,-82.99077,OH,26000,9000,66,78,21,Grant Medical Center
6.31,2.69,41.08161,-81.50007,OH,28000,9000,66,63,33,Summa Health Systems Hospitals
4.81,2.38,41.44642,-82.70864,OH,20000,7000,50,86,18,Firelands Regional Medical Center
5.06,2.60,41.07747,-81.53042,OH,21000,8000,66,70,63,Akron General Medical Center
4.51,2.62,39.95805,-83.02191,OH,18000,8000,66,42,1,Mount Carmel Health
2.11,2.24,40.82041,-81.93422,OH,6000,6000,0,0,0,Wooster Community Hospital
4.42,2.47,39.97510,-82.01812,OH,18000,8000,50,78,92,Genesis Healthcare System
3.58,2.21,41.38265,-81.73127,OH,13000,6000,50,75,94,Parma Community General Hospital
7.54,2.64,39.74547,-84.18523,OH,34000,8000,66,45,1,Miami Valley Hospital
9.12,2.52,39.78778,-84.23493,OH,42000,8000,66,56,16,Good Samaritan Hospital
6.21,2.42,39.31257,-84.51774,OH,27000,7000,50,90,69,Mercy Hospital Fairfield
3.19,3.28,41.46088,-81.69763,OH,11000,12000,50,60,24,Metro Health Medical Center
5.04,2.42,41.11441,-80.65565,OH,21000,7000,83,48,21,St Elizabeth Health Center
5.25,2.41,40.74115,-84.11804,OH,22000,7000,66,73,6,St Rita'S Medical Center
3.50,2.38,40.81219,-81.39625,OH,13000,7000,50,62,43,Mercy Medical Center
3.18,2.36,39.71750,-82.57772,OH,11000,7000,50,82,90,Fairfield Medical Center
5.63,2.54,41.45013,-81.82397,OH,24000,8000,66,60,18,Fairview Hospital
6.21,2.60,39.69724,-84.19232,OH,27000,8000,66,80,57,Kettering Medical Center
6.12,2.55,41.63639,-83.48640,OH,27000,8000,50,83,56,Mercy St Charles Hospital
5.21,2.32,41.59825,-81.54884,OH,22000,7000,50,70,57,Euclid Hospital
3.50,2.44,40.79609,-81.40360,OH,13000,7000,50,63,17,Aultman Hospital
6.28,3.03,39.99445,-83.01872,OH,27000,11000,66,50,2,Ohio State University Hospitals
4.21,2.27,41.13762,-81.83820,OH,17000,7000,50,90,85,Medina Hospital
4.69,2.32,41.01785,-83.65165,OH,19000,7000,50,82,69,Blanchard Valley Hospital
5.34,2.23,41.66317,-81.24696,OH,23000,6000,50,73,39,Lake Health
4.50,2.26,39.13628,-84.60485,OH,18000,7000,50,77,95,Mercy Franciscan Hospital Western Hills
4.24,2.32,40.75264,-82.52803,OH,17000,7000,83,81,92,Medcentral Health System
3.76,2.34,41.43653,-81.94451,OH,14000,7000,50,72,76,St John Medical Center
5.66,2.44,39.41551,-84.57263,OH,24000,7000,50,80,29,Fort Hamilton Hughes Memorial Hospital
4.59,2.68,39.13975,-84.52173,OH,19000,9000,66,83,69,Good Samaritan Hospital
6.18,3.29,41.50772,-81.60592,OH,27000,12000,83,46,44,University Hospitals Of Cleveland
5.70,2.28,41.42112,-81.59808,OH,24000,7000,50,82,21,Marymount Hospital
4.16,2.32,41.36649,-82.09708,OH,16000,7000,66,75,98,Emh Regional Medical Center
3.87,2.27,39.43061,-81.46454,OH,15000,7000,50,71,99,Marietta Memorial Hospital
6.62,2.31,41.37028,-81.83189,OH,29000,7000,50,71,74,Southwest General Health Center
4.41,2.47,39.39463,-82.96979,OH,18000,8000,50,50,24,Adena Regional Medical Center
4.83,2.66,39.12105,-84.51059,OH,20000,9000,83,46,88,Christ Hospital
4.49,2.41,41.43688,-82.23761,OH,18000,7000,50,82,69,Mercy Regional Medical Center
5.35,2.41,40.08748,-84.22920,OH,23000,7000,33,82,54,Upper Valley Medical Center
6.03,2.50,39.25076,-84.34341,OH,26000,8000,50,62,99,Bethesda North Hospital
6.33,2.86,41.50248,-81.62110,OH,28000,10000,33,32,24,Cleveland Clinic
3.84,2.30,40.90093,-80.83181,OH,15000,7000,0,0,0,Salem Community Hospital
3.20,2.47,40.04115,-81.57789,OH,11000,8000,0,0,0,Southeastern Ohio Regional Medical Center
3.19,2.37,40.35601,-80.62502,OH,11000,7000,50,81,63,Trinity Medical Ctr East&Trinity Medical Ctr West
4.99,2.33,41.52013,-81.43291,OH,21000,7000,66,45,37,Hillcrest Hospital
3.69,2.36,39.20463,-84.57093,OH,14000,7000,50,67,39,Mercy Franciscan Hospital - Mt Airy
4.05,2.46,39.08023,-84.14459,OH,16000,8000,50,78,81,Mercy Hospital Clermont
5.62,2.43,35.22999,-97.44074,OK,24000,7000,50,73,21,Norman Regional Health System
6.63,2.38,35.60735,-97.59693,OK,29000,7000,66,51,6,Mercy Health Center Inc
7.41,2.58,34.00655,-96.39398,OK,33000,8000,0,0,0,Medical Center Of Southeastern Oklahoma
3.99,2.36,34.52030,-97.97604,OK,16000,7000,0,0,0,Duncan Regional Hospital Inc
11.17,2.97,35.52960,-97.57496,OK,53000,10000,100,76,90,Integris Baptist Medical Center
5.61,2.41,35.52531,-97.58461,OK,24000,7000,75,76,48,Deaconess Hospital
4.67,2.50,34.18908,-97.14128,OK,19000,8000,50,51,24,Mercy Memorial Health Center
5.60,2.50,36.11501,-97.07438,OK,24000,8000,0,0,0,Stillwater Medical Center
3.56,2.39,34.60992,-98.43419,OK,13000,7000,50,62,48,Comanche County Memorial Hospital
4.90,2.48,36.06135,-95.95154,OK,20000,8000,83,61,44,Saint Francis Hospital Inc
6.94,3.12,35.48138,-97.49624,OK,31000,11000,66,45,1,O U Medical Center
11.06,2.31,35.46721,-97.39370,OK,52000,7000,50,76,92,Midwest Regional Medical Center
7.25,2.55,35.42168,-97.53306,OK,32000,8000,66,70,24,Integris Southwest Medical Center
4.59,2.44,36.13393,-95.96718,OK,19000,7000,50,51,11,St John Medical Center Inc
3.86,2.40,35.36359,-96.93791,OK,15000,7000,0,0,0,Unity Health Center
3.87,2.35,36.03287,-95.85583,OK,15000,7000,0,0,0,Saint Francis Hospital South
4.55,3.39,45.49956,-122.68802,OR,18000,12000,66,47,6,Ohsu Hospital And Clinics
7.23,2.82,44.60322,-123.25312,OR,32000,9000,33,58,5,Good Samaritan Regional Medical Center
5.34,2.43,42.31769,-122.83333,OR,23000,7000,66,61,90,Rogue Valley Medical Center
4.23,2.49,44.06773,-121.26817,OR,17000,8000,66,70,37,St Charles Medical Center - Bend
3.90,2.60,44.93267,-123.03418,OR,15000,8000,66,72,24,Salem Hospital
5.19,2.70,45.52677,-122.61469,OR,22000,9000,66,75,0,Providence Portland Medical Center
7.31,3.27,44.08146,-123.02694,OR,33000,12000,50,60,24,Sacred Heart Medical Center - Riverbend
5.11,2.94,40.35127,-79.84949,PA,21000,10000,50,55,57,Upmc Mckeesport
6.08,2.29,40.25296,-76.92151,PA,26000,7000,83,85,95,Holy Spirit Hospital
8.72,3.27,40.96789,-76.60506,PA,40000,12000,33,56,13,Geisinger Medical Center
6.04,3.12,40.43609,-79.98537,PA,26000,11000,83,61,8,Upmc Mercy
3.75,2.49,40.71251,-80.32136,PA,14000,8000,33,66,48,Heritage Valley Beaver
3.44,2.43,39.90180,-79.73854,PA,13000,7000,50,87,48,Uniontown Hospital
2.99,2.29,40.18302,-80.24767,PA,10000,7000,50,76,94,Washington Hospital The
5.37,2.75,40.33271,-75.95020,PA,23000,9000,50,67,21,Reading Hospital Medical Center
4.76,2.52,41.24548,-77.01438,PA,19000,8000,50,57,37,Williamsport Regional Medical Center
3.87,2.83,39.94604,-76.71884,PA,15000,10000,66,45,8,York Hospital
8.62,2.74,40.60811,-75.39260,PA,40000,9000,66,53,57,St Luke'S Hospital Bethlehem
5.38,2.93,40.45705,-80.00363,PA,23000,10000,83,70,44,Allegheny General Hospital
4.29,2.27,40.18359,-77.22459,PA,17000,7000,0,0,0,Carlisle Regional Medical Center
9.17,2.52,42.13338,-80.08703,PA,42000,8000,66,50,33,Upmc Hamot
3.50,2.42,39.82440,-77.23455,PA,13000,7000,0,0,0,Gettysburg Hospital
7.02,2.50,40.32799,-76.44588,PA,31000,8000,50,58,69,Good Samaritan Hospital
4.56,2.73,40.25661,-76.87572,PA,18000,9000,83,47,0,Pinnacle Health Hospitals
3.81,2.54,40.52204,-78.39824,PA,15000,8000,83,61,39,Altoona Regional Health System
11.74,2.51,40.00955,-75.78622,PA,56000,8000,50,73,63,Brandywine Hospital
4.37,2.67,41.98012,-76.52072,PA,18000,9000,50,65,48,Robert Packer Hospital
13.75,2.54,40.06986,-75.08748,PA,66000,8000,50,78,54,Jeanes Hospital
15.21,2.57,40.11139,-75.09250,PA,74000,8000,50,72,69,Holy Redeemer Hospital And Medical Center
5.64,2.82,40.04740,-76.30540,PA,24000,9000,66,60,82,Lancaster General Hospital
4.20,2.66,39.96260,-76.72774,PA,17000,9000,50,76,29,Memorial Hospital York
5.60,2.72,40.48928,-79.89596,PA,24000,9000,50,72,63,Upmc St Margaret
5.17,2.32,40.57319,-80.01455,PA,22000,7000,50,57,48,Upmc Passavant
5.05,2.62,40.32674,-78.92197,PA,21000,8000,50,61,3,Conemaugh Valley Memorial Hospital
10.28,3.63,39.95045,-75.19259,PA,48000,14000,50,33,39,Hospital Of Univ Of Pennsylvania
12.43,2.86,40.07160,-74.98341,PA,59000,10000,33,67,5,Aria Health
11.72,2.47,40.24397,-75.61364,PA,56000,8000,50,83,48,Pottstown Memorial Medical Center
6.68,2.76,40.60000,-75.47000,PA,29000,9000,66,58,54,Lehigh Valley Hospital
7.27,2.41,41.25860,-75.86729,PA,33000,7000,50,60,79,Wilkes-Barre General Hospital
3.92,2.54,39.75368,-77.57415,PA,15000,8000,0,0,0,Waynesboro Hospital
13.07,2.56,40.01883,-75.32115,PA,63000,8000,50,71,85,Main Line Hospital Bryn Mawr Campus
9.25,3.92,40.03678,-75.14351,PA,43000,15000,66,62,4,Albert Einstein Medical Center
3.89,2.29,40.30103,-79.55505,PA,15000,7000,66,80,17,Excela Health Westmoreland Regional Hospital
3.78,2.17,40.20313,-79.92616,PA,14000,6000,50,80,74,Monongahela Valley Hospital
4.53,2.41,39.93492,-77.64744,PA,18000,7000,50,58,48,Chambersburg Hospital
9.93,2.46,40.04475,-75.50425,PA,46000,8000,50,71,20,Main Line Hospital Paoli
11.87,3.24,39.92871,-75.26873,PA,56000,12000,66,65,17,Mercy Fitzgerald Hospital
15.36,2.74,40.68708,-75.24272,PA,75000,9000,66,68,3,Easton Hospital
9.78,3.12,40.44190,-79.96044,PA,46000,11000,83,55,11,Upmc Presbyterian Shadyside
2.87,2.19,40.60755,-79.15657,PA,10000,6000,0,0,0,Indiana Regional Medical Center
13.53,3.44,39.94969,-75.15712,PA,65000,13000,66,41,57,Thomas Jefferson University Hospital
7.74,2.50,39.97024,-75.60259,PA,35000,8000,33,75,18,Chester County Hospital
20.77,2.95,39.85598,-75.36791,PA,103000,10000,66,56,13,Crozer Chester Medical Center
4.97,2.24,40.94875,-75.96386,PA,21000,6000,50,57,97,Hazleton General Hospital
13.44,2.74,39.98905,-75.27707,PA,65000,9000,50,53,24,Main Line Hospital Lankenau
6.07,2.68,40.99225,-75.17466,PA,26000,9000,50,90,63,Pocono Medical Center
6.96,2.45,40.30531,-75.14763,PA,31000,8000,33,83,92,Doylestown Hospital
8.98,2.43,39.91254,-75.43047,PA,41000,7000,50,90,79,Riddle Memorial Hospital
11.28,3.01,39.94560,-75.15561,PA,53000,10000,50,56,69,Pennsylvania Hosp Of The Univ Of Pa Health Sys
5.10,2.24,40.37782,-80.06589,PA,21000,6000,66,81,21,St Clair Memorial Hospital
12.20,2.69,40.12077,-75.11818,PA,58000,9000,83,51,43,Abington Memorial Hospital
4.79,2.60,39.80858,-76.98306,PA,20000,8000,0,0,0,Hanover Hospital
5.96,3.22,40.26468,-76.67582,PA,26000,11000,66,40,3,Milton S Hershey Medical Center
8.14,2.47,40.20064,-74.92952,PA,37000,8000,33,71,44,St Mary Medical Center
7.03,2.58,40.64463,-75.40842,PA,31000,8000,66,66,8,Lehigh Valley Hospital - Muhlenberg
3.10,2.23,40.31802,-79.93494,PA,11000,6000,50,83,88,Jefferson Regional Medical Center
4.17,2.36,40.42897,-79.74808,PA,16000,7000,50,57,57,Western Pennsylvania Hosp Forbes Regional Campus
6.03,2.27,40.81936,-77.84273,PA,26000,7000,50,91,57,Mount Nittany Medical Center
6.35,2.61,41.25855,-75.81041,PA,28000,8000,66,86,2,Geisinger Wyoming Valley Medical Center
20.51,3.51,39.95658,-75.16249,PA,101000,13000,83,71,6,Hahnemann University Hospital
5.76,3.15,41.86943,-71.37561,RI,25000,11000,50,66,6,Memorial Hospital Of Rhode Island
4.45,2.43,41.85574,-71.45945,RI,18000,7000,50,67,76,St Joseph Health Services Of Ri
6.62,3.31,41.81254,-71.40760,RI,29000,12000,33,48,6,Rhode Island Hospital
7.87,2.67,41.70541,-71.47790,RI,36000,9000,50,50,39,Kent County Memorial Hospital
5.72,2.72,41.85172,-71.39826,RI,25000,9000,66,51,63,Miriam Hospital
5.34,2.47,34.95535,-81.05137,SC,23000,8000,50,75,33,Piedmont Medical Center
4.84,3.42,32.78272,-79.94543,SC,20000,13000,33,76,69,Musc Medical Center
6.73,2.73,34.96733,-81.94021,SC,30000,9000,33,60,54,Spartanburg Regional Medical Center
10.35,3.04,34.02839,-81.03539,SC,49000,11000,33,43,21,Palmetto Health Richland
4.65,2.53,33.37683,-79.29450,SC,19000,8000,0,0,0,Georgetown Memorial Hospital
7.99,2.38,34.83965,-82.42147,SC,36000,7000,66,66,11,St Francis-Downtown
8.97,2.80,34.51119,-82.64683,SC,41000,9000,50,61,94,Anmed Health
8.94,2.90,34.71787,-80.78844,SC,41000,10000,50,83,79,Springs Memorial Hospital
6.24,2.59,33.78555,-79.00178,SC,27000,8000,50,90,69,Conway Medical Center
8.95,2.62,34.19543,-79.76256,SC,41000,8000,50,50,79,Mcleod Regional Medical Center-Pee Dee
6.47,2.55,32.80878,-80.04216,SC,28000,8000,50,61,69,Bon Secours-St Francis Xavier Hospital
5.98,2.67,32.33977,-80.68817,SC,26000,9000,25,65,29,Beaufort County Memorial Hospital
5.13,3.01,34.17571,-82.15791,SC,21000,10000,66,65,20,Self Regional Healthcare
7.31,2.81,34.81904,-82.41308,SC,33000,9000,50,55,17,Greenville Memorial Hospital
11.42,2.65,32.97605,-80.07302,SC,54000,9000,50,56,48,Trident Medical Center
6.48,2.39,33.70704,-78.89487,SC,28000,7000,66,50,57,Grand Strand Reg Med Center
6.59,2.66,32.78211,-79.95018,SC,29000,9000,50,66,29,Roper Hospital
8.78,2.46,34.19543,-79.76256,SC,40000,8000,33,66,13,Carolinas Hospital System
4.72,2.26,33.59553,-79.02412,SC,19000,7000,50,76,39,Waccamaw Community Hospital
6.29,2.66,43.53460,-96.71136,SD,27000,9000,66,60,81,Avera Mckennan Hospital & University Health Center
5.24,2.54,43.53562,-96.74305,SD,22000,8000,66,82,57,Sanford Usd Medical Center
3.59,2.48,35.63906,-88.83207,TN,13000,8000,66,53,27,Jackson-Madison County General Hospital
4.26,2.40,36.38975,-86.43389,TN,17000,7000,50,95,48,Sumner Regional Medical Center
8.03,2.51,36.24440,-86.75204,TN,36000,8000,50,71,85,Skyline Medical Center
5.60,2.24,35.75588,-83.95808,TN,24000,6000,50,75,48,Blount Memorial Hospital
4.69,2.32,36.58587,-82.25703,TN,19000,7000,50,62,48,Wellmont Bristol Regional Medical Center
4.70,2.66,35.93985,-83.94326,TN,19000,9000,33,62,20,University Of Tn Memorial Hospital
4.59,2.31,36.55401,-82.55483,TN,19000,7000,50,58,33,Wellmont Holston Valley Medical Center
4.19,2.33,36.21370,-83.29406,TN,17000,7000,50,87,12,Morristown Hamblen Hospital Association
7.03,2.97,36.14316,-86.80048,TN,31000,10000,50,43,43,Vanderbilt University Hospital
5.85,2.66,34.50579,-92.96678,TN,25000,9000,0,0,0,Horizon Medical Center
6.82,2.47,35.12837,-89.86202,TN,30000,8000,50,43,39,Baptist Memorial Hospital
5.40,2.74,35.13640,-90.01928,TN,23000,9000,66,51,37,Methodist Healthcare Memphis Hospitals
5.17,2.44,35.86074,-86.42434,TN,22000,7000,33,87,16,Middle Tennessee Medical Center Inc
5.31,2.37,35.17733,-86.09081,TN,22000,7000,0,0,0,Southern Tennessee Medical Center
4.13,2.43,36.17121,-85.50938,TN,16000,7000,50,73,98,Cookeville Regional Medical Center
5.68,2.48,36.30767,-82.38497,TN,24000,8000,83,50,21,Johnson City Medical Center
4.16,2.42,35.60668,-87.06635,TN,16000,7000,50,72,74,Maury Regional Hospital
4.37,2.29,36.12859,-86.84559,TN,17000,7000,16,75,98,St Thomas Hospital
4.86,2.30,35.04157,-85.26037,TN,20000,7000,33,72,99,Memorial Healthcare System Inc
4.52,2.28,35.99233,-83.92697,TN,18000,7000,50,56,85,Tennova Healthcare
5.37,2.36,35.36202,-86.20943,TN,23000,7000,0,0,0,Harton Regional Medical Center
6.23,2.19,36.17752,-86.60840,TN,27000,6000,50,76,29,Summit Medical Center
8.05,2.53,36.15310,-86.80910,TN,37000,8000,66,68,81,Centennial Medical Center
4.95,2.37,35.91765,-84.10080,TN,20000,7000,33,72,82,Parkwest Medical Center
8.55,2.40,35.17731,-84.86873,TN,39000,7000,50,68,37,Skyridge Medical Center
8.46,3.05,36.32443,-86.62304,TN,39000,11000,50,86,8,Hendersonville Medical Center
12.26,2.73,31.77031,-106.50085,TX,58000,9000,50,62,29,Providence Memorial Hospital
5.57,2.41,30.04413,-99.15217,TX,24000,7000,50,71,74,Peterson Regional Medical Center
6.98,2.54,33.90296,-98.50035,TX,31000,8000,66,86,48,United Regional Health Care System
9.58,2.55,30.65598,-96.34672,TX,45000,8000,50,57,32,St Joseph Regional Health Center
5.73,2.91,32.78994,-96.78044,TX,25000,10000,83,58,33,Baylor University Medical Center
4.88,2.29,28.81269,-96.97780,TX,20000,7000,50,71,54,Citizens Medical Center
7.38,2.34,30.08729,-94.13292,TX,33000,7000,66,86,79,Christus Hospital
5.82,2.42,32.50219,-94.73025,TX,25000,7000,50,73,85,Good Shepherd Medical Center
11.33,2.45,33.57524,-101.89272,TX,54000,8000,50,41,48,Covenant Medical Center
5.29,2.31,31.51444,-97.19927,TX,22000,7000,50,50,33,Providence Health Center
7.42,2.53,27.77751,-97.39515,TX,33000,8000,83,57,95,Christus Spohn Hospital Corpus Christi
6.42,3.10,32.76017,-96.82437,TX,28000,11000,50,40,3,Methodist Dallas Medical Center
3.95,2.74,31.07837,-97.36403,TX,15000,9000,50,56,85,Scott & White Memorial Hospital
9.22,2.53,30.30491,-97.74540,TX,43000,8000,16,56,63,Seton Medical Center Austin
7.25,2.51,29.43360,-98.49265,TX,32000,8000,66,61,24,Baptist Medical Center
6.02,2.48,32.83520,-96.96101,TX,26000,8000,66,63,24,Baylor Medical Center At Irving
14.64,2.43,32.33824,-95.29122,TX,71000,7000,50,55,92,East Texas Medical Center
10.40,2.66,29.66575,-95.18131,TX,49000,9000,50,51,44,Bayshore Medical Center
7.25,2.30,32.34280,-95.29201,TX,32000,7000,50,60,98,Mother Frances Hospital
12.45,2.71,31.76998,-106.49897,TX,59000,9000,66,58,8,Las Palmas Medical Center
11.43,2.98,26.26353,-98.18455,TX,54000,10000,66,91,74,South Texas Health System
7.28,2.82,29.42561,-98.48946,TX,33000,9000,0,0,0,Nix Health Care System
6.01,2.73,31.84507,-102.37373,TX,26000,9000,33,82,29,Medical Center Hospital
4.20,2.48,31.99616,-102.09950,TX,17000,8000,50,55,37,Midland Memorial Hospital
6.04,2.57,32.73780,-97.33899,TX,26000,8000,66,55,57,Texas Health Harris Methodist Fort Worth
6.85,2.91,32.73070,-97.34379,TX,30000,10000,66,57,74,Baylor All Saints Medical Center At Fw
8.51,3.07,26.19665,-98.31409,TX,39000,11000,25,91,54,Mission Regional Medical Center
6.25,2.86,29.81230,-95.43010,TX,27000,10000,66,62,69,Memorial Hermann Hospital System
7.86,3.05,29.70719,-95.40048,TX,36000,11000,66,43,1,St Lukes Episcopal Hospital
4.98,2.58,33.65984,-95.54752,TX,21000,8000,50,76,48,Paris Regional Medical Center
7.16,2.64,35.19934,-101.92186,TX,32000,9000,83,82,24,Northwest Texas Hospital
5.52,3.70,29.50783,-98.57875,TX,23000,14000,50,56,0,University Health System
10.02,2.54,30.28473,-95.46714,TX,47000,8000,33,52,48,Conroe Regional Medical Center
6.10,2.36,32.47171,-99.73315,TX,26000,7000,66,86,39,Hendrick Medical Center
4.67,2.32,35.19533,-101.91907,TX,19000,7000,66,60,21,Baptist St Anthonys Health System-Baptist Campus
6.55,3.08,29.42825,-98.49859,TX,29000,11000,50,80,20,Christus Santa Rosa Hospital
4.26,2.41,29.85271,-97.94841,TX,17000,7000,0,0,0,Central Texas Medical Center
5.80,2.54,32.91949,-96.66214,TX,25000,8000,50,76,44,Baylor Medical Center At Garland
7.27,2.52,33.71085,-96.58493,TX,33000,8000,50,57,21,Texoma Medical Center
6.66,2.50,30.07104,-94.11927,TX,29000,8000,83,63,85,Memorial Hermann Baptist Beaumont Hospital
5.31,2.54,33.12242,-96.12404,TX,22000,8000,50,78,54,Hunt Regional Medical Center
9.73,3.01,29.71020,-95.39956,TX,45000,10000,100,60,13,Methodist Hospitalthe
8.11,2.59,29.50795,-98.57224,TX,37000,8000,66,62,57,Methodist Hospital
9.85,2.42,33.15951,-96.63675,TX,46000,7000,66,65,2,Medical Center Of Mckinney
8.54,2.54,29.76963,-94.97926,TX,39000,8000,50,100,82,San Jacinto Methodist Hospital
7.57,2.81,30.28957,-97.72584,TX,34000,9000,66,81,63,St Davids Medical Center
8.87,3.04,32.88076,-96.76226,TX,41000,11000,66,66,3,Texas Health Presbyterian Hospital  Dallas
6.93,2.39,33.66003,-96.59459,TX,31000,7000,50,71,62,Texas Health Presbyterian Hospital-Wnj
5.32,2.33,32.93228,-97.09436,TX,22000,7000,50,56,16,Baylor Regional Medical Center At Grapevine
4.42,2.28,31.46574,-100.43466,TX,18000,7000,50,72,79,Shannon Medical Center
11.35,2.64,29.54043,-95.12730,TX,54000,8000,66,51,21,Clear Lake Regional Medical Center
8.11,2.46,33.17345,-97.11382,TX,37000,8000,83,72,54,Denton Regional Medical Center
9.68,2.60,30.01994,-95.44379,TX,45000,8000,50,65,69,Houston Northwest Medical Center
8.83,2.60,32.91132,-96.77424,TX,41000,8000,83,51,6,Medical City Dallas Hospital
11.19,2.45,33.02168,-96.76621,TX,53000,8000,50,67,11,Medical Center Of Plano
11.06,2.47,31.77757,-106.48060,TX,52000,8000,75,62,48,Sierra Medical Center
8.80,2.41,33.04634,-97.00473,TX,40000,7000,0,0,0,Medical Center Of Lewisville
5.34,2.99,33.58838,-101.89214,TX,23000,10000,50,50,24,University Medical Center
8.64,2.44,30.22723,-97.77447,TX,40000,7000,50,43,69,St David'S South Austin Medical Center
9.16,2.42,32.91839,-96.50863,TX,42000,7000,0,0,0,Lake Pointe Medical Center
9.00,2.51,33.21746,-97.16488,TX,42000,8000,75,77,74,Texas Health Presbyterian Hospital Denton
8.71,2.47,32.65818,-97.42078,TX,40000,8000,50,61,81,Texas Health Harris Methodist Hospital Southwest F
5.19,2.26,33.46323,-94.07490,TX,22000,7000,66,80,6,Christus St Michael Health System
8.11,2.49,30.41163,-97.70649,TX,37000,8000,33,65,29,North Austin Medical Center
6.20,2.45,29.58896,-95.63112,TX,27000,8000,50,66,12,Methodist Sugar Land Hospital
8.14,2.42,29.96603,-95.55127,TX,37000,7000,50,77,94,Methodist Willowbrook Hospital
6.40,3.05,26.25286,-98.20590,TX,28000,11000,33,66,44,Doctors Hospital At Renaissance
6.28,2.34,33.01358,-96.78823,TX,27000,7000,50,72,63,Baylor Regional Medical Center At Plano
3.98,2.97,40.77170,-111.83681,UT,15000,10000,33,53,8,University Health Care/Univ Hospitals And  Clinics
4.07,2.55,40.65922,-111.89189,UT,16000,8000,33,58,54,Intermountain Medical Center
3.83,2.35,41.09098,-111.99557,UT,15000,7000,0,70,10,Davis Hospital And Medical Center
5.17,2.35,40.68610,-111.85735,UT,22000,7000,66,72,8,St Marks Hospital
4.78,2.42,40.58979,-111.97499,UT,20000,7000,50,58,29,Jordan Valley Medical Center
4.08,3.46,44.47966,-73.19412,VT,16000,13000,66,50,13,Fletcher Allen Hospital Of Vermont
4.28,2.98,43.59828,-72.95512,VT,17000,10000,0,0,0,Rutland Regional Medical Center
3.64,2.46,42.87397,-73.20739,VT,14000,8000,0,0,0,Southwestern Vermont Medical Center
3.74,2.46,38.40552,-78.85730,VA,14000,8000,50,70,92,Rockingham Memorial Hospital
3.55,2.68,39.19345,-78.19599,VA,13000,9000,66,60,74,Winchester Medical Center Inc
5.82,2.95,36.86268,-76.30355,VA,25000,10000,83,58,4,Sentara Norfolk General Hospital
5.94,3.40,38.02573,-78.51526,VA,26000,12000,33,35,24,University Of Virginia Medical Center
3.33,2.45,38.09436,-78.98659,VA,12000,8000,50,82,99,Augusta Health
4.83,2.50,38.45568,-78.01359,VA,20000,8000,0,0,0,Culpeper Regional Hospital
3.98,2.48,37.41368,-79.16870,VA,15000,8000,50,70,57,Centra  Health Inc
7.73,2.85,38.31158,-77.48061,VA,35000,10000,66,73,17,Mary Washington Hospital Inc
4.24,2.61,37.25129,-79.94125,VA,17000,8000,50,61,1,Carilion Roanoke Memorial Center
5.99,3.82,37.54330,-77.42932,VA,26000,15000,66,48,0,Medical College Of Virginia Hospitals
4.32,2.67,38.82218,-77.10533,VA,17000,9000,66,68,57,Inova Alexandria Hospital
4.74,2.33,37.09020,-80.50370,VA,19000,7000,0,0,0,Carilion New River Valley Medical Center
4.13,2.52,39.07405,-77.47754,VA,16000,8000,50,83,79,Inova Loudoun Hospital
4.91,2.37,36.77378,-76.57856,VA,20000,7000,50,77,51,Sentara Obici Hospital
3.75,2.47,38.76723,-77.48754,VA,14000,8000,50,67,57,Prince William Hospital
5.44,2.38,36.85098,-76.18989,VA,23000,7000,50,65,76,Sentara Leigh Hospital
5.89,2.32,37.26336,-80.03166,VA,25000,7000,50,48,8,Lewisgale Medical Center
4.04,2.61,38.88916,-77.12796,VA,16000,8000,100,57,57,Virginia Hospital Center - Arlington
4.06,2.95,37.06523,-76.48417,VA,16000,10000,50,68,44,Riverside Regional Medical Center
5.32,2.27,36.86449,-76.02844,VA,22000,7000,66,62,39,Sentara Virginia Beach General Hospital
7.31,2.51,37.58440,-77.51252,VA,33000,8000,50,66,69,Bon Secours - St Marys Hospital Of Richmond
5.35,2.91,38.85764,-77.22772,VA,23000,10000,83,53,1,Inova Fairfax Hospital
5.00,2.44,37.33700,-76.74046,VA,21000,7000,50,67,88,Sentara Williamsburg Regional Medical Center
10.28,2.45,37.18253,-77.35957,VA,48000,8000,50,76,85,Southside Regional Medical Center
6.08,2.50,37.62931,-77.38804,VA,26000,8000,50,67,69,Bon Secours - Memorial Regional Medical
4.88,2.41,36.57812,-79.40453,VA,20000,7000,50,61,69,Danville Regional Medical Center
3.30,2.30,38.02176,-78.44530,VA,12000,7000,50,75,88,Martha Jefferson Hospital
4.51,2.37,37.05580,-76.39048,VA,18000,7000,66,66,74,Sentara Careplex Hospital
4.69,2.39,38.88483,-77.37995,VA,19000,7000,50,75,94,Inova Fair Oaks Hospital
6.50,2.41,38.96206,-77.36489,VA,29000,7000,50,68,74,Reston Hospital Center
4.68,2.30,37.18780,-80.41110,VA,19000,7000,0,0,0,Lewisgale Hospital Montgomery
12.15,2.59,37.51021,-77.59525,VA,58000,8000,83,52,32,Cjw Medical Center
4.73,2.52,38.63463,-77.28361,VA,19000,8000,50,62,98,Sentara Potomac Hospital
4.14,2.43,37.06813,-80.75685,VA,16000,7000,0,0,0,Lewisgale Hospital Pulaski
12.35,2.50,37.60459,-77.53929,VA,59000,8000,66,63,29,Henrico Doctors' Hospital
4.85,2.49,36.74610,-76.24609,VA,20000,8000,50,62,85,Chesapeake Regional Medical Center
4.68,2.44,38.74009,-77.07732,VA,19000,7000,50,72,44,Inova Mount Vernon Hospital
4.61,2.43,37.79106,-79.88263,VA,19000,7000,0,0,0,Lewisgale Hospital Alleghany
6.33,2.45,37.46807,-77.66143,VA,28000,7000,50,62,69,Bon Secours - St Francis Medical Center
5.24,2.64,38.41411,-77.40700,VA,22000,9000,0,0,0,Stafford Hospital Llc
5.37,2.50,47.71468,-122.33762,WA,23000,8000,50,63,32,Northwest Hospital
4.44,3.07,47.60948,-122.32811,WA,18000,11000,50,48,57,Virginia Mason Medical Center
4.47,3.61,47.64928,-122.30681,WA,18000,14000,66,28,44,University Of Washington Medical Ctr
5.39,2.69,48.00091,-122.20600,WA,23000,9000,66,56,32,Providence Regional Medical Center Everett
6.70,2.67,47.15452,-122.50105,WA,30000,9000,0,0,0,Saint Clare Hospital
7.44,2.64,47.05286,-122.84707,WA,33000,9000,50,41,11,Providence St Peter Hospital
6.27,2.63,47.80329,-122.33420,WA,27000,8000,50,71,63,Swedish Edmonds Hospital
8.20,2.82,47.60869,-122.32128,WA,37000,9000,33,56,13,Swedish Medical Center
5.75,2.77,48.77371,-122.47344,WA,25000,9000,50,67,33,St Joseph Medical Center
4.32,2.70,46.59360,-120.54741,WA,17000,9000,50,75,48,Yakima Valley Memorial Hospital
7.40,2.63,47.58295,-122.62506,WA,33000,8000,66,57,33,Harrison Medical Center
4.80,2.88,46.13039,-122.94110,WA,20000,10000,50,70,21,Peachealth St John Medical Center
4.38,2.68,47.65191,-117.42329,WA,18000,9000,50,57,13,Deaconess Hospital
5.31,2.68,45.62460,-122.58145,WA,22000,9000,66,53,81,Peacehealth Southwest Medical Center
4.65,2.50,47.61943,-122.18605,WA,19000,8000,50,57,76,Overlake Hospital Medical Center
4.91,3.03,47.64936,-117.41194,WA,20000,11000,66,76,33,Providence Sacred Heart Medical Center
4.85,2.55,46.28132,-119.28218,WA,20000,8000,33,77,54,Kadlec Regional Medical Center
5.40,3.32,47.60351,-122.32305,WA,23000,12000,66,52,0,Harborview Medical Center
4.35,2.51,48.11504,-123.41519,WA,17000,8000,0,0,0,Olympic Medical Center
9.21,2.70,47.17742,-122.28943,WA,43000,9000,50,96,11,Multicare Good Samaritan Hospital
4.68,2.81,47.44243,-122.21392,WA,19000,9000,50,55,48,Valley Medical Center
8.95,2.68,47.24670,-122.44841,WA,41000,9000,66,66,21,St Joseph Medical Center
5.39,2.54,47.71603,-122.17867,WA,23000,8000,50,65,95,Evergreen Hospital Medical Center
5.63,2.82,47.25980,-122.45243,WA,24000,9000,83,50,57,Tacoma General Allenmore Hospital
8.31,2.70,47.29252,-122.32729,WA,38000,9000,50,71,1,St Francis Community Hospital
6.45,2.75,45.72039,-122.64855,WA,28000,9000,66,71,82,Legacy Salmon Creek Medical Center
7.19,2.88,47.36373,-122.61353,WA,32000,10000,0,0,0,St Anthony Hospital
4.26,2.42,38.43236,-82.40067,WV,17000,7000,66,60,17,St Mary'S Medical Center
4.10,2.61,39.47923,-77.98177,WV,16000,8000,50,68,48,City Hospital
4.38,2.65,38.34739,-81.62600,WV,18000,9000,66,58,10,Charleston Area Medical Center
3.11,2.17,39.66383,-79.94681,WV,11000,6000,50,77,98,Monongalia County General Hospital
5.10,2.34,38.35553,-81.72560,WV,21000,7000,50,70,43,Thomas Memorial Hospital
4.12,2.36,37.36312,-81.11184,WV,16000,7000,50,78,85,Princeton Community Hospital
2.56,2.29,40.05809,-80.68471,WV,8000,7000,66,68,29,Wheeling Hospital
5.13,2.97,38.40959,-82.42708,WV,21000,10000,50,51,8,Cabell-Huntington Hospital Inc
4.30,2.24,39.27035,-81.56026,WV,17000,6000,50,51,10,Camden Clark Medical Center
4.22,2.38,37.78754,-81.20183,WV,17000,7000,66,73,82,Raleigh General Hospital
3.43,2.44,37.25551,-81.23539,WV,13000,7000,0,0,0,Bluefield Regional Medical Center
4.49,2.40,43.01152,-88.24308,WI,18000,7000,50,55,24,Waukesha Memorial Hospital
4.96,2.30,43.25993,-87.92418,WI,21000,7000,0,0,0,Columbia St Mary'S Hospital Ozaukee Inc
4.19,2.47,44.96738,-89.66994,WI,17000,8000,50,67,74,Aspirus Wausau Hospital
5.02,2.68,44.67759,-90.17818,WI,21000,9000,50,57,13,Ministry Saint Joseph'S Hospital
5.05,2.54,42.68685,-89.03244,WI,21000,8000,50,63,43,Mercy Hlth Sys Corp
3.67,2.37,44.81192,-91.51352,WI,14000,7000,25,55,69,Mayo Clinic Health System Eau Claire Hospital
4.20,2.70,42.98566,-87.93565,WI,17000,9000,50,70,57,Wheaton Franciscan Healthcare- St Francis
5.01,2.67,43.05867,-89.40269,WI,21000,9000,66,77,69,St Mary'S Hospital
4.67,2.62,42.73444,-87.82788,WI,19000,8000,50,67,12,Wheaton Franciscan Healthcare- All Saints
5.02,3.45,43.07633,-89.43133,WI,21000,13000,50,35,16,University Of Wi  Hospitals & Clinics Authority
4.45,2.41,43.16402,-88.13829,WI,18000,7000,50,60,90,Community Mem Hsptl
4.16,2.46,45.07138,-87.61847,WI,16000,8000,0,0,0,Bay Area Med Ctr
6.82,2.75,42.98958,-87.95079,WI,30000,9000,50,65,37,Aurora St Lukes Medical Center
5.77,2.44,43.00120,-88.02675,WI,25000,7000,50,71,63,Aurora West Allis Medical Center
4.12,2.40,43.05929,-88.15434,WI,16000,7000,0,0,0,Wheaton Franciscan Inc - Elmbrook Memorial
4.26,3.15,43.04008,-88.02523,WI,17000,11000,66,36,11,Froedtert Mem Lutheran Hsptl
5.32,3.25,42.84802,-106.30851,WY,22000,12000,50,70,8,Wyoming Medical Center
6.40,3.05,41.14037,-104.81660,WY,28000,11000,50,70,33,Cheyenne Regional Medical Center
10.60,2.37,29.92585,-95.63108,TX,50000,7000,50,81,94,North Cypress Medical Center
4.64,2.35,32.88575,-96.46443,TX,19000,7000,0,0,0,Texas Health Presbyterian Hospital Rockwall
