size_charge,size_pay,lat,lon,state,charge,pay,AcquiredInfect,AcquiredConditions,PatientSafetySummary,name
6.90,2.34,31.21673,-85.36307,AL,41000,10000,50,51,21,Southeast Alabama Medical Center
8.38,2.33,34.80175,-87.67514,AL,51000,10000,50,65,2,Eliza Coffee Memorial Hospital
7.85,2.36,33.59616,-86.66750,AL,48000,10000,66,78,1,St Vincent'S East
7.12,2.19,33.25607,-86.81035,AL,43000,9000,83,70,63,Shelby Baptist Medical Center
4.12,2.27,34.74649,-87.69895,AL,22000,10000,50,91,33,Helen Keller Memorial Hospital
6.98,2.53,32.32785,-86.27750,AL,42000,12000,50,67,54,Baptist Medical Center South
5.50,2.34,32.36656,-86.28572,AL,32000,10000,50,68,82,Jackson Hospital & Clinic Inc
2.98,2.23,32.63806,-85.40413,AL,15000,10000,50,80,13,East Alabama Medical Center And Snf
7.13,2.94,33.50619,-86.80210,AL,43000,14000,66,45,11,University Of Alabama Hospital
6.05,2.23,34.20768,-86.87489,AL,35000,10000,50,63,79,Cullman Regional Medical Center
8.65,2.09,33.66767,-85.83420,AL,53000,9000,0,0,0,Stringfellow Memorial Hospital
7.28,2.36,34.72007,-86.58108,AL,44000,10000,50,65,44,Huntsville Hospital
13.06,2.21,34.00941,-85.97078,AL,83000,9000,66,67,27,Gadsden Regional Medical Center
9.93,2.23,34.00426,-86.00339,AL,62000,10000,75,81,90,Riverview Regional Medical Center
7.96,2.16,31.23767,-85.45625,AL,48000,9000,50,55,79,Flowers Hospital
5.89,2.23,33.50734,-86.78958,AL,34000,10000,50,72,21,St Vincent'S Birmingham
6.89,2.20,33.65640,-85.82284,AL,41000,9000,50,60,5,Northeast Alabama Regional Med Center
2.85,2.19,34.59052,-86.97262,AL,14000,9000,50,77,54,Decatur General Hospital
6.10,2.31,33.83218,-87.30385,AL,36000,10000,50,78,95,Walker Baptist Medical Center
5.06,2.16,30.68199,-88.19897,AL,29000,9000,83,86,0,Providence Hospital
7.19,2.43,33.20521,-87.52546,AL,43000,11000,66,66,21,D C H Regional Medical Center
9.53,2.35,33.49854,-86.84633,AL,59000,10000,66,70,8,Baptist Medical Center-Princeton
16.60,3.19,33.51420,-86.74859,AL,107000,16000,66,27,11,Trinity Medical Center
4.55,2.18,30.69697,-88.08081,AL,25000,9000,66,55,24,Mobile Infirmary
5.02,2.17,33.37328,-86.99163,AL,28000,9000,50,67,6,Medical West An Affiliate Of Uab Health System
6.20,2.47,32.43020,-87.05515,AL,36000,11000,50,91,32,Vaughan Reg Med Center Parkway Campus
7.83,2.17,34.69279,-86.57179,AL,47000,9000,50,77,33,Crestwood Medical Center
15.67,2.16,33.46420,-86.77409,AL,101000,9000,50,65,29,Brookwood Medical Center
3.97,2.05,30.68546,-88.13170,AL,21000,8000,50,81,6,Springhill Medical Center
4.98,2.35,32.38797,-86.17576,AL,28000,10000,50,52,90,Baptist Medical Center East
9.89,2.31,33.16547,-86.25380,AL,61000,10000,0,0,0,Coosa Valley Medical Center
11.82,3.84,60.94901,-149.17033,AK,74000,20000,50,81,90,Providence Alaska Medical Center
9.75,2.90,33.46514,-112.05797,AZ,60000,14000,50,48,69,Banner Good Samaritan Medical Center
6.64,2.51,32.25294,-110.88135,AZ,39000,11000,50,48,3,Tucson Medical Center
6.60,2.49,32.22734,-111.00065,AZ,39000,11000,33,75,63,Carondelet St  Marys Hospital
9.10,2.35,32.22685,-110.85520,AZ,56000,10000,66,55,21,Carondelet St Josephs Hospital
4.23,2.57,34.56017,-112.48217,AZ,23000,12000,25,67,17,Yavapai Regional Medical Center
6.58,2.63,32.68274,-114.63506,AZ,39000,12000,50,63,69,Yuma Regional Medical Center
8.92,2.49,33.56894,-112.07108,AZ,55000,11000,50,80,16,John C Lincoln North Mountain Hospital
7.78,3.49,35.20923,-111.64486,AZ,47000,18000,66,78,88,Flagstaff Medical Center
6.03,2.79,33.52511,-112.10189,AZ,35000,13000,50,71,56,Phoenix Baptist Hospital
10.23,2.51,33.29750,-111.87461,AZ,64000,11000,50,78,54,Chandler Regional Medical Center
10.63,2.71,33.48885,-111.92387,AZ,66000,13000,66,76,54,Scottsdale Healthcare-Osborn Medical Center
6.00,2.84,31.55116,-110.27248,AZ,35000,14000,0,0,0,Sierra Vista Regional Health Center Inc
7.65,2.63,35.22024,-114.03585,AZ,46000,12000,66,66,54,Kingman Regional Medical Center
7.82,2.26,33.60432,-112.28378,AZ,47000,10000,83,75,95,Banner Boswell Medical Center
9.28,3.77,32.24152,-110.94631,AZ,57000,20000,50,37,39,University Of Arizona Medical Ctr-Universit The
8.22,2.72,33.39097,-111.87638,AZ,50000,13000,66,80,56,Banner Desert Medical Center
8.48,2.58,34.47988,-114.33938,AZ,52000,12000,50,70,56,Havasu Regional Medical Center
6.57,2.36,32.32103,-111.01102,AZ,39000,10000,50,71,20,Northwest Medical Center
8.11,2.25,33.58235,-111.88527,AZ,49000,10000,66,68,63,Scottsdale Healthcare-Shea Medical Center
6.06,2.30,33.41128,-111.68916,AZ,35000,10000,50,70,63,Banner Baywood Medical Center
7.21,2.58,33.60949,-112.18129,AZ,43000,12000,66,73,76,Banner Thunderbird Medical Center
7.57,2.44,33.66596,-112.11618,AZ,46000,11000,50,73,69,John C Lincoln Deer Valley Hospital
9.21,2.49,33.65965,-112.37283,AZ,57000,11000,50,77,97,Banner Del E Webb Medical Center
19.61,2.55,35.11068,-114.55505,AZ,127000,12000,50,87,63,Western Arizona Regional Medical Ctr
5.39,2.98,33.65947,-111.95626,AZ,31000,15000,66,53,95,Mayo Clinic Hospital
7.98,2.66,33.47818,-112.25744,AZ,48000,12000,50,58,69,Banner Estrella Medical Center
8.26,2.40,33.28686,-111.75246,AZ,50000,11000,50,63,63,Mercy Gilbert Medical Center
6.05,2.57,33.39128,-111.61125,AZ,35000,12000,50,60,11,Mountain Vista Medical Center Lp
6.57,2.32,36.10940,-94.16036,AR,39000,10000,33,77,74,Washington Regional Med Ctr At North Hills
6.74,2.47,34.75031,-92.33897,AR,40000,11000,66,63,82,St Vincent Infirmary Medical Center
6.13,2.27,36.31007,-94.18471,AR,36000,10000,50,67,44,Mercy Medical Center
4.15,2.24,35.25046,-91.70056,AR,23000,10000,50,61,63,White County Medical Center
3.68,2.78,34.74866,-92.35422,AR,19000,13000,50,51,33,Uams Medical Center
3.47,2.39,35.83746,-90.70386,AR,18000,11000,50,75,2,St Bernards Medical Ctr
8.50,2.22,36.18082,-94.13644,AR,52000,9000,50,68,29,Nw Arkansas Hospitals Llc
7.82,2.28,34.46784,-93.06667,AR,47000,10000,66,66,85,St Josephs Mercy Health Center Inc
4.24,2.17,36.34295,-92.39442,AR,23000,9000,50,65,57,Baxter Regional Medical Center
4.31,2.25,35.08546,-92.45774,AR,24000,10000,50,72,79,Conway Regional Medical Center
4.24,2.13,34.77770,-92.12539,AR,23000,9000,50,60,13,Baptist Health Medical Center North Little Rock
5.81,2.69,35.14320,-90.18837,AR,34000,13000,0,0,0,Crittenden Memorial Hospital
5.22,2.42,35.37445,-94.41868,AR,30000,11000,50,53,85,Sparks Regional Medical Center
6.17,2.27,35.35395,-94.35262,AR,36000,10000,50,66,11,St Edward Mercy Medical Center
7.90,2.54,34.18894,-92.01886,AR,48000,12000,50,75,4,Jefferson Regional Medical Center
12.12,2.38,34.48600,-93.03521,AR,76000,11000,50,51,8,National Park Medical Center
3.92,2.16,34.57290,-92.58508,AR,21000,9000,50,88,72,Saline Memorial Hospital
8.03,2.56,34.51022,-90.62718,AR,49000,12000,0,0,0,Helena Regional Medical Center
6.01,2.27,34.74866,-92.35422,AR,35000,10000,50,43,21,Baptist Health Medical Center-Little Rock
7.71,2.51,35.76927,-91.63408,AR,47000,11000,33,63,37,White River Medical Center
18.71,4.45,37.63362,-122.08802,CA,121000,25000,50,60,6,St Rose Hospital
11.21,3.55,37.59283,-122.38249,CA,70000,18000,50,71,33,Peninsula Medical Center
11.57,3.19,38.54384,-122.47401,CA,73000,16000,50,75,33,St Helena Hospital
13.76,3.42,38.57053,-121.45216,CA,88000,18000,83,53,27,Mercy General Hospital
6.04,3.73,34.06505,-118.23913,CA,35000,20000,0,0,0,Pacific Alliance Medical Center
10.08,2.94,33.97659,-117.38184,CA,63000,14000,50,65,57,Riverside Community Hospital
5.77,2.98,32.68425,-117.08161,CA,34000,15000,0,0,0,Paradise Valley Hospital
7.39,3.67,32.75426,-117.16592,CA,44000,19000,50,72,69,University Of California San Diego Medical Center
14.81,2.83,32.77495,-117.01467,CA,95000,14000,83,71,33,Grossmont Hospital
8.28,2.77,39.50528,-121.54100,CA,51000,13000,50,73,63,Oroville Hospital
9.38,2.75,35.38736,-119.01690,CA,58000,13000,33,85,79,Bakersfield Memorial Hospital
8.75,4.15,37.31288,-121.93329,CA,54000,23000,66,65,1,Santa Clara Valley Medical Center
10.10,2.56,39.74221,-121.85000,CA,63000,12000,83,71,48,Enloe Medical Center
8.85,2.72,40.14813,-122.21934,CA,54000,13000,0,0,0,St Elizabeth Community Hospital
18.16,3.77,37.82206,-122.26275,CA,117000,20000,50,63,32,Alta Bates Summit Medical Center
6.92,2.97,32.78037,-115.56848,CA,41000,15000,50,97,69,El Centro Regional Medical Center
13.94,3.64,37.79100,-122.43125,CA,89000,19000,83,63,11,California Pacific Medical Ctr-Pacific Campus Hosp
7.47,3.04,34.67486,-118.15771,CA,45000,15000,50,67,44,Antelope Valley Hospital Med Center
9.88,2.96,36.32737,-119.29548,CA,61000,14000,50,56,12,Kaweah Delta Medical Center
16.05,3.64,34.12834,-118.25777,CA,103000,19000,50,72,44,Glendale Mem Hospital & Hlth Center
8.09,3.27,36.73000,-119.78000,CA,49000,17000,50,71,0,Community Regional Medical Center
13.00,3.83,34.09643,-118.29103,CA,82000,20000,75,76,74,Hollywood Presbyterian Medical Center
11.27,2.84,33.78036,-117.86495,CA,71000,14000,50,60,88,St Joseph Hospital
9.83,3.06,32.75143,-117.16083,CA,61000,15000,33,62,69,Scripps Mercy Hospital
15.44,3.04,33.73798,-118.30525,CA,99000,15000,50,81,81,Providence Little Co Of Mary Med Ctr San Pedro
14.47,3.23,37.95337,-122.33672,CA,92000,16000,50,63,18,Doctors Medical Center-San Pablo
11.19,2.79,34.21674,-119.15631,CA,70000,13000,50,63,6,St Johns Regional Medical Center
15.16,3.02,37.96987,-121.28873,CA,97000,15000,83,68,97,St Josephs Med Center Of Stockton
8.24,2.77,36.83532,-119.76562,CA,50000,13000,50,66,57,Saint Agnes Medical Center
9.28,2.56,34.10130,-117.63651,CA,57000,12000,50,66,85,San Antonio Community Hospital
12.85,2.99,32.79949,-117.15394,CA,81000,15000,66,62,11,Sharp Memorial Hospital
14.16,3.43,38.13118,-122.23732,CA,90000,18000,50,81,29,Sutter Solano Medical Center
8.65,2.90,33.92798,-117.43847,CA,53000,14000,50,88,24,Parkview Community Hospital Medical Center
21.02,4.52,34.04932,-118.21746,CA,137000,25000,25,73,98,White Memorial Medical Center
9.81,3.66,33.92963,-118.20332,CA,61000,19000,66,78,33,Saint Francis Medical Center
8.55,2.81,34.95099,-120.41322,CA,52000,13000,50,93,48,Marian Medical Center
10.57,3.03,38.57155,-121.46874,CA,66000,15000,83,77,79,Sutter General Hospital
13.13,3.00,34.02685,-118.48651,CA,83000,15000,50,76,21,Santa Monica - Ucla Med Ctr & Orthopaedic Hospital
14.06,3.69,33.12535,-117.07336,CA,90000,19000,50,55,69,Palomar Medical Center
17.68,3.46,34.22014,-118.53410,CA,114000,18000,33,56,44,Northridge Hospital Medical Center
9.24,2.81,36.32362,-119.66726,CA,57000,13000,50,88,24,Adventist Medical Center
20.14,3.87,37.36257,-121.84974,CA,131000,21000,50,70,1,Regional Medical Center Of San Jose
8.97,3.21,34.19494,-118.46319,CA,55000,16000,50,77,76,Valley Presbyterian Hospital
9.00,2.75,33.18402,-117.29661,CA,55000,13000,50,57,21,Tri-City Medical Center
14.82,3.11,34.13495,-117.27603,CA,95000,16000,50,66,48,St Bernardine Medical Center
13.99,3.08,34.10081,-118.10588,CA,89000,15000,0,0,0,San Gabriel Valley Medical Center
9.76,3.15,39.13822,-121.59436,CA,61000,16000,50,51,21,Rideout Memorial Hospital
5.83,2.54,34.07225,-117.43197,CA,34000,12000,66,62,63,Kaiser Foundation Hospital Fontana
15.19,3.52,36.57886,-121.91316,CA,97000,18000,66,56,57,Community Hospital Of The Monterey Peninsula
14.17,3.48,37.32710,-121.93863,CA,90000,18000,66,71,37,O'Connor Hospital
8.45,2.41,34.15804,-118.48755,CA,52000,11000,0,0,0,Encino Hospital Medical Center
7.66,3.47,37.88664,-121.28308,CA,46000,18000,50,88,82,San Joaquin General Hospital
11.77,2.58,33.89465,-117.92716,CA,74000,12000,66,71,90,St Jude Medical Center
12.72,2.70,33.96860,-118.04831,CA,81000,13000,50,46,16,Presbyterian Intercommunity Hospital
13.81,3.06,38.44369,-122.70138,CA,88000,15000,66,86,57,Santa Rosa Memorial Hospital
22.85,3.00,37.51164,-120.83800,CA,149000,15000,33,86,16,Emanuel Medical Center Inc
19.65,2.99,37.91341,-122.04163,CA,127000,15000,50,62,33,John Muir Medical Center - Walnut Creek Campus
12.35,3.27,33.77991,-118.18602,CA,78000,17000,50,82,94,St Mary Medical Center
21.19,3.31,37.55717,-121.98126,CA,138000,17000,50,53,88,Washington Hospital
16.12,2.91,37.48000,-122.25441,CA,104000,14000,0,0,0,Sequoia Hospital
16.13,2.94,34.58305,-118.14490,CA,104000,14000,50,86,54,Palmdale Regional Medical Center
7.86,3.06,37.76288,-122.25412,CA,48000,15000,0,0,0,Alameda Hospital
11.42,2.87,32.61972,-117.02278,CA,72000,14000,50,71,57,Sharp Chula Vista Medical Center
8.12,2.65,33.62229,-117.92995,CA,49000,12000,50,70,51,Hoag Memorial Hospital Presbyterian
16.15,2.96,33.84780,-117.93661,CA,104000,14000,50,73,57,Ahmc Anaheim Regional Medical Center
14.40,4.80,37.75676,-122.40461,CA,92000,27000,75,51,12,San Francisco General Hospital
9.38,3.35,33.77483,-117.91329,CA,58000,17000,50,85,98,Garden Grove Hospital & Medical Center
12.48,3.15,34.07709,-117.75063,CA,79000,16000,33,73,97,Pomona Valley Hospital Medical Center
18.36,2.99,34.15601,-118.32834,CA,119000,15000,50,80,97,Providence Saint Joseph Medical Ctr
15.01,3.08,34.28920,-118.74484,CA,96000,15000,50,90,92,Simi Valley Hospital & Health Care Services
16.67,3.83,34.13973,-118.03534,CA,107000,20000,50,45,10,Methodist Hospital Of Southern Ca
12.29,3.29,34.14987,-118.23117,CA,78000,17000,66,75,88,Glendale Adventist Medical Center
16.26,3.15,36.98999,-121.98357,CA,105000,16000,50,63,63,Dominican Hospital
14.10,2.67,33.83862,-116.54557,CA,90000,12000,66,81,2,Desert Regional Medical Center
12.78,2.78,38.72562,-120.79096,CA,81000,13000,50,81,1,Marshall Medical Center (1-Rh)
7.11,2.97,36.06956,-119.02748,CA,43000,15000,0,0,0,Sierra View District Hospital
12.39,4.43,34.06675,-118.44613,CA,78000,24000,50,27,33,Ronald Reagan Ucla Medical Center
16.05,2.80,34.27915,-118.46006,CA,103000,13000,50,80,24,Providence Holy Cross Medical Center
10.64,2.94,40.58654,-122.39168,CA,66000,14000,83,71,44,Mercy Medical Center Redding
14.39,3.24,34.09049,-118.14410,CA,92000,16000,50,100,97,Alhambra Hospital Medical Center
23.68,3.84,37.69502,-121.88095,CA,155000,20000,50,71,82,Valleycare Medical Center
19.63,3.64,37.67947,-122.47447,CA,127000,19000,50,62,24,Seton Medical Center
9.45,2.44,34.03009,-118.47833,CA,58000,11000,50,81,76,Saint John'S Health Center
10.43,2.60,35.37279,-119.02817,CA,65000,12000,50,70,82,Mercy Hospital
6.69,2.72,34.50107,-117.17285,CA,40000,13000,50,87,20,St Mary Medical Center
15.67,3.62,37.85593,-122.25730,CA,101000,19000,50,56,8,Alta Bates Summit Medical Center - Alta Bates Camp
12.59,2.85,37.36934,-122.08047,CA,80000,14000,66,48,6,El Camino Hospital
10.53,2.79,38.76514,-121.24979,CA,66000,13000,66,77,16,Sutter Roseville Medical Center
13.56,2.68,32.88461,-117.22244,CA,86000,13000,50,63,29,Scripps Memorial Hospital La Jolla
11.89,3.90,34.05076,-117.26395,CA,75000,21000,50,55,16,Loma Linda University Medical Center
6.72,2.87,33.87236,-117.56809,CA,40000,14000,50,78,81,Corona Regional Medical Center
14.51,4.26,36.65910,-121.64630,CA,93000,23000,50,70,37,Salinas Valley Memorial Hospital
10.31,2.96,37.97780,-120.37150,CA,64000,14000,0,0,0,Sonora Regional Medical Center
22.86,2.75,38.12186,-121.28665,CA,149000,13000,100,70,94,Lodi Memorial Hospital
7.10,2.98,32.95813,-115.55388,CA,43000,15000,50,91,92,Pioneers Memorial Healthcare District
21.92,4.25,33.78798,-117.89026,CA,143000,23000,66,56,11,University Of California Irvine Med Center
4.83,3.03,34.01501,-118.10064,CA,27000,15000,50,88,74,Beverly Hospital
16.86,2.84,33.81131,-118.34364,CA,109000,14000,66,67,88,Torrance Memorial Medical Center
15.49,2.79,33.83891,-118.35677,CA,99000,13000,50,86,94,Providence Little Company Of Mary Med Ctr Torrance
19.06,3.18,37.94748,-122.53677,CA,124000,16000,50,63,16,Marin General Hospital
18.64,3.60,38.26174,-122.04662,CA,121000,19000,50,68,29,Northbay Medical Center
22.81,3.40,37.25153,-121.94684,CA,149000,17000,33,63,3,Good Samaritan Hospital
7.26,3.11,34.08802,-117.89341,CA,44000,15000,66,67,29,Citrus Valley Medical Center-Ic Campus
7.77,2.71,33.75117,-116.96028,CA,47000,13000,50,73,82,Hemet Valley Medical Center
14.47,2.98,33.93530,-118.13030,CA,92000,15000,50,90,82,Downey Regional Medical Center
10.29,2.56,34.27459,-119.25812,CA,64000,12000,50,53,8,Community Memorial Hospital San Buenaventura
8.05,2.75,34.42951,-119.72333,CA,49000,13000,66,72,32,Santa Barbara Cottage Hospital
8.16,2.63,33.82557,-117.99493,CA,50000,12000,50,91,98,West Anaheim Medical Center
11.21,2.80,34.13364,-118.15275,CA,70000,13000,66,65,57,Huntington Memorial Hospital
18.80,4.32,37.43436,-122.18013,CA,122000,24000,50,58,27,Stanford Hospital
8.90,3.08,37.34027,-120.46817,CA,55000,15000,50,77,37,Mercy Medical Center
21.40,6.04,37.76421,-122.45716,CA,139000,35000,66,52,90,Ucsf Medical Center
12.26,2.99,35.38338,-119.01969,CA,77000,15000,33,86,6,San Joaquin Community Hospital
10.81,3.01,37.77449,-122.45429,CA,68000,15000,50,87,3,St Mary'S Medical Center
19.46,3.09,37.66540,-120.99743,CA,126000,15000,66,66,9,Doctors Medical Center
8.64,3.13,33.89307,-118.29506,CA,53000,16000,50,96,98,Memorial Hospital Of Gardena
9.73,3.24,34.05336,-118.26558,CA,60000,16000,50,68,79,Good Samaritan Hospital
15.40,2.56,34.20285,-118.62962,CA,99000,12000,50,61,13,West Hills Hospital & Medical Center
8.99,2.95,33.80861,-118.18661,CA,55000,14000,66,65,27,Long Beach Memorial Medical Center
11.10,3.05,37.69824,-122.08730,CA,70000,15000,66,61,54,Eden Medical Center
5.64,2.65,36.83863,-119.66183,CA,33000,12000,50,85,48,Clovis Community Medical Center
18.16,3.07,37.98396,-122.03464,CA,117000,15000,50,76,97,John Muir Medical Center - Concord Campus
11.27,3.49,34.06389,-118.27347,CA,71000,18000,50,80,98,Saint Vincent Medical Center
10.69,2.78,33.03634,-117.28487,CA,67000,13000,50,65,5,Scripps Memorial Hospital - Encinitas
12.27,3.14,38.66956,-121.31378,CA,78000,16000,66,66,29,Mercy San Juan Medical Center
10.93,3.15,37.98224,-121.80362,CA,68000,16000,50,58,24,Sutter Delta Medical Center
8.48,2.77,33.70376,-117.98776,CA,52000,13000,0,0,0,Huntington Beach Hospital
18.31,3.77,33.68179,-116.23394,CA,118000,20000,50,70,16,John F Kennedy Memorial Hospital Inc
12.64,2.80,34.20777,-118.88305,CA,80000,13000,50,51,69,Los Robles Hospital & Medical Center
18.69,2.88,33.80441,-118.06665,CA,121000,14000,50,50,48,Los Alamitos Medical Center
13.79,2.77,37.66867,-120.97339,CA,88000,13000,66,80,54,Memorial  Medical Center
11.19,2.70,33.56100,-117.66530,CA,70000,13000,66,58,12,Mission Hospital Regional Med Center
14.50,3.23,33.71466,-117.93322,CA,93000,16000,50,86,33,Fountain Valley Regional Hospital & Medical Center
17.54,2.83,33.76335,-116.40628,CA,113000,14000,50,56,39,Eisenhower Medical Center
6.71,2.84,33.83340,-118.08118,CA,40000,14000,50,90,99,Tri-City Regional Medical Center
8.29,3.01,33.84753,-118.03841,CA,51000,15000,0,0,0,La Palma Intercommunity Hospital
8.35,2.85,34.02561,-117.68583,CA,51000,14000,0,0,0,Chino Valley Medical Center
9.77,2.53,34.09764,-117.83444,CA,61000,12000,0,0,0,San Dimas Community Hospital
10.91,3.20,38.46387,-121.41645,CA,68000,16000,50,60,57,Methodist Hospital Of Sacramento
17.36,4.02,38.55484,-121.45628,CA,112000,22000,50,50,3,University Of California Davis Medical Center
8.75,2.39,33.60883,-117.70881,CA,54000,11000,50,70,90,Saddleback Memorial Medical Center
17.20,2.65,34.39755,-118.55330,CA,111000,12000,50,60,21,Henry Mayo Newhall Memorial Hospital
21.85,3.96,34.07664,-118.37955,CA,142000,21000,100,58,48,Cedars-Sinai Medical Center
7.93,2.39,32.99711,-117.05783,CA,48000,11000,50,85,78,Pomerado Hospital
10.67,3.43,34.01936,-118.18661,CA,67000,18000,50,90,63,Los Angeles Community Hospital
9.02,2.85,33.55876,-117.18329,CA,55000,14000,66,73,74,Southwest Healthcare System
7.14,3.27,34.22139,-118.45660,CA,43000,17000,0,0,0,Mission Community Hospital - Panorama
8.26,2.44,35.38506,-119.03992,CA,50000,11000,50,97,76,Bakersfield Heart Hospital
12.95,3.09,33.95038,-118.00463,CA,82000,15000,50,96,82,Whittier Hospital Medical Center
16.31,3.52,34.06760,-118.12291,CA,105000,18000,50,93,85,Garfield Medical Center
12.65,2.98,33.95076,-118.34828,CA,80000,15000,50,71,99,Centinela Hospital Medical Center
10.76,2.52,33.98219,-118.43930,CA,67000,12000,50,90,6,Marina Del Rey Hospital
16.22,2.70,34.05723,-118.36025,CA,104000,13000,50,63,69,Olympia Medical Center
11.58,2.63,34.02303,-118.39741,CA,73000,12000,0,0,0,Brotman Medical Center
8.81,2.69,34.16028,-118.44948,CA,54000,13000,0,0,0,Sherman Oaks Hospital
11.21,3.35,32.77629,-117.05730,CA,70000,17000,75,78,63,Alvarado Hospital Medical Center
14.58,2.60,34.17067,-118.53200,CA,93000,12000,50,57,63,Providence Tarzana Medical Center
9.89,2.77,40.58532,-122.38702,CA,61000,13000,50,78,98,Shasta Regional Medical Center
6.58,2.48,40.41481,-104.70890,CO,39000,11000,50,73,57,North Colorado Medical Center
7.81,2.39,39.76893,-105.09006,CO,47000,11000,50,47,79,Exempla Lutheran Medical Center
5.49,2.30,40.57315,-105.05741,CO,32000,10000,50,68,95,Poudre Valley Hospital
5.76,3.47,39.72730,-104.99157,CO,33000,18000,66,66,13,Denver Health Medical Center
5.59,2.41,38.23421,-104.62292,CO,32000,11000,50,53,29,Centura Health-St Mary Corwin Medical Center
5.66,2.70,39.74615,-104.96682,CO,33000,13000,66,47,17,Presbyterian/St Luke'S Medical Center
8.92,2.62,39.71712,-105.12874,CO,55000,12000,33,67,16,Centura Health-St Anthony Hospital
6.52,2.38,38.28184,-104.61256,CO,39000,11000,66,68,29,Parkview Medical Center Inc
6.29,2.40,38.83903,-104.80024,CO,37000,11000,66,68,33,Memorial Hospital Central
5.48,2.58,39.09046,-108.56190,CO,32000,12000,50,48,57,St Marys Hospital And Medical Center
9.95,3.40,39.74234,-104.84156,CO,62000,17000,66,66,69,University Of Colorado Hospital Anschutz Inpatient
4.82,2.20,40.41320,-105.05139,CO,27000,9000,50,92,69,Mckee Medical Center
6.70,2.31,38.86559,-104.82182,CO,40000,10000,50,70,37,Centura Health-Penrose St Francis Health Services
10.14,2.40,39.73231,-104.93396,CO,63000,11000,75,50,32,Rose Medical Center
9.89,2.40,39.65399,-104.98116,CO,61000,11000,33,47,17,Swedish Medical Center
3.60,2.56,37.98501,-103.54383,CO,19000,12000,0,0,0,Arkansas Valley Regional Medical Center
9.50,2.64,39.67005,-104.97490,CO,59000,12000,50,75,79,Centura Health-Porter Adventist Hospital
14.75,2.60,39.68859,-104.83205,CO,94000,12000,50,61,13,Medical Center Of Aurora The
8.33,2.50,39.84960,-105.01825,CO,51000,11000,50,61,48,Centura Health-St Anthony North Hospital
10.36,2.48,39.54881,-104.77119,CO,65000,11000,50,60,12,Parker Adventist Hospital
6.16,2.19,40.45184,-105.19608,CO,36000,9000,50,78,44,Medical Center Of The Rockies
8.99,3.07,41.30978,-72.93806,CT,55000,15000,66,57,8,Hospital Of St Raphael
7.70,3.10,41.77507,-72.69941,CT,47000,15000,50,53,85,St Francis Hospital & Medical Center
7.18,2.83,41.55959,-73.05941,CT,43000,14000,33,57,69,Waterbury Hospital
9.97,3.07,41.05562,-73.55390,CT,62000,15000,50,52,10,Stamford Hospital
5.02,2.60,41.33722,-72.10380,CT,28000,12000,50,72,92,Lawrence & Memorial Hospital
10.03,3.45,41.18881,-73.16645,CT,62000,18000,50,51,21,Bridgeport Hospital
4.15,2.46,41.79153,-73.13382,CT,23000,11000,25,78,54,Charlotte Hungerford Hospital
3.68,2.85,41.55241,-73.03554,CT,19000,14000,50,56,39,Saint Marys Hospital
4.24,2.51,41.54874,-72.80148,CT,23000,11000,50,60,79,Midstate Medical Center
7.08,2.69,41.03431,-73.63020,CT,42000,13000,50,48,63,Greenwich Hospital Association
5.29,2.59,41.21646,-73.06525,CT,30000,12000,50,66,24,Milford Hospital Inc
8.38,2.72,41.55473,-72.64872,CT,51000,13000,33,61,92,Middlesex Hospital
11.41,3.75,41.30400,-72.93502,CT,72000,20000,66,41,3,Yale-New Haven Hospital
4.01,2.73,41.54301,-72.08799,CT,22000,13000,50,70,44,William W Backus Hospital
7.23,3.22,41.75412,-72.67927,CT,43000,16000,50,47,9,Hartford Hospital
7.25,2.66,41.78185,-72.52591,CT,44000,12000,50,68,1,Manchester Memorial Hospital
7.54,2.92,41.20049,-73.20281,CT,45000,14000,66,78,63,St Vincent'S Medical Center
5.26,2.50,41.67540,-72.93617,CT,30000,11000,50,73,33,Bristol Hospital
5.96,2.78,41.33493,-73.08978,CT,35000,13000,50,77,92,Griffin Hospital
5.83,2.92,41.40474,-73.44739,CT,34000,14000,50,66,57,Danbury Hospital
7.83,3.07,41.11147,-73.42010,CT,47000,15000,50,72,92,Norwalk Hospital Association
5.93,2.66,41.66107,-72.78671,CT,35000,12000,50,52,8,Hospital Of Central Connecticut The
5.79,3.59,41.73545,-72.79489,CT,34000,19000,25,60,8,John Dempsey Hospital
5.39,3.01,39.69005,-75.68408,DE,31000,15000,66,58,39,Christiana Care Health Services Inc.
5.56,2.64,39.15135,-75.52309,DE,32000,12000,50,58,90,Bayhealth - Kent General Hospital
3.53,2.75,38.64231,-75.60660,DE,18000,13000,0,0,0,Nanticoke Memorial Hospital
7.08,2.48,38.77159,-75.14210,DE,42000,11000,50,90,81,Beebe Medical Center
11.84,3.47,38.90106,-77.05079,DC,75000,18000,50,50,13,George Washington Univ Hospital
6.43,3.90,38.91770,-77.02193,DC,38000,21000,50,66,0,Howard University Hospital
13.80,4.06,38.91221,-77.07588,DC,88000,22000,66,65,0,Georgetown University Hospital
5.82,2.93,38.94397,-76.99040,DC,34000,14000,50,57,24,Providence Hospital
6.81,3.02,38.92944,-77.01473,DC,41000,15000,33,58,1,Washington Hospital Center
8.65,3.19,30.34913,-81.66391,FL,53000,16000,50,62,0,Shands Jacksonville Medical Center
13.57,2.67,26.50479,-80.06979,FL,86000,13000,50,53,99,Bethesda Memorial Hospital
10.58,2.73,28.52517,-81.37729,FL,66000,13000,66,47,29,Orlando Health
9.81,2.51,28.57345,-81.36990,FL,61000,11000,83,66,24,Florida Hospital
13.00,3.07,25.68309,-80.34038,FL,82000,15000,50,62,85,Baptist Hospital Of Miami Inc
12.44,2.99,25.78846,-80.21644,FL,79000,15000,83,56,0,University Of Miami Hospital
6.22,2.34,26.62849,-81.87423,FL,37000,10000,66,52,16,Lee Memorial Hospital
7.61,2.73,29.01347,-80.94096,FL,46000,13000,50,68,9,Bert Fish Medical Center
7.57,2.58,29.20117,-81.05828,FL,46000,12000,66,76,79,Halifax Health Medical Center
7.07,2.35,26.15053,-81.79919,FL,42000,10000,66,62,39,Naples Community Hospital
7.38,2.26,28.08771,-80.61362,FL,44000,10000,66,58,17,Holmes Regional Medical Center
6.68,3.94,25.79143,-80.21250,FL,40000,21000,83,48,4,Jackson Memorial Hospital
7.52,2.22,28.83363,-82.33561,FL,45000,9000,50,55,44,Citrus Memorial Hospital
4.12,2.44,30.47650,-87.21219,FL,22000,11000,50,41,39,Sacred Heart Hospital
5.45,2.25,30.15963,-85.64818,FL,31000,10000,66,73,43,Bay Medical Center
4.58,2.21,28.63051,-80.82437,FL,25000,9000,50,68,98,Parrish Medical Center
11.10,2.78,25.86166,-80.21398,FL,70000,13000,50,83,69,North Shore Medical Center
10.77,2.60,27.76332,-82.64325,FL,67000,12000,50,82,20,Bayfront Medical Center Inc
10.47,2.83,25.81317,-80.13996,FL,65000,14000,66,47,24,Mount Sinai Medical Center
9.56,2.48,27.49789,-82.56220,FL,59000,11000,50,55,29,Manatee Memorial Hospital
8.31,2.74,26.01867,-80.17981,FL,51000,13000,83,63,76,Memorial Regional Hospital
11.86,3.24,26.10282,-80.14245,FL,75000,16000,75,76,97,Broward Health Broward General Medical Center
6.23,2.26,30.30835,-81.68919,FL,37000,10000,50,68,82,St Vincent'S Medical Center
6.10,2.19,28.01404,-82.78368,FL,36000,9000,50,75,54,Mease Hospital Dunedin
9.10,2.28,27.19837,-80.24306,FL,56000,10000,66,70,57,Martin Memorial Medical Center
6.60,2.27,29.04263,-81.31635,FL,39000,10000,50,86,98,Florida Hospital Deland
10.27,2.23,28.26092,-82.18802,FL,64000,10000,50,62,88,Florida Hospital Zephyrhills
10.46,2.32,26.94042,-82.04094,FL,65000,10000,50,72,85,Charlotte Regional Medical Center
7.41,2.83,25.86856,-80.31222,FL,45000,14000,50,88,92,Palm Springs General Hospital
5.96,2.21,28.55140,-81.72120,FL,35000,9000,0,0,0,South Lake Hospital
9.71,2.34,28.02768,-81.72466,FL,60000,10000,50,62,2,Winter Haven Hospital
15.04,3.08,25.84597,-80.26872,FL,96000,15000,75,82,99,Hialeah Hospital
5.03,2.24,28.82358,-81.71133,FL,29000,10000,50,71,48,Florida Hospital Waterman
5.80,2.20,29.17594,-82.13898,FL,34000,9000,50,60,94,Munroe Regional Medical Center
6.25,2.19,28.25431,-82.71447,FL,37000,9000,50,96,39,Morton Plant North Bay Hospital
6.92,2.31,27.78088,-82.65126,FL,41000,10000,50,68,57,St Anthony'S Hospital
5.30,2.22,29.24333,-81.10760,FL,30000,9000,50,67,95,Florida Hospital Memorial Medical Center
7.64,2.20,27.09043,-82.44499,FL,46000,9000,50,76,48,Venice Regional Medical Center
11.82,2.35,28.53906,-82.44193,FL,74000,10000,50,75,57,Brooksville Regional Hospital
5.82,2.18,28.91403,-81.28480,FL,34000,9000,83,75,5,Florida Hospital Fish Memorial
7.54,2.31,26.18711,-80.11941,FL,45000,10000,83,57,37,Holy Cross Hospital Inc
6.56,2.48,27.98242,-82.49025,FL,39000,11000,66,60,29,St Joseph'S Hospital
9.08,2.35,26.98905,-82.09559,FL,56000,10000,50,68,43,Peace River Regional Medical Center
11.61,2.48,26.59805,-80.09271,FL,73000,11000,100,60,27,Jfk Medical Center
7.33,2.35,28.80659,-81.86906,FL,44000,10000,33,67,24,Leesburg Regional Medical Center
6.40,2.41,26.27623,-80.12220,FL,38000,11000,75,72,57,Broward Health North Broward Medical Center
4.67,2.26,27.31827,-82.53140,FL,26000,10000,33,37,69,Sarasota Memorial Hospital
7.45,2.43,30.31525,-81.66398,FL,45000,11000,66,47,12,Baptist Medical Center
6.66,2.45,29.86371,-81.31749,FL,40000,11000,66,76,29,Flagler Hospital
7.32,2.31,28.33522,-80.72319,FL,44000,10000,50,63,97,Wuesthoff Medical Center  Rockledge
5.60,2.61,30.43066,-87.23191,FL,32000,12000,50,72,17,Baptist Hospital
3.72,2.28,27.65832,-80.39307,FL,20000,10000,66,76,99,Indian River Medical Center
6.85,2.28,27.50001,-81.43962,FL,41000,10000,50,61,85,Florida Hospital Heartland Medical Center
11.12,2.53,28.29946,-81.41021,FL,70000,12000,50,63,51,Osceola Regional Medical Center
7.22,3.36,29.64155,-82.34844,FL,43000,17000,66,53,29,Shands Hospital At The University Of Florida
11.73,2.60,30.27449,-81.40071,FL,74000,12000,66,93,69,Baptist Medical Center  Beaches
5.58,2.52,29.47897,-81.18915,FL,32000,11000,50,51,39,Florida Hospital Flagler
7.25,2.20,27.91798,-81.84402,FL,43000,9000,0,0,0,Bartow Regional Medical Center
15.72,2.38,30.73540,-86.56171,FL,101000,11000,50,90,97,North Okaloosa Medical Center
12.46,3.70,25.47971,-80.43038,FL,79000,19000,50,86,69,Homestead Hospital
7.94,2.19,27.75214,-82.73951,FL,48000,9000,50,62,85,Palms Of Pasadena Hospital
6.19,2.28,27.95192,-82.80379,FL,36000,10000,66,62,9,Morton Plant Hospital
13.60,3.18,27.93740,-82.45927,FL,87000,16000,66,66,0,Tampa General Hospital
13.92,2.41,25.96994,-80.14533,FL,89000,11000,50,63,79,Aventura Hospital And Medical Center
5.77,2.43,30.45726,-84.26175,FL,33000,11000,66,57,63,Tallahassee Memorial Healthcare
13.53,2.54,28.18120,-81.64018,FL,86000,12000,50,72,57,Heart Of Florida Regional Medical Center
5.22,2.74,30.26389,-81.44283,FL,30000,13000,83,62,90,Mayo Clinic
14.22,3.00,25.70328,-80.29391,FL,91000,15000,50,65,69,South Miami Hospital Inc
6.90,2.59,30.18340,-82.68783,FL,41000,12000,0,0,0,Lake City Medical Center
9.75,2.49,28.06172,-81.95304,FL,60000,11000,50,52,3,Lakeland Regional Medical Center
7.92,2.31,28.81611,-81.28351,FL,48000,10000,50,56,97,Central Florida Regional Hospital
11.68,2.17,27.30187,-82.45428,FL,74000,9000,33,67,95,Doctors Hospital Of Sarasota
6.55,2.28,26.35875,-80.10203,FL,39000,10000,66,46,43,Boca Raton Regional Hospital
6.98,2.25,28.07111,-82.42342,FL,42000,10000,50,68,37,Florida Hospital Tampa
10.97,2.52,26.83035,-80.08655,FL,69000,11000,100,56,37,Palm Beach Gardens Medical Center
5.62,2.15,28.36005,-80.62309,FL,33000,9000,50,87,57,Cape Canaveral Hospital
12.65,2.28,30.28793,-81.60103,FL,80000,10000,33,48,24,Memorial Hospital Jacksonville
15.26,2.49,27.80541,-82.72694,FL,98000,11000,33,48,8,St Petersburg General Hospital
17.04,2.96,25.74360,-80.25465,FL,110000,14000,50,82,41,Coral Gables Hospital
11.49,2.93,25.88563,-80.32635,FL,72000,14000,66,78,90,Palmetto General Hospital
11.28,2.37,26.26259,-80.20292,FL,71000,10000,50,51,97,Northwest Medical Center
12.79,2.21,28.19342,-82.46987,FL,81000,9000,50,77,43,Medical Center Of Trinity
12.40,2.32,29.66085,-82.41172,FL,78000,10000,33,52,17,North Florida Regional Medical Center
9.83,2.78,25.73195,-80.38580,FL,61000,13000,33,51,79,Kendall Regional Medical Center
7.26,2.16,29.17550,-82.13680,FL,44000,9000,83,55,85,Ocala Regional Medical Center
10.06,2.20,27.48213,-82.62126,FL,63000,9000,50,75,69,Blake Medical Center
7.09,2.30,27.84359,-80.48849,FL,42000,10000,0,0,0,Sebastian River Medical Center
7.23,2.29,26.52735,-81.83337,FL,43000,10000,50,58,63,Gulf Coast Medical Center Lee Mem Health System
8.07,2.19,30.45448,-86.63362,FL,49000,9000,50,72,63,Fort Walton Beach Medical Center
13.03,2.25,26.21219,-80.25478,FL,83000,10000,0,0,0,University Hospital And Medical Center
10.91,2.26,30.16550,-81.73775,FL,68000,10000,33,68,57,Orange Park Medical Center
10.33,2.32,26.12354,-80.25951,FL,64000,10000,50,57,74,Westside Regional Medical Center
11.10,2.39,30.51624,-87.21856,FL,70000,11000,50,65,4,West Florida Hospital
6.47,2.36,29.64481,-81.69431,FL,38000,10000,50,78,48,Putnam Community Medical Center
13.54,2.17,26.98884,-82.09877,FL,86000,9000,50,80,57,Fawcett Memorial Hospital
13.05,2.34,27.82545,-82.70122,FL,83000,10000,50,65,33,Northside Hospital
8.01,2.23,30.18657,-85.66513,FL,49000,10000,50,63,99,Gulf Coast Medical Center
11.57,2.40,27.93259,-82.28759,FL,73000,11000,66,67,21,Brandon Regional Hospital
7.42,2.20,26.63958,-81.94164,FL,45000,9000,50,52,21,Cape Coral Hospital
13.38,2.54,27.43392,-80.34350,FL,85000,12000,83,53,29,Lawnwood Regional Medical Center & Heart Institute
13.05,2.41,27.91458,-82.80382,FL,83000,11000,50,48,24,Largo Medical Center
5.17,2.16,28.95195,-82.62421,FL,29000,9000,50,72,21,Seven Rivers Regional Medical Center
11.47,2.52,27.25983,-80.82855,FL,72000,11000,50,78,74,Raulerson Hospital
8.69,2.34,26.92138,-80.09708,FL,53000,10000,50,61,54,Jupiter Medical Center
7.44,2.36,30.47616,-84.23140,FL,45000,10000,50,66,57,Capital Regional Medical Center
11.40,2.26,28.36128,-82.68883,FL,72000,10000,66,67,90,Regional Medical Center Bayonet Point
12.68,2.29,26.43709,-80.12728,FL,80000,10000,83,72,92,Delray Medical Center
10.06,2.14,27.71350,-82.36512,FL,63000,9000,33,66,33,South Bay Hospital
14.08,2.92,27.28861,-80.29431,FL,90000,14000,50,65,54,St Lucie Medical Center
12.45,2.18,28.53585,-82.53404,FL,79000,9000,66,71,57,Oak Hill Hospital
7.00,2.24,28.03957,-82.70875,FL,42000,10000,66,66,54,Mease Countryside Hospital
9.82,2.16,26.94996,-82.32651,FL,61000,9000,0,0,0,Englewood Community Hospital
12.43,2.57,26.68337,-80.25269,FL,79000,12000,66,67,37,Palms West Hospital
13.04,2.60,26.01394,-80.30980,FL,83000,12000,66,71,63,Memorial Hospital West
9.18,2.25,26.21388,-81.73257,FL,57000,10000,33,80,33,Physicians Regional Medical Center - Pine Ridge
9.09,2.38,26.70181,-80.05055,FL,56000,11000,50,58,63,Good Samaritan Medical Center
7.00,2.28,26.08155,-80.36449,FL,42000,10000,100,57,48,Cleveland Clinic Hospital
7.98,2.27,28.94952,-81.95843,FL,48000,10000,33,80,94,Villages Regional Hospital The
7.79,2.22,30.25377,-81.58270,FL,47000,9000,50,77,29,St Vincent'S Medical Center Southside
4.49,2.34,34.78963,-84.98398,GA,25000,10000,50,76,10,Hamilton Medical Center
7.78,2.28,34.17863,-84.13992,GA,47000,10000,66,63,46,Northside Hospital Forsyth
7.39,2.95,31.59023,-84.15756,GA,44000,14000,50,53,11,Phoebe Putney Memorial Hospital
6.20,2.31,34.24569,-84.49068,GA,36000,10000,50,72,10,Northside Hospital Cherokee
4.96,2.80,33.79230,-84.32107,GA,28000,13000,50,41,8,Emory University Hospital
4.56,2.28,33.56970,-85.07276,GA,25000,10000,25,78,90,Tanner Medical Center - Carrollton
4.97,2.37,33.03204,-85.05781,GA,28000,10000,50,78,95,West Georgia Medical Center
8.48,2.85,34.51192,-84.92579,GA,52000,14000,50,88,57,Gordon Hospital
9.51,2.55,32.02825,-81.09977,GA,59000,12000,83,81,1,Candler Hospital
5.75,2.93,31.17425,-81.48459,GA,33000,14000,50,61,17,Southeast Georgia Health System- Brunswick Campus
6.33,2.42,33.47096,-81.98176,GA,37000,11000,50,51,21,University Hospital
5.96,2.38,34.30335,-83.81737,GA,35000,11000,66,58,44,Northeast Georgia Medical Center Inc
9.20,2.35,34.19990,-84.79378,GA,57000,10000,50,62,39,Cartersville Medical Center
11.16,2.50,33.23886,-84.26706,GA,70000,11000,33,78,69,Spalding Regional Medical Center
7.59,3.65,33.47091,-81.98988,GA,46000,19000,66,45,37,Medical College Of Ga Hospitals And Clinics
8.56,2.48,33.96770,-84.55011,GA,52000,11000,66,62,44,Wellstar Kennestone Hospital
7.54,2.63,32.03185,-81.09158,GA,45000,12000,66,61,24,Memorial Health Univ Med Cen Inc
6.57,2.27,30.82614,-83.97393,GA,39000,10000,50,75,48,John D Archbold Memorial Hospital
8.44,2.45,31.98515,-81.15475,GA,52000,11000,66,72,33,St Joseph'S Hospital - Savannah
3.62,2.46,32.06513,-84.25260,GA,19000,11000,0,0,0,Phoebe Sumter Medical Center
5.81,2.56,34.26000,-85.17000,GA,34000,12000,50,67,88,Floyd Medical Center
6.86,2.83,32.46602,-84.98695,GA,41000,14000,33,86,63,Medical Center The
5.02,2.41,32.61642,-83.63065,GA,28000,11000,50,73,74,Houston Medical Center
3.65,2.43,31.76996,-82.35014,GA,19000,11000,0,0,0,Appling Hospital
5.99,2.44,33.96117,-83.39832,GA,35000,11000,50,68,92,Athens Regional Medical Center
4.68,2.43,32.41483,-81.76990,GA,26000,11000,50,82,39,East Georgia Regional Medical Center
5.39,2.55,33.78956,-84.28077,GA,31000,12000,50,83,11,Dekalb Medical Center
6.87,2.83,33.76810,-84.38616,GA,41000,14000,33,45,9,Emory University Hospital Midtown
6.40,3.23,33.75205,-84.38272,GA,38000,16000,33,56,0,Grady Memorial Hospital
5.90,2.38,33.90877,-84.35180,GA,34000,11000,50,55,3,Saint Joseph'S Hospital Of Atlanta Inc
7.40,2.40,33.81003,-84.39568,GA,45000,11000,33,57,44,Piedmont Hospital
4.80,2.46,33.96351,-84.01769,GA,27000,11000,50,90,44,Gwinnett Medical Center
5.23,2.51,33.68072,-84.00200,GA,30000,11000,50,56,33,Rockdale Medical Center
4.82,2.16,31.97683,-83.78280,GA,27000,9000,0,0,0,Crisp Regional Hospital
5.55,2.55,32.83041,-83.63476,GA,32000,12000,66,48,44,Medical Center Of Central Georgia
6.40,2.67,30.86250,-83.28630,GA,38000,13000,66,67,74,South Georgia Medical Center
7.10,2.52,32.54026,-82.95741,GA,43000,11000,0,0,0,Fairview Park Hospital
5.40,2.22,32.50679,-84.95933,GA,31000,9000,83,67,69,St Francis Hospital Inc
8.17,2.52,33.85638,-84.60446,GA,50000,11000,50,56,33,Wellstar Cobb Hospital
7.53,2.48,31.53017,-84.17516,GA,45000,11000,0,0,0,Phoebe North
6.12,2.87,32.84705,-83.61823,GA,36000,14000,66,62,9,Coliseum Medical Center
8.75,2.88,33.57843,-84.38897,GA,54000,14000,50,78,24,Southern Regional Medical Center
5.65,2.22,34.25704,-85.16467,GA,33000,9000,50,87,24,Redmond Regional Medical Center
16.76,2.78,33.48259,-82.09038,GA,108000,13000,50,58,8,Doctors Hospital
6.62,2.54,33.73938,-84.73111,GA,39000,12000,50,91,57,Wellstar Douglas Hospital
4.71,2.36,33.51144,-84.22200,GA,26000,10000,50,91,92,Henry Medical Center Inc
9.10,2.54,33.87683,-84.02136,GA,56000,12000,50,77,44,Emory Eastside Medical Center
5.07,2.23,33.45252,-84.50697,GA,29000,10000,50,60,33,Piedmont Fayette Hospital
10.64,2.97,33.68000,-84.42685,GA,66000,15000,50,85,28,South Fulton Medical Center
3.60,2.32,33.70365,-84.14697,GA,19000,10000,50,83,78,Dekalb Medical Center At Hillandale
7.02,2.38,33.39118,-84.81563,GA,42000,11000,50,88,5,Piedmont Newnan Hospital Inc
5.74,3.06,21.30780,-157.85505,HI,33000,15000,66,68,44,The Queens Medical Center
5.72,3.40,19.71761,-155.11327,HI,33000,17000,50,82,67,Hilo Medical Center
5.83,2.90,21.38095,-157.75759,HI,34000,14000,0,0,0,Castle Medical Center
7.19,2.70,21.30226,-157.85092,HI,43000,13000,75,83,16,Straub Clinic And Hospital
7.60,2.73,21.38328,-157.93828,HI,46000,13000,0,0,0,Pali Momi Medical Center
4.95,2.31,42.59072,-114.49627,ID,28000,10000,50,63,29,St Lukes Magic Valley Rmc
5.96,2.89,46.41668,-117.02441,ID,35000,14000,50,71,39,St Joseph Regional Medical Center
7.91,3.14,43.61218,-116.19234,ID,48000,16000,66,61,16,St Lukes Regional Medical Center
3.72,2.38,43.61359,-116.25484,ID,20000,11000,66,78,24,St Alphonsus Regional Medical Center
3.83,2.43,43.46987,-111.99208,ID,20000,11000,66,66,57,Eastern Idaho Regional Medical Center
5.16,2.94,42.87331,-112.42180,ID,29000,14000,33,76,39,Portneuf Medical Center
3.93,2.36,47.69645,-116.79476,ID,21000,10000,50,71,48,Kootenai Medical Center
5.39,2.24,38.90068,-90.16026,IL,31000,10000,50,81,24,Alton Memorial Hospital
8.03,2.39,41.52896,-88.13550,IL,49000,11000,50,75,82,Provena St Joseph Medical Center
7.61,2.67,42.06550,-87.68428,IL,46000,13000,33,55,57,Evanston Hospital
4.53,2.23,37.80207,-89.02660,IL,25000,10000,0,0,0,Herrin Hospital
5.35,2.44,39.93563,-91.39833,IL,31000,11000,50,55,92,Blessing Hospital
8.83,3.64,41.86011,-87.69571,IL,54000,19000,33,66,0,Mt Sinai Hospital Medical Center
4.28,2.40,41.11319,-88.83500,IL,23000,11000,0,0,0,St Marys Hospital
9.92,3.17,41.72930,-88.26976,IL,62000,16000,50,90,63,Copley Memorial Hospital
7.91,2.87,42.07012,-88.33180,IL,48000,14000,50,82,24,Sherman Hospital
3.61,2.19,39.12680,-88.55059,IL,19000,9000,0,0,0,St Anthonys Memorial Hospital
7.56,2.35,40.95560,-90.36618,IL,46000,10000,0,0,0,Galesburg Cottage Hospital
5.76,2.32,41.80160,-89.69714,IL,33000,10000,0,0,0,Cgh Medical Center
4.46,2.29,38.32292,-88.91026,IL,25000,10000,50,81,90,Good Samaritan Regional Hlth Center
6.73,2.73,41.72636,-87.56727,IL,40000,13000,50,65,74,Advocate Trinity Hospital
5.77,2.82,41.89141,-87.77618,IL,33000,14000,50,72,92,West Suburban Medical Center
7.31,2.54,42.05624,-87.74012,IL,44000,12000,50,75,85,Skokie Hospital
5.46,2.41,39.80726,-89.64496,IL,31000,11000,50,58,79,St Johns Hospital
6.66,2.80,41.83195,-87.79266,IL,40000,13000,50,78,57,Macneal  Hospital
6.81,3.12,39.74629,-90.25907,IL,41000,16000,0,0,0,Passavant Area Hospital
9.05,2.90,41.66900,-87.81414,IL,56000,14000,50,72,95,Palos Community Hospital
8.96,2.59,41.79660,-87.88627,IL,55000,12000,83,63,37,Adventist La Grange Memorial Hospital
11.97,2.94,40.70200,-89.59222,IL,76000,14000,66,57,3,Saint Francis Medical Center
7.82,3.76,42.02578,-87.68371,IL,47000,20000,50,75,37,Rhc St Francis Hospital
5.42,2.80,41.96698,-87.64941,IL,31000,13000,50,70,43,Louis A Weiss Memorial Hospital
11.20,2.57,42.37840,-87.83329,IL,70000,12000,50,73,62,Vista Medical Center East
13.25,3.66,41.78829,-87.60485,IL,84000,19000,66,66,11,The University Of Chicago Medical Center
7.19,2.54,40.11696,-88.21506,IL,43000,12000,33,63,13,Carle Foundation Hospital
10.45,2.44,40.13811,-87.64569,IL,65000,11000,0,0,0,Provena United Samaritans Medctr-Logan
7.32,2.71,41.36897,-88.42537,IL,44000,13000,0,0,0,Morris Hospital & Healthcare Centers
8.48,2.38,40.11739,-88.22714,IL,52000,11000,50,62,21,Provena Covenant Medical Center- Urbana
12.85,3.47,41.97532,-87.69958,IL,81000,18000,50,85,51,Swedish Covenant Hospital
6.03,2.32,42.31832,-88.27920,IL,35000,10000,50,83,24,Centegra Health System - Mc Henry Hospital
8.36,2.59,41.98743,-87.81440,IL,51000,12000,66,62,69,Resurrection Medical Center
6.01,2.53,41.65880,-87.67729,IL,35000,12000,50,65,94,Metrosouth Medical Center
8.12,3.48,41.87497,-87.66927,IL,49000,18000,50,42,33,Rush University Medical Center
7.30,2.46,41.80555,-87.92059,IL,44000,11000,50,67,54,Hinsdale Hospital
6.19,2.49,40.49639,-88.99106,IL,36000,11000,0,0,0,Bromenn Healthcare
7.05,2.72,41.76946,-87.69239,IL,42000,13000,50,82,94,Holy Cross Hospital
4.98,2.30,39.86644,-88.96090,IL,28000,10000,50,60,69,Decatur Memorial Hospital
6.68,2.55,39.80893,-89.65530,IL,40000,12000,83,57,11,Memorial Medical Center
6.78,3.93,41.86927,-87.67052,IL,40000,21000,50,76,29,University Of Illinois Hospital
8.73,2.42,41.12049,-87.87187,IL,54000,11000,50,68,97,Provena St Marys Hospital
4.98,3.12,41.84639,-87.62345,IL,28000,16000,25,46,39,Mercy Hospital And Medical Center
4.47,2.24,42.29592,-89.63773,IL,25000,10000,0,0,0,Fhn Memorial Hospital
7.85,2.26,40.48254,-88.95519,IL,48000,10000,50,91,29,St Joseph Medical Center
3.43,2.32,37.72790,-89.22058,IL,18000,10000,50,63,90,Memorial Hospital Of Carbondale
5.25,2.46,39.82659,-88.93119,IL,30000,11000,50,71,82,St Marys Hospital
7.37,2.75,41.52283,-87.71111,IL,44000,13000,50,75,33,Franciscan St James Health
9.53,2.54,41.78566,-88.32886,IL,59000,12000,50,72,48,Provena Mercy Medical Center
6.55,2.72,42.27597,-88.40019,IL,39000,13000,50,71,56,Centegra Health System - Woodstock Hospital
6.08,2.40,41.72094,-87.69220,IL,36000,11000,16,63,69,Little Company Of Mary Hospital
8.29,3.17,41.90414,-87.68254,IL,51000,16000,75,50,54,St Mary & Elizabeth Med Ctr-Division Campus
7.77,2.81,41.74948,-87.56909,IL,47000,13000,50,87,72,South Shore Hospital
9.07,3.15,41.93641,-87.65295,IL,56000,16000,50,77,85,Advocate Illinois Masonic Medical Center
6.18,2.25,38.55020,-90.02146,IL,36000,10000,66,81,21,Memorial Hospital
6.33,2.54,41.12572,-87.88526,IL,37000,12000,50,72,81,Riverside Medical Center
4.27,2.26,38.51081,-89.99014,IL,23000,10000,50,65,6,St Elizabeth Hospital
5.33,2.19,39.48849,-88.27581,IL,30000,9000,0,0,0,Sarah Bush Lincoln Health Center
7.60,2.71,41.60726,-87.66060,IL,46000,13000,50,65,76,Ingalls Memorial Hospital
9.39,2.40,41.86362,-87.93567,IL,58000,11000,50,76,92,Elmhurst Memorial Hospital
10.89,2.59,42.27447,-87.95764,IL,68000,12000,50,70,79,Advocate Condell Medical Center
6.52,2.82,41.72031,-87.73249,IL,39000,14000,50,57,74,Advocate Christ Hospital & Medical Center
6.02,2.36,40.70065,-89.59505,IL,35000,10000,50,78,48,Methodist Medical Center Of Illinois
6.44,2.24,41.88566,-88.34311,IL,38000,10000,50,81,4,Delnor Community Hospital
6.54,2.58,41.54446,-87.98379,IL,39000,12000,50,68,88,Silver Cross Hospital  And Medical Centers
10.43,3.39,42.03837,-87.84820,IL,65000,17000,83,77,69,Advocate Lutheran General Hospital
9.11,3.17,41.93418,-87.63579,IL,56000,16000,50,61,29,Saint Joseph Hospital
9.44,2.48,42.26584,-89.07428,IL,58000,11000,50,65,76,Swedish American Hospital
7.47,2.33,41.76076,-88.15016,IL,45000,10000,50,68,29,Edward Hospital
7.84,2.41,42.26634,-89.00900,IL,48000,11000,50,50,29,Saint Anthony Medical Center
6.01,2.56,42.29844,-89.09897,IL,35000,12000,50,87,56,Rockford Memorial Hospital
9.98,2.43,41.87269,-88.15684,IL,62000,11000,66,62,88,Central Dupage Hospital
4.93,2.42,41.56720,-87.69566,IL,28000,11000,50,80,63,Advocate South Suburban Hospital
7.77,2.46,41.94560,-87.76897,IL,47000,11000,50,75,21,Our Lady Of The Resurrection Med Ctr
7.15,2.35,42.06732,-87.99368,IL,43000,10000,66,67,57,Northwest Community Hospital
9.26,2.47,42.00413,-88.01745,IL,57000,11000,66,78,88,Alexian Brothers Medical Center
4.44,2.28,41.49581,-90.41871,IL,25000,10000,0,0,0,Genesis Medical Center Illini Campus
7.73,3.45,41.86110,-87.83404,IL,47000,18000,66,46,4,Loyola University Medical Center
3.86,2.24,41.48200,-90.57158,IL,21000,10000,50,58,63,Trinity Rock Island
10.75,3.35,41.89477,-87.62131,IL,67000,17000,50,61,94,Northwestern Memorial Hospital
8.59,2.77,41.96185,-88.72130,IL,53000,13000,50,81,3,Kishwaukee Community Hospital
7.77,2.48,41.81791,-88.00907,IL,47000,11000,50,86,95,Advocate Good Samaritan Hospital
5.16,2.31,38.73818,-89.94728,IL,29000,10000,50,87,29,Anderson Hospital
9.93,2.42,42.05260,-88.14173,IL,62000,11000,50,80,57,St Alexius Medical Center
7.54,2.87,42.19586,-88.17286,IL,46000,14000,50,80,95,Advocate Good Shepherd Hospital
5.90,2.63,41.59920,-87.35764,IN,34000,12000,50,65,94,Methodist Hospitals Inc
5.60,2.64,41.61514,-87.52413,IN,32000,12000,50,81,74,Franciscan St Margaret Health - Hammond
3.98,2.19,39.76255,-86.50165,IN,21000,9000,0,0,0,Hendricks Regional Health
8.25,2.43,41.61055,-86.72511,IN,50000,11000,0,0,0,Indiana University Health La Porte Hospital
4.65,2.56,41.63466,-87.44901,IN,26000,12000,50,78,88,St Catherine Hospital Inc
4.74,2.34,38.28244,-85.74923,IN,27000,10000,50,83,48,Clark Memorial Hospital
5.34,2.52,41.70877,-86.17026,IN,31000,11000,50,88,57,Saint Joseph Regional Medical Center
4.08,2.25,41.70639,-86.89936,IN,22000,10000,0,0,0,Franciscan St Anthony Health - Michigan City
8.45,2.51,41.03874,-85.24876,IN,52000,11000,66,63,32,Lutheran Hospital Of Indiana
5.34,2.30,41.70568,-85.93404,IN,31000,10000,66,53,69,Elkhart General Hospital
8.56,2.64,41.04659,-85.10906,IN,52000,12000,83,60,44,Parkview Regional Medical Center
6.12,2.53,39.48518,-87.40893,IN,36000,12000,50,62,33,Union Hospital Inc
5.07,3.20,39.78091,-86.17629,IN,29000,16000,33,70,27,William N Wishard Memorial Hospital
6.99,2.46,39.72432,-86.10055,IN,42000,11000,0,0,0,Franciscan St Francis Health - Beech Grove
5.93,2.46,41.51266,-87.26125,IN,35000,11000,50,78,85,St Mary Medical Center Inc
7.36,2.37,41.46729,-87.05130,IN,44000,10000,50,75,63,Porter Valparaiso Hospital
4.39,2.19,38.67313,-87.53370,IN,24000,9000,50,72,81,Good Samaritan Hospital
5.38,2.20,38.30195,-85.83409,IN,31000,9000,66,85,85,Floyd Memorial Hospital And Health Services
15.89,3.74,39.41951,-87.40898,IN,102000,20000,50,92,9,Terre Haute Regional Hospital
3.70,2.53,39.86405,-84.88413,IN,19000,12000,100,63,27,Reid Hospital & Health Care Services
4.80,2.35,39.16006,-86.54038,IN,27000,10000,50,56,24,Indiana University Health Bloomington Hospital
8.03,4.05,39.79009,-86.16260,IN,49000,22000,50,51,79,Indiana University Health
7.14,2.66,41.68479,-86.25217,IN,43000,12000,66,60,8,Memorial Hospital Of South Bend
4.80,2.52,39.78704,-86.07673,IN,27000,12000,50,82,82,Community Hospital East
3.78,2.40,41.33298,-86.33336,IN,20000,11000,0,0,0,Saint Joseph'S Regional Medical Center - Plymouth
6.80,2.34,37.98293,-87.57072,IN,40000,10000,83,66,13,Deaconess Hospital Inc
7.43,2.55,39.91001,-86.19660,IN,45000,12000,66,47,88,St Vincent Hospital & Health Services
8.61,2.60,40.09594,-85.68152,IN,53000,12000,0,0,0,Saint John'S Health System
7.89,2.48,40.19679,-85.41573,IN,48000,11000,66,62,85,Indiana University Health Ball Memorial Hospital
4.80,2.24,37.96320,-87.50292,IN,27000,10000,66,67,32,St Mary'S Medical Center Of Evansville Inc
5.11,2.35,40.39424,-86.83516,IN,29000,10000,66,82,17,Franciscan St Elizabeth Health - Lafayette East
3.83,2.32,39.21585,-85.89683,IN,20000,10000,50,76,95,Columbus Regional Hospital
6.42,2.41,41.55065,-87.50619,IN,38000,11000,50,75,85,Community Hospital
6.60,2.49,41.39576,-87.36689,IN,39000,11000,50,83,51,Franciscan St Anthony Health - Crown Point
4.02,2.12,39.63776,-86.13260,IN,22000,9000,50,68,76,Community Hospital South
4.84,2.37,39.64935,-86.07960,IN,27000,10000,66,80,90,Franciscan St Francis Health - Indianapolis
4.69,2.27,39.90060,-86.04218,IN,26000,10000,50,77,76,Community Hospital North
8.40,2.86,40.40296,-86.80885,IN,51000,14000,50,83,97,Indiana University Health Arnett Hospital
4.31,2.27,42.49388,-94.18926,IA,24000,10000,0,0,0,Trinity Regional Medical Center
4.39,2.23,42.03321,-93.61164,IA,24000,9000,0,0,0,Mary Greeley Medical Center
4.77,2.31,41.54190,-90.55691,IA,27000,10000,66,58,97,Genesis Medical Center-Davenport
6.14,2.32,41.98570,-91.66093,IA,36000,10000,66,75,90,St Lukes Hospital
4.72,2.28,40.81009,-91.17356,IA,26000,10000,0,0,0,Great River Medical Center
9.19,3.78,41.66092,-91.54800,IA,57000,20000,16,38,63,University Of Iowa Hospital & Clinics
3.93,2.29,43.15063,-93.21718,IA,21000,10000,50,82,63,Mercy Medical Center-North Iowa
4.84,2.31,42.46407,-92.34532,IA,27000,10000,0,0,0,Covenant Medical Center
3.66,2.08,42.49227,-90.67404,IA,19000,8000,50,75,95,Mercy Medical Center-Dubuque
4.69,2.19,41.97864,-91.65507,IA,26000,9000,50,80,99,Mercy Medical Center - Cedar Rapids
4.85,2.43,41.86141,-90.18921,IA,27000,11000,0,0,0,Mercy Medical Center-Clinton
8.13,2.79,41.58955,-93.63248,IA,50000,13000,66,37,82,Iowa Methodist Medical Center
6.76,2.44,41.59886,-93.62344,IA,40000,11000,83,75,29,Mercy Medical Center-Des Moines
4.61,2.72,41.02751,-92.38994,IA,26000,13000,0,0,0,Ottumwa Regional Health Center
4.39,2.26,42.52665,-92.33957,IA,24000,10000,50,81,6,Allen Memorial Hospital
4.97,2.45,42.51846,-96.40581,IA,28000,11000,50,60,90,St Lukes Regional Medical Center
4.80,2.24,42.49250,-96.39975,IA,27000,10000,66,71,54,Mercy Medical Center-Sioux City
7.74,2.58,38.87847,-99.29923,KS,47000,12000,50,58,11,Hays Medical Center
4.76,2.30,39.05660,-95.69599,KS,27000,10000,33,51,33,St Francis Health Center Inc
4.95,2.48,38.07731,-97.89183,KS,28000,11000,50,80,90,Hutchinson Regional Medical Center Inc
12.96,3.28,39.05583,-94.60912,KS,82000,17000,66,53,63,University Of Kansas Hospital
5.56,2.16,38.85279,-94.82413,KS,32000,9000,50,58,62,Olathe Medical Center
6.19,2.38,39.05128,-95.69572,KS,36000,11000,66,71,10,Stormont-Vail Healthcare
8.08,2.20,38.99549,-94.69061,KS,49000,9000,66,46,21,Shawnee Mission Medical Center
7.59,2.47,37.70405,-97.31386,KS,46000,11000,66,68,21,Via Christi Hospitals Wichita Inc
13.80,2.59,37.69556,-97.29785,KS,88000,12000,66,52,5,Wesley Medical Center
4.04,2.28,38.97848,-95.24771,KS,22000,10000,0,0,0,Lawrence Memorial Hospital
6.79,2.39,39.12677,-94.78643,KS,40000,11000,50,60,82,Providence Medical Center
4.38,2.16,37.73142,-97.26078,KS,24000,9000,0,0,0,Galichia Heart Hospital Llc
4.04,2.30,39.07816,-84.46695,KY,22000,10000,50,81,51,St Elizabeth Ft Thomas
4.71,2.32,37.72943,-82.76716,KY,26000,10000,50,76,2,Highlands Regional Medical Center
5.39,2.41,38.47021,-82.63498,KY,31000,11000,66,60,54,King'S Daughters' Medical Center
5.71,2.36,38.03140,-84.52194,KY,33000,10000,83,67,79,Saint Joseph Hospital
3.89,2.21,37.71183,-85.87623,KY,21000,9000,83,78,39,Hardin Memorial Hospital
5.54,2.46,36.99641,-86.43006,KY,32000,11000,66,52,33,The Medical Center At Bowling Green
4.85,2.45,37.01079,-85.90342,KY,27000,11000,0,0,0,T J Samson Community Hospital
4.43,2.55,38.18397,-83.43268,KY,24000,12000,50,88,33,St Claire Regional Medical Center
7.27,2.49,37.27729,-83.22802,KY,44000,11000,50,87,57,Hazard Arh Regional Medical Center
5.40,2.38,39.06704,-84.49946,KY,31000,11000,33,58,79,St Elizabeth Medical Center North
4.38,2.32,38.50697,-82.69222,KY,24000,10000,50,80,90,Our Lady Of Bellefonte Hospital
4.81,2.63,37.76518,-87.10197,KY,27000,12000,50,66,29,Owensboro Medical Health System
5.87,2.67,38.24927,-85.75081,KY,34000,12000,66,51,8,Jewish Hospital & St Mary'S Healthcare
9.21,2.71,37.47264,-82.52605,KY,57000,13000,75,86,9,Pikeville Medical Center
4.35,2.38,39.01660,-84.63078,KY,24000,11000,50,75,63,St Elizabeth Florence
3.65,2.35,37.64378,-84.77272,KY,19000,10000,0,0,0,Ephraim Mcdowell Regional Medical Center
7.76,3.42,38.03282,-84.50674,KY,47000,18000,33,62,33,University Of Kentucky Hospital
13.89,2.27,37.81455,-82.81102,KY,88000,10000,0,0,0,Paul B Hall Regional Medical Center
6.53,2.60,38.24806,-85.75125,KY,39000,12000,50,35,39,Norton Hospitals Inc
5.10,2.37,37.33959,-87.48988,KY,29000,10000,50,86,17,Regional Medical Center Of Hopkins County
5.21,2.22,37.06431,-88.67523,KY,30000,9000,50,42,20,Lourdes Hospital
5.96,2.43,38.01849,-84.51236,KY,35000,11000,50,71,57,Central Baptist Hospital
4.11,2.18,37.07404,-88.62685,KY,22000,9000,50,80,39,Western Baptist Hospital
6.76,2.55,36.75751,-88.65129,KY,40000,12000,0,0,0,Jackson Purchase Medical Center
6.90,2.25,38.11425,-82.60321,KY,41000,10000,0,0,0,Three Rivers Medical Center
5.22,2.26,38.23898,-85.63941,KY,30000,10000,66,57,74,Baptist Hospital East
5.82,2.45,37.08724,-84.61828,KY,34000,11000,66,60,17,Lake Cumberland Regional Hospital
6.52,2.87,38.24802,-85.74464,KY,39000,14000,25,81,8,University Of Louisville Hospital
4.32,2.44,37.99944,-84.43941,KY,24000,11000,50,76,63,Saint Joseph East
6.03,2.38,30.20227,-92.01906,LA,35000,11000,50,73,29,Lafayette General Medical Center
6.61,2.14,29.77956,-90.80568,LA,39000,9000,50,73,92,Thibodaux Regional Medical Center
8.50,2.43,29.59851,-90.71397,LA,52000,11000,25,68,69,Terrebonne General Medical Center
12.66,2.64,30.46813,-90.45814,LA,80000,12000,75,71,74,North Oaks Medical Center Llc
4.17,2.43,30.54354,-92.07608,LA,23000,11000,33,73,3,Opelousas General Health System
6.24,2.28,31.28258,-92.46060,LA,37000,10000,50,65,79,Christus St Frances Cabrini Hospital
10.80,2.55,31.31451,-92.44997,LA,68000,12000,66,40,39,Rapides Regional Medical Center
8.54,2.23,30.21521,-93.22682,LA,52000,10000,50,63,63,Christus St Patrick Hospital
5.69,2.59,30.01875,-90.19452,LA,33000,12000,66,61,62,Ochsner Foundation Hospital
5.76,2.42,29.89089,-90.09395,LA,33000,11000,50,65,85,West Jefferson Medical Center
7.85,2.52,32.49443,-93.75011,LA,48000,12000,50,68,13,Christus Schumpert Health System
8.02,2.38,30.46834,-90.11383,LA,49000,11000,50,70,8,St Tammany Parish Hospital
8.73,2.53,29.92596,-90.09191,LA,54000,12000,66,67,63,Touro Infirmary
7.36,2.43,30.20458,-93.19774,LA,44000,11000,50,80,6,Lake Charles Memorial Hospital
4.02,2.28,30.40118,-91.11160,LA,22000,10000,83,51,33,Our Lady Of The Lake Regional Medical Center
3.68,2.53,30.45015,-91.15273,LA,19000,12000,33,76,37,Baton Rouge General Medical Center
9.08,2.39,32.51544,-92.63343,LA,56000,11000,50,63,21,Northern Louisiana Medical Center
5.80,2.59,30.15052,-92.03698,LA,34000,12000,50,71,57,Our Lady Of Lourdes Regional Medical Center Inc
6.28,2.39,32.48393,-93.77884,LA,37000,11000,50,63,62,Willis Knighton Medical Center
5.85,2.33,32.49997,-92.11359,LA,34000,10000,66,62,98,St Francis Medical Center
6.27,2.37,30.01438,-90.18155,LA,37000,10000,66,68,74,East Jefferson General Hospital
8.60,2.31,32.51315,-92.15713,LA,53000,10000,0,0,0,Glenwood Regional Medical Center
6.76,2.47,30.68494,-92.26601,LA,40000,11000,0,0,0,Mercy Regional Medical Center
11.92,3.05,29.95570,-90.07587,LA,75000,15000,33,41,0,Tulane Medical Center
6.81,2.37,30.47547,-90.10091,LA,41000,10000,50,67,37,Lakeview Regional Medical Center
4.46,2.33,32.55761,-93.71874,LA,25000,10000,50,88,94,Willis Knighton Bossier Health Center
4.01,2.31,43.65159,-70.26482,ME,22000,10000,0,0,0,Mercy Hospital
4.18,2.86,43.65325,-70.27533,ME,23000,14000,16,47,0,Maine Medical Center
5.05,2.54,43.47840,-70.49221,ME,29000,12000,0,0,0,Southern Maine Medical Center
5.18,2.48,44.10107,-70.21432,ME,29000,11000,66,70,57,Central Maine Medical Center
5.32,2.67,44.80988,-68.74929,ME,30000,13000,50,58,37,Eastern Maine Medical Center
4.72,2.49,45.25378,-69.44547,ME,26000,11000,50,48,51,Maine General Medical Center
3.04,2.91,39.62183,-77.68219,MD,15000,14000,0,0,0,Meritus Medical Center
3.72,3.58,39.28817,-76.62438,MD,20000,19000,0,0,0,University Of Maryland Medical Center
4.78,4.54,38.93090,-76.92161,MD,27000,25000,0,0,0,Prince Georges Hospital Center
2.98,2.86,39.01578,-77.03591,MD,15000,14000,0,0,0,Holy Cross Hospital
2.40,2.31,39.42366,-77.41386,MD,11000,10000,0,0,0,Frederick Memorial Hospital
2.89,2.77,39.54345,-76.09153,MD,14000,13000,0,0,0,Harford Memorial Hospital
2.53,2.43,39.38813,-76.61068,MD,12000,11000,0,0,0,Saint Joseph Medical Center
2.58,2.47,39.29297,-76.61314,MD,12000,11000,0,0,0,Mercy Medical Center Inc
6.52,6.18,39.29688,-76.59242,MD,39000,36000,0,0,0,Johns Hopkins Hospital The
3.26,3.11,39.27352,-76.67219,MD,16000,16000,0,0,0,Saint Agnes Hospital
3.43,3.30,39.35262,-76.66196,MD,18000,17000,0,0,0,Sinai Hospital Of Baltimore
3.58,3.42,39.28833,-76.64912,MD,19000,18000,0,0,0,Bon Secours Hospital
4.36,4.15,39.35169,-76.47919,MD,24000,23000,0,0,0,Franklin Square Hospital Center
3.50,3.34,38.98482,-77.00139,MD,18000,17000,0,0,0,Washington Adventist Hospital
2.63,2.52,39.15402,-77.05431,MD,12000,12000,0,0,0,Montgomery General Hospital Inc
2.95,2.82,38.36248,-75.59799,MD,14000,14000,0,0,0,Peninsula Regional Medical Center
3.94,3.76,38.99743,-77.11048,MD,21000,20000,0,0,0,Suburban Hospital
3.34,3.19,38.99014,-76.53398,MD,17000,16000,0,0,0,Anne Arundel Medical Center
3.69,3.52,39.32930,-76.61432,MD,19000,18000,0,0,0,Union Memorial Hospital
3.10,2.97,39.64928,-78.73206,MD,15000,15000,0,0,0,Western Maryland Regional Medical Center
2.26,2.17,38.29124,-76.63579,MD,10000,9000,0,0,0,Saint Mary'S Hospital
3.99,3.81,39.29100,-76.54623,MD,21000,20000,0,0,0,Johns Hopkins Bayview Medical Center
2.84,2.72,39.60859,-75.83201,MD,14000,13000,0,0,0,Union Hospital Of Cecil County
3.13,2.99,39.55808,-76.99107,MD,16000,15000,0,0,0,Carroll Hospital Center
2.94,2.82,38.76970,-76.07697,MD,14000,13000,0,0,0,Memorial Hospital At Easton
3.81,3.64,39.29994,-76.62138,MD,20000,19000,0,0,0,Maryland General  Hospital
2.99,2.86,38.55963,-76.59455,MD,15000,14000,0,0,0,Calvert Memorial Hospital
3.11,2.98,39.35852,-76.78208,MD,16000,15000,0,0,0,Northwest Hospital Center
3.21,3.06,39.13732,-76.62228,MD,16000,15000,0,0,0,Baltimore Washington  Medical Center
2.99,2.98,39.39017,-76.62216,MD,15000,15000,0,0,0,Greater Baltimore Medical Center
2.78,2.66,39.21273,-76.88526,MD,13000,12000,0,0,0,Howard County General Hospital
2.82,2.70,39.51870,-76.34688,MD,14000,13000,0,0,0,Upper Chesapeake Medical Center
3.35,3.20,38.96851,-76.86203,MD,17000,16000,0,0,0,Doctors'  Community Hospital
2.57,2.47,38.74827,-76.87590,MD,12000,11000,0,0,0,Southern Maryland Hospital Center
3.26,3.12,39.35962,-76.58851,MD,16000,16000,0,0,0,Good Samaritan Hospital
2.91,2.78,39.09796,-77.19799,MD,14000,13000,0,0,0,Shady Grove Adventist Hospital
3.18,3.04,38.33876,-75.21128,MD,16000,15000,0,0,0,Atlantic General Hospital
4.05,2.81,42.37441,-71.13378,MA,22000,13000,66,85,17,Mount Auburn Hospital
4.14,2.49,41.94236,-71.27364,MA,22000,11000,50,66,13,Sturdy Memorial Hospital
4.64,2.84,42.70912,-71.14877,MA,26000,14000,50,71,79,Lawrence General Hospital
4.24,3.04,42.37451,-71.10418,MA,23000,15000,50,87,94,Cambridge Health Alliance
4.05,2.85,41.65298,-70.27484,MA,22000,14000,50,56,95,Cape Cod Hospital
4.61,2.49,42.33185,-72.65422,MA,26000,11000,50,87,88,Cooley Dickinson Hospital Incthe
3.74,2.67,41.69217,-71.16474,MA,20000,12000,50,100,85,Saint Anne'S Hospital
2.97,2.37,42.20038,-72.62762,MA,15000,10000,0,0,0,Holyoke Medical Center
4.46,2.48,42.81476,-70.89068,MA,25000,11000,0,0,0,Anna Jaques Hospital
5.14,3.83,42.35843,-71.05977,MA,29000,20000,66,51,0,Boston Medical Center Corporation
4.69,2.68,42.56407,-70.87543,MA,26000,13000,50,62,63,Beverly Hospital Corporation
6.60,2.72,42.51078,-70.90712,MA,39000,13000,33,47,69,North Shore Medical Center
4.10,3.42,42.34896,-71.14768,MA,22000,18000,50,68,57,St Elizabeth'S Medical Center
4.05,2.81,51.46599,-1.28140,MA,22000,13000,50,76,20,Berkshire Medical Center Inc
3.84,2.78,42.03597,-71.09792,MA,20000,13000,50,61,57,Signature Healthcare Brockton Hospital
3.69,2.49,41.94445,-70.64511,MA,19000,11000,50,82,24,Jordan Hospital Inc
4.36,2.79,42.64636,-71.34118,MA,24000,13000,50,87,95,Lowell General Hospital
4.00,2.52,42.11449,-72.59502,MA,22000,11000,50,77,76,Mercy Medical Center
3.96,2.52,42.25105,-71.01411,MA,21000,12000,0,0,0,Quincy Medical Center
3.37,2.50,42.46049,-71.06203,MA,17000,11000,50,52,76,Hallmark Health System
9.11,3.24,42.36227,-71.06941,MA,56000,16000,50,43,16,Massachusetts General Hospital
4.68,2.74,41.70928,-71.14519,MA,26000,13000,25,51,88,Southcoast Hospital Group Inc
3.73,2.96,42.12077,-72.60525,MA,20000,14000,33,61,82,Baystate Medical Center
3.41,2.56,42.72846,-71.16830,MA,17000,12000,50,73,33,Holy Family Hospital
3.52,2.58,42.64529,-71.30052,MA,18000,12000,0,0,0,Saints  Medical Center Inc
4.73,2.41,42.43082,-71.37554,MA,26000,11000,50,43,57,Emerson Hospital
6.15,3.73,42.33719,-71.10939,MA,36000,20000,33,71,33,Beth Israel Deaconess Medical Center
4.02,2.47,42.13234,-71.52825,MA,22000,11000,50,71,95,Milford Regional Medical Center
4.25,2.39,42.17644,-70.95398,MA,23000,11000,66,70,48,South Shore Hospital
5.77,2.61,42.33149,-71.24568,MA,33000,12000,66,70,99,Newton-Wellesley Hospital
3.08,2.40,42.46581,-71.12210,MA,15000,11000,50,58,24,Winchester Hospital
4.25,2.49,42.25232,-71.07515,MA,23000,11000,0,0,0,Milton Hospital Inc
8.94,3.22,42.33600,-71.10704,MA,55000,16000,66,40,20,Brigham And Women'S Hospital
3.46,2.71,42.09864,-71.06607,MA,18000,13000,50,58,92,Good Samaritan Medical Center
4.97,3.42,42.34951,-71.06331,MA,28000,18000,50,63,85,Tufts Medical Center
5.11,2.70,42.30049,-71.12771,MA,29000,13000,50,96,3,Faulkner Hospital
2.98,2.47,42.18869,-71.20197,MA,15000,11000,50,77,81,Norwood Hospital
3.67,2.45,41.56412,-70.62200,MA,19000,11000,50,68,94,Falmouth Hospital
10.52,4.15,42.27720,-71.75922,MA,66000,23000,50,36,29,Umass Memorial Medical Center Inc
5.00,2.85,42.48585,-71.20686,MA,28000,14000,66,76,16,Lahey Clinic Hospital
3.89,2.54,42.76256,-71.04507,MA,21000,12000,0,0,0,Merrimack Valley Hospital
4.29,2.69,42.28385,-71.41896,MA,23000,13000,50,76,85,Metrowest Medical Center
3.44,2.81,42.26633,-71.79760,MA,18000,13000,33,75,57,St Vincent Hospital
3.84,2.30,42.39466,-83.40537,MI,20000,10000,50,60,63,St Mary Mercy Hospital
3.35,2.42,43.20588,-86.20839,MI,17000,11000,50,76,57,Mercy Health Partners Mercy Campus
4.73,2.87,42.28551,-85.58042,MI,26000,14000,66,82,13,Bronson Methodist Hospital
5.80,2.74,42.45741,-83.20513,MI,34000,13000,83,57,48,Providence Hospital And Medical Centers
6.80,2.68,42.29077,-83.21504,MI,40000,13000,33,48,69,Oakwood Hospital And Medical Center
3.57,2.42,42.08955,-86.47781,MI,19000,11000,33,68,88,Lakeland Hospital St Joseph
5.37,3.18,42.41911,-83.18228,MI,31000,16000,83,46,21,Sinai-Grace Hospital
4.27,2.80,42.61425,-83.27602,MI,23000,13000,66,52,79,St Joseph Mercy Oakland
3.64,2.75,43.39166,-84.66140,MI,19000,13000,0,0,0,Midmichigan Medical Center-Gratiot
3.40,2.31,42.95582,-82.43222,MI,17000,10000,50,88,79,St Joseph Mercy Port Huron
4.62,2.58,45.07773,-83.45146,MI,26000,12000,0,0,0,Alpena Regional Medical Center
4.34,2.69,42.96881,-85.66649,MI,24000,13000,33,66,82,Spectrum Health - Butterworth Campus
5.32,2.31,43.58941,-83.86908,MI,30000,10000,33,55,98,Mclaren Bay Region
8.93,3.75,42.28388,-83.72960,MI,55000,20000,50,61,43,University Of Michigan Health System
4.78,2.56,42.61490,-82.96060,MI,27000,12000,50,66,54,Henry Ford Macomb Hospital
5.71,3.25,42.36762,-83.08461,MI,33000,16000,66,47,8,Henry Ford Hospital
3.37,2.62,46.54758,-87.39560,MI,17000,12000,83,67,48,Marquette General Hospital
3.14,2.65,42.95817,-85.66253,MI,16000,12000,50,53,90,Saint Mary'S Health Care
6.71,2.48,43.42857,-83.95556,MI,40000,11000,83,61,63,Covenant Medical Center Inc
4.47,2.35,42.77487,-86.11378,MI,25000,10000,0,0,0,Holland Community Hospital
4.46,2.39,42.33111,-85.17817,MI,25000,11000,50,83,63,Bronson Battle Creek Hospital
8.74,2.95,43.42612,-83.94185,MI,54000,14000,66,63,57,St Mary'S Of Michigan Medical Center
4.42,2.24,44.24532,-85.38950,MI,24000,10000,0,0,0,Mercy Hospital - Cadillac
4.00,2.41,42.38392,-82.91480,MI,22000,11000,50,62,51,Beaumont Hospital Grosse Pointe
6.46,2.36,42.25117,-84.39240,MI,38000,10000,50,85,98,Allegiance Health
5.64,2.63,44.76156,-85.64143,MI,33000,12000,50,41,57,Munson Medical Center
4.58,2.37,41.91643,-83.39771,MI,25000,10000,50,68,37,Mercy Memorial Hospital System
5.19,3.51,42.35230,-83.05676,MI,30000,18000,66,62,63,Harper University Hospital
3.54,2.42,45.37209,-84.97065,MI,18000,11000,50,77,24,Northern Michigan Regional Hospital
5.78,2.64,42.30489,-85.56152,MI,34000,12000,66,47,76,Borgess Medical Center
6.80,2.83,42.51418,-83.19259,MI,40000,14000,66,60,16,William Beaumont Hospital
7.06,3.29,43.02135,-83.70308,MI,42000,17000,66,68,6,Hurley Medical Center
5.17,2.66,43.01399,-83.73250,MI,29000,12000,50,60,33,Mclaren Flint
5.89,2.48,42.27424,-83.36580,MI,34000,11000,50,70,48,Oakwood Annapolis Hospital
4.13,2.39,42.21065,-83.14861,MI,22000,11000,50,70,95,Henry Ford Wyandotte Hospital
4.76,2.86,42.46176,-83.37629,MI,27000,14000,50,78,24,Botsford Hospital
6.01,2.56,42.26181,-83.66003,MI,35000,12000,66,62,33,St Joseph Mercy Hospital
5.27,2.83,42.41975,-82.91442,MI,30000,14000,66,72,9,St John Hospital And Medical Center
7.35,2.66,42.70417,-84.55488,MI,44000,12000,33,76,21,Mclaren - Greater Lansing
6.29,2.65,42.11695,-83.21365,MI,37000,12000,33,70,79,Oakwood Southshore Medical Center
5.20,2.30,43.06290,-83.32082,MI,30000,10000,50,63,90,Lapeer Regional Medical Center
6.26,2.59,42.50514,-83.00422,MI,37000,12000,66,56,85,St John Macomb-Oakland Hospital-Macomb Center
6.18,2.82,42.89254,-83.63621,MI,36000,14000,66,70,13,Genesys Regional Medical Center - Health Park
5.11,2.37,42.98625,-82.42802,MI,29000,10000,50,62,29,Port Huron Hospital
4.65,2.61,43.63618,-84.26187,MI,26000,12000,50,72,69,Midmichigan Medical Center-Midland
4.31,2.53,42.58900,-82.89799,MI,24000,12000,66,61,63,Mount Clemens Regional Medical Center
6.81,2.77,42.73767,-84.51698,MI,41000,13000,83,68,1,Edward W Sparrow Hospital
4.79,2.83,42.85736,-85.71774,MI,27000,14000,50,66,48,Metro Health Hospital
4.36,2.22,42.78564,-82.48337,MI,24000,9000,0,0,0,St John River District Hospital
4.93,2.73,42.33215,-83.31195,MI,28000,13000,50,82,37,Garden City Hospital
6.26,2.35,42.67850,-83.14771,MI,37000,10000,50,65,79,Crittenton Hospital Medical Center
6.95,2.48,42.61826,-83.09239,MI,42000,11000,83,60,62,William Beaumont Hospital-Troy
5.56,2.38,42.23506,-83.27602,MI,32000,11000,50,60,92,Oakwood Heritage Hospital
6.75,3.19,42.35295,-83.05447,MI,40000,16000,66,65,5,Detroit Receiving Hospital & Univ Health Center
6.71,2.86,42.59290,-83.49920,MI,40000,14000,66,48,54,Huron Valley-Sinai Hospital
5.97,2.33,42.53914,-83.40777,MI,35000,10000,50,53,39,Henry Ford West Bloomfield Hospital
7.37,2.48,45.01403,-93.32177,MN,44000,11000,66,68,82,North Memorial Medical Center
7.17,2.93,46.79380,-92.09573,MN,43000,14000,83,75,79,Essentia Health St Mary'S Medical Center
6.34,3.91,44.97210,-93.26240,MN,37000,21000,33,37,29,Hennepin County Medical Center
6.30,3.37,44.02052,-92.48292,MN,37000,17000,83,42,32,Mayo Clinic - Saint Marys Hospital
6.55,2.86,45.57390,-94.16942,MN,39000,14000,50,61,37,St Cloud Hospital
9.44,2.78,44.94214,-93.10858,MN,58000,13000,50,86,33,United Hospital
5.32,2.49,46.79634,-92.08793,MN,30000,11000,50,71,29,St Lukes Hospital
3.74,2.39,44.93031,-93.36276,MN,20000,11000,66,72,94,Park Nicollet Methodist Hospital
4.63,2.26,44.84294,-93.79336,MN,26000,10000,0,0,0,Ridgeview Medical Center
9.28,2.76,44.95248,-93.26196,MN,57000,13000,50,70,63,Abbott Northwestern Hospital
8.34,3.19,44.94898,-93.10016,MN,51000,16000,33,66,57,St Joseph'S Hospital
10.58,3.38,44.88645,-93.32693,MN,66000,17000,66,62,94,Fairview Southdale Hospital
25.00,7.36,44.96766,-93.23640,MN,164000,44000,66,56,57,University Of Minnesota  Medical Center Fairview
5.99,2.47,44.16396,-94.00412,MN,35000,11000,50,57,76,Mayo Clinic Health System - Mankato
5.09,2.89,44.95570,-93.09429,MN,29000,14000,50,78,17,Regions Hospital
7.68,2.53,45.18355,-93.36789,MN,46000,12000,50,73,95,Mercy Hospital
6.60,2.37,45.10789,-93.25685,MN,39000,10000,33,85,85,Unity Hospital
6.27,2.54,44.74846,-93.27289,MN,37000,12000,50,83,97,Fairview Ridges Hospital
4.90,2.43,45.02892,-93.03418,MN,28000,11000,50,75,24,Healtheast St John'S Hospital
7.11,2.98,32.33069,-90.17030,MS,43000,15000,66,51,6,University Of Mississippi Med Center
4.67,2.38,34.24336,-88.71753,MS,26000,11000,66,61,48,North Mississippi Medical Center
8.32,2.32,34.93596,-88.55955,MS,51000,10000,50,72,79,Magnolia Regional Health Center
8.04,2.45,30.36674,-89.11535,MS,49000,11000,50,66,69,Memorial Hospital At Gulfport
8.81,2.55,32.35265,-90.87788,MS,54000,12000,50,80,37,River Region Health System
5.46,2.39,34.34899,-89.52062,MS,31000,11000,50,68,24,Baptist Memorial Hospital North Ms
10.47,2.69,30.37516,-88.53226,MS,65000,13000,50,70,3,Singing River Hospital
5.43,2.28,32.33616,-90.15652,MS,31000,10000,50,60,44,St Dominic-Jackson Memorial Hospital
4.20,2.27,31.57544,-90.45670,MS,23000,10000,0,0,0,King'S Daughters Medical Center-Brookhaven
5.10,2.75,31.69405,-89.13061,MS,29000,13000,50,72,16,South Central Reg Med Ctr
11.09,2.42,32.28805,-90.25566,MS,70000,11000,50,81,8,Central Mississippi Medical Center
4.00,2.33,31.31872,-89.32955,MS,22000,10000,50,57,54,Forrest General Hospital
4.82,2.50,33.41099,-91.03479,MS,27000,11000,33,85,51,Delta Regional Medical Center
5.58,2.12,33.74750,-90.71908,MS,32000,9000,0,0,0,Bolivar Medical Center
15.53,2.93,31.32573,-89.36670,MS,100000,14000,50,56,20,Wesley Medical Center
4.80,2.49,33.51824,-90.19832,MS,27000,11000,0,0,0,Greenwood Leflore Hospital
4.36,2.36,33.52568,-88.42742,MS,24000,10000,50,67,54,Baptist Mem Hosp/Golden Triangle Inc
4.85,2.22,32.31643,-90.17922,MS,27000,9000,66,43,85,Mississippi Baptist Medical Center
4.57,2.28,32.37280,-88.69954,MS,25000,10000,50,77,39,Anderson Regional Medical Center
7.74,2.42,34.96927,-89.99709,MS,47000,11000,50,68,11,Baptist Memorial Hospital Desoto
7.19,2.22,37.06032,-94.52747,MO,43000,9000,0,0,0,St John'S Regional Medical Center
6.02,2.30,38.78060,-90.48379,MO,35000,10000,50,76,37,Ssm St Joseph Health Center
5.80,2.77,39.77393,-94.77089,MO,34000,13000,50,58,51,Heartland Regional Medical Center
3.63,2.25,38.69946,-93.22211,MO,19000,10000,50,82,63,Bothwell Regional Health Center
5.29,2.13,38.57670,-92.17352,MO,30000,9000,50,86,0,St Marys Health Center
6.94,2.74,37.95144,-91.75940,MO,41000,13000,50,88,48,Phelps County Regional Medical Center
8.98,2.52,38.64281,-90.44448,MO,55000,11000,83,57,74,Mercy Hospital St Louis
4.05,2.24,38.16498,-90.38082,MO,22000,10000,50,83,82,Jefferson Regional Medical Center
12.69,2.69,39.00717,-94.55925,MO,80000,13000,33,82,5,Research Medical Center
6.62,2.84,38.63524,-90.26508,MO,39000,14000,50,56,12,Barnes Jewish Hospital
4.44,2.32,37.14560,-93.28037,MO,24000,10000,50,61,85,Cox Medical Center
4.85,2.45,38.56571,-92.18204,MO,27000,11000,50,83,57,Capital Region Medical Center
7.58,2.61,37.17999,-93.27409,MO,46000,12000,66,61,24,St John'S Regional Health Center
6.55,2.33,38.94903,-92.31563,MO,39000,10000,66,73,43,Boone Hospital Center
4.67,2.14,38.50661,-90.38025,MO,26000,9000,66,57,13,St Anthony'S Medical Center
3.39,2.34,36.73801,-91.87553,MO,17000,10000,0,0,0,Ozarks Medical Center
6.42,2.31,38.52738,-90.47501,MO,38000,10000,50,65,44,Ssm St Clare Health Center
7.79,2.26,38.93592,-94.60376,MO,47000,10000,50,75,88,St Joseph Medical Center
6.86,2.94,38.63268,-90.31089,MO,41000,14000,83,77,57,Ssm St Marys Health Center
5.35,2.22,36.64970,-93.22138,MO,31000,9000,50,71,79,Skaggs Regional Medical Center
9.41,2.24,39.04749,-94.34105,MO,58000,10000,50,72,39,Centerpoint Medical Center Of Independence Llc
5.79,2.22,39.14957,-94.55148,MO,34000,9000,50,58,63,North Kansas City Hospital
8.26,2.76,38.75097,-90.43255,MO,50000,13000,66,68,43,Ssm Depaul Health Center
10.61,3.39,38.62280,-90.24049,MO,66000,17000,50,46,5,St Louis University Hospital
4.89,2.15,38.63702,-90.44699,MO,28000,9000,66,68,48,Missouri Baptist Medical Center
8.97,2.49,37.31072,-89.53990,MO,55000,11000,50,72,8,Southeast Missouri Hospital
9.00,2.48,36.78510,-90.42779,MO,55000,11000,50,60,39,Poplar Bluff Regional Medical Center
7.38,2.41,37.05238,-94.52777,MO,44000,11000,83,67,85,Freeman Health System - Freeman West
10.94,2.62,39.04761,-94.59037,MO,68000,12000,66,50,17,St Lukes Hospital Of Kansas City
8.51,2.73,38.95171,-92.33407,MO,52000,13000,66,60,63,University Of Missouri Health Care
3.66,2.10,37.78031,-90.43967,MO,19000,9000,0,0,0,Parkland Health Center
5.60,2.23,39.27591,-94.42572,MO,32000,10000,33,60,33,Liberty Hospital
7.02,2.27,38.65123,-90.50301,MO,42000,10000,66,67,12,St Lukes Hospital
7.64,2.76,38.77576,-90.23906,MO,46000,13000,66,75,4,Christian Hospital Northeast
7.27,2.33,37.30401,-89.57190,MO,44000,10000,50,65,11,St Francis Medical Center
7.03,2.81,38.12027,-92.68146,MO,42000,13000,50,52,8,Lake Regional Health System
4.68,2.17,38.79427,-90.58049,MO,26000,9000,50,75,32,Barnes-Jewish St Peters Hospital
6.38,2.22,38.80334,-90.77619,MO,38000,9000,50,65,82,Ssm St Joseph Hospital West
10.82,2.34,38.94062,-94.37842,MO,68000,10000,0,0,0,Saint Luke'S East Lee'S Summit Hospital
3.89,2.39,45.78958,-108.51283,MT,21000,11000,50,86,88,Billings Clinic Hospital
7.40,2.90,47.49139,-111.26255,MT,45000,14000,50,61,57,Benefis Hospitals Inc
6.53,2.64,46.87545,-114.00033,MT,39000,12000,50,77,69,St Patrick Hospital
6.83,3.15,46.00924,-112.54613,MT,41000,16000,0,0,0,St James Healthcare
4.33,2.36,45.79337,-108.51928,MT,24000,10000,50,81,54,St Vincent Healthcare
6.89,2.46,40.78318,-96.63709,NE,41000,11000,66,70,63,Bryanlgh Medical Center
6.18,2.76,41.25522,-95.97892,NE,36000,13000,50,52,51,The Nebraska Medical Center
5.77,2.30,40.80816,-96.62689,NE,34000,10000,50,66,20,Saint Elizabeth Regional Medical Center
4.32,2.21,40.92425,-98.37053,NE,24000,9000,50,81,33,St Francis Medical Center
13.71,3.51,41.26509,-95.95494,NE,87000,18000,50,67,0,Creighton University Medical Center - Saint Joseph
8.38,2.33,41.25797,-96.04164,NE,51000,10000,50,73,33,The Nebraska Methodist Hospital
7.01,2.43,41.23897,-96.03162,NE,42000,11000,50,46,82,Alegent Health Bergan Mercy Medical Center
7.69,3.15,41.88690,-103.66400,NE,46000,16000,50,58,85,Regional West Medical Center
5.23,2.60,42.03257,-97.45100,NE,30000,12000,0,0,0,Faith Regional Health Services
7.60,2.62,39.52637,-119.79456,NV,46000,12000,50,66,17,Renown Regional Medical Center
12.09,2.79,36.13459,-115.13576,NV,76000,13000,66,68,9,Sunrise Hospital And Medical Center
10.49,3.21,36.15896,-115.16558,NV,65000,16000,33,60,0,Umc Of Southern Nevada
7.64,2.70,39.53066,-119.82067,NV,46000,13000,66,76,44,Saint Mary'S Regional Medical Center
11.13,2.52,36.03931,-114.98259,NV,70000,12000,75,76,54,Saint Rose Dominican Hospital - De Lima
7.20,2.71,39.20247,-119.78446,NV,43000,13000,50,56,69,Carson Tahoe Regional Medical Center
17.92,2.97,36.16380,-115.16574,NV,116000,15000,66,70,54,Valley Hospital Medical Center
13.22,2.65,36.11363,-115.12573,NV,84000,12000,83,70,63,Desert Springs Hospital
18.01,2.82,36.21599,-115.25095,NV,116000,13000,66,57,13,Mountainview Hospital
17.27,2.72,36.16586,-115.32436,NV,111000,13000,83,72,27,Summerlin Hospital Medical Center
13.56,2.51,36.00527,-115.11618,NV,86000,11000,50,50,33,Saint Rose Dominican Hospital - Siena Campus
22.22,3.11,36.09056,-115.24058,NV,145000,15000,66,78,12,Spring Valley Hospital Medical Center
18.36,2.96,36.05712,-115.27116,NV,119000,14000,50,78,18,Saint Rose Dominican Hospital - San Martin Campus
13.39,2.46,36.28588,-115.28772,NV,85000,11000,75,66,39,Centennial Hills Hospital Medical Center
6.23,2.70,43.19846,-71.56230,NH,37000,13000,33,63,94,Concord Hospital
6.55,3.43,43.67286,-72.27232,NH,39000,18000,50,38,0,Mary Hitchcock Memorial Hospital
6.02,2.84,42.75004,-71.48100,NH,35000,14000,0,0,0,St Joseph Hospital
4.03,2.39,43.00792,-71.46807,NH,22000,11000,50,57,21,Elliot Hospital
5.98,2.31,42.87652,-71.31722,NH,35000,10000,0,0,0,Parkland Medical Center
4.44,2.55,42.94925,-72.28978,NH,24000,12000,0,0,0,Cheshire Medical Center
5.67,2.64,42.75623,-71.46059,NH,33000,12000,50,81,54,Southern Nh Medical Center
5.10,2.31,42.98369,-70.93511,NH,29000,10000,0,0,0,Exeter Hospital Inc
6.05,2.37,42.99121,-71.47426,NH,35000,10000,33,63,92,Catholic Medical Center
16.34,3.13,40.88346,-74.05564,NJ,105000,16000,50,58,85,Hackensack University Medical Center
13.59,3.64,40.71011,-74.21368,NJ,86000,19000,66,56,11,Newark Beth Israel Medical Center
13.13,3.00,40.79576,-73.99575,NJ,83000,15000,25,62,32,Palisades Medical Ctr-Ny Presbyterian Healthcare S
7.53,3.00,40.53142,-74.86080,NJ,45000,15000,75,55,69,Hunterdon Medical Center
9.40,2.79,40.84945,-74.13768,NJ,58000,13000,50,56,85,St Mary'S Hospital Passaic
8.46,2.66,40.88275,-74.01021,NJ,52000,12000,66,67,57,Holy Name Medical Center
15.44,2.81,40.78556,-74.17598,NJ,99000,13000,66,83,95,Clara Maass Medical Center
10.13,2.58,40.35684,-74.66166,NJ,63000,12000,50,56,21,University Medical Center At Princeton
6.53,2.41,39.08752,-74.81657,NJ,39000,11000,50,73,48,Cape Regional Medical Center Inc
9.48,2.74,40.98359,-74.10047,NJ,59000,13000,50,78,21,Valley Hospital
11.91,3.31,39.94152,-75.11680,NJ,75000,17000,66,42,2,Cooper University Hospital
10.38,2.83,40.78883,-74.46620,NJ,65000,14000,66,43,39,Morristown Memorial Hospital
17.04,3.01,40.73417,-74.04977,NJ,110000,15000,0,0,0,Christ Hospital
11.14,2.57,40.95858,-74.31000,NJ,70000,12000,50,62,1,Chilton Hospital
12.52,3.12,40.90215,-74.16634,NJ,79000,16000,16,53,94,St Joseph'S Regional Medical Center
15.09,2.59,39.78261,-74.91670,NJ,97000,12000,50,52,74,Virtua West Jersey Hospitals Berlin
15.19,2.37,40.61288,-74.29092,NJ,97000,10000,50,80,44,Robert Wood Johnson University Hospital At Rahway
30.00,2.60,40.66805,-74.11334,NJ,198000,12000,50,80,63,Bayonne Hospital Center
13.69,2.97,40.66005,-74.21417,NJ,87000,15000,50,75,39,Trinitas Regional Medical Center
12.58,2.68,41.05754,-74.76857,NJ,80000,13000,50,77,79,Newton Memorial Hospital
17.16,2.88,39.92695,-75.09537,NJ,111000,14000,50,70,10,Our Lady Of Lourdes Medical Center
9.60,2.61,39.44743,-75.05838,NJ,59000,12000,50,62,1,South Jersey Healthcare Regional Medical Center
9.46,2.35,40.35309,-74.06484,NJ,58000,10000,33,61,69,Riverview Medical Center
16.02,3.11,40.49581,-74.44980,NJ,103000,15000,66,51,1,Robert Wood Johnson University Hospital
16.42,3.07,40.51891,-74.28183,NJ,106000,15000,75,68,69,Raritan Bay Medical Center
13.74,3.16,40.74132,-74.03369,NJ,87000,16000,0,0,0,Hoboken University Medical Center
10.73,2.36,39.96484,-74.21708,NJ,67000,10000,50,47,88,Community Medical Center
17.72,2.85,40.29209,-74.80327,NJ,114000,14000,50,86,29,Capital Health Medical Center - Hopewell
13.24,2.80,40.90400,-73.96847,NJ,84000,13000,66,81,54,Englewood Hospital And Medical Center
18.88,2.69,39.31464,-74.59391,NJ,122000,13000,16,72,82,Shore Medical Center
24.23,3.30,40.56804,-74.59579,NJ,159000,17000,50,67,29,Somerset Medical Center
10.57,2.57,40.89538,-74.46479,NJ,66000,12000,50,63,69,Saint Clare'S Hospital
10.00,2.84,40.71264,-74.35460,NJ,62000,14000,50,52,57,Overlook Hospital
11.94,2.41,40.07832,-74.13009,NJ,75000,11000,50,57,48,Ocean Medical Center
10.22,2.84,40.81058,-74.20459,NJ,64000,14000,50,68,43,Mountainside Hospital
13.08,2.44,39.98588,-74.79393,NJ,83000,11000,66,55,54,Virtua Memorial Hospital Of Burlington County
16.54,2.82,40.70180,-75.17825,NJ,106000,14000,0,0,0,St Luke'S Warren Hospital
15.45,2.51,40.04632,-74.88059,NJ,99000,11000,50,48,6,Lourdes Medical Center Of Burlington County
15.53,2.54,39.35775,-74.43449,NJ,100000,12000,66,65,88,Atlanticare Regional Medical Center - City Div
18.53,3.03,40.50214,-74.46015,NJ,120000,15000,50,53,29,Saint Peter'S University Hospital
14.80,2.68,40.21065,-74.03566,NJ,95000,13000,50,58,6,Jersey Shore University Medical Center
13.51,3.54,40.71663,-74.05013,NJ,86000,18000,83,73,82,Libertyhealth-Jersey City Medical Center Campus
16.49,3.05,40.29563,-73.98518,NJ,106000,15000,50,50,85,Monmouth Medical Center
12.80,2.96,40.76190,-74.30335,NJ,81000,14000,83,53,2,Saint Barnabas Medical Center
13.57,2.52,39.84392,-75.14985,NJ,86000,11000,50,70,33,Underwood - Memorial Hospital
10.07,2.79,40.75402,-74.21335,NJ,63000,13000,50,73,57,East Orange General Hospital
11.05,2.50,40.07503,-74.21832,NJ,69000,11000,50,71,76,Kimball Medical Center
13.75,2.89,39.82811,-75.00895,NJ,88000,14000,66,60,69,Kennedy University Hospital - Stratford Div
9.07,2.47,39.59285,-75.44416,NJ,56000,11000,0,0,0,Memorial Hospital Of Salem County
15.36,2.65,40.23629,-74.75256,NJ,98000,12000,50,77,57,Capital Health System-Fuld Campus
8.19,3.15,40.74323,-74.17431,NJ,50000,16000,50,68,51,Saint Michael'S Medical Center Inc
12.05,2.69,40.55784,-74.34970,NJ,76000,13000,50,71,57,Jfk Medical Ctr - Anthony M. Yelencsics Community
15.43,2.37,40.21575,-74.67273,NJ,99000,10000,50,67,79,Robert Wood Johnson University Hospital Hamilton
9.60,2.44,40.23861,-74.31289,NJ,59000,11000,33,68,13,Centrastate Medical Center
15.71,2.44,40.40516,-74.19203,NJ,101000,11000,50,81,98,Bayshore Community Hospital
7.70,2.31,39.66213,-74.26392,NJ,47000,10000,50,62,69,Southern Ocean Medical Center
13.03,2.56,40.85399,-74.82906,NJ,83000,12000,0,0,0,Hackettstown Regional Medical Center
12.55,4.07,40.73925,-74.19276,NJ,79000,22000,33,55,11,Umdnj University Hospital
5.43,3.37,35.08838,-106.61590,NM,31000,17000,83,46,11,Unm Hospital
5.57,2.97,35.65960,-105.94578,NM,32000,15000,50,65,29,St Vincent Hospital
5.66,2.77,36.72387,-108.21749,NM,33000,13000,50,71,82,San Juan Regional Medical Center
6.67,2.28,35.08603,-106.63950,NM,40000,10000,66,62,54,Lovelace Medical Center
6.70,2.54,32.29186,-106.73470,NM,40000,12000,50,63,3,Memorial Medical Center Inc
6.27,2.55,35.08102,-106.63392,NM,37000,12000,33,51,3,Presbyterian Hospital
6.62,2.34,32.32310,-106.72900,NM,39000,10000,50,68,16,Mountain View Regional Medical Center
7.38,3.36,40.59458,-73.78144,NY,44000,17000,0,0,0,Peninsula Hospital Center
9.36,2.91,41.92720,-73.99535,NY,58000,14000,50,83,39,Kingston Hospital
6.97,3.24,42.87482,-78.84942,NY,42000,16000,33,45,8,Kaleida Health
3.29,3.14,40.92963,-73.89840,NY,17000,16000,50,61,90,St Joseph'S Medical Center
3.83,4.56,40.83139,-73.90306,NY,20000,25000,50,60,54,Bronx-Lebanon Hospital Center
3.12,2.25,42.09299,-75.93704,NY,16000,10000,50,73,99,Our Lady Of Lourdes Memorial Hospital Inc
9.84,3.47,42.65345,-73.77543,NY,61000,18000,66,60,63,Albany Medical Center Hospital
4.81,4.00,40.70141,-73.81630,NY,27000,22000,0,78,39,Jamaica Hospital Medical Center
4.54,3.21,40.61384,-73.94851,NY,25000,16000,0,0,0,New York Community Hospital Of Brooklyn Inc.
8.69,2.67,41.69441,-73.93432,NY,53000,13000,83,82,54,Vassar Brothers Medical Center
7.18,3.80,40.79041,-73.95386,NY,43000,20000,83,38,5,Mount Sinai Hospital
7.31,4.04,40.72548,-73.55287,NY,44000,22000,50,88,4,Nassau University Medical Center
10.13,3.51,40.63588,-74.10556,NY,63000,18000,66,52,20,Richmond University Medical Center
9.23,3.17,40.72567,-73.24189,NY,57000,16000,50,58,37,Southside Hospital
6.43,2.49,43.09840,-75.27819,NY,38000,11000,50,60,17,Faxton-St Luke'S Healthcare
8.06,2.63,40.87946,-73.41621,NY,49000,12000,50,66,39,Huntington Hospital
8.94,3.83,40.80556,-73.96131,NY,55000,20000,33,56,5,St Luke'S Roosevelt Hospital
4.74,2.31,42.95425,-74.21527,NY,27000,10000,0,0,0,St Mary'S Hospital At Amsterdam
7.85,3.36,40.74722,-73.82521,NY,48000,17000,66,63,79,New York Hospital Medical Center Of Queens
5.46,3.95,40.68983,-73.97794,NY,31000,21000,83,71,13,Brooklyn Hospital Center At Downtown Campus
6.21,2.22,42.65583,-73.80372,NY,36000,9000,33,47,54,St Peter'S Hospital
11.05,3.98,40.87987,-73.87996,NY,69000,21000,50,38,44,Montefiore Medical Center
8.39,2.82,40.94161,-73.83650,NY,51000,14000,33,63,12,Lawrence Hospital Center
5.78,3.96,40.71016,-74.00464,NY,34000,21000,50,72,33,New York Downtown Hospital
4.94,2.46,42.92866,-78.84819,NY,28000,11000,50,55,29,Sisters Of Charity Hospital
4.55,2.32,42.10076,-76.82800,NY,25000,10000,50,65,33,Arnot Ogden Medical Center
11.10,4.10,40.76487,-73.95398,NY,70000,22000,33,32,74,New York-Presbyterian Hospital
3.40,2.24,42.09049,-78.42780,NY,17000,10000,50,83,37,Olean General Hospital
10.87,2.78,41.09642,-73.92501,NY,68000,13000,66,77,76,Nyack Hospital
12.23,3.38,40.77686,-73.70212,NY,77000,17000,33,61,69,North Shore University Hospital
12.21,3.25,40.77362,-73.96093,NY,77000,16000,33,46,11,Lenox Hill Hospital
3.92,2.41,43.19244,-77.58590,NY,21000,11000,66,46,17,Rochester General Hospital
7.55,2.64,41.44138,-74.36821,NY,46000,12000,50,62,69,Orange Regional Medical Center
3.71,4.21,40.85407,-73.84688,NY,20000,23000,50,70,74,Jacobi Medical Center
5.56,4.25,40.74465,-73.88620,NY,32000,23000,25,83,32,Elmhurst Hospital Center
4.83,3.20,42.69590,-74.92278,NY,27000,16000,50,83,76,Mary Imogene Bassett Hospital
5.23,2.86,43.05571,-76.14981,NY,30000,14000,83,37,20,St Joseph'S Hospital Health Center
12.38,2.71,40.78000,-72.97763,NY,78000,13000,33,60,32,Brookhaven Memorial Hospital Medical Center
8.34,4.06,40.68964,-73.99657,NY,51000,22000,0,0,0,Long Island College Hospital
5.05,2.32,42.81963,-73.91653,NY,29000,10000,50,68,21,Ellis Hospital
5.62,3.16,43.96519,-75.91511,NY,32000,16000,50,85,63,Samaritan Medical Center
9.82,2.92,41.11299,-74.13732,NY,61000,14000,66,82,82,Good Samaritan Hospital Of Suffern
7.28,3.16,40.58440,-74.08507,NY,44000,16000,66,71,37,Staten Island University Hospital
5.17,2.55,41.19677,-73.72572,NY,29000,12000,50,68,69,Northern Westchester Hospital
4.07,2.44,43.17738,-78.67123,NY,22000,11000,0,0,0,Eastern Niagara Hospital
2.42,2.40,43.13562,-77.60602,NY,11000,11000,50,43,10,Highland Hospital
12.69,3.46,40.74083,-73.64306,NY,80000,18000,66,50,74,Winthrop-University Hospital
9.29,3.74,40.73265,-73.98162,NY,57000,20000,50,60,39,Beth Israel Medical Center
6.44,2.26,42.73354,-73.67249,NY,38000,10000,50,76,62,Samaritan Hospital
6.95,2.68,40.87062,-73.62249,NY,42000,13000,50,82,85,Glen Cove Hospital
10.95,2.78,40.80462,-73.67023,NY,69000,13000,83,72,94,St Francis Hospital Roslyn
5.57,3.34,40.91276,-73.78720,NY,32000,17000,50,83,6,Sound Shore Medical Center Of Westschester
8.49,2.59,40.94000,-73.05510,NY,52000,12000,50,63,63,John T Mather Memorial Hospital  Of Port Jefferson
4.29,2.19,43.30652,-73.64663,NY,23000,9000,50,63,90,Glens Falls Hospital
6.44,3.72,40.75543,-73.81532,NY,38000,20000,25,72,63,Flushing Hospital Medical Center
16.30,5.06,40.63937,-73.99851,NY,105000,29000,50,45,54,Maimonides Medical Center
9.77,3.70,40.75332,-73.70899,NY,61000,19000,50,45,90,Long Island Jewish Medical Center
4.74,3.97,40.58549,-73.96558,NY,27000,21000,25,72,29,Coney Island Hospital
10.10,2.80,40.65189,-73.63096,NY,63000,13000,50,52,43,South Nassau Communities Hospital
9.13,3.39,40.65957,-73.93378,NY,56000,17000,25,77,95,Kingsbrook Jewish Medical Center
3.19,4.36,40.65660,-73.94468,NY,16000,24000,25,73,24,Kings County Hospital Center
4.60,2.69,43.04139,-76.13803,NY,26000,13000,50,41,1,Crouse Hospital
5.57,4.45,40.74178,-73.98236,NY,32000,25000,50,63,24,Bellevue Hospital Center
8.92,3.29,40.96967,-73.88447,NY,55000,17000,50,75,85,St John'S Riverside Hospital
10.78,3.40,40.74335,-73.97408,NY,67000,17000,33,63,21,Nyu Hospitals Center
4.70,3.34,42.92531,-78.83111,NY,26000,17000,66,63,13,Erie County Medical Center
12.87,4.74,40.70419,-73.91754,NY,82000,27000,50,81,16,Wyckoff Heights Medical Center
5.10,2.19,43.08561,-73.79712,NY,29000,9000,50,58,29,Saratoga Hospital
6.78,2.87,40.59411,-73.65106,NY,40000,14000,0,0,0,Long Beach Medical Center
3.05,2.38,43.19054,-77.70177,NY,15000,11000,50,45,82,Unity Hospital Of Rochester
5.39,2.34,42.74285,-73.67673,NY,31000,10000,50,52,69,Seton Health System-St Mary'S Campus
7.22,3.87,40.65533,-73.91221,NY,43000,21000,50,62,54,Brookdale Hospital Medical Center
6.68,3.66,40.66762,-73.97850,NY,40000,19000,33,55,29,New York Methodist Hospital
7.22,3.72,43.04269,-76.14043,NY,43000,20000,66,41,3,University Hospital S U N Y Health Science Center
4.84,2.88,44.70022,-73.47100,NY,27000,14000,50,55,0,Champlain Valley Physicians Hospital Medical Ctr
8.68,2.69,40.68896,-73.63259,NY,53000,13000,50,62,37,Mercy Medical Center
6.90,2.95,41.10880,-73.86355,NY,41000,14000,0,0,0,Phelps Memorial Hospital Assn
8.54,2.69,41.50307,-74.01517,NY,52000,13000,33,81,95,St Luke'S Cornwall Hospital
7.78,2.78,41.29201,-73.89529,NY,47000,13000,50,82,76,Hudson Valley Hospital Center
7.12,2.63,41.38421,-73.66323,NY,43000,12000,0,0,0,Putnam Hospital Center
3.49,2.11,42.14073,-77.04745,NY,18000,9000,0,0,0,Corning Hospital
5.06,2.62,42.84782,-78.81264,NY,29000,12000,50,68,13,Mercy Hospital
5.27,3.31,43.12266,-77.62360,NY,30000,17000,50,55,21,Strong Memorial Hospital
10.81,2.72,40.69327,-73.29412,NY,68000,13000,50,70,74,Good Samaritan Hospital Medical Center
5.46,2.55,41.02614,-73.76978,NY,31000,12000,50,62,44,White Plains Hospital Center
5.85,4.10,40.64666,-74.02049,NY,34000,22000,50,67,5,Lutheran Medical Center
3.28,2.35,42.47286,-76.53849,NY,17000,10000,50,78,16,Cayuga Medical Center At Ithaca
4.84,2.80,40.83778,-73.85417,NY,27000,13000,50,66,16,New York Westchester Square Medical Center
8.30,2.80,40.77481,-73.47968,NY,51000,13000,50,56,20,Plainview Hospital
7.26,2.52,40.72593,-73.47844,NY,44000,11000,50,62,56,St Joseph Hospital
17.76,9.86,40.65508,-73.94521,NY,115000,61000,50,66,8,University Hospital Of Brooklyn ( Downstate )
7.33,3.12,40.72931,-73.85219,NY,44000,16000,50,55,13,Forest Hills Hospital
8.73,2.57,40.68104,-73.68633,NY,54000,12000,50,66,69,Franklin Hospital
4.14,2.34,41.70887,-74.73736,NY,22000,10000,0,0,0,Catskill Regional Medical Center
12.62,4.18,40.90922,-73.11520,NY,80000,23000,50,60,44,University Hospital ( Stony Brook )
4.87,2.52,42.11422,-75.95851,NY,27000,11000,66,48,92,United Health Services Hospitals Inc
7.26,4.26,40.59803,-73.75296,NY,44000,23000,50,63,7,St John'S Episcopal Hospital At South Shore
7.61,4.10,40.67816,-73.93768,NY,46000,22000,50,62,90,Interfaith Medical Center
5.85,4.39,40.85263,-73.89184,NY,34000,24000,50,62,44,St Barnabas Hospital
9.58,2.55,40.85738,-73.18681,NY,59000,12000,50,76,88,St Catherine Of Siena Hospital
4.27,2.49,35.43754,-80.60147,NC,23000,11000,66,65,16,Carolinas Medical Center-Northeast
5.16,2.50,35.57658,-82.54922,NC,29000,11000,66,40,81,Memorial Mission Hospital And Asheville Surgery Ce
3.74,2.37,36.48826,-80.61222,NC,20000,10000,0,0,0,Northern Hospital Of Surry County
5.94,2.50,35.95000,-80.00000,NC,35000,11000,50,66,39,High Point Regional Hospital
4.58,2.37,34.75124,-79.46789,NC,25000,10000,0,0,0,Scotland Memorial Hospital
3.28,2.55,35.39772,-77.95250,NC,17000,12000,50,81,8,Wayne Memorial Hospital
5.09,2.66,36.07581,-80.29779,NC,29000,12000,50,52,39,Forsyth Memorial Hospital
5.09,2.34,35.68172,-80.47072,NC,29000,10000,50,80,76,Rowan Regional Medical Center
4.55,2.26,35.32080,-82.46812,NC,25000,10000,0,0,0,Margaret R Pardee Memorial Hospital
5.34,2.29,35.46894,-79.18668,NC,31000,10000,50,77,21,Central Carolina Hospital
5.03,2.41,35.30288,-81.53571,NC,29000,11000,50,71,63,Cleveland Regional Medical Center
4.05,2.31,35.38994,-82.48815,NC,22000,10000,0,0,0,Park Ridge Health
5.16,2.50,35.00670,-78.32412,NC,29000,11000,0,0,0,Sampson Regional Medical Center
4.32,2.43,35.29053,-77.58307,NC,24000,11000,50,63,63,Lenoir Memorial Hospital
7.52,2.75,35.03156,-78.93205,NC,45000,13000,50,50,18,Cape Fear Valley Medical Center
7.16,3.31,36.00850,-78.94006,NC,43000,17000,66,43,76,Duke University Hospital
4.77,2.48,35.27341,-81.13688,NC,27000,11000,50,70,69,Gaston Memorial Hospital
8.04,2.54,35.79986,-80.87863,NC,49000,12000,50,62,95,Iredell Memorial Hospital Inc
6.83,3.20,35.60726,-77.40477,NC,41000,16000,50,46,1,Pitt County Memorial Hospital
7.05,2.43,35.91058,-81.53512,NC,42000,11000,50,90,85,Caldwell Memorial Hospital
4.75,2.37,34.76273,-77.38582,NC,27000,10000,50,58,17,Onslow Memorial Hospital
5.00,3.26,36.09062,-80.27161,NC,28000,16000,83,55,57,North Carolina Baptist Hospital
5.93,2.68,34.63723,-79.01213,NC,35000,13000,50,71,63,Southeastern Regional Medical Center
6.44,2.55,35.22196,-80.83287,NC,38000,12000,50,63,13,Presbyterian Hospital
3.12,2.35,36.49464,-79.73929,NC,16000,10000,0,0,0,Morehead Memorial Hospital
5.56,3.83,35.90529,-79.04963,NC,32000,20000,66,41,1,University Of North Carolina Hospital
3.95,2.09,36.15893,-81.15703,NC,21000,9000,0,0,0,Wilkes Regional Medical Center
3.61,2.48,34.33747,-78.69425,NC,19000,11000,0,0,0,Columbus Regional Healthcare System
6.27,2.67,35.78523,-78.58836,NC,37000,13000,33,50,79,Wakemed Raleigh Campus
4.49,2.48,36.06347,-79.50208,NC,25000,11000,33,60,16,Alamance Regional Medical Center
3.94,2.46,35.30715,-78.63474,NC,21000,11000,0,0,0,Betsy Johnson Regional  Hospital
5.81,2.53,35.82915,-78.61922,NC,34000,12000,50,81,79,Duke Health Raleigh Hospital
5.68,2.28,35.72399,-81.65874,NC,33000,10000,0,0,0,Grace Hospital Inc
6.77,2.58,35.50624,-78.32511,NC,40000,12000,50,55,24,Johnston Memorial Hospital
3.80,2.48,36.09251,-79.78855,NC,20000,11000,66,66,51,Moses H Cone Memorial Hospital The
5.61,2.37,35.21029,-80.82084,NC,32000,10000,50,53,51,Carolinas Med Center-Mercy
5.45,2.76,36.32690,-76.22370,NC,31000,13000,50,76,54,Albemarle Hospital Authority
6.50,3.07,35.20397,-80.83908,NC,38000,15000,66,63,24,Carolinas Medical Center/Behav Health
5.07,2.19,35.81801,-78.70283,NC,29000,9000,50,65,54,Rex Hospital
4.82,2.40,35.20554,-79.45645,NC,27000,11000,66,60,44,Firsthealth Moore Regional Hospital
7.42,2.18,35.73751,-81.33702,NC,45000,9000,50,67,17,Frye Regional Medical Center
4.30,2.34,35.36457,-80.19450,NC,24000,10000,0,0,0,Stanly Regional Medical Center
4.49,2.46,35.71850,-77.94518,NC,25000,11000,50,68,88,Wilson Medical Center
6.07,2.30,35.54775,-80.85563,NC,36000,10000,50,82,4,Lake Norman Regional Medical Center
3.10,2.48,34.97382,-80.52250,NC,15000,11000,50,68,69,Carolinas Medical Center-Union
4.35,2.56,35.11420,-77.06568,NC,24000,12000,33,73,90,Carolina East Medical Center
5.48,2.49,36.32959,-78.39916,NC,32000,11000,50,88,41,Maria Parham Medical Center
4.37,2.57,34.23786,-77.94764,NC,24000,12000,83,70,57,New Hanover Regional Medical Center
3.33,2.54,34.72615,-76.75452,NC,17000,12000,0,0,0,Carteret General Hospital
5.15,2.35,35.71664,-81.26661,NC,29000,10000,50,72,63,Catawba Valley Medical Center
4.46,2.74,35.97538,-77.85012,NC,25000,13000,50,65,13,Nash General Hospital
3.69,2.41,36.43295,-77.64729,NC,19000,11000,0,0,0,Halifax Regional Medical Center Inc
5.65,2.58,36.04960,-78.90617,NC,33000,12000,50,51,69,Durham Regional Hospital
5.25,2.47,35.30611,-80.74708,NC,30000,11000,50,75,42,Carolinas Med Ctr-University
4.64,2.28,35.11432,-80.71971,NC,26000,10000,0,0,0,Presbyterian Hospital Matthews
6.56,2.30,35.74046,-78.78127,NC,39000,10000,50,72,13,Wakemed Cary Hospital
4.07,2.31,46.80739,-100.77773,ND,22000,10000,50,72,76,St Alexius Medical Center
3.14,2.34,48.23258,-101.28843,ND,16000,10000,50,72,48,Trinity Hospitals
4.63,2.54,46.88496,-96.78609,ND,26000,12000,66,61,48,Sanford Medical Center Fargo
3.61,2.49,46.80798,-100.78229,ND,19000,11000,50,77,5,Medcenter One
5.60,2.56,47.91045,-97.06742,ND,32000,12000,83,53,1,Altru Hospital
4.10,2.32,46.83250,-96.82805,ND,22000,10000,33,77,20,Essentia Health-Fargo
3.80,2.29,39.08582,-84.34886,OH,20000,10000,50,72,85,Mercy Hospital Anderson
6.30,3.36,39.13707,-84.50392,OH,37000,17000,66,45,21,University Hospital Inc
7.62,2.53,40.03064,-83.03440,OH,46000,12000,83,71,21,Riverside Methodist Hospital
4.92,2.51,38.75320,-82.97800,OH,28000,11000,50,61,69,Southern Ohio Medical Center
4.71,2.20,40.73578,-84.08630,OH,26000,9000,75,61,13,Lima Memorial Health System
2.85,2.21,40.51393,-81.45644,OH,14000,9000,0,0,0,Union Hospital
4.21,2.28,40.57098,-83.12972,OH,23000,10000,50,91,48,Marion General Hospital
3.72,2.45,40.11479,-82.94677,OH,20000,11000,50,66,12,Mount Carmel St Ann'S Hospital
6.50,2.62,39.20680,-84.38093,OH,38000,12000,50,76,94,Jewish Hospital Llc
6.04,2.68,39.96098,-82.99077,OH,35000,13000,66,78,21,Grant Medical Center
10.35,2.71,41.08161,-81.50007,OH,64000,13000,66,63,33,Summa Health Systems Hospitals
6.57,2.30,41.44642,-82.70864,OH,39000,10000,50,86,18,Firelands Regional Medical Center
6.98,2.58,41.07747,-81.53042,OH,42000,12000,66,70,63,Akron General Medical Center
4.11,2.47,39.95805,-83.02191,OH,22000,11000,66,42,1,Mount Carmel Health
5.29,2.70,41.49640,-81.67376,OH,30000,13000,25,55,63,St Vincent Charity Medical Center
4.20,2.42,39.97510,-82.01812,OH,23000,11000,50,78,92,Genesis Healthcare System
4.49,2.13,41.38265,-81.73127,OH,25000,9000,50,75,94,Parma Community General Hospital
8.68,3.33,41.61788,-83.61632,OH,53000,17000,66,68,6,University Of Toledo Medical Center
7.67,2.87,39.74547,-84.18523,OH,46000,14000,66,45,1,Miami Valley Hospital
11.23,2.79,39.78778,-84.23493,OH,70000,13000,66,56,16,Good Samaritan Hospital
4.24,2.19,38.84439,-82.23902,OH,23000,9000,0,0,0,Holzer Medical Center
8.05,2.22,41.23549,-80.79865,OH,49000,9000,66,56,0,Trumbull Memorial Hospital
5.84,2.42,39.31257,-84.51774,OH,34000,11000,50,90,69,Mercy Hospital Fairfield
4.09,3.12,41.46088,-81.69763,OH,22000,16000,50,60,24,Metro Health Medical Center
5.80,2.38,41.11441,-80.65565,OH,34000,11000,83,48,21,St Elizabeth Health Center
5.84,2.31,40.74115,-84.11804,OH,34000,10000,66,73,6,St Rita'S Medical Center
10.84,2.59,41.67775,-83.59589,OH,68000,12000,33,70,57,Toledo Hospital The
2.89,2.31,40.81219,-81.39625,OH,14000,10000,50,62,43,Mercy Medical Center
3.29,2.36,39.71750,-82.57772,OH,17000,10000,50,82,90,Fairfield Medical Center
8.04,2.36,41.70838,-83.69216,OH,49000,10000,16,86,63,Flower Hospital
7.52,2.32,39.49896,-84.31496,OH,45000,10000,50,63,33,Atrium Medical Center
7.27,2.41,41.45013,-81.82397,OH,44000,11000,66,60,18,Fairview Hospital
5.28,2.32,41.17554,-81.24915,OH,30000,10000,50,76,37,Robinson Memorial Hospital
7.21,2.57,39.69724,-84.19232,OH,43000,12000,66,80,57,Kettering Medical Center
8.01,2.43,41.63639,-83.48640,OH,49000,11000,50,83,56,Mercy St Charles Hospital
4.44,2.21,41.59825,-81.54884,OH,25000,9000,50,70,57,Euclid Hospital
4.19,2.41,40.79609,-81.40360,OH,23000,11000,50,63,17,Aultman Hospital
13.19,3.66,39.99445,-83.01872,OH,84000,19000,66,50,2,Ohio State University Hospitals
5.63,2.46,39.92755,-83.81573,OH,33000,11000,50,67,48,Springfield Regional Medical Center
4.08,2.18,41.55725,-83.68141,OH,22000,9000,50,65,85,St Luke'S Hospital
4.56,2.14,41.13762,-81.83820,OH,25000,9000,50,90,85,Medina Hospital
4.07,2.25,41.01785,-83.65165,OH,22000,10000,50,82,69,Blanchard Valley Hospital
5.87,2.12,41.66317,-81.24696,OH,34000,9000,50,73,39,Lake Health
6.40,2.88,41.52522,-81.58267,OH,38000,14000,0,0,0,Huron Hospital
8.41,2.95,41.66810,-83.54275,OH,51000,14000,50,70,5,Mercy St Vincent Medical Center
5.97,2.22,39.13628,-84.60485,OH,35000,9000,50,77,95,Mercy Franciscan Hospital Western Hills
5.68,2.14,41.39496,-81.53484,OH,33000,9000,0,0,0,Uhhs Bedford Medical Center
4.03,2.17,40.75264,-82.52803,OH,22000,9000,83,81,92,Medcentral Health System
4.50,2.34,41.43653,-81.94451,OH,25000,10000,50,72,76,St John Medical Center
5.45,2.44,41.88034,-80.79553,OH,31000,11000,0,0,0,Ashtabula County Medical Center
9.18,2.85,39.76950,-84.20285,OH,57000,14000,66,65,90,Grandview Hospital & Medical Center
6.17,2.63,39.13975,-84.52173,OH,36000,12000,66,83,69,Good Samaritan Hospital
8.69,3.39,41.50772,-81.60592,OH,53000,17000,83,46,44,University Hospitals Of Cleveland
6.25,2.50,41.13385,-80.65678,OH,37000,11000,50,62,5,Northside Medical Center
