size_charge,size_pay,lat,lon,state,charge,pay,AcquiredInfect,AcquiredConditions,PatientSafetySummary,name
8.77,2.21,31.21673,-85.36307,AL,29000,6000,50,51,21,Southeast Alabama Medical Center
3.89,2.27,34.22148,-86.15966,AL,12000,6000,50,91,54,Marshall Medical Center South
5.42,2.12,34.80175,-87.67514,AL,17000,5000,50,65,2,Eliza Coffee Memorial Hospital
3.75,2.59,33.59616,-86.66750,AL,11000,7000,66,78,1,St Vincent'S East
7.91,2.27,33.25607,-86.81035,AL,26000,6000,83,70,63,Shelby Baptist Medical Center
4.74,2.19,34.74649,-87.69895,AL,15000,6000,50,91,33,Helen Keller Memorial Hospital
7.73,2.60,32.32785,-86.27750,AL,25000,7000,50,67,54,Baptist Medical Center South
8.02,2.21,32.36656,-86.28572,AL,26000,6000,50,68,82,Jackson Hospital & Clinic Inc
3.82,2.29,32.82377,-85.17019,AL,11000,6000,0,0,0,George H. Lanier Memorial Hospital
4.25,2.21,32.63806,-85.40413,AL,13000,6000,50,80,13,East Alabama Medical Center And Snf
6.49,2.94,33.50619,-86.80210,AL,21000,8000,66,45,11,University Of Alabama Hospital
8.16,2.16,34.20768,-86.87489,AL,26000,5000,50,63,79,Cullman Regional Medical Center
7.37,2.39,34.72007,-86.58108,AL,24000,6000,50,65,44,Huntsville Hospital
20.21,2.12,34.00941,-85.97078,AL,69000,5000,66,67,27,Gadsden Regional Medical Center
10.00,2.13,34.00426,-86.00339,AL,33000,5000,75,81,90,Riverview Regional Medical Center
10.93,2.12,31.23767,-85.45625,AL,36000,5000,50,55,79,Flowers Hospital
4.72,2.05,33.50734,-86.78958,AL,14000,5000,50,72,21,St Vincent'S Birmingham
8.06,2.14,33.65640,-85.82284,AL,26000,5000,50,60,5,Northeast Alabama Regional Med Center
9.85,2.07,30.42700,-87.68386,AL,32000,5000,50,95,24,South Baldwin Regional Medical Center
3.51,2.15,34.59052,-86.97262,AL,10000,5000,50,77,54,Decatur General Hospital
8.10,2.68,33.83218,-87.30385,AL,26000,7000,50,78,95,Walker Baptist Medical Center
6.11,2.26,30.68199,-88.19897,AL,19000,6000,83,86,0,Providence Hospital
7.27,2.38,33.20521,-87.52546,AL,23000,6000,66,66,21,D C H Regional Medical Center
5.54,2.38,30.51916,-87.88842,AL,17000,6000,50,90,17,Thomas Hospital
10.12,2.51,33.49854,-86.84633,AL,33000,7000,66,70,8,Baptist Medical Center-Princeton
9.60,2.21,33.51420,-86.74859,AL,32000,6000,66,27,11,Trinity Medical Center
5.86,2.13,30.69697,-88.08081,AL,18000,5000,66,55,24,Mobile Infirmary
5.52,2.19,33.37328,-86.99163,AL,17000,6000,50,67,6,Medical West An Affiliate Of Uab Health System
11.98,2.46,34.69279,-86.57179,AL,40000,6000,50,77,33,Crestwood Medical Center
18.96,2.24,33.46420,-86.77409,AL,64000,6000,50,65,29,Brookwood Medical Center
9.39,2.57,32.38797,-86.17576,AL,31000,7000,50,52,90,Baptist Medical Center East
8.63,2.19,34.49384,-87.72713,AL,28000,6000,0,0,0,Russellville Hospital
9.30,3.06,60.94901,-149.17033,AK,30000,9000,50,81,90,Providence Alaska Medical Center
11.21,2.77,33.46514,-112.05797,AZ,37000,8000,50,48,69,Banner Good Samaritan Medical Center
6.17,2.57,32.25294,-110.88135,AZ,20000,7000,50,48,3,Tucson Medical Center
7.41,2.41,32.22734,-111.00065,AZ,24000,6000,33,75,63,Carondelet St  Marys Hospital
7.86,2.28,32.22685,-110.85520,AZ,25000,6000,66,55,21,Carondelet St Josephs Hospital
5.60,2.58,34.56017,-112.48217,AZ,18000,7000,25,67,17,Yavapai Regional Medical Center
7.30,2.56,32.68274,-114.63506,AZ,23000,7000,50,63,69,Yuma Regional Medical Center
7.25,2.55,32.88123,-111.71067,AZ,23000,7000,50,81,11,Casa Grande Regional Medical Center
9.45,3.11,33.48073,-112.07948,AZ,31000,9000,33,52,11,St Joseph'S Hospital And Medical Center
12.26,2.99,33.29750,-111.87461,AZ,41000,8000,50,78,54,Chandler Regional Medical Center
9.16,2.55,33.48885,-111.92387,AZ,30000,7000,66,76,54,Scottsdale Healthcare-Osborn Medical Center
8.81,2.75,35.22024,-114.03585,AZ,29000,8000,66,66,54,Kingman Regional Medical Center
9.37,2.30,33.60432,-112.28378,AZ,31000,6000,83,75,95,Banner Boswell Medical Center
11.02,3.83,32.24152,-110.94631,AZ,37000,11000,50,37,39,University Of Arizona Medical Ctr-Universit The
8.96,2.58,33.39097,-111.87638,AZ,29000,7000,66,80,56,Banner Desert Medical Center
12.30,2.64,34.47988,-114.33938,AZ,41000,7000,50,70,56,Havasu Regional Medical Center
7.52,2.28,32.32103,-111.01102,AZ,24000,6000,50,71,20,Northwest Medical Center
7.86,2.42,33.58235,-111.88527,AZ,25000,6000,66,68,63,Scottsdale Healthcare-Shea Medical Center
9.08,2.34,33.41128,-111.68916,AZ,30000,6000,50,70,63,Banner Baywood Medical Center
7.45,2.58,33.60949,-112.18129,AZ,24000,7000,66,73,76,Banner Thunderbird Medical Center
7.51,2.42,33.66596,-112.11618,AZ,24000,6000,50,73,69,John C Lincoln Deer Valley Hospital
8.48,2.30,33.65965,-112.37283,AZ,28000,6000,50,77,97,Banner Del E Webb Medical Center
7.65,2.57,33.65497,-112.20040,AZ,25000,7000,50,90,39,Arrowhead Hospital
5.65,2.74,33.65947,-111.95626,AZ,18000,7000,66,53,95,Mayo Clinic Hospital
7.33,2.62,33.46202,-112.35299,AZ,24000,7000,75,65,69,West Valley Hospital
6.69,2.16,32.42929,-110.94843,AZ,21000,5000,50,73,85,Oro Valley Hospital
8.10,2.61,33.47818,-112.25744,AZ,26000,7000,50,58,69,Banner Estrella Medical Center
10.09,2.41,33.28686,-111.75246,AZ,33000,6000,50,63,63,Mercy Gilbert Medical Center
10.25,2.44,33.39128,-111.61125,AZ,34000,6000,50,60,11,Mountain Vista Medical Center Lp
8.44,2.49,33.38269,-111.72100,AZ,27000,7000,50,70,57,Banner Gateway Medical Center
7.16,2.23,36.10940,-94.16036,AR,23000,6000,33,77,74,Washington Regional Med Ctr At North Hills
6.59,2.30,34.75031,-92.33897,AR,21000,6000,66,63,82,St Vincent Infirmary Medical Center
5.49,2.63,35.25046,-91.70056,AR,17000,7000,50,61,63,White County Medical Center
4.74,2.96,34.74866,-92.35422,AR,15000,8000,50,51,33,Uams Medical Center
3.60,2.31,35.83746,-90.70386,AR,10000,6000,50,75,2,St Bernards Medical Ctr
8.92,2.34,36.18082,-94.13644,AR,29000,6000,50,68,29,Nw Arkansas Hospitals Llc
6.79,2.26,34.46784,-93.06667,AR,22000,6000,66,66,85,St Josephs Mercy Health Center Inc
3.35,2.11,36.34295,-92.39442,AR,10000,5000,50,65,57,Baxter Regional Medical Center
5.06,2.14,34.77770,-92.12539,AR,16000,5000,50,60,13,Baptist Health Medical Center North Little Rock
4.82,2.22,35.37445,-94.41868,AR,15000,6000,50,53,85,Sparks Regional Medical Center
7.90,2.21,35.35395,-94.35262,AR,26000,6000,50,66,11,St Edward Mercy Medical Center
6.28,2.21,34.74866,-92.35422,AR,20000,6000,50,43,21,Baptist Health Medical Center-Little Rock
18.47,3.73,37.63362,-122.08802,CA,63000,11000,50,60,6,St Rose Hospital
14.22,2.80,40.78366,-124.14246,CA,48000,8000,50,63,63,St Joseph Hospital
12.25,2.80,37.59283,-122.38249,CA,41000,8000,50,71,33,Peninsula Medical Center
12.62,2.97,38.32472,-122.29671,CA,42000,8000,50,72,82,Queen Of The Valley Medical Center
5.35,3.89,34.06505,-118.23913,CA,17000,12000,0,0,0,Pacific Alliance Medical Center
14.01,3.02,33.97659,-117.38184,CA,47000,8000,50,65,57,Riverside Community Hospital
9.09,3.88,32.75426,-117.16592,CA,30000,11000,50,72,69,University Of California San Diego Medical Center
11.09,2.70,32.77495,-117.01467,CA,37000,7000,83,71,33,Grossmont Hospital
14.75,2.79,35.38736,-119.01690,CA,50000,8000,33,85,79,Bakersfield Memorial Hospital
14.20,4.82,37.31288,-121.93329,CA,48000,15000,66,65,1,Santa Clara Valley Medical Center
10.31,2.55,39.74221,-121.85000,CA,34000,7000,83,71,48,Enloe Medical Center
12.74,3.53,37.82206,-122.26275,CA,43000,10000,50,63,32,Alta Bates Summit Medical Center
15.21,3.82,37.79100,-122.43125,CA,51000,11000,83,63,11,California Pacific Medical Ctr-Pacific Campus Hosp
7.56,2.98,34.67486,-118.15771,CA,24000,8000,50,67,44,Antelope Valley Hospital Med Center
7.32,2.77,36.32737,-119.29548,CA,24000,8000,50,56,12,Kaweah Delta Medical Center
12.94,3.36,34.12834,-118.25777,CA,43000,10000,50,72,44,Glendale Mem Hospital & Hlth Center
9.88,3.47,36.73000,-119.78000,CA,33000,10000,50,71,0,Community Regional Medical Center
12.10,3.78,34.09643,-118.29103,CA,40000,11000,75,76,74,Hollywood Presbyterian Medical Center
11.02,2.71,33.78036,-117.86495,CA,37000,7000,50,60,88,St Joseph Hospital
10.31,3.17,32.75143,-117.16083,CA,34000,9000,33,62,69,Scripps Mercy Hospital
10.27,2.80,34.21674,-119.15631,CA,34000,8000,50,63,6,St Johns Regional Medical Center
15.97,3.01,37.96987,-121.28873,CA,54000,8000,83,68,97,St Josephs Med Center Of Stockton
9.09,2.70,36.83532,-119.76562,CA,30000,7000,50,66,57,Saint Agnes Medical Center
9.80,2.53,34.10130,-117.63651,CA,32000,7000,50,66,85,San Antonio Community Hospital
10.73,2.89,32.79949,-117.15394,CA,36000,8000,66,62,11,Sharp Memorial Hospital
14.86,2.99,33.92798,-117.43847,CA,50000,8000,50,88,24,Parkview Community Hospital Medical Center
14.05,3.66,34.04932,-118.21746,CA,47000,11000,25,73,98,White Memorial Medical Center
11.92,3.47,34.95099,-120.41322,CA,40000,10000,50,93,48,Marian Medical Center
14.23,3.13,38.57155,-121.46874,CA,48000,9000,83,77,79,Sutter General Hospital
9.81,3.21,34.07558,-118.28424,CA,32000,9000,0,0,0,Temple Community Hospital
12.00,2.94,34.02685,-118.48651,CA,40000,8000,50,76,21,Santa Monica - Ucla Med Ctr & Orthopaedic Hospital
13.45,2.61,33.12535,-117.07336,CA,45000,7000,50,55,69,Palomar Medical Center
16.19,2.99,34.22014,-118.53410,CA,55000,8000,33,56,44,Northridge Hospital Medical Center
25.56,2.57,37.80132,-121.19690,CA,88000,7000,0,0,0,Doctors Hospital Of Manteca
10.92,2.93,36.32362,-119.66726,CA,36000,8000,50,88,24,Adventist Medical Center
7.54,2.36,34.20495,-118.21589,CA,24000,6000,0,0,0,Verdugo Hills Hospital
20.37,3.87,37.36257,-121.84974,CA,69000,11000,50,70,1,Regional Medical Center Of San Jose
12.54,3.28,34.19494,-118.46319,CA,42000,9000,50,77,76,Valley Presbyterian Hospital
12.21,2.95,34.13495,-117.27603,CA,41000,8000,50,66,48,St Bernardine Medical Center
18.19,3.18,34.10081,-118.10588,CA,62000,9000,0,0,0,San Gabriel Valley Medical Center
12.07,2.93,39.13822,-121.59436,CA,40000,8000,50,51,21,Rideout Memorial Hospital
6.39,3.48,34.09638,-118.32518,CA,20000,10000,0,0,0,Hollywood Community Hospital Of Hollywood
12.32,2.82,36.57886,-121.91316,CA,41000,8000,66,56,57,Community Hospital Of The Monterey Peninsula
12.84,2.65,39.22809,-121.04721,CA,43000,7000,0,0,0,Sierra Nevada Memorial Hospital
21.77,3.59,37.78963,-122.41700,CA,74000,10000,75,70,29,Saint Francis Memorial Hospital
18.13,3.42,37.32710,-121.93863,CA,61000,10000,66,71,37,O'Connor Hospital
11.40,2.48,33.89465,-117.92716,CA,38000,7000,66,71,90,St Jude Medical Center
14.58,2.67,33.96860,-118.04831,CA,49000,7000,50,46,16,Presbyterian Intercommunity Hospital
16.89,3.07,38.44369,-122.70138,CA,57000,9000,66,86,57,Santa Rosa Memorial Hospital
20.59,2.75,37.51164,-120.83800,CA,70000,8000,33,86,16,Emanuel Medical Center Inc
19.51,2.89,37.91341,-122.04163,CA,66000,8000,50,62,33,John Muir Medical Center - Walnut Creek Campus
30.00,3.66,37.55717,-121.98126,CA,103000,11000,50,53,88,Washington Hospital
11.25,3.02,34.12865,-117.86501,CA,37000,8000,0,0,0,East Valley Hospital Medical Center
15.92,2.86,32.61972,-117.02278,CA,54000,8000,50,71,57,Sharp Chula Vista Medical Center
8.11,2.40,33.62229,-117.92995,CA,26000,6000,50,70,51,Hoag Memorial Hospital Presbyterian
20.05,2.58,39.75720,-121.57018,CA,68000,7000,50,65,57,Feather River Hospital
14.80,2.67,33.84780,-117.93661,CA,50000,7000,50,73,57,Ahmc Anaheim Regional Medical Center
14.64,3.26,34.07709,-117.75063,CA,49000,9000,33,73,97,Pomona Valley Hospital Medical Center
20.87,2.80,34.15601,-118.32834,CA,71000,8000,50,80,97,Providence Saint Joseph Medical Ctr
12.87,2.86,34.13973,-118.03534,CA,43000,8000,50,45,10,Methodist Hospital Of Southern Ca
14.35,3.35,34.14987,-118.23117,CA,48000,10000,66,75,88,Glendale Adventist Medical Center
18.43,3.18,36.98999,-121.98357,CA,63000,9000,50,63,63,Dominican Hospital
25.76,5.76,38.72562,-120.79096,CA,88000,18000,50,81,1,Marshall Medical Center (1-Rh)
18.41,5.19,34.06675,-118.44613,CA,62000,16000,50,27,33,Ronald Reagan Ucla Medical Center
17.43,3.55,33.80733,-118.19305,CA,59000,10000,0,0,0,Pacific Hospital Of Long Beach
18.63,2.86,34.27915,-118.46006,CA,63000,8000,50,80,24,Providence Holy Cross Medical Center
9.61,2.98,40.58654,-122.39168,CA,32000,8000,83,71,44,Mercy Medical Center Redding
13.76,3.33,34.09049,-118.14410,CA,46000,10000,50,100,97,Alhambra Hospital Medical Center
16.93,2.99,37.69502,-121.88095,CA,57000,8000,50,71,82,Valleycare Medical Center
29.48,3.76,37.67947,-122.47447,CA,101000,11000,50,62,24,Seton Medical Center
9.95,2.41,34.03009,-118.47833,CA,33000,6000,50,81,76,Saint John'S Health Center
11.00,2.85,35.37279,-119.02817,CA,36000,8000,50,70,82,Mercy Hospital
9.52,2.74,34.50107,-117.17285,CA,31000,7000,50,87,20,St Mary Medical Center
16.77,2.88,37.36934,-122.08047,CA,57000,8000,66,48,6,El Camino Hospital
11.26,2.68,38.76514,-121.24979,CA,37000,7000,66,77,16,Sutter Roseville Medical Center
9.61,2.59,32.88461,-117.22244,CA,32000,7000,50,63,29,Scripps Memorial Hospital La Jolla
11.63,3.89,34.05076,-117.26395,CA,39000,12000,50,55,16,Loma Linda University Medical Center
11.53,3.15,36.65910,-121.64630,CA,38000,9000,50,70,37,Salinas Valley Memorial Hospital
12.71,3.08,37.97780,-120.37150,CA,42000,9000,0,0,0,Sonora Regional Medical Center
26.42,2.74,38.12186,-121.28665,CA,91000,7000,100,70,94,Lodi Memorial Hospital
13.02,3.82,33.78798,-117.89026,CA,44000,11000,66,56,11,University Of California Irvine Med Center
5.37,3.08,34.01501,-118.10064,CA,17000,9000,50,88,74,Beverly Hospital
13.74,2.64,33.81131,-118.34364,CA,46000,7000,66,67,88,Torrance Memorial Medical Center
16.92,2.77,33.83891,-118.35677,CA,57000,8000,50,86,94,Providence Little Company Of Mary Med Ctr Torrance
19.37,2.98,37.94748,-122.53677,CA,66000,8000,50,63,16,Marin General Hospital
25.22,4.18,38.26174,-122.04662,CA,86000,13000,50,68,29,Northbay Medical Center
18.42,3.11,37.25153,-121.94684,CA,62000,9000,33,63,3,Good Samaritan Hospital
8.87,3.20,34.08802,-117.89341,CA,29000,9000,66,67,29,Citrus Valley Medical Center-Ic Campus
15.66,3.02,33.93530,-118.13030,CA,53000,8000,50,90,82,Downey Regional Medical Center
11.52,2.55,34.27459,-119.25812,CA,38000,7000,50,53,8,Community Memorial Hospital San Buenaventura
8.95,2.73,34.42951,-119.72333,CA,29000,7000,66,72,32,Santa Barbara Cottage Hospital
8.06,2.72,32.89810,-117.24217,CA,26000,7000,50,75,37,Scripps Green Hospital
6.94,2.70,33.82557,-117.99493,CA,22000,7000,50,91,98,West Anaheim Medical Center
14.24,2.87,34.13364,-118.15275,CA,48000,8000,66,65,57,Huntington Memorial Hospital
25.55,4.46,37.43436,-122.18013,CA,88000,14000,50,58,27,Stanford Hospital
10.13,3.13,37.34027,-120.46817,CA,33000,9000,50,77,37,Mercy Medical Center
19.58,5.89,37.76421,-122.45716,CA,67000,19000,66,52,90,Ucsf Medical Center
11.47,3.06,35.38338,-119.01969,CA,38000,9000,33,86,6,San Joaquin Community Hospital
17.17,3.40,37.77449,-122.45429,CA,58000,10000,50,87,3,St Mary'S Medical Center
28.46,3.09,37.66540,-120.99743,CA,98000,9000,66,66,9,Doctors Medical Center
7.95,3.18,33.89307,-118.29506,CA,26000,9000,50,96,98,Memorial Hospital Of Gardena
11.01,3.28,34.05336,-118.26558,CA,36000,9000,50,68,79,Good Samaritan Hospital
17.79,2.58,34.20285,-118.62962,CA,60000,7000,50,61,13,West Hills Hospital & Medical Center
13.45,3.02,33.80861,-118.18661,CA,45000,8000,66,65,27,Long Beach Memorial Medical Center
13.57,3.17,37.69824,-122.08730,CA,45000,9000,66,61,54,Eden Medical Center
28.18,3.21,37.98396,-122.03464,CA,97000,9000,50,76,97,John Muir Medical Center - Concord Campus
15.45,3.62,34.06389,-118.27347,CA,52000,11000,50,80,98,Saint Vincent Medical Center
10.61,2.97,33.03634,-117.28487,CA,35000,8000,50,65,5,Scripps Memorial Hospital - Encinitas
12.56,3.00,38.66956,-121.31378,CA,42000,8000,66,66,29,Mercy San Juan Medical Center
14.07,3.23,37.98224,-121.80362,CA,47000,9000,50,58,24,Sutter Delta Medical Center
11.84,3.33,33.87472,-118.14862,CA,39000,10000,0,0,0,Bellflower Medical Center
15.30,2.79,34.20777,-118.88305,CA,52000,8000,50,51,69,Los Robles Hospital & Medical Center
15.57,2.51,33.80441,-118.06665,CA,52000,7000,50,50,48,Los Alamitos Medical Center
15.82,2.72,37.66867,-120.97339,CA,53000,7000,66,80,54,Memorial  Medical Center
10.48,2.48,33.56100,-117.66530,CA,35000,7000,66,58,12,Mission Hospital Regional Med Center
14.43,3.24,33.71466,-117.93322,CA,49000,9000,50,86,33,Fountain Valley Regional Hospital & Medical Center
14.44,2.49,33.76335,-116.40628,CA,49000,7000,50,56,39,Eisenhower Medical Center
9.57,2.91,33.83340,-118.08118,CA,31000,8000,50,90,99,Tri-City Regional Medical Center
10.15,3.03,33.84753,-118.03841,CA,33000,9000,0,0,0,La Palma Intercommunity Hospital
28.79,3.50,33.84932,-118.15323,CA,99000,10000,83,80,12,Lakewood Regional Medical Center
24.55,4.30,38.55484,-121.45628,CA,84000,13000,50,50,3,University Of California Davis Medical Center
12.24,2.42,33.60883,-117.70881,CA,41000,6000,50,70,90,Saddleback Memorial Medical Center
9.91,2.44,34.24359,-119.01992,CA,33000,6000,50,73,69,St Johns Pleasant Valley Hospital
16.46,2.51,34.39755,-118.55330,CA,56000,7000,50,60,21,Henry Mayo Newhall Memorial Hospital
26.25,3.67,34.07664,-118.37955,CA,90000,11000,100,58,48,Cedars-Sinai Medical Center
20.86,2.58,35.55536,-120.72067,CA,71000,7000,0,0,0,Twin Cities Community Hospital
10.21,2.39,32.99711,-117.05783,CA,34000,6000,50,85,78,Pomerado Hospital
7.98,3.51,34.01936,-118.18661,CA,26000,10000,50,90,63,Los Angeles Community Hospital
8.74,2.65,33.70167,-117.95566,CA,29000,7000,50,82,88,Orange Coast Memorial Medical Center
23.14,2.85,37.77577,-121.95824,CA,79000,8000,50,66,3,San Ramon Regional Medical Ctr
21.42,3.67,34.06193,-118.20157,CA,73000,11000,33,71,3,Keck Hospital Of Usc
9.68,2.75,33.55876,-117.18329,CA,32000,7000,66,73,74,Southwest Healthcare System
6.61,3.29,34.22139,-118.45660,CA,21000,9000,0,0,0,Mission Community Hospital - Panorama
13.66,3.17,33.95038,-118.00463,CA,46000,9000,50,96,82,Whittier Hospital Medical Center
22.72,3.69,34.06760,-118.12291,CA,78000,11000,50,93,85,Garfield Medical Center
12.22,3.03,33.95076,-118.34828,CA,41000,8000,50,71,99,Centinela Hospital Medical Center
20.01,2.71,34.05723,-118.36025,CA,68000,7000,50,63,69,Olympia Medical Center
11.82,2.71,34.02303,-118.39741,CA,39000,7000,0,0,0,Brotman Medical Center
7.53,2.75,34.16028,-118.44948,CA,24000,8000,0,0,0,Sherman Oaks Hospital
6.71,2.57,32.77629,-117.05730,CA,21000,7000,75,78,63,Alvarado Hospital Medical Center
23.27,3.07,34.17067,-118.53200,CA,80000,9000,50,57,63,Providence Tarzana Medical Center
10.66,3.61,34.06958,-118.26344,CA,35000,11000,0,0,0,Silver Lake Medical Center
11.41,2.79,40.58532,-122.38702,CA,38000,8000,50,78,98,Shasta Regional Medical Center
7.47,2.48,40.41481,-104.70890,CO,24000,7000,50,73,57,North Colorado Medical Center
7.09,2.29,40.18134,-105.12769,CO,23000,6000,50,71,76,Longmont United Hospital
7.35,2.35,39.76893,-105.09006,CO,24000,6000,50,47,79,Exempla Lutheran Medical Center
8.06,3.04,40.57315,-105.05741,CO,26000,9000,50,68,95,Poudre Valley Hospital
8.06,2.38,38.23421,-104.62292,CO,26000,6000,50,53,29,Centura Health-St Mary Corwin Medical Center
7.37,2.34,38.28184,-104.61256,CO,24000,6000,66,68,29,Parkview Medical Center Inc
7.60,2.38,38.83903,-104.80024,CO,25000,6000,66,68,33,Memorial Hospital Central
6.80,2.57,39.09046,-108.56190,CO,22000,7000,50,48,57,St Marys Hospital And Medical Center
7.99,3.46,39.74234,-104.84156,CO,26000,10000,66,66,69,University Of Colorado Hospital Anschutz Inpatient
8.20,2.24,40.02615,-105.28391,CO,27000,6000,50,91,82,Boulder Community Hospital
6.61,2.26,40.41320,-105.05139,CO,21000,6000,50,92,69,Mckee Medical Center
6.31,2.25,38.86559,-104.82182,CO,20000,6000,50,70,37,Centura Health-Penrose St Francis Health Services
11.87,2.80,39.73231,-104.93396,CO,40000,8000,75,50,32,Rose Medical Center
11.68,2.99,39.65399,-104.98116,CO,39000,8000,33,47,17,Swedish Medical Center
9.21,2.74,39.67005,-104.97490,CO,30000,7000,50,75,79,Centura Health-Porter Adventist Hospital
15.40,2.37,39.68859,-104.83205,CO,52000,6000,50,61,13,Medical Center Of Aurora The
8.99,2.51,39.84960,-105.01825,CO,29000,7000,50,61,48,Centura Health-St Anthony North Hospital
13.16,2.33,39.52910,-104.87121,CO,44000,6000,50,76,79,Sky Ridge Medical Center
11.14,2.25,39.57629,-104.98610,CO,37000,6000,50,78,54,Centura Health-Littleton Adventist Hospital
10.22,2.25,39.54881,-104.77119,CO,34000,6000,50,60,12,Parker Adventist Hospital
7.44,2.93,41.30978,-72.93806,CT,24000,8000,66,57,8,Hospital Of St Raphael
8.15,2.99,41.77507,-72.69941,CT,26000,8000,50,53,85,St Francis Hospital & Medical Center
9.43,3.47,41.55959,-73.05941,CT,31000,10000,33,57,69,Waterbury Hospital
11.14,2.87,41.05562,-73.55390,CT,37000,8000,50,52,10,Stamford Hospital
4.75,2.59,41.33722,-72.10380,CT,15000,7000,50,72,92,Lawrence & Memorial Hospital
8.99,3.33,41.18881,-73.16645,CT,29000,10000,50,51,21,Bridgeport Hospital
3.95,2.50,41.79153,-73.13382,CT,12000,7000,25,78,54,Charlotte Hungerford Hospital
4.10,2.93,41.55241,-73.03554,CT,12000,8000,50,56,39,Saint Marys Hospital
5.85,2.56,41.54874,-72.80148,CT,18000,7000,50,60,79,Midstate Medical Center
7.76,2.66,41.03431,-73.63020,CT,25000,7000,50,48,63,Greenwich Hospital Association
7.76,2.67,41.55473,-72.64872,CT,25000,7000,33,61,92,Middlesex Hospital
3.83,3.04,41.71622,-72.22399,CT,11000,9000,0,0,0,Windham Comm Mem Hosp & Hatch Hosp
8.92,3.57,41.30400,-72.93502,CT,29000,10000,66,41,3,Yale-New Haven Hospital
5.58,2.90,41.54301,-72.08799,CT,17000,8000,50,70,44,William W Backus Hospital
6.51,3.21,41.75412,-72.67927,CT,21000,9000,50,47,9,Hartford Hospital
4.56,2.82,41.20049,-73.20281,CT,14000,8000,66,78,63,St Vincent'S Medical Center
4.74,2.47,41.67540,-72.93617,CT,14000,7000,50,73,33,Bristol Hospital
6.99,2.83,41.33493,-73.08978,CT,22000,8000,50,77,92,Griffin Hospital
6.71,2.86,41.40474,-73.44739,CT,21000,8000,50,66,57,Danbury Hospital
8.66,3.11,41.11147,-73.42010,CT,28000,9000,50,72,92,Norwalk Hospital Association
5.82,2.79,41.66107,-72.78671,CT,18000,8000,50,52,8,Hospital Of Central Connecticut The
9.97,4.35,41.73545,-72.79489,CT,33000,13000,25,60,8,John Dempsey Hospital
5.05,2.82,39.69005,-75.68408,DE,16000,8000,66,58,39,Christiana Care Health Services Inc.
7.68,2.62,39.74954,-75.56662,DE,25000,7000,50,81,79,St Francis Hospital
4.31,2.45,39.15135,-75.52309,DE,13000,6000,50,58,90,Bayhealth - Kent General Hospital
3.44,2.82,38.64231,-75.60660,DE,10000,8000,0,0,0,Nanticoke Memorial Hospital
9.45,2.90,38.77159,-75.14210,DE,31000,8000,50,90,81,Beebe Medical Center
9.42,3.29,38.90106,-77.05079,DC,31000,9000,50,50,13,George Washington Univ Hospital
9.73,3.40,38.91221,-77.07588,DC,32000,10000,66,65,0,Georgetown University Hospital
5.05,2.97,38.94397,-76.99040,DC,16000,8000,50,57,24,Providence Hospital
7.15,3.03,38.92944,-77.01473,DC,23000,8000,33,58,1,Washington Hospital Center
7.56,3.11,30.34913,-81.66391,FL,24000,9000,50,62,0,Shands Jacksonville Medical Center
10.50,2.44,26.50479,-80.06979,FL,35000,6000,50,53,99,Bethesda Memorial Hospital
10.88,2.59,28.52517,-81.37729,FL,36000,7000,66,47,29,Orlando Health
10.00,2.48,28.57345,-81.36990,FL,33000,7000,83,66,24,Florida Hospital
12.34,2.70,25.68309,-80.34038,FL,41000,7000,50,62,85,Baptist Hospital Of Miami Inc
12.58,2.83,25.78846,-80.21644,FL,42000,8000,83,56,0,University Of Miami Hospital
6.46,2.31,26.62849,-81.87423,FL,21000,6000,66,52,16,Lee Memorial Hospital
5.73,2.38,29.20117,-81.05828,FL,18000,6000,66,76,79,Halifax Health Medical Center
7.31,2.25,26.15053,-81.79919,FL,24000,6000,66,62,39,Naples Community Hospital
7.54,2.12,28.08771,-80.61362,FL,24000,5000,66,58,17,Holmes Regional Medical Center
9.38,4.41,25.79143,-80.21250,FL,31000,13000,83,48,4,Jackson Memorial Hospital
7.66,2.10,28.83363,-82.33561,FL,25000,5000,50,55,44,Citrus Memorial Hospital
6.54,2.39,30.47650,-87.21219,FL,21000,6000,50,41,39,Sacred Heart Hospital
5.67,2.21,30.15963,-85.64818,FL,18000,6000,66,73,43,Bay Medical Center
6.70,2.18,28.63051,-80.82437,FL,21000,5000,50,68,98,Parrish Medical Center
13.77,2.72,25.86166,-80.21398,FL,46000,7000,50,83,69,North Shore Medical Center
8.64,2.54,27.76332,-82.64325,FL,28000,7000,50,82,20,Bayfront Medical Center Inc
10.90,2.86,25.81317,-80.13996,FL,36000,8000,66,47,24,Mount Sinai Medical Center
8.87,2.34,27.49789,-82.56220,FL,29000,6000,50,55,29,Manatee Memorial Hospital
11.10,2.61,26.01867,-80.17981,FL,37000,7000,83,63,76,Memorial Regional Hospital
9.35,3.02,26.10282,-80.14245,FL,31000,8000,75,76,97,Broward Health Broward General Medical Center
7.39,2.26,30.30835,-81.68919,FL,24000,6000,50,68,82,St Vincent'S Medical Center
8.56,2.10,28.01404,-82.78368,FL,28000,5000,50,75,54,Mease Hospital Dunedin
11.24,2.27,27.19837,-80.24306,FL,37000,6000,66,70,57,Martin Memorial Medical Center
6.43,2.28,29.04263,-81.31635,FL,20000,6000,50,86,98,Florida Hospital Deland
9.64,2.16,28.26092,-82.18802,FL,32000,5000,50,62,88,Florida Hospital Zephyrhills
7.75,2.12,26.94042,-82.04094,FL,25000,5000,50,72,85,Charlotte Regional Medical Center
7.24,2.80,25.86856,-80.31222,FL,23000,8000,50,88,92,Palm Springs General Hospital
13.42,2.20,28.55140,-81.72120,FL,45000,6000,0,0,0,South Lake Hospital
10.04,2.23,28.02768,-81.72466,FL,33000,6000,50,62,2,Winter Haven Hospital
11.85,3.11,25.84597,-80.26872,FL,39000,9000,75,82,99,Hialeah Hospital
6.42,2.17,28.82358,-81.71133,FL,20000,5000,50,71,48,Florida Hospital Waterman
10.00,2.66,25.74067,-80.21244,FL,33000,7000,0,0,0,Mercy Hospital Inc
6.23,2.12,29.17594,-82.13898,FL,20000,5000,50,60,94,Munroe Regional Medical Center
7.29,2.19,27.78088,-82.65126,FL,23000,6000,50,68,57,St Anthony'S Hospital
6.14,2.12,29.24333,-81.10760,FL,19000,5000,50,67,95,Florida Hospital Memorial Medical Center
7.24,2.10,27.09043,-82.44499,FL,23000,5000,50,76,48,Venice Regional Medical Center
18.64,2.32,28.53906,-82.44193,FL,63000,6000,50,75,57,Brooksville Regional Hospital
6.66,2.17,28.91403,-81.28480,FL,21000,5000,83,75,5,Florida Hospital Fish Memorial
10.25,2.23,26.18711,-80.11941,FL,34000,6000,83,57,37,Holy Cross Hospital Inc
8.51,2.46,27.98242,-82.49025,FL,28000,6000,66,60,29,St Joseph'S Hospital
7.06,2.96,25.77941,-80.29397,FL,23000,8000,0,0,0,Metropolitan Hospital Of Miami
9.35,2.23,26.98905,-82.09559,FL,31000,6000,50,68,43,Peace River Regional Medical Center
13.22,2.41,26.59805,-80.09271,FL,44000,6000,100,60,27,Jfk Medical Center
6.98,2.18,28.80659,-81.86906,FL,22000,6000,33,67,24,Leesburg Regional Medical Center
6.48,2.34,26.27623,-80.12220,FL,21000,6000,75,72,57,Broward Health North Broward Medical Center
7.72,2.51,27.31827,-82.53140,FL,25000,7000,33,37,69,Sarasota Memorial Hospital
8.59,2.43,30.31525,-81.66398,FL,28000,6000,66,47,12,Baptist Medical Center
9.33,2.48,29.86371,-81.31749,FL,31000,7000,66,76,29,Flagler Hospital
5.66,2.20,28.33522,-80.72319,FL,18000,6000,50,63,97,Wuesthoff Medical Center  Rockledge
7.69,2.25,30.43066,-87.23191,FL,25000,6000,50,72,17,Baptist Hospital
7.68,2.33,30.19345,-82.63268,FL,25000,6000,0,0,0,Shands Lake Shore Regional Medical Center
4.67,2.28,27.65832,-80.39307,FL,14000,6000,66,76,99,Indian River Medical Center
8.37,2.23,26.61563,-81.65945,FL,27000,6000,50,78,33,Lehigh Regional Medical Center
8.61,2.24,27.50001,-81.43962,FL,28000,6000,50,61,85,Florida Hospital Heartland Medical Center
16.61,2.53,28.29946,-81.41021,FL,56000,7000,50,63,51,Osceola Regional Medical Center
7.59,3.42,29.64155,-82.34844,FL,24000,10000,66,53,29,Shands Hospital At The University Of Florida
6.79,2.48,29.47897,-81.18915,FL,22000,7000,50,51,39,Florida Hospital Flagler
7.16,2.19,27.91798,-81.84402,FL,23000,6000,0,0,0,Bartow Regional Medical Center
11.71,2.93,25.47971,-80.43038,FL,39000,8000,50,86,69,Homestead Hospital
10.52,2.20,27.75214,-82.73951,FL,35000,6000,50,62,85,Palms Of Pasadena Hospital
6.77,2.26,27.95192,-82.80379,FL,22000,6000,66,62,9,Morton Plant Hospital
18.55,3.25,27.93740,-82.45927,FL,63000,9000,66,66,0,Tampa General Hospital
14.97,2.48,25.96994,-80.14533,FL,50000,7000,50,63,79,Aventura Hospital And Medical Center
7.48,2.40,30.45726,-84.26175,FL,24000,6000,66,57,63,Tallahassee Memorial Healthcare
16.27,2.28,28.18120,-81.64018,FL,55000,6000,50,72,57,Heart Of Florida Regional Medical Center
6.68,3.26,30.26389,-81.44283,FL,21000,9000,83,62,90,Mayo Clinic
17.92,3.09,25.70328,-80.29391,FL,61000,9000,50,65,69,South Miami Hospital Inc
9.52,2.24,28.06172,-81.95304,FL,31000,6000,50,52,3,Lakeland Regional Medical Center
8.05,2.23,28.81611,-81.28351,FL,26000,6000,50,56,97,Central Florida Regional Hospital
11.18,2.12,27.30187,-82.45428,FL,37000,5000,33,67,95,Doctors Hospital Of Sarasota
21.24,2.95,26.12647,-80.20519,FL,72000,8000,50,81,6,Plantation General Hospital
7.26,2.23,26.35875,-80.10203,FL,23000,6000,66,46,43,Boca Raton Regional Hospital
7.29,2.25,28.07111,-82.42342,FL,23000,6000,50,68,37,Florida Hospital Tampa
10.26,2.23,26.83035,-80.08655,FL,34000,6000,100,56,37,Palm Beach Gardens Medical Center
14.01,2.22,30.28793,-81.60103,FL,47000,6000,33,48,24,Memorial Hospital Jacksonville
16.73,2.42,27.80541,-82.72694,FL,57000,6000,33,48,8,St Petersburg General Hospital
14.34,2.93,25.74360,-80.25465,FL,48000,8000,50,82,41,Coral Gables Hospital
15.36,2.93,25.88563,-80.32635,FL,52000,8000,66,78,90,Palmetto General Hospital
14.94,2.36,26.26259,-80.20292,FL,50000,6000,50,51,97,Northwest Medical Center
14.64,2.13,28.19342,-82.46987,FL,49000,5000,50,77,43,Medical Center Of Trinity
13.43,2.22,29.66085,-82.41172,FL,45000,6000,33,52,17,North Florida Regional Medical Center
11.54,2.81,25.73195,-80.38580,FL,38000,8000,33,51,79,Kendall Regional Medical Center
11.62,2.09,29.17550,-82.13680,FL,39000,5000,83,55,85,Ocala Regional Medical Center
10.92,2.12,27.48213,-82.62126,FL,36000,5000,50,75,69,Blake Medical Center
8.78,2.22,27.84359,-80.48849,FL,29000,6000,0,0,0,Sebastian River Medical Center
8.10,2.21,26.52735,-81.83337,FL,26000,6000,50,58,63,Gulf Coast Medical Center Lee Mem Health System
14.80,2.15,30.45448,-86.63362,FL,50000,5000,50,72,63,Fort Walton Beach Medical Center
11.92,2.23,26.21219,-80.25478,FL,40000,6000,0,0,0,University Hospital And Medical Center
14.54,2.22,30.16550,-81.73775,FL,49000,6000,33,68,57,Orange Park Medical Center
13.96,2.28,26.12354,-80.25951,FL,47000,6000,50,57,74,Westside Regional Medical Center
12.62,2.08,30.51624,-87.21856,FL,42000,5000,50,65,4,West Florida Hospital
17.36,2.25,26.98884,-82.09877,FL,59000,6000,50,80,57,Fawcett Memorial Hospital
21.00,2.25,27.82545,-82.70122,FL,72000,6000,50,65,33,Northside Hospital
14.40,2.18,27.78151,-82.66458,FL,48000,6000,50,81,33,Edward White Hospital
15.47,2.29,30.18657,-85.66513,FL,52000,6000,50,63,99,Gulf Coast Medical Center
13.82,2.33,27.93259,-82.28759,FL,46000,6000,66,67,21,Brandon Regional Hospital
6.66,2.13,26.63958,-81.94164,FL,21000,5000,50,52,21,Cape Coral Hospital
24.29,2.75,27.43392,-80.34350,FL,83000,8000,83,53,29,Lawnwood Regional Medical Center & Heart Institute
11.25,2.24,27.91458,-82.80382,FL,37000,6000,50,48,24,Largo Medical Center
8.28,2.15,28.95195,-82.62421,FL,27000,5000,50,72,21,Seven Rivers Regional Medical Center
11.25,2.21,26.92138,-80.09708,FL,37000,6000,50,61,54,Jupiter Medical Center
9.10,2.30,30.47616,-84.23140,FL,30000,6000,50,66,57,Capital Regional Medical Center
9.45,2.27,28.00237,-82.57309,FL,31000,6000,0,0,0,Town & Country Hospital
12.07,2.10,28.36128,-82.68883,FL,40000,5000,66,67,90,Regional Medical Center Bayonet Point
10.82,2.31,26.43709,-80.12728,FL,36000,6000,83,72,92,Delray Medical Center
13.98,2.10,27.71350,-82.36512,FL,47000,5000,33,66,33,South Bay Hospital
14.31,2.33,27.28861,-80.29431,FL,48000,6000,50,65,54,St Lucie Medical Center
16.30,2.10,28.53585,-82.53404,FL,55000,5000,66,71,57,Oak Hill Hospital
6.65,2.10,28.03957,-82.70875,FL,21000,5000,66,66,54,Mease Countryside Hospital
14.54,2.12,26.94996,-82.32651,FL,49000,5000,0,0,0,Englewood Community Hospital
10.89,2.47,26.65230,-80.20504,FL,36000,7000,50,73,33,Wellington Regional Medical Center
9.18,2.44,26.26841,-80.25571,FL,30000,6000,50,67,90,Coral Springs Medical Center
14.20,2.46,26.01394,-80.30980,FL,48000,6000,66,71,63,Memorial Hospital West
6.71,3.33,25.74731,-80.31765,FL,21000,10000,50,85,78,Westchester General Hospital
12.05,2.18,26.21388,-81.73257,FL,40000,5000,33,80,33,Physicians Regional Medical Center - Pine Ridge
10.63,2.32,26.70181,-80.05055,FL,35000,6000,50,58,63,Good Samaritan Medical Center
7.40,2.27,26.08155,-80.36449,FL,24000,6000,100,57,48,Cleveland Clinic Hospital
6.50,2.11,28.94952,-81.95843,FL,21000,5000,33,80,94,Villages Regional Hospital The
16.34,2.96,25.72132,-80.27116,FL,55000,8000,0,0,0,Doctors Hospital Inc
8.00,2.08,30.25377,-81.58270,FL,26000,5000,50,77,29,St Vincent'S Medical Center Southside
6.20,2.32,34.78963,-84.98398,GA,20000,6000,50,76,10,Hamilton Medical Center
6.48,2.21,31.22516,-82.34898,GA,21000,6000,50,93,33,Satilla Regional Medical Center
10.55,2.21,34.17863,-84.13992,GA,35000,6000,66,63,46,Northside Hospital Forsyth
7.14,3.53,31.59023,-84.15756,GA,23000,10000,50,53,11,Phoebe Putney Memorial Hospital
6.54,2.92,33.79230,-84.32107,GA,21000,8000,50,41,8,Emory University Hospital
4.24,2.31,33.60237,-83.84809,GA,13000,6000,0,0,0,Newton Medical Center
5.63,2.33,32.02825,-81.09977,GA,18000,6000,83,81,1,Candler Hospital
5.67,2.72,31.17425,-81.48459,GA,18000,7000,50,61,17,Southeast Georgia Health System- Brunswick Campus
5.17,2.41,33.47096,-81.98176,GA,16000,6000,50,51,21,University Hospital
9.08,2.49,34.30335,-83.81737,GA,30000,7000,66,58,44,Northeast Georgia Medical Center Inc
8.36,2.42,34.19990,-84.79378,GA,27000,6000,50,62,39,Cartersville Medical Center
8.70,2.39,33.23886,-84.26706,GA,28000,6000,33,78,69,Spalding Regional Medical Center
5.86,3.23,33.47091,-81.98988,GA,18000,9000,66,45,37,Medical College Of Ga Hospitals And Clinics
7.86,2.24,33.96770,-84.55011,GA,25000,6000,66,62,44,Wellstar Kennestone Hospital
4.61,2.61,32.03185,-81.09158,GA,14000,7000,66,61,24,Memorial Health Univ Med Cen Inc
4.99,2.19,30.82614,-83.97393,GA,15000,6000,50,75,48,John D Archbold Memorial Hospital
7.47,2.25,33.46767,-82.01807,GA,24000,6000,0,0,0,Trinity Hospital Of Augusta
6.92,2.11,31.98515,-81.15475,GA,22000,5000,66,72,33,St Joseph'S Hospital - Savannah
6.44,2.60,34.26000,-85.17000,GA,20000,7000,50,67,88,Floyd Medical Center
5.76,2.75,32.46602,-84.98695,GA,18000,8000,33,86,63,Medical Center The
3.98,2.31,32.61642,-83.63065,GA,12000,6000,50,73,74,Houston Medical Center
6.52,2.36,33.96117,-83.39832,GA,21000,6000,50,68,92,Athens Regional Medical Center
6.10,2.39,32.41483,-81.76990,GA,19000,6000,50,82,39,East Georgia Regional Medical Center
4.71,2.51,33.78956,-84.28077,GA,14000,7000,50,83,11,Dekalb Medical Center
4.31,2.63,33.76810,-84.38616,GA,13000,7000,33,45,9,Emory University Hospital Midtown
8.32,3.24,33.75205,-84.38272,GA,27000,9000,33,56,0,Grady Memorial Hospital
6.46,2.15,33.90877,-84.35180,GA,21000,5000,50,55,3,Saint Joseph'S Hospital Of Atlanta Inc
7.15,2.32,33.81003,-84.39568,GA,23000,6000,33,57,44,Piedmont Hospital
6.76,2.78,33.96351,-84.01769,GA,22000,8000,50,90,44,Gwinnett Medical Center
5.15,2.05,31.50971,-82.86341,GA,16000,5000,0,0,0,Coffee Regional Medical Center
6.71,2.28,31.47069,-83.50473,GA,21000,6000,16,80,32,Tift Regional Medical Center
5.03,2.33,31.17991,-83.78906,GA,16000,6000,0,0,0,Colquitt Regional Medical Center
6.11,2.55,32.83041,-83.63476,GA,19000,7000,66,48,44,Medical Center Of Central Georgia
23.79,2.94,33.76372,-84.37315,GA,81000,8000,50,71,11,Atlanta Medical Center
7.41,2.29,30.86250,-83.28630,GA,24000,6000,66,67,74,South Georgia Medical Center
3.69,2.15,32.50679,-84.95933,GA,11000,5000,83,67,69,St Francis Hospital Inc
7.61,2.42,33.85638,-84.60446,GA,25000,6000,50,56,33,Wellstar Cobb Hospital
12.22,2.45,33.90903,-84.35410,GA,41000,6000,66,63,19,Northside Hospital
7.86,2.34,32.84705,-83.61823,GA,25000,6000,66,62,9,Coliseum Medical Center
6.30,2.72,33.57843,-84.38897,GA,20000,7000,50,78,24,Southern Regional Medical Center
5.90,2.19,34.25704,-85.16467,GA,19000,6000,50,87,24,Redmond Regional Medical Center
12.05,2.62,33.48259,-82.09038,GA,40000,7000,50,58,8,Doctors Hospital
6.21,2.35,33.73938,-84.73111,GA,20000,6000,50,91,57,Wellstar Douglas Hospital
7.78,2.33,33.51144,-84.22200,GA,25000,6000,50,91,92,Henry Medical Center Inc
8.49,2.32,33.87683,-84.02136,GA,28000,6000,50,77,44,Emory Eastside Medical Center
8.12,2.15,33.45252,-84.50697,GA,26000,5000,50,60,33,Piedmont Fayette Hospital
9.01,2.61,33.39118,-84.81563,GA,29000,7000,50,88,5,Piedmont Newnan Hospital Inc
7.62,3.20,21.30780,-157.85505,HI,25000,9000,66,68,44,The Queens Medical Center
5.79,2.28,42.59072,-114.49627,ID,18000,6000,50,63,29,St Lukes Magic Valley Rmc
6.74,2.58,46.41668,-117.02441,ID,22000,7000,50,71,39,St Joseph Regional Medical Center
5.09,2.38,43.61218,-116.19234,ID,16000,6000,66,61,16,St Lukes Regional Medical Center
3.98,2.32,43.61359,-116.25484,ID,12000,6000,66,78,24,St Alphonsus Regional Medical Center
6.14,2.37,43.46987,-111.99208,ID,19000,6000,66,66,57,Eastern Idaho Regional Medical Center
5.00,2.37,47.69645,-116.79476,ID,15000,6000,50,71,48,Kootenai Medical Center
4.92,2.17,38.90068,-90.16026,IL,15000,5000,50,81,24,Alton Memorial Hospital
8.57,2.55,41.52896,-88.13550,IL,28000,7000,50,75,82,Provena St Joseph Medical Center
11.71,2.31,41.91082,-87.84451,IL,39000,6000,33,81,57,Loyola Gottlieb Memorial Hospital
6.70,2.57,42.06550,-87.68428,IL,21000,7000,33,55,57,Evanston Hospital
4.74,2.45,39.93563,-91.39833,IL,14000,6000,50,55,92,Blessing Hospital
7.39,3.56,41.86011,-87.69571,IL,24000,10000,33,66,0,Mt Sinai Hospital Medical Center
12.93,2.79,41.72930,-88.26976,IL,43000,8000,50,90,63,Copley Memorial Hospital
11.11,2.63,42.07012,-88.33180,IL,37000,7000,50,82,24,Sherman Hospital
3.84,2.26,38.52908,-89.11604,IL,11000,6000,50,86,17,St Marys Hospital
8.75,2.57,41.80160,-89.69714,IL,29000,7000,0,0,0,Cgh Medical Center
5.48,2.69,41.72636,-87.56727,IL,17000,7000,50,65,74,Advocate Trinity Hospital
6.86,2.52,42.05624,-87.74012,IL,22000,7000,50,75,85,Skokie Hospital
8.10,2.52,39.80726,-89.64496,IL,26000,7000,50,58,79,St Johns Hospital
7.33,2.80,41.83195,-87.79266,IL,24000,8000,50,78,57,Macneal  Hospital
7.76,2.61,41.66900,-87.81414,IL,25000,7000,50,72,95,Palos Community Hospital
8.84,2.41,41.79660,-87.88627,IL,29000,6000,83,63,37,Adventist La Grange Memorial Hospital
7.89,2.59,40.70200,-89.59222,IL,26000,7000,66,57,3,Saint Francis Medical Center
8.28,3.02,42.02578,-87.68371,IL,27000,8000,50,75,37,Rhc St Francis Hospital
7.04,2.99,41.96698,-87.64941,IL,23000,8000,50,70,43,Louis A Weiss Memorial Hospital
9.57,2.55,42.37840,-87.83329,IL,31000,7000,50,73,62,Vista Medical Center East
13.65,3.81,41.78829,-87.60485,IL,46000,11000,66,66,11,The University Of Chicago Medical Center
9.41,2.44,40.11696,-88.21506,IL,31000,6000,33,63,13,Carle Foundation Hospital
8.31,2.25,41.36897,-88.42537,IL,27000,6000,0,0,0,Morris Hospital & Healthcare Centers
7.33,2.42,40.11739,-88.22714,IL,24000,6000,50,62,21,Provena Covenant Medical Center- Urbana
12.09,2.80,41.97532,-87.69958,IL,40000,8000,50,85,51,Swedish Covenant Hospital
4.13,2.90,41.95453,-87.65225,IL,12000,8000,0,0,0,Thorek Memorial Hospital
5.98,2.25,42.31832,-88.27920,IL,19000,6000,50,83,24,Centegra Health System - Mc Henry Hospital
7.23,2.93,41.98743,-87.81440,IL,23000,8000,66,62,69,Resurrection Medical Center
6.11,3.19,41.65880,-87.67729,IL,19000,9000,50,65,94,Metrosouth Medical Center
9.89,3.59,41.87497,-87.66927,IL,33000,10000,50,42,33,Rush University Medical Center
8.80,2.55,41.80555,-87.92059,IL,29000,7000,50,67,54,Hinsdale Hospital
5.11,4.05,41.87381,-87.67421,IL,16000,12000,83,55,16,John H Stroger Jr Hospital
7.28,2.23,42.25244,-87.86528,IL,23000,6000,25,90,21,Lake Forest Hospital
7.12,2.93,41.76946,-87.69239,IL,23000,8000,50,82,94,Holy Cross Hospital
6.52,2.22,39.86644,-88.96090,IL,21000,6000,50,60,69,Decatur Memorial Hospital
5.33,2.38,39.80893,-89.65530,IL,17000,6000,83,57,11,Memorial Medical Center
10.44,4.04,41.86927,-87.67052,IL,35000,12000,50,76,29,University Of Illinois Hospital
6.10,2.41,41.12049,-87.87187,IL,19000,6000,50,68,97,Provena St Marys Hospital
4.93,3.16,41.84639,-87.62345,IL,15000,9000,25,46,39,Mercy Hospital And Medical Center
7.23,2.29,42.29592,-89.63773,IL,23000,6000,0,0,0,Fhn Memorial Hospital
6.65,2.20,40.48254,-88.95519,IL,21000,6000,50,91,29,St Joseph Medical Center
6.25,2.26,37.72790,-89.22058,IL,20000,6000,50,63,90,Memorial Hospital Of Carbondale
5.88,2.39,39.82659,-88.93119,IL,19000,6000,50,71,82,St Marys Hospital
6.41,2.68,41.52283,-87.71111,IL,20000,7000,50,75,33,Franciscan St James Health
12.64,2.49,41.78566,-88.32886,IL,42000,7000,50,72,48,Provena Mercy Medical Center
5.39,2.38,42.27597,-88.40019,IL,17000,6000,50,71,56,Centegra Health System - Woodstock Hospital
7.99,2.37,41.72094,-87.69220,IL,26000,6000,16,63,69,Little Company Of Mary Hospital
9.61,3.13,41.90414,-87.68254,IL,32000,9000,75,50,54,St Mary & Elizabeth Med Ctr-Division Campus
7.76,2.77,41.74948,-87.56909,IL,25000,8000,50,87,72,South Shore Hospital
9.75,3.70,41.93641,-87.65295,IL,32000,11000,50,77,85,Advocate Illinois Masonic Medical Center
6.23,2.19,38.55020,-90.02146,IL,20000,6000,66,81,21,Memorial Hospital
6.37,2.47,41.12572,-87.88526,IL,20000,7000,50,72,81,Riverside Medical Center
6.03,2.26,39.48849,-88.27581,IL,19000,6000,0,0,0,Sarah Bush Lincoln Health Center
6.87,2.45,41.60726,-87.66060,IL,22000,6000,50,65,76,Ingalls Memorial Hospital
10.64,2.22,41.86362,-87.93567,IL,35000,6000,50,76,92,Elmhurst Memorial Hospital
10.93,2.65,42.27447,-87.95764,IL,36000,7000,50,70,79,Advocate Condell Medical Center
5.70,2.96,41.72031,-87.73249,IL,18000,8000,50,57,74,Advocate Christ Hospital & Medical Center
6.97,2.50,40.70065,-89.59505,IL,22000,7000,50,78,48,Methodist Medical Center Of Illinois
10.38,2.28,41.88566,-88.34311,IL,34000,6000,50,81,4,Delnor Community Hospital
7.36,2.36,41.54446,-87.98379,IL,24000,6000,50,68,88,Silver Cross Hospital  And Medical Centers
8.63,2.27,42.03576,-88.32575,IL,28000,6000,50,65,99,Provena - Saint Joseph Hospital
8.35,3.15,42.03837,-87.84820,IL,27000,9000,83,77,69,Advocate Lutheran General Hospital
6.78,2.99,41.93418,-87.63579,IL,22000,8000,50,61,29,Saint Joseph Hospital
8.03,2.46,42.26584,-89.07428,IL,26000,6000,50,65,76,Swedish American Hospital
7.98,2.35,41.76076,-88.15016,IL,26000,6000,50,68,29,Edward Hospital
7.48,2.19,42.26634,-89.00900,IL,24000,6000,50,50,29,Saint Anthony Medical Center
4.74,2.53,42.29844,-89.09897,IL,14000,7000,50,87,56,Rockford Memorial Hospital
8.64,2.25,41.87269,-88.15684,IL,28000,6000,66,62,88,Central Dupage Hospital
8.62,3.06,41.56720,-87.69566,IL,28000,9000,50,80,63,Advocate South Suburban Hospital
6.48,2.39,41.94560,-87.76897,IL,21000,6000,50,75,21,Our Lady Of The Resurrection Med Ctr
7.42,2.37,42.06732,-87.99368,IL,24000,6000,66,67,57,Northwest Community Hospital
8.29,2.25,42.00413,-88.01745,IL,27000,6000,66,78,88,Alexian Brothers Medical Center
7.21,3.22,41.86110,-87.83404,IL,23000,9000,66,46,4,Loyola University Medical Center
4.51,2.20,41.48200,-90.57158,IL,14000,6000,50,58,63,Trinity Rock Island
10.82,3.13,41.89477,-87.62131,IL,36000,9000,50,61,94,Northwestern Memorial Hospital
9.70,2.50,41.96185,-88.72130,IL,32000,7000,50,81,3,Kishwaukee Community Hospital
6.70,2.31,41.81791,-88.00907,IL,21000,6000,50,86,95,Advocate Good Samaritan Hospital
4.15,2.16,38.73818,-89.94728,IL,12000,5000,50,87,29,Anderson Hospital
7.90,2.38,42.05260,-88.14173,IL,26000,6000,50,80,57,St Alexius Medical Center
6.71,2.83,42.19586,-88.17286,IL,21000,8000,50,80,95,Advocate Good Shepherd Hospital
4.48,2.55,41.59920,-87.35764,IN,14000,7000,50,65,94,Methodist Hospitals Inc
5.82,2.55,41.61514,-87.52413,IN,18000,7000,50,81,74,Franciscan St Margaret Health - Hammond
7.95,2.15,41.61055,-86.72511,IN,26000,5000,0,0,0,Indiana University Health La Porte Hospital
5.62,2.56,41.63466,-87.44901,IN,18000,7000,50,78,88,St Catherine Hospital Inc
4.48,2.25,38.28244,-85.74923,IN,14000,6000,50,83,48,Clark Memorial Hospital
6.81,2.48,41.70877,-86.17026,IN,22000,7000,50,88,57,Saint Joseph Regional Medical Center
5.59,2.28,41.70639,-86.89936,IN,17000,6000,0,0,0,Franciscan St Anthony Health - Michigan City
7.64,2.40,41.03874,-85.24876,IN,25000,6000,66,63,32,Lutheran Hospital Of Indiana
6.81,2.24,41.70568,-85.93404,IN,22000,6000,66,53,69,Elkhart General Hospital
5.72,2.35,41.04659,-85.10906,IN,18000,6000,83,60,44,Parkview Regional Medical Center
5.95,2.39,39.48518,-87.40893,IN,19000,6000,50,62,33,Union Hospital Inc
4.81,3.26,39.78091,-86.17629,IN,15000,9000,33,70,27,William N Wishard Memorial Hospital
8.46,2.41,41.56352,-85.83039,IN,28000,6000,25,82,13,Iu Health Goshen Hospital
6.05,2.14,39.72432,-86.10055,IN,19000,5000,0,0,0,Franciscan St Francis Health - Beech Grove
5.43,2.33,41.51266,-87.26125,IN,17000,6000,50,78,85,St Mary Medical Center Inc
8.30,2.26,41.46729,-87.05130,IN,27000,6000,50,75,63,Porter Valparaiso Hospital
5.14,2.17,38.30195,-85.83409,IN,16000,5000,66,85,85,Floyd Memorial Hospital And Health Services
5.08,2.28,39.16006,-86.54038,IN,16000,6000,50,56,24,Indiana University Health Bloomington Hospital
9.13,3.40,39.79009,-86.16260,IN,30000,10000,50,51,79,Indiana University Health
10.52,2.57,41.68479,-86.25217,IN,35000,7000,66,60,8,Memorial Hospital Of South Bend
6.70,2.48,39.78704,-86.07673,IN,21000,7000,50,82,82,Community Hospital East
7.25,2.15,37.98293,-87.57072,IN,23000,5000,83,66,13,Deaconess Hospital Inc
6.66,2.55,39.91001,-86.19660,IN,21000,7000,66,47,88,St Vincent Hospital & Health Services
9.70,2.51,40.09594,-85.68152,IN,32000,7000,0,0,0,Saint John'S Health System
7.81,2.48,40.19679,-85.41573,IN,25000,7000,66,62,85,Indiana University Health Ball Memorial Hospital
6.11,2.18,37.96320,-87.50292,IN,19000,6000,66,67,32,St Mary'S Medical Center Of Evansville Inc
4.88,2.29,39.21585,-85.89683,IN,15000,6000,50,76,95,Columbus Regional Hospital
4.34,2.27,40.12998,-85.69436,IN,13000,6000,50,86,37,Community Hospital Of Anderson And Madison County
5.80,2.32,41.55065,-87.50619,IN,18000,6000,50,75,85,Community Hospital
4.48,2.27,41.39576,-87.36689,IN,14000,6000,50,83,51,Franciscan St Anthony Health - Crown Point
5.93,2.37,39.98275,-86.14343,IN,19000,6000,50,68,97,St Vincent Carmel Hospital Inc
7.83,2.39,39.78047,-86.34084,IN,25000,6000,0,0,0,Iu Health West Hospital
6.55,2.35,39.64935,-86.07960,IN,21000,6000,66,80,90,Franciscan St Francis Health - Indianapolis
5.50,2.38,39.90060,-86.04218,IN,17000,6000,50,77,76,Community Hospital North
7.85,2.10,40.40296,-86.80885,IN,25000,5000,50,83,97,Indiana University Health Arnett Hospital
5.69,2.19,42.03321,-93.61164,IA,18000,6000,0,0,0,Mary Greeley Medical Center
5.34,2.29,41.54190,-90.55691,IA,17000,6000,66,58,97,Genesis Medical Center-Davenport
5.90,2.36,41.98570,-91.66093,IA,19000,6000,66,75,90,St Lukes Hospital
5.70,2.24,40.81009,-91.17356,IA,18000,6000,0,0,0,Great River Medical Center
7.15,3.25,41.66092,-91.54800,IA,23000,9000,16,38,63,University Of Iowa Hospital & Clinics
6.23,2.10,41.97864,-91.65507,IA,20000,5000,50,80,99,Mercy Medical Center - Cedar Rapids
6.70,2.46,41.58955,-93.63248,IA,21000,7000,66,37,82,Iowa Methodist Medical Center
6.30,2.42,41.59886,-93.62344,IA,20000,6000,83,75,29,Mercy Medical Center-Des Moines
4.62,2.24,42.52665,-92.33957,IA,14000,6000,50,81,6,Allen Memorial Hospital
3.19,2.09,42.49632,-90.68587,IA,9000,5000,0,0,0,The Finley Hospital
5.89,2.17,42.49250,-96.39975,IA,19000,5000,66,71,54,Mercy Medical Center-Sioux City
5.90,2.52,38.83324,-97.61028,KS,19000,7000,50,85,27,Salina Regional Health Center
8.90,2.59,38.87847,-99.29923,KS,29000,7000,50,58,11,Hays Medical Center
4.50,2.20,39.05660,-95.69599,KS,14000,6000,33,51,33,St Francis Health Center Inc
5.80,2.42,38.07731,-97.89183,KS,18000,6000,50,80,90,Hutchinson Regional Medical Center Inc
11.56,2.71,39.05583,-94.60912,KS,38000,7000,66,53,63,University Of Kansas Hospital
7.66,2.43,38.85279,-94.82413,KS,25000,6000,50,58,62,Olathe Medical Center
6.90,2.30,39.05128,-95.69572,KS,22000,6000,66,71,10,Stormont-Vail Healthcare
8.93,2.29,38.99549,-94.69061,KS,29000,6000,66,46,21,Shawnee Mission Medical Center
7.58,2.38,37.70405,-97.31386,KS,24000,6000,66,68,21,Via Christi Hospitals Wichita Inc
11.61,2.51,37.69556,-97.29785,KS,39000,7000,66,52,5,Wesley Medical Center
4.48,2.27,38.97848,-95.24771,KS,14000,6000,0,0,0,Lawrence Memorial Hospital
7.45,2.29,39.12677,-94.78643,KS,24000,6000,50,60,82,Providence Medical Center
10.86,2.50,38.91047,-94.65205,KS,36000,7000,50,66,11,Menorah Medical Center
5.09,2.26,39.07816,-84.46695,KY,16000,6000,50,81,51,St Elizabeth Ft Thomas
4.11,2.35,37.72943,-82.76716,KY,12000,6000,50,76,2,Highlands Regional Medical Center
5.60,2.30,38.47021,-82.63498,KY,18000,6000,66,60,54,King'S Daughters' Medical Center
5.26,2.22,38.03140,-84.52194,KY,16000,6000,83,67,79,Saint Joseph Hospital
6.56,2.67,37.11784,-84.10910,KY,21000,7000,50,75,63,Saint Joseph Hospital London
6.55,2.26,37.71183,-85.87623,KY,21000,6000,83,78,39,Hardin Memorial Hospital
5.55,2.56,36.99641,-86.43006,KY,17000,7000,66,52,33,The Medical Center At Bowling Green
6.74,2.14,36.60798,-88.30957,KY,22000,5000,0,0,0,Murray-Calloway County Hospital
5.11,2.33,39.06704,-84.49946,KY,16000,6000,33,58,79,St Elizabeth Medical Center North
4.74,2.68,37.76518,-87.10197,KY,15000,7000,50,66,29,Owensboro Medical Health System
5.71,2.52,38.24927,-85.75081,KY,18000,7000,66,51,8,Jewish Hospital & St Mary'S Healthcare
8.89,2.79,37.47264,-82.52605,KY,29000,8000,75,86,9,Pikeville Medical Center
7.27,2.33,39.01660,-84.63078,KY,23000,6000,50,75,63,St Elizabeth Florence
3.68,2.28,37.64378,-84.77272,KY,11000,6000,0,0,0,Ephraim Mcdowell Regional Medical Center
6.19,3.24,38.03282,-84.50674,KY,20000,9000,33,62,33,University Of Kentucky Hospital
5.80,2.33,36.92128,-84.11838,KY,18000,6000,25,78,82,Baptist Regional Medical Center
7.25,2.54,38.24806,-85.75125,KY,23000,7000,50,35,39,Norton Hospitals Inc
4.52,2.58,37.33959,-87.48988,KY,14000,7000,50,86,17,Regional Medical Center Of Hopkins County
6.10,2.24,37.06431,-88.67523,KY,19000,6000,50,42,20,Lourdes Hospital
5.92,2.27,38.01849,-84.51236,KY,19000,6000,50,71,57,Central Baptist Hospital
4.30,2.14,37.07404,-88.62685,KY,13000,5000,50,80,39,Western Baptist Hospital
5.39,2.08,38.23898,-85.63941,KY,17000,5000,66,57,74,Baptist Hospital East
8.13,2.41,37.08724,-84.61828,KY,26000,6000,66,60,17,Lake Cumberland Regional Hospital
11.31,3.23,38.24802,-85.74464,KY,38000,9000,25,81,8,University Of Louisville Hospital
5.33,2.34,30.20227,-92.01906,LA,17000,6000,50,73,29,Lafayette General Medical Center
6.70,2.23,29.59851,-90.71397,LA,21000,6000,25,68,69,Terrebonne General Medical Center
10.70,2.43,30.46813,-90.45814,LA,35000,6000,75,71,74,North Oaks Medical Center Llc
4.81,2.43,30.54354,-92.07608,LA,15000,6000,33,73,3,Opelousas General Health System
7.99,2.40,31.28258,-92.46060,LA,26000,6000,50,65,79,Christus St Frances Cabrini Hospital
11.17,2.41,31.31451,-92.44997,LA,37000,6000,66,40,39,Rapides Regional Medical Center
8.33,2.06,30.21521,-93.22682,LA,27000,5000,50,63,63,Christus St Patrick Hospital
5.82,2.65,30.01875,-90.19452,LA,18000,7000,66,61,62,Ochsner Foundation Hospital
7.58,2.88,29.89089,-90.09395,LA,24000,8000,50,65,85,West Jefferson Medical Center
7.16,2.26,30.28456,-89.77038,LA,23000,6000,50,82,37,Slidell Memorial Hospital And Medical Center
8.13,2.54,32.49443,-93.75011,LA,26000,7000,50,68,13,Christus Schumpert Health System
8.61,2.27,30.46834,-90.11383,LA,28000,6000,50,70,8,St Tammany Parish Hospital
10.24,2.57,29.92596,-90.09191,LA,34000,7000,66,67,63,Touro Infirmary
10.29,2.40,30.20458,-93.19774,LA,34000,6000,50,80,6,Lake Charles Memorial Hospital
6.06,2.39,30.40118,-91.11160,LA,19000,6000,83,51,33,Our Lady Of The Lake Regional Medical Center
3.79,2.50,30.45015,-91.15273,LA,11000,7000,33,76,37,Baton Rouge General Medical Center
6.01,2.26,30.15052,-92.03698,LA,19000,6000,50,71,57,Our Lady Of Lourdes Regional Medical Center Inc
7.41,2.34,32.48393,-93.77884,LA,24000,6000,50,63,62,Willis Knighton Medical Center
5.97,2.58,32.49997,-92.11359,LA,19000,7000,66,62,98,St Francis Medical Center
6.17,2.40,30.01438,-90.18155,LA,20000,6000,66,68,74,East Jefferson General Hospital
6.68,2.19,32.51315,-92.15713,LA,21000,6000,0,0,0,Glenwood Regional Medical Center
11.73,3.01,29.95570,-90.07587,LA,39000,8000,33,41,0,Tulane Medical Center
4.53,2.35,44.81469,-68.77153,ME,14000,6000,0,0,0,St Joseph Hospital
4.24,2.34,43.65159,-70.26482,ME,13000,6000,0,0,0,Mercy Hospital
4.93,2.70,43.65325,-70.27533,ME,15000,7000,16,47,0,Maine Medical Center
6.64,2.30,43.47840,-70.49221,ME,21000,6000,0,0,0,Southern Maine Medical Center
5.49,2.57,44.10107,-70.21432,ME,17000,7000,66,70,57,Central Maine Medical Center
4.04,2.44,44.80988,-68.74929,ME,12000,6000,50,58,37,Eastern Maine Medical Center
5.88,2.38,45.25378,-69.44547,ME,19000,6000,50,48,51,Maine General Medical Center
5.16,2.59,44.14436,-69.08577,ME,16000,7000,0,0,0,Penobscot Bay Medical Center
2.69,2.59,39.62183,-77.68219,MD,7000,7000,0,0,0,Meritus Medical Center
4.21,4.01,39.28817,-76.62438,MD,13000,12000,0,0,0,University Of Maryland Medical Center
2.79,2.66,39.01578,-77.03591,MD,8000,7000,0,0,0,Holy Cross Hospital
2.84,2.73,39.42366,-77.41386,MD,8000,7000,0,0,0,Frederick Memorial Hospital
3.06,2.92,39.54345,-76.09153,MD,9000,8000,0,0,0,Harford Memorial Hospital
3.37,3.20,39.38813,-76.61068,MD,10000,9000,0,0,0,Saint Joseph Medical Center
3.05,2.90,39.29297,-76.61314,MD,9000,8000,0,0,0,Mercy Medical Center Inc
6.19,5.88,39.29688,-76.59242,MD,20000,18000,0,0,0,Johns Hopkins Hospital The
3.24,3.08,39.27352,-76.67219,MD,9000,9000,0,0,0,Saint Agnes Hospital
3.29,3.12,39.35262,-76.66196,MD,9000,9000,0,0,0,Sinai Hospital Of Baltimore
3.13,2.98,39.35169,-76.47919,MD,9000,8000,0,0,0,Franklin Square Hospital Center
3.75,3.56,38.98482,-77.00139,MD,11000,10000,0,0,0,Washington Adventist Hospital
3.17,3.06,39.15402,-77.05431,MD,9000,9000,0,0,0,Montgomery General Hospital Inc
3.16,3.02,38.36248,-75.59799,MD,9000,8000,0,0,0,Peninsula Regional Medical Center
3.60,3.42,38.99743,-77.11048,MD,10000,10000,0,0,0,Suburban Hospital
2.89,2.76,38.99014,-76.53398,MD,8000,8000,0,0,0,Anne Arundel Medical Center
3.66,3.52,39.32930,-76.61432,MD,11000,10000,0,0,0,Union Memorial Hospital
2.51,2.39,39.64928,-78.73206,MD,7000,6000,0,0,0,Western Maryland Regional Medical Center
3.01,2.86,39.29100,-76.54623,MD,8000,8000,0,0,0,Johns Hopkins Bayview Medical Center
3.08,2.94,39.55808,-76.99107,MD,9000,8000,0,0,0,Carroll Hospital Center
2.89,2.78,39.25189,-76.61399,MD,8000,8000,0,0,0,Harbor Hospital
3.33,3.17,38.52905,-76.97068,MD,10000,9000,0,0,0,Civista Medical Center
2.97,2.83,38.76970,-76.07697,MD,8000,8000,0,0,0,Memorial Hospital At Easton
3.67,3.49,39.29994,-76.62138,MD,11000,10000,0,0,0,Maryland General  Hospital
2.63,2.51,38.55963,-76.59455,MD,7000,7000,0,0,0,Calvert Memorial Hospital
3.33,3.16,39.35852,-76.78208,MD,10000,9000,0,0,0,Northwest Hospital Center
3.33,3.18,39.13732,-76.62228,MD,10000,9000,0,0,0,Baltimore Washington  Medical Center
3.12,2.98,39.39017,-76.62216,MD,9000,8000,0,0,0,Greater Baltimore Medical Center
3.05,2.92,39.21273,-76.88526,MD,9000,8000,0,0,0,Howard County General Hospital
2.36,2.26,39.51870,-76.34688,MD,6000,6000,0,0,0,Upper Chesapeake Medical Center
2.86,2.73,38.96851,-76.86203,MD,8000,7000,0,0,0,Doctors'  Community Hospital
3.03,2.89,38.74827,-76.87590,MD,8000,8000,0,0,0,Southern Maryland Hospital Center
3.50,3.33,39.35962,-76.58851,MD,10000,10000,0,0,0,Good Samaritan Hospital
3.21,3.07,39.09796,-77.19799,MD,9000,9000,0,0,0,Shady Grove Adventist Hospital
2.50,2.42,38.72818,-76.99214,MD,7000,6000,0,0,0,Fort Washington Hospital
4.10,2.83,42.37441,-71.13378,MA,12000,8000,66,85,17,Mount Auburn Hospital
4.59,2.81,42.70912,-71.14877,MA,14000,8000,50,71,79,Lawrence General Hospital
6.00,3.33,42.37451,-71.10418,MA,19000,10000,50,87,94,Cambridge Health Alliance
4.29,2.98,41.65298,-70.27484,MA,13000,8000,50,56,95,Cape Cod Hospital
4.48,2.34,42.33185,-72.65422,MA,14000,6000,50,87,88,Cooley Dickinson Hospital Incthe
3.71,3.28,42.27872,-71.06625,MA,11000,9000,0,0,0,Carney Hospital
4.60,2.61,41.69217,-71.16474,MA,14000,7000,50,100,85,Saint Anne'S Hospital
3.43,2.43,42.20038,-72.62762,MA,10000,6000,0,0,0,Holyoke Medical Center
3.74,2.52,42.81476,-70.89068,MA,11000,7000,0,0,0,Anna Jaques Hospital
5.30,4.02,42.35843,-71.05977,MA,16000,12000,66,51,0,Boston Medical Center Corporation
3.31,2.57,42.56407,-70.87543,MA,9000,7000,50,62,63,Beverly Hospital Corporation
6.73,2.67,42.51078,-70.90712,MA,21000,7000,33,47,69,North Shore Medical Center
4.02,3.52,42.34896,-71.14768,MA,12000,10000,50,68,57,St Elizabeth'S Medical Center
4.61,2.82,51.46599,-1.28140,MA,14000,8000,50,76,20,Berkshire Medical Center Inc
5.55,2.39,42.35375,-71.55485,MA,17000,6000,0,0,0,Marlborough Hospital
3.14,2.82,42.03597,-71.09792,MA,9000,8000,50,61,57,Signature Healthcare Brockton Hospital
3.51,2.45,41.94445,-70.64511,MA,10000,6000,50,82,24,Jordan Hospital Inc
4.54,2.77,42.64636,-71.34118,MA,14000,8000,50,87,95,Lowell General Hospital
5.12,2.65,42.11449,-72.59502,MA,16000,7000,50,77,76,Mercy Medical Center
4.31,2.49,42.25105,-71.01411,MA,13000,7000,0,0,0,Quincy Medical Center
3.80,2.60,42.46049,-71.06203,MA,11000,7000,50,52,76,Hallmark Health System
10.84,3.50,42.36227,-71.06941,MA,36000,10000,50,43,16,Massachusetts General Hospital
3.45,2.55,41.90456,-71.09562,MA,10000,7000,50,85,24,Morton Hospital
4.45,2.60,41.70928,-71.14519,MA,13000,7000,25,51,88,Southcoast Hospital Group Inc
5.25,2.99,42.12077,-72.60525,MA,16000,8000,33,61,82,Baystate Medical Center
3.92,2.55,42.72846,-71.16830,MA,12000,7000,50,73,33,Holy Family Hospital
3.17,2.57,42.64529,-71.30052,MA,9000,7000,0,0,0,Saints  Medical Center Inc
3.44,2.45,42.27743,-71.23690,MA,10000,6000,0,0,0,Beth Israel Deaconess Hospital - Needham
5.86,2.44,42.43082,-71.37554,MA,18000,6000,50,43,57,Emerson Hospital
5.03,3.63,42.33719,-71.10939,MA,16000,11000,33,71,33,Beth Israel Deaconess Medical Center
4.00,2.51,42.13234,-71.52825,MA,12000,7000,50,71,95,Milford Regional Medical Center
4.28,2.47,42.17644,-70.95398,MA,13000,7000,66,70,48,South Shore Hospital
6.46,2.59,42.33149,-71.24568,MA,21000,7000,66,70,99,Newton-Wellesley Hospital
3.08,2.51,42.46581,-71.12210,MA,9000,7000,50,58,24,Winchester Hospital
11.01,3.44,42.33600,-71.10704,MA,37000,10000,66,40,20,Brigham And Women'S Hospital
2.99,2.71,42.09864,-71.06607,MA,8000,7000,50,58,92,Good Samaritan Medical Center
4.34,3.72,42.34951,-71.06331,MA,13000,11000,50,63,85,Tufts Medical Center
2.99,2.37,42.18869,-71.20197,MA,8000,6000,50,77,81,Norwood Hospital
3.53,2.51,41.56412,-70.62200,MA,10000,7000,50,68,94,Falmouth Hospital
6.84,3.45,42.27720,-71.75922,MA,22000,10000,50,36,29,Umass Memorial Medical Center Inc
3.90,2.84,42.48585,-71.20686,MA,12000,8000,66,76,16,Lahey Clinic Hospital
4.05,2.12,42.76256,-71.04507,MA,12000,5000,0,0,0,Merrimack Valley Hospital
4.54,2.67,42.28385,-71.41896,MA,14000,7000,50,76,85,Metrowest Medical Center
4.10,2.88,42.26633,-71.79760,MA,12000,8000,33,75,57,St Vincent Hospital
4.23,2.25,42.39466,-83.40537,MI,13000,6000,50,60,63,St Mary Mercy Hospital
3.89,2.41,43.20588,-86.20839,MI,12000,6000,50,76,57,Mercy Health Partners Mercy Campus
7.84,2.84,42.28551,-85.58042,MI,25000,8000,66,82,13,Bronson Methodist Hospital
6.56,2.74,42.45741,-83.20513,MI,21000,7000,83,57,48,Providence Hospital And Medical Centers
6.64,2.66,42.29077,-83.21504,MI,21000,7000,33,48,69,Oakwood Hospital And Medical Center
3.27,2.39,42.08955,-86.47781,MI,9000,6000,33,68,88,Lakeland Hospital St Joseph
5.74,3.18,42.41911,-83.18228,MI,18000,9000,83,46,21,Sinai-Grace Hospital
4.87,2.80,42.61425,-83.27602,MI,15000,8000,66,52,79,St Joseph Mercy Oakland
4.60,2.69,42.96881,-85.66649,MI,14000,7000,33,66,82,Spectrum Health - Butterworth Campus
5.65,2.23,43.58941,-83.86908,MI,18000,6000,33,55,98,Mclaren Bay Region
9.72,4.30,42.28388,-83.72960,MI,32000,13000,50,61,43,University Of Michigan Health System
4.03,2.39,42.61490,-82.96060,MI,12000,6000,50,66,54,Henry Ford Macomb Hospital
7.41,3.33,42.36762,-83.08461,MI,24000,10000,66,47,8,Henry Ford Hospital
3.70,2.64,46.54758,-87.39560,MI,11000,7000,83,67,48,Marquette General Hospital
5.00,2.82,42.95817,-85.66253,MI,15000,8000,50,53,90,Saint Mary'S Health Care
5.53,2.43,42.61504,-83.93929,MI,17000,6000,0,0,0,Saint Joseph Mercy Livingston Hospital
5.97,2.44,43.42857,-83.95556,MI,19000,6000,83,61,63,Covenant Medical Center Inc
4.91,2.33,42.33111,-85.17817,MI,15000,6000,50,83,63,Bronson Battle Creek Hospital
6.14,2.40,43.42612,-83.94185,MI,19000,6000,66,63,57,St Mary'S Of Michigan Medical Center
5.25,2.26,44.24532,-85.38950,MI,16000,6000,0,0,0,Mercy Hospital - Cadillac
4.25,2.34,42.38392,-82.91480,MI,13000,6000,50,62,51,Beaumont Hospital Grosse Pointe
7.53,2.28,42.25117,-84.39240,MI,24000,6000,50,85,98,Allegiance Health
6.82,2.72,44.76156,-85.64143,MI,22000,7000,50,41,57,Munson Medical Center
5.04,2.30,41.91643,-83.39771,MI,16000,6000,50,68,37,Mercy Memorial Hospital System
5.56,3.55,42.35230,-83.05676,MI,17000,10000,66,62,63,Harper University Hospital
5.90,2.48,45.37209,-84.97065,MI,19000,7000,50,77,24,Northern Michigan Regional Hospital
7.84,2.74,42.30489,-85.56152,MI,25000,7000,66,47,76,Borgess Medical Center
6.42,2.74,42.51418,-83.19259,MI,20000,7000,66,60,16,William Beaumont Hospital
6.22,3.33,43.02135,-83.70308,MI,20000,10000,66,68,6,Hurley Medical Center
4.90,2.69,43.01399,-83.73250,MI,15000,7000,50,60,33,Mclaren Flint
5.11,2.38,42.27424,-83.36580,MI,16000,6000,50,70,48,Oakwood Annapolis Hospital
4.87,2.39,42.21065,-83.14861,MI,15000,6000,50,70,95,Henry Ford Wyandotte Hospital
4.52,2.93,42.46176,-83.37629,MI,14000,8000,50,78,24,Botsford Hospital
5.91,2.51,42.26181,-83.66003,MI,19000,7000,66,62,33,St Joseph Mercy Hospital
4.87,2.80,42.41975,-82.91442,MI,15000,8000,66,72,9,St John Hospital And Medical Center
5.84,2.57,42.70417,-84.55488,MI,18000,7000,33,76,21,Mclaren - Greater Lansing
5.60,2.29,43.06290,-83.32082,MI,18000,6000,50,63,90,Lapeer Regional Medical Center
5.74,2.52,42.50514,-83.00422,MI,18000,7000,66,56,85,St John Macomb-Oakland Hospital-Macomb Center
6.75,2.79,42.89254,-83.63621,MI,22000,8000,66,70,13,Genesys Regional Medical Center - Health Park
5.10,2.21,42.98625,-82.42802,MI,16000,6000,50,62,29,Port Huron Hospital
6.01,2.49,43.63618,-84.26187,MI,19000,7000,50,72,69,Midmichigan Medical Center-Midland
4.80,2.54,42.58900,-82.89799,MI,15000,7000,66,61,63,Mount Clemens Regional Medical Center
7.57,2.72,42.73767,-84.51698,MI,24000,7000,83,68,1,Edward W Sparrow Hospital
4.96,2.65,42.85736,-85.71774,MI,15000,7000,50,66,48,Metro Health Hospital
3.77,2.70,42.33215,-83.31195,MI,11000,7000,50,82,37,Garden City Hospital
6.72,2.33,42.67850,-83.14771,MI,21000,6000,50,65,79,Crittenton Hospital Medical Center
6.32,2.40,42.61826,-83.09239,MI,20000,6000,83,60,62,William Beaumont Hospital-Troy
6.10,2.37,42.23506,-83.27602,MI,19000,6000,50,60,92,Oakwood Heritage Hospital
7.13,2.51,42.59290,-83.49920,MI,23000,7000,66,48,54,Huron Valley-Sinai Hospital
5.40,2.46,42.53914,-83.40777,MI,17000,7000,50,53,39,Henry Ford West Bloomfield Hospital
7.35,2.48,45.01403,-93.32177,MN,24000,7000,66,68,82,North Memorial Medical Center
4.72,2.51,46.79380,-92.09573,MN,14000,7000,83,75,79,Essentia Health St Mary'S Medical Center
5.53,3.91,44.97210,-93.26240,MN,17000,12000,33,37,29,Hennepin County Medical Center
5.93,3.09,44.02052,-92.48292,MN,19000,9000,83,42,32,Mayo Clinic - Saint Marys Hospital
5.84,2.81,45.57390,-94.16942,MN,18000,8000,50,61,37,St Cloud Hospital
7.33,2.48,44.94214,-93.10858,MN,24000,7000,50,86,33,United Hospital
4.68,2.46,46.79634,-92.08793,MN,14000,7000,50,71,29,St Lukes Hospital
3.68,2.43,44.93031,-93.36276,MN,11000,6000,66,72,94,Park Nicollet Methodist Hospital
9.79,2.57,44.95248,-93.26196,MN,32000,7000,50,70,63,Abbott Northwestern Hospital
9.27,6.06,44.02354,-92.46588,MN,30000,19000,50,35,97,Mayo Clinic Methodist Hospital
5.15,2.50,44.94898,-93.10016,MN,16000,7000,33,66,57,St Joseph'S Hospital
6.68,2.36,44.88645,-93.32693,MN,21000,6000,66,62,94,Fairview Southdale Hospital
8.14,3.38,44.96766,-93.23640,MN,26000,10000,66,56,57,University Of Minnesota  Medical Center Fairview
4.83,2.48,44.16396,-94.00412,MN,15000,7000,50,57,76,Mayo Clinic Health System - Mankato
6.13,2.34,44.77252,-93.50323,MN,19000,6000,0,0,0,St Francis Regional Medical Center
6.60,3.02,44.95570,-93.09429,MN,21000,8000,50,78,17,Regions Hospital
7.98,2.55,45.18355,-93.36789,MN,26000,7000,50,73,95,Mercy Hospital
6.96,2.46,45.10789,-93.25685,MN,22000,6000,33,85,85,Unity Hospital
5.25,2.80,45.02892,-93.03418,MN,16000,8000,50,75,24,Healtheast St John'S Hospital
5.47,2.96,32.33069,-90.17030,MS,17000,8000,66,51,6,University Of Mississippi Med Center
6.66,2.36,34.24336,-88.71753,MS,21000,6000,66,61,48,North Mississippi Medical Center
14.91,2.35,30.39599,-88.89061,MS,50000,6000,50,80,48,Biloxi Regional Medical Center
9.70,2.35,30.36674,-89.11535,MS,32000,6000,50,66,69,Memorial Hospital At Gulfport
9.44,2.42,32.35265,-90.87788,MS,31000,6000,50,80,37,River Region Health System
9.19,2.22,30.37516,-88.53226,MS,30000,6000,50,70,3,Singing River Hospital
5.17,2.25,32.33616,-90.15652,MS,16000,6000,50,60,44,St Dominic-Jackson Memorial Hospital
6.42,2.21,31.69405,-89.13061,MS,20000,6000,50,72,16,South Central Reg Med Ctr
7.54,2.35,32.36983,-88.69702,MS,24000,6000,50,83,4,Rush Foundation Hospital
14.26,2.36,32.28805,-90.25566,MS,48000,6000,50,81,8,Central Mississippi Medical Center
4.12,2.36,31.31872,-89.32955,MS,12000,6000,50,57,54,Forrest General Hospital
6.03,2.49,33.51824,-90.19832,MS,19000,7000,0,0,0,Greenwood Leflore Hospital
7.79,2.09,32.31643,-90.17922,MS,25000,5000,66,43,85,Mississippi Baptist Medical Center
5.67,2.20,32.37280,-88.69954,MS,18000,6000,50,77,39,Anderson Regional Medical Center
7.35,2.39,34.96927,-89.99709,MS,24000,6000,50,68,11,Baptist Memorial Hospital Desoto
6.90,2.21,37.06032,-94.52747,MO,22000,6000,0,0,0,St John'S Regional Medical Center
5.81,2.31,38.78060,-90.48379,MO,18000,6000,50,76,37,Ssm St Joseph Health Center
5.26,2.69,39.77393,-94.77089,MO,16000,7000,50,58,51,Heartland Regional Medical Center
6.49,2.03,38.57670,-92.17352,MO,21000,5000,50,86,0,St Marys Health Center
6.72,2.66,37.95144,-91.75940,MO,21000,7000,50,88,48,Phelps County Regional Medical Center
8.26,2.28,38.64281,-90.44448,MO,27000,6000,83,57,74,Mercy Hospital St Louis
3.20,2.17,38.16498,-90.38082,MO,9000,5000,50,83,82,Jefferson Regional Medical Center
15.42,2.41,39.00717,-94.55925,MO,52000,6000,33,82,5,Research Medical Center
6.27,2.73,38.63524,-90.26508,MO,20000,7000,50,56,12,Barnes Jewish Hospital
6.37,2.31,37.14560,-93.28037,MO,20000,6000,50,61,85,Cox Medical Center
4.69,2.40,38.56571,-92.18204,MO,14000,6000,50,83,57,Capital Region Medical Center
8.57,2.27,37.17999,-93.27409,MO,28000,6000,66,61,24,St John'S Regional Health Center
5.11,2.00,38.94903,-92.31563,MO,16000,5000,66,73,43,Boone Hospital Center
4.26,2.10,38.50661,-90.38025,MO,13000,5000,66,57,13,St Anthony'S Medical Center
5.97,2.11,38.52738,-90.47501,MO,19000,5000,50,65,44,Ssm St Clare Health Center
6.41,2.15,38.93592,-94.60376,MO,20000,5000,50,75,88,St Joseph Medical Center
8.70,2.80,38.63268,-90.31089,MO,28000,8000,83,77,57,Ssm St Marys Health Center
7.00,2.17,36.64970,-93.22138,MO,22000,5000,50,71,79,Skaggs Regional Medical Center
10.74,2.21,39.04749,-94.34105,MO,36000,6000,50,72,39,Centerpoint Medical Center Of Independence Llc
6.74,2.15,39.14957,-94.55148,MO,22000,5000,50,58,63,North Kansas City Hospital
5.55,2.33,38.75097,-90.43255,MO,17000,6000,66,68,43,Ssm Depaul Health Center
6.80,3.26,38.62280,-90.24049,MO,22000,9000,50,46,5,St Louis University Hospital
4.36,2.20,38.63702,-90.44699,MO,13000,6000,66,68,48,Missouri Baptist Medical Center
8.55,2.18,37.31072,-89.53990,MO,28000,6000,50,72,8,Southeast Missouri Hospital
6.02,2.31,37.05238,-94.52777,MO,19000,6000,83,67,85,Freeman Health System - Freeman West
11.11,2.60,39.04761,-94.59037,MO,37000,7000,66,50,17,St Lukes Hospital Of Kansas City
6.86,2.74,38.95171,-92.33407,MO,22000,7000,66,60,63,University Of Missouri Health Care
6.23,2.78,38.67655,-90.46573,MO,20000,8000,50,95,13,Barnes-Jewish West County Hospital
10.94,2.31,38.58103,-90.45144,MO,36000,6000,50,70,43,Des Peres Hospital
6.48,2.19,39.27591,-94.42572,MO,21000,6000,33,60,33,Liberty Hospital
6.19,2.18,38.65123,-90.50301,MO,20000,6000,66,67,12,St Lukes Hospital
6.88,2.32,38.77576,-90.23906,MO,22000,6000,66,75,4,Christian Hospital Northeast
8.25,2.27,37.30401,-89.57190,MO,27000,6000,50,65,11,St Francis Medical Center
6.00,2.56,38.12027,-92.68146,MO,19000,7000,50,52,8,Lake Regional Health System
4.70,2.53,38.79427,-90.58049,MO,14000,7000,50,75,32,Barnes-Jewish St Peters Hospital
7.53,2.18,38.80334,-90.77619,MO,24000,5000,50,65,82,Ssm St Joseph Hospital West
5.44,2.31,38.58425,-90.22739,MO,17000,6000,50,58,33,St Alexius Hospital
8.50,2.15,38.94062,-94.37842,MO,28000,5000,0,0,0,Saint Luke'S East Lee'S Summit Hospital
4.18,2.34,46.58297,-111.99684,MT,13000,6000,0,0,0,St Peter'S Hospital
4.77,2.38,45.78958,-108.51283,MT,15000,6000,50,86,88,Billings Clinic Hospital
4.38,2.44,47.49139,-111.26255,MT,13000,6000,50,61,57,Benefis Hospitals Inc
5.09,2.39,45.79337,-108.51928,MT,16000,6000,50,81,54,St Vincent Healthcare
5.60,2.55,48.21465,-114.32386,MT,18000,7000,50,83,57,Kalispell Regional Medical Center
4.68,2.19,45.66969,-111.01991,MT,14000,6000,50,88,24,Bozeman Deaconess Hospital
5.70,2.31,40.78318,-96.63709,NE,18000,6000,66,70,63,Bryanlgh Medical Center
6.21,2.81,41.25522,-95.97892,NE,20000,8000,50,52,51,The Nebraska Medical Center
7.89,2.32,40.80816,-96.62689,NE,26000,6000,50,66,20,Saint Elizabeth Regional Medical Center
16.89,3.33,41.26509,-95.95494,NE,57000,10000,50,67,0,Creighton University Medical Center - Saint Joseph
6.85,2.34,41.25797,-96.04164,NE,22000,6000,50,73,33,The Nebraska Methodist Hospital
10.44,2.72,41.23897,-96.03162,NE,34000,7000,50,46,82,Alegent Health Bergan Mercy Medical Center
6.99,2.64,41.88690,-103.66400,NE,22000,7000,50,58,85,Regional West Medical Center
6.23,2.58,41.32182,-96.02133,NE,20000,7000,25,71,51,Alegent Health Immanuel Medical Center
9.43,2.14,41.23771,-96.18052,NE,31000,5000,0,0,0,Alegent Health Lakeside Hospital
8.01,2.59,39.52637,-119.79456,NV,26000,7000,50,66,17,Renown Regional Medical Center
9.49,2.75,39.20247,-119.78446,NV,31000,7000,50,56,69,Carson Tahoe Regional Medical Center
18.71,3.40,36.16380,-115.16574,NV,64000,10000,66,70,54,Valley Hospital Medical Center
12.24,2.46,36.11363,-115.12573,NV,41000,6000,83,70,63,Desert Springs Hospital
11.82,2.27,39.54241,-119.69736,NV,39000,6000,0,0,0,Northern Nevada Medical Center
12.58,2.45,36.21599,-115.25095,NV,42000,6000,66,57,13,Mountainview Hospital
14.19,2.95,36.16586,-115.32436,NV,48000,8000,83,72,27,Summerlin Hospital Medical Center
10.67,2.81,36.00527,-115.11618,NV,35000,8000,50,50,33,Saint Rose Dominican Hospital - Siena Campus
9.97,2.47,36.09056,-115.24058,NV,33000,7000,66,78,12,Spring Valley Hospital Medical Center
12.22,2.73,36.07216,-115.29538,NV,41000,7000,50,81,1,Southern Hills Hospital And Medical Center
11.97,2.43,36.05712,-115.27116,NV,40000,6000,50,78,18,Saint Rose Dominican Hospital - San Martin Campus
12.51,2.58,36.28588,-115.28772,NV,42000,7000,75,66,39,Centennial Hills Hospital Medical Center
5.00,2.46,43.19846,-71.56230,NH,15000,7000,33,63,94,Concord Hospital
6.31,3.31,43.67286,-72.27232,NH,20000,9000,50,38,0,Mary Hitchcock Memorial Hospital
5.30,2.31,42.75004,-71.48100,NH,16000,6000,0,0,0,St Joseph Hospital
5.17,2.43,43.00792,-71.46807,NH,16000,6000,50,57,21,Elliot Hospital
4.66,2.35,43.21231,-70.87499,NH,14000,6000,50,73,3,Wentworth-Douglass Hospital
7.09,2.66,42.94925,-72.28978,NH,23000,7000,0,0,0,Cheshire Medical Center
5.07,2.33,42.75623,-71.46059,NH,16000,6000,50,81,54,Southern Nh Medical Center
6.37,2.57,42.98369,-70.93511,NH,20000,7000,0,0,0,Exeter Hospital Inc
6.01,2.27,43.06469,-70.78916,NH,19000,6000,50,76,48,Portsmouth Regional Hospital
6.44,2.26,42.99121,-71.47426,NH,20000,6000,33,63,92,Catholic Medical Center
16.39,2.89,40.88346,-74.05564,NJ,55000,8000,50,58,85,Hackensack University Medical Center
17.09,3.89,40.71011,-74.21368,NJ,58000,12000,66,56,11,Newark Beth Israel Medical Center
12.28,3.01,40.79576,-73.99575,NJ,41000,8000,25,62,32,Palisades Medical Ctr-Ny Presbyterian Healthcare S
8.09,2.54,40.53142,-74.86080,NJ,26000,7000,75,55,69,Hunterdon Medical Center
13.09,2.85,40.84945,-74.13768,NJ,44000,8000,50,56,85,St Mary'S Hospital Passaic
10.04,2.66,40.88275,-74.01021,NJ,33000,7000,66,67,57,Holy Name Medical Center
13.32,2.72,40.78556,-74.17598,NJ,45000,7000,66,83,95,Clara Maass Medical Center
9.21,2.56,40.35684,-74.66166,NJ,30000,7000,50,56,21,University Medical Center At Princeton
5.39,2.38,39.08752,-74.81657,NJ,17000,6000,50,73,48,Cape Regional Medical Center Inc
9.93,2.53,40.98359,-74.10047,NJ,33000,7000,50,78,21,Valley Hospital
12.64,3.40,39.94152,-75.11680,NJ,42000,10000,66,42,2,Cooper University Hospital
9.66,2.89,40.78883,-74.46620,NJ,32000,8000,66,43,39,Morristown Memorial Hospital
19.98,3.08,40.73417,-74.04977,NJ,68000,9000,0,0,0,Christ Hospital
10.78,2.50,40.95858,-74.31000,NJ,36000,7000,50,62,1,Chilton Hospital
14.66,3.27,40.90215,-74.16634,NJ,49000,9000,16,53,94,St Joseph'S Regional Medical Center
21.19,2.99,40.21634,-74.74143,NJ,72000,8000,50,68,11,St Francis Medical Center
13.23,2.43,39.78261,-74.91670,NJ,44000,6000,50,52,74,Virtua West Jersey Hospitals Berlin
18.72,2.54,40.61288,-74.29092,NJ,64000,7000,50,80,44,Robert Wood Johnson University Hospital At Rahway
28.54,2.56,40.66805,-74.11334,NJ,98000,7000,50,80,63,Bayonne Hospital Center
11.04,3.12,40.66005,-74.21417,NJ,37000,9000,50,75,39,Trinitas Regional Medical Center
13.25,2.48,41.05754,-74.76857,NJ,44000,7000,50,77,79,Newton Memorial Hospital
18.68,2.78,39.92695,-75.09537,NJ,63000,8000,50,70,10,Our Lady Of Lourdes Medical Center
12.92,2.61,39.44743,-75.05838,NJ,43000,7000,50,62,1,South Jersey Healthcare Regional Medical Center
12.84,2.33,40.35309,-74.06484,NJ,43000,6000,33,61,69,Riverview Medical Center
19.55,3.14,40.49581,-74.44980,NJ,66000,9000,66,51,1,Robert Wood Johnson University Hospital
14.21,2.87,40.51891,-74.28183,NJ,48000,8000,75,68,69,Raritan Bay Medical Center
9.84,3.22,40.74132,-74.03369,NJ,32000,9000,0,0,0,Hoboken University Medical Center
12.59,2.33,39.96484,-74.21708,NJ,42000,6000,50,47,88,Community Medical Center
13.82,2.83,40.90400,-73.96847,NJ,46000,8000,66,81,54,Englewood Hospital And Medical Center
14.87,2.42,39.31464,-74.59391,NJ,50000,6000,16,72,82,Shore Medical Center
24.85,2.54,40.56804,-74.59579,NJ,85000,7000,50,67,29,Somerset Medical Center
15.70,2.50,40.89538,-74.46479,NJ,53000,7000,50,63,69,Saint Clare'S Hospital
8.70,2.85,40.71264,-74.35460,NJ,28000,8000,50,52,57,Overlook Hospital
15.40,2.33,40.07832,-74.13009,NJ,52000,6000,50,57,48,Ocean Medical Center
9.07,2.97,40.81058,-74.20459,NJ,30000,8000,50,68,43,Mountainside Hospital
12.90,2.41,39.98588,-74.79393,NJ,43000,6000,66,55,54,Virtua Memorial Hospital Of Burlington County
18.15,2.79,40.70180,-75.17825,NJ,62000,8000,0,0,0,St Luke'S Warren Hospital
15.83,2.76,40.04632,-74.88059,NJ,53000,8000,50,48,6,Lourdes Medical Center Of Burlington County
17.31,2.55,39.35775,-74.43449,NJ,59000,7000,66,65,88,Atlanticare Regional Medical Center - City Div
11.84,2.33,39.58815,-75.18044,NJ,39000,6000,0,0,0,South Jersey Healthcare-Elmer Hospital
21.57,3.04,40.50214,-74.46015,NJ,74000,9000,50,53,29,Saint Peter'S University Hospital
14.64,2.77,40.21065,-74.03566,NJ,49000,8000,50,58,6,Jersey Shore University Medical Center
11.69,3.47,40.71663,-74.05013,NJ,39000,10000,83,73,82,Libertyhealth-Jersey City Medical Center Campus
16.04,3.04,40.29563,-73.98518,NJ,54000,9000,50,50,85,Monmouth Medical Center
14.42,3.20,40.76190,-74.30335,NJ,48000,9000,83,53,2,Saint Barnabas Medical Center
12.12,2.44,39.84392,-75.14985,NJ,40000,6000,50,70,33,Underwood - Memorial Hospital
15.75,2.51,40.07503,-74.21832,NJ,53000,7000,50,71,76,Kimball Medical Center
14.85,2.87,39.82811,-75.00895,NJ,50000,8000,66,60,69,Kennedy University Hospital - Stratford Div
10.62,2.48,39.59285,-75.44416,NJ,35000,7000,0,0,0,Memorial Hospital Of Salem County
17.35,2.78,40.23629,-74.75256,NJ,59000,8000,50,77,57,Capital Health System-Fuld Campus
9.11,3.20,40.74323,-74.17431,NJ,30000,9000,50,68,51,Saint Michael'S Medical Center Inc
15.00,2.69,40.55784,-74.34970,NJ,51000,7000,50,71,57,Jfk Medical Ctr - Anthony M. Yelencsics Community
18.80,2.39,40.21575,-74.67273,NJ,64000,6000,50,67,79,Robert Wood Johnson University Hospital Hamilton
11.39,2.54,40.23861,-74.31289,NJ,38000,7000,33,68,13,Centrastate Medical Center
8.66,2.33,40.40516,-74.19203,NJ,28000,6000,50,81,98,Bayshore Community Hospital
13.95,2.30,39.66213,-74.26392,NJ,47000,6000,50,62,69,Southern Ocean Medical Center
12.41,2.50,40.85399,-74.82906,NJ,41000,7000,0,0,0,Hackettstown Regional Medical Center
6.93,3.64,35.08838,-106.61590,NM,22000,11000,83,46,11,Unm Hospital
5.10,3.00,35.65960,-105.94578,NM,16000,8000,50,65,29,St Vincent Hospital
5.09,2.76,36.72387,-108.21749,NM,16000,8000,50,71,82,San Juan Regional Medical Center
8.18,2.30,35.08603,-106.63950,NM,27000,6000,66,62,54,Lovelace Medical Center
8.12,2.48,32.29186,-106.73470,NM,26000,7000,50,63,3,Memorial Medical Center Inc
8.16,2.54,35.08102,-106.63392,NM,26000,7000,33,51,3,Presbyterian Hospital
9.06,2.29,32.32310,-106.72900,NM,30000,6000,50,68,16,Mountain View Regional Medical Center
4.03,2.15,42.67460,-73.74858,NY,12000,5000,0,0,0,Albany Memorial Hospital
6.70,2.69,41.92720,-73.99535,NY,21000,7000,50,83,39,Kingston Hospital
4.53,2.80,42.87482,-78.84942,NY,14000,8000,33,45,8,Kaleida Health
4.46,3.25,40.92963,-73.89840,NY,14000,9000,50,61,90,St Joseph'S Medical Center
5.00,4.82,40.83139,-73.90306,NY,15000,15000,50,60,54,Bronx-Lebanon Hospital Center
4.40,2.23,42.09299,-75.93704,NY,13000,6000,50,73,99,Our Lady Of Lourdes Memorial Hospital Inc
7.16,2.81,42.65345,-73.77543,NY,23000,8000,66,60,63,Albany Medical Center Hospital
3.39,3.98,40.70141,-73.81630,NY,10000,12000,0,78,39,Jamaica Hospital Medical Center
3.76,3.28,40.61384,-73.94851,NY,11000,9000,0,0,0,New York Community Hospital Of Brooklyn Inc.
9.07,2.73,41.69441,-73.93432,NY,30000,7000,83,82,54,Vassar Brothers Medical Center
9.45,4.05,40.79041,-73.95386,NY,31000,12000,83,38,5,Mount Sinai Hospital
5.74,4.12,40.72548,-73.55287,NY,18000,12000,50,88,4,Nassau University Medical Center
12.15,3.60,40.63588,-74.10556,NY,40000,10000,66,52,20,Richmond University Medical Center
9.63,2.89,40.72567,-73.24189,NY,32000,8000,50,58,37,Southside Hospital
4.17,2.19,43.09840,-75.27819,NY,12000,6000,50,60,17,Faxton-St Luke'S Healthcare
7.73,2.49,40.87946,-73.41621,NY,25000,7000,50,66,39,Huntington Hospital
8.88,3.87,40.80556,-73.96131,NY,29000,11000,33,56,5,St Luke'S Roosevelt Hospital
4.60,2.19,42.95425,-74.21527,NY,14000,6000,0,0,0,St Mary'S Hospital At Amsterdam
7.83,3.43,40.74722,-73.82521,NY,25000,10000,66,63,79,New York Hospital Medical Center Of Queens
5.59,4.18,40.68983,-73.97794,NY,17000,13000,83,71,13,Brooklyn Hospital Center At Downtown Campus
6.18,2.16,42.65583,-73.80372,NY,20000,5000,33,47,54,St Peter'S Hospital
3.68,2.24,42.87637,-76.98820,NY,11000,6000,0,0,0,Geneva General Hospital
11.47,4.16,40.87987,-73.87996,NY,38000,12000,50,38,44,Montefiore Medical Center
9.67,2.53,40.94161,-73.83650,NY,32000,7000,33,63,12,Lawrence Hospital Center
4.87,4.04,40.71016,-74.00464,NY,15000,12000,50,72,33,New York Downtown Hospital
12.63,2.94,41.71846,-73.92710,NY,42000,8000,50,80,79,St Francis Hospital
4.48,2.30,42.10076,-76.82800,NY,14000,6000,50,65,33,Arnot Ogden Medical Center
3.63,2.29,42.24595,-73.77855,NY,11000,6000,0,0,0,Columbia Memorial Hospital
9.80,3.91,40.76487,-73.95398,NY,32000,12000,33,32,74,New York-Presbyterian Hospital
4.35,2.19,42.09049,-78.42780,NY,13000,6000,50,83,37,Olean General Hospital
8.33,2.82,41.09642,-73.92501,NY,27000,8000,66,77,76,Nyack Hospital
12.24,3.48,40.77686,-73.70212,NY,41000,10000,33,61,69,North Shore University Hospital
9.45,2.83,40.93376,-72.67383,NY,31000,8000,0,0,0,Peconic Bay Medical Center
4.89,2.46,43.07766,-75.65463,NY,15000,6000,0,0,0,Oneida Healthcare Center
17.69,3.60,40.77362,-73.96093,NY,60000,10000,33,46,11,Lenox Hill Hospital
4.74,2.42,43.19244,-77.58590,NY,15000,6000,66,46,17,Rochester General Hospital
9.06,2.65,41.44138,-74.36821,NY,30000,7000,50,62,69,Orange Regional Medical Center
7.17,4.80,40.85407,-73.84688,NY,23000,15000,50,70,74,Jacobi Medical Center
9.62,2.88,41.36763,-74.68150,NY,32000,8000,0,0,0,Bon Secours Community Hospital
4.21,3.36,42.69590,-74.92278,NY,13000,10000,50,83,76,Mary Imogene Bassett Hospital
5.13,2.56,43.05571,-76.14981,NY,16000,7000,83,37,20,St Joseph'S Hospital Health Center
12.43,2.61,40.78000,-72.97763,NY,42000,7000,33,60,32,Brookhaven Memorial Hospital Medical Center
5.75,2.30,42.81963,-73.91653,NY,18000,6000,50,68,21,Ellis Hospital
12.33,2.83,41.11299,-74.13732,NY,41000,8000,66,82,82,Good Samaritan Hospital Of Suffern
7.13,3.31,40.58440,-74.08507,NY,23000,9000,66,71,37,Staten Island University Hospital
5.79,2.70,41.19677,-73.72572,NY,18000,7000,50,68,69,Northern Westchester Hospital
3.75,2.67,43.17738,-78.67123,NY,11000,7000,0,0,0,Eastern Niagara Hospital
4.07,2.48,43.13562,-77.60602,NY,12000,7000,50,43,10,Highland Hospital
9.24,3.15,40.74083,-73.64306,NY,30000,9000,66,50,74,Winthrop-University Hospital
11.08,3.92,40.73265,-73.98162,NY,37000,12000,50,60,39,Beth Israel Medical Center
3.98,2.38,42.60884,-76.18764,NY,12000,6000,50,60,67,Cortland Regional Medical Center Inc
8.93,2.65,40.87062,-73.62249,NY,29000,7000,50,82,85,Glen Cove Hospital
9.53,2.58,40.80462,-73.67023,NY,31000,7000,83,72,94,St Francis Hospital Roslyn
3.99,3.30,40.91276,-73.78720,NY,12000,9000,50,83,6,Sound Shore Medical Center Of Westschester
9.36,2.51,40.94000,-73.05510,NY,31000,7000,50,63,63,John T Mather Memorial Hospital  Of Port Jefferson
3.70,2.18,43.30652,-73.64663,NY,11000,6000,50,63,90,Glens Falls Hospital
7.32,3.79,40.75543,-73.81532,NY,24000,11000,25,72,63,Flushing Hospital Medical Center
11.41,4.21,40.63937,-73.99851,NY,38000,13000,50,45,54,Maimonides Medical Center
11.43,4.09,40.75332,-73.70899,NY,38000,12000,50,45,90,Long Island Jewish Medical Center
6.34,4.08,40.58549,-73.96558,NY,20000,12000,25,72,29,Coney Island Hospital
8.41,2.64,40.65189,-73.63096,NY,27000,7000,50,52,43,South Nassau Communities Hospital
7.63,3.41,40.65957,-73.93378,NY,25000,10000,25,77,95,Kingsbrook Jewish Medical Center
4.95,2.72,43.04139,-76.13803,NY,15000,7000,50,41,1,Crouse Hospital
5.33,4.55,40.74178,-73.98236,NY,17000,14000,50,63,24,Bellevue Hospital Center
6.73,3.17,40.96967,-73.88447,NY,21000,9000,50,75,85,St John'S Riverside Hospital
10.97,3.73,40.74335,-73.97408,NY,36000,11000,33,63,21,Nyu Hospitals Center
5.15,2.18,43.22952,-75.44361,NY,16000,5000,0,0,0,Rome Memorial Hospital Inc
4.26,2.47,43.45491,-76.51645,NY,13000,7000,0,0,0,Oswego Hospital
8.32,4.08,40.70419,-73.91754,NY,27000,12000,50,81,16,Wyckoff Heights Medical Center
5.39,2.11,43.08561,-73.79712,NY,17000,5000,50,58,29,Saratoga Hospital
5.92,2.96,40.59411,-73.65106,NY,19000,8000,0,0,0,Long Beach Medical Center
4.16,2.35,43.19054,-77.70177,NY,12000,6000,50,45,82,Unity Hospital Of Rochester
7.29,4.18,40.65533,-73.91221,NY,23000,13000,50,62,54,Brookdale Hospital Medical Center
15.98,4.06,41.08773,-73.80395,NY,54000,12000,50,42,63,Westchester Medical Center
6.20,3.67,40.66762,-73.97850,NY,20000,11000,33,55,29,New York Methodist Hospital
3.65,2.18,42.08997,-79.23058,NY,11000,6000,0,0,0,Woman'S Christian Association
7.85,3.77,43.04269,-76.14043,NY,25000,11000,66,41,3,University Hospital S U N Y Health Science Center
4.80,2.37,43.08176,-75.26587,NY,15000,6000,66,62,24,St Elizabeth Medical Center
6.42,3.03,44.70022,-73.47100,NY,20000,8000,50,55,0,Champlain Valley Physicians Hospital Medical Ctr
8.10,2.87,40.68896,-73.63259,NY,26000,8000,50,62,37,Mercy Medical Center
10.20,3.02,41.10880,-73.86355,NY,34000,8000,0,0,0,Phelps Memorial Hospital Assn
6.17,2.65,41.50307,-74.01517,NY,20000,7000,33,81,95,St Luke'S Cornwall Hospital
8.81,2.59,41.29201,-73.89529,NY,29000,7000,50,82,76,Hudson Valley Hospital Center
3.97,2.25,42.84782,-78.81264,NY,12000,6000,50,68,13,Mercy Hospital
3.45,3.09,43.12266,-77.62360,NY,10000,9000,50,55,21,Strong Memorial Hospital
12.56,2.83,40.69327,-73.29412,NY,42000,8000,50,70,74,Good Samaritan Hospital Medical Center
7.40,2.54,41.02614,-73.76978,NY,24000,7000,50,62,44,White Plains Hospital Center
3.97,4.02,40.64666,-74.02049,NY,12000,12000,50,67,5,Lutheran Medical Center
3.05,2.32,42.47286,-76.53849,NY,9000,6000,50,78,16,Cayuga Medical Center At Ithaca
6.91,2.82,40.83778,-73.85417,NY,22000,8000,50,66,16,New York Westchester Square Medical Center
10.34,2.72,40.77481,-73.47968,NY,34000,7000,50,56,20,Plainview Hospital
6.41,2.51,40.72593,-73.47844,NY,20000,7000,50,62,56,St Joseph Hospital
6.07,4.43,40.65508,-73.94521,NY,19000,13000,50,66,8,University Hospital Of Brooklyn ( Downstate )
7.98,3.12,40.72931,-73.85219,NY,26000,9000,50,55,13,Forest Hills Hospital
10.51,2.62,40.68104,-73.68633,NY,35000,7000,50,66,69,Franklin Hospital
5.45,2.90,41.70887,-74.73736,NY,17000,8000,0,0,0,Catskill Regional Medical Center
10.11,3.85,40.90922,-73.11520,NY,33000,11000,50,60,44,University Hospital ( Stony Brook )
4.78,2.47,42.11422,-75.95851,NY,15000,7000,66,48,92,United Health Services Hospitals Inc
6.81,4.32,40.59803,-73.75296,NY,22000,13000,50,63,7,St John'S Episcopal Hospital At South Shore
9.67,4.28,40.67816,-73.93768,NY,32000,13000,50,62,90,Interfaith Medical Center
9.42,4.81,40.85263,-73.89184,NY,31000,15000,50,62,44,St Barnabas Hospital
11.16,2.47,40.85738,-73.18681,NY,37000,7000,50,76,88,St Catherine Of Siena Hospital
4.73,2.61,35.43754,-80.60147,NC,14000,7000,66,65,16,Carolinas Medical Center-Northeast
4.82,2.47,35.57658,-82.54922,NC,15000,7000,66,40,81,Memorial Mission Hospital And Asheville Surgery Ce
4.72,2.25,35.95000,-80.00000,NC,14000,6000,50,66,39,High Point Regional Hospital
4.45,2.53,35.39772,-77.95250,NC,13000,7000,50,81,8,Wayne Memorial Hospital
6.32,2.43,35.36251,-81.96692,NC,20000,6000,0,0,0,Rutherford Hospital Inc
5.11,2.78,36.07581,-80.29779,NC,16000,8000,50,52,39,Forsyth Memorial Hospital
5.62,2.27,35.68172,-80.47072,NC,18000,6000,50,80,76,Rowan Regional Medical Center
4.40,2.25,35.38602,-83.20290,NC,13000,6000,0,0,0,Medwest Harris
4.63,2.25,35.32080,-82.46812,NC,14000,6000,0,0,0,Margaret R Pardee Memorial Hospital
6.85,2.21,35.46894,-79.18668,NC,22000,6000,50,77,21,Central Carolina Hospital
6.26,2.61,35.30288,-81.53571,NC,20000,7000,50,71,63,Cleveland Regional Medical Center
4.59,2.39,35.29053,-77.58307,NC,14000,6000,50,63,63,Lenoir Memorial Hospital
7.23,2.62,35.03156,-78.93205,NC,23000,7000,50,50,18,Cape Fear Valley Medical Center
9.17,3.68,36.00850,-78.94006,NC,30000,11000,66,43,76,Duke University Hospital
5.16,2.42,35.27341,-81.13688,NC,16000,6000,50,70,69,Gaston Memorial Hospital
6.45,2.22,35.79986,-80.87863,NC,20000,6000,50,62,95,Iredell Memorial Hospital Inc
6.68,3.07,35.60726,-77.40477,NC,21000,9000,50,46,1,Pitt County Memorial Hospital
6.85,2.55,34.76273,-77.38582,NC,22000,7000,50,58,17,Onslow Memorial Hospital
4.98,3.38,36.09062,-80.27161,NC,15000,10000,83,55,57,North Carolina Baptist Hospital
5.63,2.73,34.63723,-79.01213,NC,18000,7000,50,71,63,Southeastern Regional Medical Center
5.77,2.41,35.22196,-80.83287,NC,18000,6000,50,63,13,Presbyterian Hospital
4.16,2.33,36.49464,-79.73929,NC,12000,6000,0,0,0,Morehead Memorial Hospital
5.85,3.77,35.90529,-79.04963,NC,18000,11000,66,41,1,University Of North Carolina Hospital
7.22,2.65,35.78523,-78.58836,NC,23000,7000,33,50,79,Wakemed Raleigh Campus
3.97,2.34,36.06347,-79.50208,NC,12000,6000,33,60,16,Alamance Regional Medical Center
6.54,2.20,35.82915,-78.61922,NC,21000,6000,50,81,79,Duke Health Raleigh Hospital
7.05,2.34,35.72399,-81.65874,NC,23000,6000,0,0,0,Grace Hospital Inc
7.26,2.49,35.50624,-78.32511,NC,23000,7000,50,55,24,Johnston Memorial Hospital
4.65,2.58,36.09251,-79.78855,NC,14000,7000,66,66,51,Moses H Cone Memorial Hospital The
7.13,2.43,35.21029,-80.82084,NC,23000,6000,50,53,51,Carolinas Med Center-Mercy
6.48,2.92,35.20397,-80.83908,NC,21000,8000,66,63,24,Carolinas Medical Center/Behav Health
6.20,2.28,35.81801,-78.70283,NC,20000,6000,50,65,54,Rex Hospital
4.72,2.41,35.20554,-79.45645,NC,14000,6000,66,60,44,Firsthealth Moore Regional Hospital
10.20,2.24,35.73751,-81.33702,NC,34000,6000,50,67,17,Frye Regional Medical Center
7.19,2.44,35.71850,-77.94518,NC,23000,6000,50,68,88,Wilson Medical Center
4.23,2.45,34.97382,-80.52250,NC,13000,6000,50,68,69,Carolinas Medical Center-Union
5.01,2.73,35.11420,-77.06568,NC,15000,7000,33,73,90,Carolina East Medical Center
4.66,2.57,34.23786,-77.94764,NC,14000,7000,83,70,57,New Hanover Regional Medical Center
5.43,2.63,35.97538,-77.85012,NC,17000,7000,50,65,13,Nash General Hospital
5.50,2.52,36.04960,-78.90617,NC,17000,7000,50,51,69,Durham Regional Hospital
6.28,2.33,35.30611,-80.74708,NC,20000,6000,50,75,42,Carolinas Med Ctr-University
4.66,2.20,35.11432,-80.71971,NC,14000,6000,0,0,0,Presbyterian Hospital Matthews
7.97,2.38,35.74046,-78.78127,NC,26000,6000,50,72,13,Wakemed Cary Hospital
4.55,2.20,35.40634,-80.86005,NC,14000,6000,0,0,0,Presbyterian Hospital Huntersville
3.40,2.32,48.23258,-101.28843,ND,10000,6000,50,72,48,Trinity Hospitals
3.84,2.43,46.88496,-96.78609,ND,11000,6000,66,61,48,Sanford Medical Center Fargo
3.13,2.44,46.80798,-100.78229,ND,9000,6000,50,77,5,Medcenter One
3.73,2.49,47.91045,-97.06742,ND,11000,7000,83,53,1,Altru Hospital
4.18,2.30,46.83250,-96.82805,ND,13000,6000,33,77,20,Essentia Health-Fargo
4.95,2.22,39.08582,-84.34886,OH,15000,6000,50,72,85,Mercy Hospital Anderson
6.06,3.47,39.13707,-84.50392,OH,19000,10000,66,45,21,University Hospital Inc
6.89,2.46,40.03064,-83.03440,OH,22000,6000,83,71,21,Riverside Methodist Hospital
5.08,2.54,38.75320,-82.97800,OH,16000,7000,50,61,69,Southern Ohio Medical Center
5.12,2.12,40.73578,-84.08630,OH,16000,5000,75,61,13,Lima Memorial Health System
2.93,2.14,40.51393,-81.45644,OH,8000,5000,0,0,0,Union Hospital
5.35,2.35,40.57098,-83.12972,OH,17000,6000,50,91,48,Marion General Hospital
3.99,2.38,40.11479,-82.94677,OH,12000,6000,50,66,12,Mount Carmel St Ann'S Hospital
6.69,2.67,39.20680,-84.38093,OH,21000,7000,50,76,94,Jewish Hospital Llc
8.93,2.87,39.96098,-82.99077,OH,29000,8000,66,78,21,Grant Medical Center
8.75,2.38,41.01476,-81.58913,OH,29000,6000,50,77,43,Summa Health System Barberton Hospital
7.53,2.55,41.08161,-81.50007,OH,24000,7000,66,63,33,Summa Health Systems Hospitals
5.07,2.26,41.44642,-82.70864,OH,16000,6000,50,86,18,Firelands Regional Medical Center
6.82,2.50,41.07747,-81.53042,OH,22000,7000,66,70,63,Akron General Medical Center
4.61,2.46,39.95805,-83.02191,OH,14000,6000,66,42,1,Mount Carmel Health
4.97,2.29,39.97510,-82.01812,OH,15000,6000,50,78,92,Genesis Healthcare System
4.36,2.12,41.38265,-81.73127,OH,13000,5000,50,75,94,Parma Community General Hospital
9.87,3.28,41.61788,-83.61632,OH,33000,9000,66,68,6,University Of Toledo Medical Center
10.05,2.60,39.74547,-84.18523,OH,33000,7000,66,45,1,Miami Valley Hospital
9.88,2.43,39.78778,-84.23493,OH,33000,6000,66,56,16,Good Samaritan Hospital
4.03,2.24,38.84439,-82.23902,OH,12000,6000,0,0,0,Holzer Medical Center
7.69,2.18,41.23549,-80.79865,OH,25000,5000,66,56,0,Trumbull Memorial Hospital
5.12,2.20,39.31257,-84.51774,OH,16000,6000,50,90,69,Mercy Hospital Fairfield
5.37,3.34,41.46088,-81.69763,OH,17000,10000,50,60,24,Metro Health Medical Center
4.59,2.32,41.11441,-80.65565,OH,14000,6000,83,48,21,St Elizabeth Health Center
7.23,2.21,40.74115,-84.11804,OH,23000,6000,66,73,6,St Rita'S Medical Center
11.25,2.44,41.67775,-83.59589,OH,37000,6000,33,70,57,Toledo Hospital The
2.75,2.26,40.81219,-81.39625,OH,8000,6000,50,62,43,Mercy Medical Center
5.40,2.29,39.71750,-82.57772,OH,17000,6000,50,82,90,Fairfield Medical Center
5.75,2.80,41.58130,-81.48979,OH,18000,8000,0,0,0,Uhhs Richmond Heights Hospital
6.97,2.36,41.45013,-81.82397,OH,22000,6000,66,60,18,Fairview Hospital
4.75,2.53,41.17554,-81.24915,OH,15000,7000,50,76,37,Robinson Memorial Hospital
7.28,2.49,39.69724,-84.19232,OH,23000,7000,66,80,57,Kettering Medical Center
8.16,2.31,41.63639,-83.48640,OH,27000,6000,50,83,56,Mercy St Charles Hospital
3.57,2.30,40.79609,-81.40360,OH,10000,6000,50,63,17,Aultman Hospital
9.25,3.15,39.99445,-83.01872,OH,30000,9000,66,50,2,Ohio State University Hospitals
6.72,2.36,39.92755,-83.81573,OH,21000,6000,50,67,48,Springfield Regional Medical Center
4.07,2.16,41.55725,-83.68141,OH,12000,5000,50,65,85,St Luke'S Hospital
3.26,2.21,40.62149,-80.58651,OH,9000,6000,0,0,0,East Liverpool City Hospital
6.50,2.07,41.66317,-81.24696,OH,21000,5000,50,73,39,Lake Health
9.15,3.10,41.66810,-83.54275,OH,30000,9000,50,70,5,Mercy St Vincent Medical Center
5.25,2.07,41.39496,-81.53484,OH,16000,5000,0,0,0,Uhhs Bedford Medical Center
4.55,2.16,40.75264,-82.52803,OH,14000,5000,83,81,92,Medcentral Health System
4.62,2.27,41.43653,-81.94451,OH,14000,6000,50,72,76,St John Medical Center
9.28,2.70,39.76950,-84.20285,OH,30000,7000,66,65,90,Grandview Hospital & Medical Center
6.30,2.63,39.13975,-84.52173,OH,20000,7000,66,83,69,Good Samaritan Hospital
7.71,3.25,41.50772,-81.60592,OH,25000,9000,83,46,44,University Hospitals Of Cleveland
7.33,2.08,41.42112,-81.59808,OH,24000,5000,50,82,21,Marymount Hospital
5.88,2.42,41.44829,-81.53736,OH,18000,6000,50,81,21,South Pointe Hospital
4.80,2.16,41.36649,-82.09708,OH,15000,5000,66,75,98,Emh Regional Medical Center
5.81,2.12,39.43061,-81.46454,OH,18000,5000,50,71,99,Marietta Memorial Hospital
8.06,2.11,41.37028,-81.83189,OH,26000,5000,50,71,74,Southwest General Health Center
4.49,2.39,39.39463,-82.96979,OH,14000,6000,50,50,24,Adena Regional Medical Center
6.93,2.29,41.23046,-80.77749,OH,22000,6000,50,76,24,St Joseph Health Center
6.31,2.54,39.12105,-84.51059,OH,20000,7000,83,46,88,Christ Hospital
5.54,2.22,41.43688,-82.23761,OH,17000,6000,50,82,69,Mercy Regional Medical Center
8.27,2.23,40.08748,-84.22920,OH,27000,6000,33,82,54,Upper Valley Medical Center
7.53,2.31,39.25076,-84.34341,OH,24000,6000,50,62,99,Bethesda North Hospital
6.98,2.74,41.50248,-81.62110,OH,22000,7000,33,32,24,Cleveland Clinic
3.43,2.18,40.35601,-80.62502,OH,10000,6000,50,81,63,Trinity Medical Ctr East&Trinity Medical Ctr West
6.75,2.22,41.48479,-81.79649,OH,22000,6000,50,67,69,Lakewood Hospital
5.53,2.14,41.52013,-81.43291,OH,17000,5000,66,45,37,Hillcrest Hospital
5.19,2.64,39.08023,-84.14459,OH,16000,7000,50,78,81,Mercy Hospital Clermont
9.76,2.32,39.63778,-84.24864,OH,32000,6000,50,82,24,Kettering Medical Center - Sycamore
4.84,2.12,40.99498,-80.66192,OH,15000,5000,50,70,29,St Elizabeth Boardman Health Center
6.20,2.12,39.35830,-84.36785,OH,20000,5000,50,93,57,West Chester Medical Center
9.17,3.10,36.14687,-95.96841,OK,30000,9000,83,76,32,Hillcrest Medical Center
7.36,2.27,35.22999,-97.44074,OK,24000,6000,50,73,21,Norman Regional Health System
7.66,2.19,35.60735,-97.59693,OK,25000,6000,66,51,6,Mercy Health Center Inc
7.17,2.08,36.39385,-97.87094,OK,23000,5000,50,77,63,St Mary'S Regional Medical Center
11.25,2.69,35.52960,-97.57496,OK,37000,7000,100,76,90,Integris Baptist Medical Center
8.94,2.28,35.52531,-97.58461,OK,29000,6000,75,76,48,Deaconess Hospital
5.84,2.76,35.47800,-97.52352,OK,18000,8000,66,58,33,St Anthony Hospital
6.24,2.33,34.18908,-97.14128,OK,20000,6000,50,51,24,Mercy Memorial Health Center
4.72,2.20,36.11501,-97.07438,OK,14000,6000,0,0,0,Stillwater Medical Center
6.32,2.22,34.60992,-98.43419,OK,20000,6000,50,62,48,Comanche County Memorial Hospital
5.78,2.93,36.14675,-95.99969,OK,18000,8000,50,75,5,Oklahoma State University Medical Center
5.14,2.35,36.06135,-95.95154,OK,16000,6000,83,61,44,Saint Francis Hospital Inc
10.03,3.06,35.48138,-97.49624,OK,33000,9000,66,45,1,O U Medical Center
10.59,2.15,35.46721,-97.39370,OK,35000,5000,50,76,92,Midwest Regional Medical Center
10.35,2.46,35.42168,-97.53306,OK,34000,6000,66,70,24,Integris Southwest Medical Center
4.43,2.26,36.13393,-95.96718,OK,13000,6000,50,51,11,St John Medical Center Inc
8.40,2.43,36.03590,-95.86511,OK,27000,6000,50,60,29,Southcrest Hospital
6.38,2.53,45.50973,-122.77368,OR,20000,7000,33,55,13,Providence St Vincent Medical Center
4.93,3.38,45.49956,-122.68802,OR,15000,10000,66,47,6,Ohsu Hospital And Clinics
6.32,2.91,45.53028,-122.69692,OR,20000,8000,50,93,39,Legacy Good Samaritan Medical Center
8.85,2.44,42.31769,-122.83333,OR,29000,6000,66,61,90,Rogue Valley Medical Center
7.88,2.40,44.06773,-121.26817,OR,26000,6000,66,70,37,St Charles Medical Center - Bend
5.00,2.57,44.93267,-123.03418,OR,15000,7000,66,72,24,Salem Hospital
4.27,2.55,45.52677,-122.61469,OR,13000,7000,66,75,0,Providence Portland Medical Center
6.07,2.30,42.34086,-122.86108,OR,19000,6000,50,61,54,Providence Medford Medical Center
7.68,2.32,45.37908,-122.74083,OR,25000,6000,50,81,54,Legacy Meridian Park Medical Center
7.07,3.07,43.38402,-124.23280,OR,23000,9000,0,0,0,Bay Area Hospital
5.59,2.75,44.08146,-123.02694,OR,17000,8000,50,60,24,Sacred Heart Medical Center - Riverbend
8.53,2.27,41.40075,-75.64594,PA,28000,6000,50,77,94,Community Medical Center
5.52,2.71,40.35127,-79.84949,PA,17000,7000,50,55,57,Upmc Mckeesport
6.52,2.13,40.25296,-76.92151,PA,21000,5000,83,85,95,Holy Spirit Hospital
10.82,3.33,40.96789,-76.60506,PA,36000,10000,33,56,13,Geisinger Medical Center
7.93,2.44,42.11102,-80.07912,PA,26000,6000,50,72,57,Saint Vincent Health Center
7.85,2.21,40.25092,-75.27204,PA,25000,6000,50,81,76,Lansdale Hospital
14.74,2.46,40.07880,-75.21107,PA,50000,7000,50,70,37,Chestnut Hill Hospital
27.86,4.23,40.00504,-75.15155,PA,96000,13000,83,57,33,Temple University Hospital
7.96,3.09,40.43609,-79.98537,PA,26000,9000,83,61,8,Upmc Mercy
3.82,2.33,40.68423,-76.18761,PA,11000,6000,0,0,0,Schuylkill Medical Center - South Jackson Street
4.75,2.08,40.69101,-76.18682,PA,15000,5000,0,0,0,Schuylkill Medical Center - East Norwegian Street
4.59,2.20,40.65191,-79.72877,PA,14000,6000,50,71,79,Alle Kiski Medical Center
3.29,2.21,40.71251,-80.32136,PA,9000,6000,33,66,48,Heritage Valley Beaver
4.67,2.46,40.18302,-80.24767,PA,14000,6000,50,76,94,Washington Hospital The
6.61,2.64,40.33271,-75.95020,PA,21000,7000,50,67,21,Reading Hospital Medical Center
5.19,2.33,41.24548,-77.01438,PA,16000,6000,50,57,37,Williamsport Regional Medical Center
4.67,2.77,39.94604,-76.71884,PA,14000,8000,66,45,8,York Hospital
10.38,2.61,40.60811,-75.39260,PA,34000,7000,66,53,57,St Luke'S Hospital Bethlehem
7.53,2.92,40.45705,-80.00363,PA,24000,8000,83,70,44,Allegheny General Hospital
11.19,2.35,40.36358,-75.32621,PA,37000,6000,50,53,43,Grand View Hospital
10.88,2.28,42.13338,-80.08703,PA,36000,6000,66,50,33,Upmc Hamot
8.02,2.28,40.32799,-76.44588,PA,26000,6000,50,58,69,Good Samaritan Hospital
5.15,2.70,40.25661,-76.87572,PA,16000,7000,83,47,0,Pinnacle Health Hospitals
5.48,2.20,40.52204,-78.39824,PA,17000,6000,83,61,39,Altoona Regional Health System
16.14,2.35,40.00955,-75.78622,PA,55000,6000,50,73,63,Brandywine Hospital
5.04,2.49,41.98012,-76.52072,PA,16000,7000,50,65,48,Robert Packer Hospital
13.84,2.39,40.06986,-75.08748,PA,46000,6000,50,78,54,Jeanes Hospital
3.32,2.27,41.11492,-78.77515,PA,10000,6000,50,76,43,Dubois Regional Medical Center
3.17,2.01,41.36116,-79.70065,PA,9000,5000,0,0,0,Upmc Northwest
6.99,2.52,40.37587,-75.97750,PA,22000,7000,50,70,51,St Joseph Medical Center
16.55,2.42,40.11139,-75.09250,PA,56000,6000,50,72,69,Holy Redeemer Hospital And Medical Center
6.00,2.43,40.04740,-76.30540,PA,19000,6000,66,60,82,Lancaster General Hospital
4.41,2.53,39.96260,-76.72774,PA,13000,7000,50,76,29,Memorial Hospital York
6.43,2.58,40.48928,-79.89596,PA,20000,7000,50,72,63,Upmc St Margaret
6.62,2.04,40.57319,-80.01455,PA,21000,5000,50,57,48,Upmc Passavant
4.30,2.47,40.32674,-78.92197,PA,13000,7000,50,61,3,Conemaugh Valley Memorial Hospital
15.89,3.64,39.95045,-75.19259,PA,54000,11000,50,33,39,Hospital Of Univ Of Pennsylvania
8.86,2.81,40.43754,-79.96040,PA,29000,8000,66,57,57,Magee Womens Hospital Of Upmc Health System
9.19,2.69,40.07160,-74.98341,PA,30000,7000,33,67,5,Aria Health
11.93,2.87,40.13916,-75.31510,PA,40000,8000,50,75,17,Mercy Suburban Hospital
9.10,2.37,41.41107,-75.65091,PA,30000,6000,50,67,51,Moses Taylor Hospital
14.93,2.39,40.24397,-75.61364,PA,50000,6000,50,83,48,Pottstown Memorial Medical Center
15.24,2.28,40.12344,-75.51493,PA,51000,6000,50,62,12,Phoenixville Hospital
9.29,2.69,40.60000,-75.47000,PA,30000,7000,66,58,54,Lehigh Valley Hospital
6.31,2.24,41.25860,-75.86729,PA,20000,6000,50,60,79,Wilkes-Barre General Hospital
13.20,2.43,40.01883,-75.32115,PA,44000,6000,50,71,85,Main Line Hospital Bryn Mawr Campus
9.63,3.96,40.03678,-75.14351,PA,32000,12000,66,62,4,Albert Einstein Medical Center
4.54,2.12,40.30103,-79.55505,PA,14000,5000,66,80,17,Excela Health Westmoreland Regional Hospital
5.84,2.49,39.93492,-77.64744,PA,18000,7000,50,58,48,Chambersburg Hospital
10.46,2.27,40.04475,-75.50425,PA,35000,6000,50,71,20,Main Line Hospital Paoli
