size_charge,size_pay,lat,lon,state,charge,pay,AcquiredInfect,AcquiredConditions,PatientSafetySummary,name
5.89,2.30,31.21673,-85.36307,AL,80000,22000,50,51,21,Southeast Alabama Medical Center
5.35,2.18,34.80175,-87.67514,AL,71000,20000,50,65,2,Eliza Coffee Memorial Hospital
3.69,2.24,33.59616,-86.66750,AL,44000,21000,66,78,1,St Vincent'S East
5.41,2.28,33.25607,-86.81035,AL,72000,21000,83,70,63,Shelby Baptist Medical Center
3.84,2.23,34.74649,-87.69895,AL,47000,20000,50,91,33,Helen Keller Memorial Hospital
5.19,2.46,32.32785,-86.27750,AL,69000,24000,50,67,54,Baptist Medical Center South
6.33,2.16,32.36656,-86.28572,AL,87000,19000,50,68,82,Jackson Hospital & Clinic Inc
2.27,2.29,32.63806,-85.40413,AL,21000,22000,50,80,13,East Alabama Medical Center And Snf
6.21,2.68,33.50619,-86.80210,AL,85000,28000,66,45,11,University Of Alabama Hospital
4.52,2.18,34.20768,-86.87489,AL,58000,20000,50,63,79,Cullman Regional Medical Center
8.64,2.45,34.72007,-86.58108,AL,125000,24000,50,65,44,Huntsville Hospital
8.04,2.20,34.00941,-85.97078,AL,115000,20000,66,67,27,Gadsden Regional Medical Center
5.54,2.18,31.23767,-85.45625,AL,74000,20000,50,55,79,Flowers Hospital
4.00,2.14,33.50734,-86.78958,AL,49000,19000,50,72,21,St Vincent'S Birmingham
2.36,2.22,32.94573,-85.98570,AL,23000,20000,50,71,5,Russell Hospital
4.59,2.28,33.83218,-87.30385,AL,59000,21000,50,78,95,Walker Baptist Medical Center
4.05,2.36,30.68199,-88.19897,AL,50000,23000,83,86,0,Providence Hospital
5.05,2.36,33.20521,-87.52546,AL,66000,23000,66,66,21,D C H Regional Medical Center
7.83,2.28,33.49854,-86.84633,AL,111000,21000,66,70,8,Baptist Medical Center-Princeton
7.91,2.25,33.51420,-86.74859,AL,113000,21000,66,27,11,Trinity Medical Center
3.35,2.17,30.69697,-88.08081,AL,39000,20000,66,55,24,Mobile Infirmary
9.13,2.22,34.69279,-86.57179,AL,132000,20000,50,77,33,Crestwood Medical Center
5.83,2.12,33.46420,-86.77409,AL,79000,19000,50,65,29,Brookwood Medical Center
5.52,2.20,30.68546,-88.13170,AL,74000,20000,50,81,6,Springhill Medical Center
5.09,2.49,33.23361,-87.57125,AL,67000,25000,0,0,0,Northport Medical Center
3.80,2.27,34.49384,-87.72713,AL,46000,21000,0,0,0,Russellville Hospital
4.44,2.33,32.50808,-85.00867,AL,56000,22000,0,0,0,Jack Hughston Memorial Hospital
5.86,3.07,60.94901,-149.17033,AK,79000,34000,50,81,90,Providence Alaska Medical Center
10.38,3.43,61.21082,-149.82866,AK,153000,40000,50,90,43,Alaska Regional Hospital
6.10,3.84,61.18268,-149.79897,AK,83000,47000,0,0,0,Alaska Native Medical Center
7.31,2.85,33.46514,-112.05797,AZ,103000,31000,50,48,69,Banner Good Samaritan Medical Center
5.65,2.57,32.25294,-110.88135,AZ,76000,26000,50,48,3,Tucson Medical Center
6.02,2.47,32.22734,-111.00065,AZ,82000,24000,33,75,63,Carondelet St  Marys Hospital
6.62,2.37,32.22685,-110.85520,AZ,92000,23000,66,55,21,Carondelet St Josephs Hospital
8.27,2.73,34.56017,-112.48217,AZ,118000,29000,25,67,17,Yavapai Regional Medical Center
7.38,2.59,32.68274,-114.63506,AZ,104000,26000,50,63,69,Yuma Regional Medical Center
12.11,2.66,33.56894,-112.07108,AZ,181000,28000,50,80,16,John C Lincoln North Mountain Hospital
4.94,3.48,35.20923,-111.64486,AZ,65000,41000,66,78,88,Flagstaff Medical Center
11.08,3.13,33.48073,-112.07948,AZ,164000,35000,33,52,11,St Joseph'S Hospital And Medical Center
7.38,2.54,33.48885,-111.92387,AZ,104000,26000,66,76,54,Scottsdale Healthcare-Osborn Medical Center
6.74,2.34,33.60432,-112.28378,AZ,94000,22000,83,75,95,Banner Boswell Medical Center
14.74,3.55,32.24152,-110.94631,AZ,224000,42000,50,37,39,University Of Arizona Medical Ctr-Universit The
5.99,2.68,33.39097,-111.87638,AZ,81000,28000,66,80,56,Banner Desert Medical Center
7.61,2.51,34.47988,-114.33938,AZ,108000,25000,50,70,56,Havasu Regional Medical Center
7.63,2.39,32.32103,-111.01102,AZ,108000,23000,50,71,20,Northwest Medical Center
6.58,2.47,33.58235,-111.88527,AZ,91000,24000,66,68,63,Scottsdale Healthcare-Shea Medical Center
8.54,2.94,33.60949,-112.18129,AZ,123000,32000,66,73,76,Banner Thunderbird Medical Center
4.82,2.79,33.65947,-111.95626,AZ,62000,30000,66,53,95,Mayo Clinic Hospital
4.36,2.31,33.38006,-111.73470,AZ,55000,22000,0,0,0,Arizona Spine And Joint Hospital
4.16,2.31,33.53218,-112.09949,AZ,52000,22000,0,0,0,Surgical Specialty Hospital Of Arizona
11.66,2.59,33.28686,-111.75246,AZ,173000,26000,50,63,63,Mercy Gilbert Medical Center
9.70,2.57,33.39128,-111.61125,AZ,142000,26000,50,60,11,Mountain Vista Medical Center Lp
6.45,2.40,33.67102,-111.92184,AZ,89000,23000,50,88,92,Scottsdale Healthcare-Thompson Peak Hospital
5.41,2.40,36.10940,-94.16036,AR,72000,23000,33,77,74,Washington Regional Med Ctr At North Hills
5.07,2.39,34.75031,-92.33897,AR,67000,23000,66,63,82,St Vincent Infirmary Medical Center
4.14,2.26,36.31007,-94.18471,AR,52000,21000,50,67,44,Mercy Medical Center
4.94,2.77,34.74866,-92.35422,AR,65000,29000,50,51,33,Uams Medical Center
3.51,2.44,35.83746,-90.70386,AR,41000,24000,50,75,2,St Bernards Medical Ctr
9.04,2.59,36.18082,-94.13644,AR,131000,26000,50,68,29,Nw Arkansas Hospitals Llc
4.93,2.36,34.46784,-93.06667,AR,64000,23000,66,66,85,St Josephs Mercy Health Center Inc
3.50,2.23,36.34295,-92.39442,AR,41000,21000,50,65,57,Baxter Regional Medical Center
3.55,2.28,34.77770,-92.12539,AR,42000,21000,50,60,13,Baptist Health Medical Center North Little Rock
7.95,2.60,35.37445,-94.41868,AR,113000,26000,50,53,85,Sparks Regional Medical Center
5.82,2.33,35.35395,-94.35262,AR,79000,22000,50,66,11,St Edward Mercy Medical Center
5.19,2.41,34.74866,-92.35422,AR,69000,23000,50,43,21,Baptist Health Medical Center-Little Rock
4.48,2.42,35.80838,-90.66658,AR,57000,24000,50,57,69,Nea Baptist Memorial Hospital
5.24,2.22,34.81290,-92.20814,AR,69000,20000,0,0,0,St Vincent Medical Center/North
2.99,2.18,34.80457,-92.35122,AR,33000,20000,0,0,0,Arkansas Surgical Hospital
5.74,2.16,36.12133,-94.13407,AR,77000,19000,0,0,0,Physicians' Specialty Hospital
10.28,3.28,40.78366,-124.14246,CA,151000,38000,50,63,63,St Joseph Hospital
7.67,3.02,37.76862,-122.43525,CA,109000,33000,50,50,74,California Pacific Medical Ctr-Davies Campus Hosp
13.13,2.97,38.32472,-122.29671,CA,197000,33000,50,72,82,Queen Of The Valley Medical Center
15.74,3.02,38.57053,-121.45216,CA,240000,33000,83,53,27,Mercy General Hospital
8.83,3.18,33.97659,-117.38184,CA,128000,36000,50,65,57,Riverside Community Hospital
7.96,3.52,32.75426,-117.16592,CA,113000,41000,50,72,69,University Of California San Diego Medical Center
10.13,2.80,32.77495,-117.01467,CA,149000,30000,83,71,33,Grossmont Hospital
9.06,2.74,35.38736,-119.01690,CA,131000,29000,33,85,79,Bakersfield Memorial Hospital
7.83,2.60,39.74221,-121.85000,CA,111000,27000,83,71,48,Enloe Medical Center
11.40,3.19,34.67486,-118.15771,CA,169000,36000,50,67,44,Antelope Valley Hospital Med Center
7.10,2.86,36.32737,-119.29548,CA,100000,31000,50,56,12,Kaweah Delta Medical Center
8.04,3.26,36.73000,-119.78000,CA,115000,37000,50,71,0,Community Regional Medical Center
8.44,2.83,33.78036,-117.86495,CA,121000,30000,50,60,88,St Joseph Hospital
11.25,3.27,32.75143,-117.16083,CA,167000,37000,33,62,69,Scripps Mercy Hospital
9.12,2.98,37.96987,-121.28873,CA,132000,33000,83,68,97,St Josephs Med Center Of Stockton
8.36,2.71,36.83532,-119.76562,CA,120000,28000,50,66,57,Saint Agnes Medical Center
6.98,2.58,34.10130,-117.63651,CA,98000,26000,50,66,85,San Antonio Community Hospital
8.84,2.79,32.79949,-117.15394,CA,128000,30000,66,62,11,Sharp Memorial Hospital
15.00,3.49,34.04932,-118.21746,CA,228000,41000,25,73,98,White Memorial Medical Center
13.35,2.86,34.95099,-120.41322,CA,201000,31000,50,93,48,Marian Medical Center
9.65,3.10,38.57155,-121.46874,CA,141000,35000,83,77,79,Sutter General Hospital
6.00,2.76,34.02685,-118.48651,CA,82000,29000,50,76,21,Santa Monica - Ucla Med Ctr & Orthopaedic Hospital
6.37,2.57,33.12535,-117.07336,CA,88000,26000,50,55,69,Palomar Medical Center
19.74,3.41,34.22014,-118.53410,CA,305000,40000,33,56,44,Northridge Hospital Medical Center
12.04,2.84,37.96125,-121.30103,CA,180000,30000,50,48,9,Dameron Hospital
13.44,3.02,33.18402,-117.29661,CA,202000,33000,50,57,21,Tri-City Medical Center
7.52,2.91,34.13495,-117.27603,CA,106000,32000,50,66,48,St Bernardine Medical Center
5.52,2.87,34.09816,-118.29541,CA,74000,31000,83,62,85,Kaiser Foundation Hospital - Los Angeles
7.77,2.94,36.57886,-121.91316,CA,110000,32000,66,56,57,Community Hospital Of The Monterey Peninsula
15.88,3.52,37.78963,-122.41700,CA,242000,41000,75,70,29,Saint Francis Memorial Hospital
9.11,2.57,33.89465,-117.92716,CA,132000,26000,66,71,90,St Jude Medical Center
18.40,2.70,33.96860,-118.04831,CA,283000,28000,50,46,16,Presbyterian Intercommunity Hospital
18.25,3.19,38.44369,-122.70138,CA,281000,36000,66,86,57,Santa Rosa Memorial Hospital
15.42,3.22,37.91341,-122.04163,CA,235000,37000,50,62,33,John Muir Medical Center - Walnut Creek Campus
19.26,3.53,37.55717,-121.98126,CA,297000,42000,50,53,88,Washington Hospital
8.90,2.73,33.62229,-117.92995,CA,129000,29000,50,70,51,Hoag Memorial Hospital Presbyterian
10.13,3.14,34.07709,-117.75063,CA,149000,35000,33,73,97,Pomona Valley Hospital Medical Center
12.14,2.82,34.15601,-118.32834,CA,181000,30000,50,80,97,Providence Saint Joseph Medical Ctr
8.99,2.78,34.13973,-118.03534,CA,130000,29000,50,45,10,Methodist Hospital Of Southern Ca
15.37,3.20,36.98999,-121.98357,CA,234000,36000,50,63,63,Dominican Hospital
5.93,2.61,34.03721,-117.20474,CA,81000,27000,50,92,69,Redlands Community Hospital
9.32,2.92,40.58654,-122.39168,CA,136000,32000,83,71,44,Mercy Medical Center Redding
11.09,2.97,37.69502,-121.88095,CA,164000,32000,50,71,82,Valleycare Medical Center
11.79,3.20,37.67947,-122.47447,CA,176000,36000,50,62,24,Seton Medical Center
6.71,2.48,34.03009,-118.47833,CA,93000,25000,50,81,76,Saint John'S Health Center
10.32,3.28,33.91173,-117.19590,CA,152000,38000,50,77,52,Riverside County Regional Medical Center
13.00,2.84,35.37279,-119.02817,CA,195000,30000,50,70,82,Mercy Hospital
7.83,2.75,34.50107,-117.17285,CA,111000,29000,50,87,20,St Mary Medical Center
9.12,3.42,37.85593,-122.25730,CA,132000,40000,50,56,8,Alta Bates Summit Medical Center - Alta Bates Camp
14.48,2.98,37.36934,-122.08047,CA,219000,33000,66,48,6,El Camino Hospital
11.20,2.81,38.76514,-121.24979,CA,166000,30000,66,77,16,Sutter Roseville Medical Center
12.25,2.72,32.88461,-117.22244,CA,183000,28000,50,63,29,Scripps Memorial Hospital La Jolla
8.69,3.39,34.05076,-117.26395,CA,125000,39000,50,55,16,Loma Linda University Medical Center
7.18,3.21,36.65910,-121.64630,CA,101000,36000,50,70,37,Salinas Valley Memorial Hospital
17.17,3.98,33.78798,-117.89026,CA,263000,49000,66,56,11,University Of California Irvine Med Center
6.41,2.58,33.81131,-118.34364,CA,88000,26000,66,67,88,Torrance Memorial Medical Center
7.40,2.67,33.83891,-118.35677,CA,104000,28000,50,86,94,Providence Little Company Of Mary Med Ctr Torrance
14.53,3.02,37.94748,-122.53677,CA,220000,33000,50,63,16,Marin General Hospital
14.83,3.19,37.25153,-121.94684,CA,225000,36000,33,63,3,Good Samaritan Hospital
6.77,2.97,38.39711,-122.81924,CA,94000,32000,0,0,0,Palm Drive Hospital
11.08,2.60,34.27459,-119.25812,CA,164000,26000,50,53,8,Community Memorial Hospital San Buenaventura
10.64,2.77,34.42951,-119.72333,CA,157000,29000,66,72,32,Santa Barbara Cottage Hospital
10.40,2.80,32.89810,-117.24217,CA,153000,30000,50,75,37,Scripps Green Hospital
6.92,2.69,38.60127,-121.39412,CA,97000,28000,66,67,82,Kaiser Foundation Hospital - Sacramento
7.79,2.78,34.13364,-118.15275,CA,111000,29000,66,65,57,Huntington Memorial Hospital
14.40,4.02,37.43436,-122.18013,CA,218000,50000,50,58,27,Stanford Hospital
10.76,4.02,37.76421,-122.45716,CA,159000,49000,66,52,90,Ucsf Medical Center
11.49,2.76,35.38338,-119.01969,CA,171000,29000,33,86,6,San Joaquin Community Hospital
14.74,3.34,37.77449,-122.45429,CA,223000,39000,50,87,3,St Mary'S Medical Center
14.30,3.05,37.66540,-120.99743,CA,216000,34000,66,66,9,Doctors Medical Center
9.37,3.21,34.05336,-118.26558,CA,136000,36000,50,68,79,Good Samaritan Hospital
12.95,2.53,34.20285,-118.62962,CA,195000,25000,50,61,13,West Hills Hospital & Medical Center
7.45,2.93,33.80861,-118.18661,CA,105000,32000,66,65,27,Long Beach Memorial Medical Center
8.43,3.12,37.69824,-122.08730,CA,121000,35000,66,61,54,Eden Medical Center
15.89,2.98,37.98396,-122.03464,CA,242000,33000,50,76,97,John Muir Medical Center - Concord Campus
11.95,3.17,34.06389,-118.27347,CA,178000,36000,50,80,98,Saint Vincent Medical Center
16.20,4.05,33.03634,-117.28487,CA,247000,50000,50,65,5,Scripps Memorial Hospital - Encinitas
12.17,2.77,35.29188,-120.66635,CA,182000,29000,50,86,81,Sierra Vista Regional Medical Center
11.77,2.86,34.20777,-118.88305,CA,175000,31000,50,51,69,Los Robles Hospital & Medical Center
9.52,2.66,33.56100,-117.66530,CA,139000,27000,66,58,12,Mission Hospital Regional Med Center
12.01,3.19,33.71466,-117.93322,CA,179000,36000,50,86,33,Fountain Valley Regional Hospital & Medical Center
11.02,2.46,33.76335,-116.40628,CA,163000,24000,50,56,39,Eisenhower Medical Center
17.60,3.79,38.55484,-121.45628,CA,270000,46000,50,50,3,University Of California Davis Medical Center
6.25,2.48,33.60883,-117.70881,CA,86000,25000,50,70,90,Saddleback Memorial Medical Center
9.86,2.62,34.39755,-118.55330,CA,144000,27000,50,60,21,Henry Mayo Newhall Memorial Hospital
13.68,3.09,34.07664,-118.37955,CA,206000,34000,100,58,48,Cedars-Sinai Medical Center
9.77,2.64,33.70167,-117.95566,CA,143000,27000,50,82,88,Orange Coast Memorial Medical Center
9.83,2.92,37.77577,-121.95824,CA,144000,32000,50,66,3,San Ramon Regional Medical Ctr
17.09,3.22,34.06193,-118.20157,CA,262000,37000,33,71,3,Keck Hospital Of Usc
7.73,2.67,33.55876,-117.18329,CA,110000,28000,66,73,74,Southwest Healthcare System
4.52,2.51,36.82510,-119.78189,CA,58000,25000,0,0,0,Fresno Surgical Hospital
8.44,2.53,33.98219,-118.43930,CA,121000,25000,50,90,6,Marina Del Rey Hospital
11.59,2.73,34.05723,-118.36025,CA,172000,29000,50,63,69,Olympia Medical Center
5.60,2.51,33.78873,-117.82639,CA,75000,25000,0,0,0,Chapman Medical Center
10.12,2.69,32.77629,-117.05730,CA,149000,28000,75,78,63,Alvarado Hospital Medical Center
5.47,2.42,33.66270,-117.77270,CA,73000,24000,0,0,0,Hoag Orthopedic Institute
8.44,2.81,40.41481,-104.70890,CO,121000,30000,50,73,57,North Colorado Medical Center
8.91,2.73,40.18134,-105.12769,CO,129000,29000,50,71,76,Longmont United Hospital
10.34,2.67,39.76893,-105.09006,CO,152000,28000,50,47,79,Exempla Lutheran Medical Center
4.95,2.55,40.57315,-105.05741,CO,65000,26000,50,68,95,Poudre Valley Hospital
6.00,2.68,37.23629,-107.82578,CO,82000,28000,0,0,0,Mercy Regional Medical Center
9.31,2.85,39.74615,-104.96682,CO,135000,31000,66,47,17,Presbyterian/St Luke'S Medical Center
12.20,2.55,39.71712,-105.12874,CO,182000,26000,33,67,16,Centura Health-St Anthony Hospital
13.89,2.73,38.28184,-104.61256,CO,210000,29000,66,68,29,Parkview Medical Center Inc
5.97,2.56,38.83903,-104.80024,CO,81000,26000,66,68,33,Memorial Hospital Central
4.73,2.65,39.09046,-108.56190,CO,61000,27000,50,48,57,St Marys Hospital And Medical Center
9.89,3.21,39.74234,-104.84156,CO,145000,36000,66,66,69,University Of Colorado Hospital Anschutz Inpatient
12.96,3.22,40.02615,-105.28391,CO,195000,37000,50,91,82,Boulder Community Hospital
7.09,2.75,40.41320,-105.05139,CO,99000,29000,50,92,69,Mckee Medical Center
12.17,2.69,38.86559,-104.82182,CO,182000,28000,50,70,37,Centura Health-Penrose St Francis Health Services
7.83,2.70,39.73231,-104.93396,CO,111000,28000,75,50,32,Rose Medical Center
8.07,2.60,39.65399,-104.98116,CO,115000,27000,33,47,17,Swedish Medical Center
5.49,3.60,40.46378,-106.81423,CO,73000,43000,0,0,0,Yampa Valley Medical Center
13.60,2.96,39.67005,-104.97490,CO,205000,32000,50,75,79,Centura Health-Porter Adventist Hospital
6.77,3.19,39.53243,-107.32158,CO,94000,36000,0,0,0,Valley View Hospital Association
7.03,4.31,39.64341,-106.38219,CO,98000,54000,0,0,0,Vail Valley Medical Center
10.86,2.68,39.68859,-104.83205,CO,161000,28000,50,61,13,Medical Center Of Aurora The
11.43,2.59,39.52910,-104.87121,CO,170000,26000,50,76,79,Sky Ridge Medical Center
12.65,2.54,39.57629,-104.98610,CO,190000,26000,50,78,54,Centura Health-Littleton Adventist Hospital
12.30,2.71,39.54881,-104.77119,CO,184000,28000,50,60,12,Parker Adventist Hospital
13.30,2.98,39.97043,-105.08661,CO,200000,33000,50,71,46,Exempla Good Samaritan Medical Center Llc
13.65,3.43,39.56935,-106.07773,CO,206000,40000,0,0,0,St Anthony Summit Medical Center
6.08,2.40,40.45184,-105.19608,CO,83000,23000,50,78,44,Medical Center Of The Rockies
10.19,2.60,39.71727,-105.12926,CO,150000,27000,0,0,0,Orthocolorado Hospital At St Anthony Med Campus
6.03,2.83,41.30978,-72.93806,CT,82000,30000,66,57,8,Hospital Of St Raphael
3.26,2.85,41.77507,-72.69941,CT,37000,31000,50,53,85,St Francis Hospital & Medical Center
8.44,2.98,41.55959,-73.05941,CT,121000,33000,33,57,69,Waterbury Hospital
3.90,2.62,41.33722,-72.10380,CT,48000,27000,50,72,92,Lawrence & Memorial Hospital
6.72,3.08,41.18881,-73.16645,CT,93000,34000,50,51,21,Bridgeport Hospital
2.88,2.44,41.79153,-73.13382,CT,31000,24000,25,78,54,Charlotte Hungerford Hospital
5.28,2.90,41.55241,-73.03554,CT,70000,31000,50,56,39,Saint Marys Hospital
5.40,2.60,41.54874,-72.80148,CT,72000,27000,50,60,79,Midstate Medical Center
10.05,2.93,41.03431,-73.63020,CT,147000,32000,50,48,63,Greenwich Hospital Association
7.06,2.71,41.55473,-72.64872,CT,99000,28000,33,61,92,Middlesex Hospital
6.16,3.30,41.30400,-72.93502,CT,84000,38000,66,41,3,Yale-New Haven Hospital
3.72,2.64,41.54301,-72.08799,CT,45000,27000,50,70,44,William W Backus Hospital
4.52,3.04,41.75412,-72.67927,CT,58000,34000,50,47,9,Hartford Hospital
6.17,2.93,41.20049,-73.20281,CT,84000,32000,66,78,63,St Vincent'S Medical Center
6.37,2.48,41.67540,-72.93617,CT,88000,25000,50,73,33,Bristol Hospital
5.69,2.96,41.40474,-73.44739,CT,77000,32000,50,66,57,Danbury Hospital
5.94,2.79,41.66107,-72.78671,CT,81000,30000,50,52,8,Hospital Of Central Connecticut The
4.21,3.43,41.73545,-72.79489,CT,53000,40000,25,60,8,John Dempsey Hospital
4.39,2.76,39.69005,-75.68408,DE,56000,29000,66,58,39,Christiana Care Health Services Inc.
4.66,2.70,39.15135,-75.52309,DE,60000,28000,50,58,90,Bayhealth - Kent General Hospital
3.33,2.33,38.77159,-75.14210,DE,38000,22000,50,90,81,Beebe Medical Center
9.76,3.18,38.90106,-77.05079,DC,143000,36000,50,50,13,George Washington Univ Hospital
8.08,3.20,38.91221,-77.07588,DC,115000,36000,66,65,0,Georgetown University Hospital
4.15,2.44,38.93576,-77.10909,DC,52000,24000,50,76,97,Sibley Memorial Hospital
7.71,2.89,38.92944,-77.01473,DC,110000,31000,33,58,1,Washington Hospital Center
5.44,2.49,26.50479,-80.06979,FL,73000,25000,50,53,99,Bethesda Memorial Hospital
8.09,2.64,28.52517,-81.37729,FL,116000,27000,66,47,29,Orlando Health
11.66,2.93,28.57345,-81.36990,FL,174000,32000,83,66,24,Florida Hospital
13.32,3.31,25.68309,-80.34038,FL,200000,38000,50,62,85,Baptist Hospital Of Miami Inc
8.23,2.83,25.78846,-80.21644,FL,118000,30000,83,56,0,University Of Miami Hospital
6.72,2.40,26.62849,-81.87423,FL,93000,23000,66,52,16,Lee Memorial Hospital
6.17,2.41,29.20117,-81.05828,FL,84000,23000,66,76,79,Halifax Health Medical Center
4.19,2.32,26.15053,-81.79919,FL,52000,22000,66,62,39,Naples Community Hospital
6.76,2.41,28.08771,-80.61362,FL,94000,23000,66,58,17,Holmes Regional Medical Center
7.09,3.48,25.79143,-80.21250,FL,99000,41000,83,48,4,Jackson Memorial Hospital
6.74,2.07,28.83363,-82.33561,FL,94000,18000,50,55,44,Citrus Memorial Hospital
8.65,2.78,30.47650,-87.21219,FL,125000,29000,50,41,39,Sacred Heart Hospital
5.65,2.28,30.15963,-85.64818,FL,76000,21000,66,73,43,Bay Medical Center
7.77,2.75,28.63051,-80.82437,FL,110000,29000,50,68,98,Parrish Medical Center
5.40,2.41,28.54917,-81.52746,FL,72000,23000,50,70,57,Health Central
9.04,2.61,27.76332,-82.64325,FL,131000,27000,50,82,20,Bayfront Medical Center Inc
6.90,2.61,25.81317,-80.13996,FL,96000,27000,66,47,24,Mount Sinai Medical Center
8.48,2.56,27.49789,-82.56220,FL,122000,26000,50,55,29,Manatee Memorial Hospital
5.06,2.53,26.01867,-80.17981,FL,66000,25000,83,63,76,Memorial Regional Hospital
5.41,2.88,26.10282,-80.14245,FL,72000,31000,75,76,97,Broward Health Broward General Medical Center
6.87,2.31,30.30835,-81.68919,FL,96000,22000,50,68,82,St Vincent'S Medical Center
6.74,2.27,28.01404,-82.78368,FL,94000,21000,50,75,54,Mease Hospital Dunedin
7.64,2.33,27.19837,-80.24306,FL,108000,22000,66,70,57,Martin Memorial Medical Center
6.83,2.05,26.94042,-82.04094,FL,95000,18000,50,72,85,Charlotte Regional Medical Center
7.28,2.28,28.55140,-81.72120,FL,102000,21000,0,0,0,South Lake Hospital
5.88,2.34,28.02768,-81.72466,FL,80000,22000,50,62,2,Winter Haven Hospital
4.24,2.06,28.13321,-82.75839,FL,53000,18000,0,0,0,Helen Ellis Memorial Hospital
8.90,2.71,25.74067,-80.21244,FL,129000,28000,0,0,0,Mercy Hospital Inc
6.80,2.16,29.17594,-82.13898,FL,95000,19000,50,60,94,Munroe Regional Medical Center
5.29,2.27,29.24333,-81.10760,FL,70000,21000,50,67,95,Florida Hospital Memorial Medical Center
10.44,2.79,28.01266,-82.50384,FL,154000,30000,0,0,0,Florida Hospital Carrollwood
8.72,2.31,27.09043,-82.44499,FL,126000,22000,50,76,48,Venice Regional Medical Center
8.32,2.11,28.53906,-82.44193,FL,119000,19000,50,75,57,Brooksville Regional Hospital
5.93,2.26,28.91403,-81.28480,FL,80000,21000,83,75,5,Florida Hospital Fish Memorial
8.93,2.50,26.18711,-80.11941,FL,129000,25000,83,57,37,Holy Cross Hospital Inc
8.01,2.71,27.98242,-82.49025,FL,114000,28000,66,60,29,St Joseph'S Hospital
7.85,2.33,26.98905,-82.09559,FL,112000,22000,50,68,43,Peace River Regional Medical Center
7.99,2.55,26.59805,-80.09271,FL,114000,26000,100,60,27,Jfk Medical Center
7.11,2.31,28.80659,-81.86906,FL,100000,22000,33,67,24,Leesburg Regional Medical Center
8.15,2.36,27.31827,-82.53140,FL,117000,23000,33,37,69,Sarasota Memorial Hospital
8.06,2.67,30.31525,-81.66398,FL,115000,28000,66,47,12,Baptist Medical Center
5.98,2.56,29.86371,-81.31749,FL,81000,26000,66,76,29,Flagler Hospital
6.56,2.33,30.43066,-87.23191,FL,91000,22000,50,72,17,Baptist Hospital
4.13,2.45,27.65832,-80.39307,FL,51000,24000,66,76,99,Indian River Medical Center
4.88,2.33,27.50001,-81.43962,FL,63000,22000,50,61,85,Florida Hospital Heartland Medical Center
11.59,2.43,28.29946,-81.41021,FL,172000,24000,50,63,51,Osceola Regional Medical Center
7.94,3.19,29.64155,-82.34844,FL,113000,36000,66,53,29,Shands Hospital At The University Of Florida
11.18,2.42,27.91798,-81.84402,FL,166000,24000,0,0,0,Bartow Regional Medical Center
7.29,2.42,27.95192,-82.80379,FL,103000,24000,66,62,9,Morton Plant Hospital
12.95,3.03,27.93740,-82.45927,FL,194000,34000,66,66,0,Tampa General Hospital
10.49,2.47,25.96994,-80.14533,FL,155000,24000,50,63,79,Aventura Hospital And Medical Center
4.18,2.42,30.45726,-84.26175,FL,52000,24000,66,57,63,Tallahassee Memorial Healthcare
9.49,2.42,28.18120,-81.64018,FL,138000,24000,50,72,57,Heart Of Florida Regional Medical Center
6.36,2.91,30.26389,-81.44283,FL,87000,32000,83,62,90,Mayo Clinic
9.27,2.57,25.70328,-80.29391,FL,135000,26000,50,65,69,South Miami Hospital Inc
8.77,2.51,28.81611,-81.28351,FL,127000,25000,50,56,97,Central Florida Regional Hospital
7.78,2.23,27.30187,-82.45428,FL,111000,21000,33,67,95,Doctors Hospital Of Sarasota
7.03,2.30,26.35875,-80.10203,FL,98000,22000,66,46,43,Boca Raton Regional Hospital
10.67,4.14,28.07111,-82.42342,FL,158000,51000,50,68,37,Florida Hospital Tampa
5.01,2.89,25.70558,-80.29311,FL,66000,31000,0,0,0,Larkin Community Hospital
10.04,2.89,25.74360,-80.25465,FL,147000,31000,50,82,41,Coral Gables Hospital
9.69,2.28,28.19342,-82.46987,FL,142000,21000,50,77,43,Medical Center Of Trinity
8.66,2.36,29.66085,-82.41172,FL,125000,23000,33,52,17,North Florida Regional Medical Center
7.09,2.18,29.17550,-82.13680,FL,99000,20000,83,55,85,Ocala Regional Medical Center
6.86,2.28,27.48213,-82.62126,FL,96000,21000,50,75,69,Blake Medical Center
8.54,2.43,26.52735,-81.83337,FL,123000,24000,50,58,63,Gulf Coast Medical Center Lee Mem Health System
9.65,2.42,30.45448,-86.63362,FL,141000,24000,50,72,63,Fort Walton Beach Medical Center
8.25,2.27,26.21219,-80.25478,FL,118000,21000,0,0,0,University Hospital And Medical Center
9.84,2.41,30.51624,-87.21856,FL,144000,23000,50,65,4,West Florida Hospital
10.09,2.31,26.98884,-82.09877,FL,148000,22000,50,80,57,Fawcett Memorial Hospital
11.11,2.50,27.78151,-82.66458,FL,165000,25000,50,81,33,Edward White Hospital
9.92,2.36,30.18657,-85.66513,FL,145000,23000,50,63,99,Gulf Coast Medical Center
11.80,2.60,27.93259,-82.28759,FL,176000,26000,66,67,21,Brandon Regional Hospital
8.36,2.36,26.63958,-81.94164,FL,120000,23000,50,52,21,Cape Coral Hospital
13.24,2.52,27.91458,-82.80382,FL,199000,25000,50,48,24,Largo Medical Center
9.26,2.31,28.95195,-82.62421,FL,135000,22000,50,72,21,Seven Rivers Regional Medical Center
7.90,2.76,26.92138,-80.09708,FL,113000,29000,50,61,54,Jupiter Medical Center
7.60,2.38,30.47616,-84.23140,FL,108000,23000,50,66,57,Capital Regional Medical Center
5.13,2.21,28.36128,-82.68883,FL,68000,20000,66,67,90,Regional Medical Center Bayonet Point
7.43,2.32,26.43709,-80.12728,FL,105000,22000,83,72,92,Delray Medical Center
8.09,2.48,27.28861,-80.29431,FL,116000,25000,50,65,54,St Lucie Medical Center
7.56,2.05,28.53585,-82.53404,FL,107000,18000,66,71,57,Oak Hill Hospital
9.91,2.87,28.03957,-82.70875,FL,145000,31000,66,66,54,Mease Countryside Hospital
7.08,2.22,30.35772,-87.16046,FL,99000,20000,0,0,0,Gulf Breeze Hospital
7.25,2.31,26.21388,-81.73257,FL,102000,22000,33,80,33,Physicians Regional Medical Center - Pine Ridge
10.93,3.30,26.75635,-80.06322,FL,162000,38000,100,85,74,St Mary'S Medical Center
5.23,2.03,28.94952,-81.95843,FL,69000,17000,33,80,94,Villages Regional Hospital The
6.30,2.42,28.10969,-80.67280,FL,87000,24000,50,72,37,Wuesthoff Medical Center - Melbourne
8.07,2.43,30.37837,-86.30696,FL,115000,24000,0,0,0,Sacred Heart Hospital On The Emerald Coast
11.60,2.59,25.72132,-80.27116,FL,173000,26000,0,0,0,Doctors Hospital Inc
6.59,2.24,30.25377,-81.58270,FL,91000,21000,50,77,29,St Vincent'S Medical Center Southside
3.56,2.48,34.78963,-84.98398,GA,42000,25000,50,76,10,Hamilton Medical Center
8.23,2.54,34.17863,-84.13992,GA,118000,26000,66,63,46,Northside Hospital Forsyth
6.51,2.45,33.94791,-83.40531,GA,90000,24000,50,78,95,St Mary'S Hospital
5.49,2.61,31.59023,-84.15756,GA,73000,27000,50,53,11,Phoebe Putney Memorial Hospital
9.61,2.68,34.24569,-84.49068,GA,140000,28000,50,72,10,Northside Hospital Cherokee
4.78,2.89,33.79230,-84.32107,GA,62000,31000,50,41,8,Emory University Hospital
5.68,2.40,33.56970,-85.07276,GA,76000,23000,25,78,90,Tanner Medical Center - Carrollton
5.53,2.73,31.17425,-81.48459,GA,74000,29000,50,61,17,Southeast Georgia Health System- Brunswick Campus
4.53,2.45,33.47096,-81.98176,GA,58000,24000,50,51,21,University Hospital
6.67,2.54,34.30335,-83.81737,GA,93000,26000,66,58,44,Northeast Georgia Medical Center Inc
11.54,2.61,34.19990,-84.79378,GA,172000,27000,50,62,39,Cartersville Medical Center
8.14,3.93,33.47091,-81.98988,GA,116000,48000,66,45,37,Medical College Of Ga Hospitals And Clinics
7.22,2.75,33.96770,-84.55011,GA,102000,29000,66,62,44,Wellstar Kennestone Hospital
8.47,2.69,32.03185,-81.09158,GA,122000,28000,66,61,24,Memorial Health Univ Med Cen Inc
3.84,2.30,30.82614,-83.97393,GA,47000,22000,50,75,48,John D Archbold Memorial Hospital
5.97,2.25,31.98515,-81.15475,GA,81000,21000,66,72,33,St Joseph'S Hospital - Savannah
7.74,2.86,34.26000,-85.17000,GA,110000,31000,50,67,88,Floyd Medical Center
4.92,2.67,32.46602,-84.98695,GA,64000,28000,33,86,63,Medical Center The
3.63,2.40,32.61642,-83.63065,GA,43000,23000,50,73,74,Houston Medical Center
8.32,2.61,33.96117,-83.39832,GA,119000,27000,50,68,92,Athens Regional Medical Center
5.27,2.56,33.78956,-84.28077,GA,70000,26000,50,83,11,Dekalb Medical Center
4.16,2.76,33.76810,-84.38616,GA,52000,29000,33,45,9,Emory University Hospital Midtown
4.96,2.25,33.90877,-84.35180,GA,65000,21000,50,55,3,Saint Joseph'S Hospital Of Atlanta Inc
6.05,2.66,33.81003,-84.39568,GA,83000,27000,33,57,44,Piedmont Hospital
5.71,2.60,33.96351,-84.01769,GA,77000,26000,50,90,44,Gwinnett Medical Center
5.87,2.38,31.47069,-83.50473,GA,80000,23000,16,80,32,Tift Regional Medical Center
2.98,2.41,31.17991,-83.78906,GA,33000,23000,0,0,0,Colquitt Regional Medical Center
6.78,2.82,32.83041,-83.63476,GA,94000,30000,66,48,44,Medical Center Of Central Georgia
14.48,3.00,33.76372,-84.37315,GA,219000,33000,50,71,11,Atlanta Medical Center
4.53,2.52,30.86250,-83.28630,GA,58000,25000,66,67,74,South Georgia Medical Center
5.40,2.31,32.50679,-84.95933,GA,72000,22000,83,67,69,St Francis Hospital Inc
6.35,3.07,33.85638,-84.60446,GA,87000,34000,50,56,33,Wellstar Cobb Hospital
7.75,2.49,33.90903,-84.35410,GA,110000,25000,66,63,19,Northside Hospital
5.38,2.63,32.84705,-83.61823,GA,72000,27000,66,62,9,Coliseum Medical Center
4.97,2.53,33.57843,-84.38897,GA,65000,25000,50,78,24,Southern Regional Medical Center
5.49,2.38,34.25704,-85.16467,GA,73000,23000,50,87,24,Redmond Regional Medical Center
6.79,2.54,33.48259,-82.09038,GA,94000,25000,50,58,8,Doctors Hospital
9.57,2.81,33.51144,-84.22200,GA,140000,30000,50,91,92,Henry Medical Center Inc
8.31,2.42,33.87683,-84.02136,GA,119000,24000,50,77,44,Emory Eastside Medical Center
13.44,2.42,34.06334,-84.31976,GA,202000,24000,75,70,74,North Fulton Regional Hospital
6.96,2.49,32.53607,-84.95468,GA,97000,25000,0,0,0,Hughston Hospital
7.10,2.67,32.86625,-83.69421,GA,100000,28000,0,0,0,Coliseum Northside Hospital
5.20,2.27,30.89823,-83.33519,GA,69000,21000,0,0,0,Smith Northview Hospital
5.02,2.58,33.45252,-84.50697,GA,66000,26000,50,60,33,Piedmont Fayette Hospital
15.83,3.07,33.68000,-84.42685,GA,241000,34000,50,85,28,South Fulton Medical Center
5.61,3.13,21.30780,-157.85505,HI,75000,35000,66,68,44,The Queens Medical Center
4.74,4.02,20.88519,-156.48928,HI,61000,49000,66,88,20,Maui Memorial Medical Center
2.95,2.74,21.32239,-157.85662,HI,32000,29000,50,73,4,Kuakini Medical Center
3.98,2.77,21.38328,-157.93828,HI,49000,29000,0,0,0,Pali Momi Medical Center
4.95,2.50,42.59072,-114.49627,ID,65000,25000,50,63,29,St Lukes Magic Valley Rmc
4.66,2.72,46.41668,-117.02441,ID,60000,28000,50,71,39,St Joseph Regional Medical Center
4.27,2.53,43.61218,-116.19234,ID,54000,25000,66,61,16,St Lukes Regional Medical Center
4.79,2.54,43.61359,-116.25484,ID,62000,26000,66,78,24,St Alphonsus Regional Medical Center
4.19,2.42,43.55374,-116.57267,ID,52000,24000,0,0,0,Saint Alphonsus Medical Center - Nampa
10.58,2.77,43.46987,-111.99208,ID,156000,29000,66,66,57,Eastern Idaho Regional Medical Center
3.78,2.73,42.87331,-112.42180,ID,46000,29000,33,76,39,Portneuf Medical Center
5.08,2.44,47.69645,-116.79476,ID,67000,24000,50,71,48,Kootenai Medical Center
4.54,2.27,43.61266,-116.29100,ID,58000,21000,0,0,0,Treasure Valley Hospital
4.91,2.57,43.47399,-111.98771,ID,64000,26000,0,0,0,Mountain View Hospital
5.56,2.34,47.71536,-116.92471,ID,75000,22000,0,0,0,Northwest Specialty Hospital
8.96,2.73,41.52896,-88.13550,IL,130000,29000,50,75,82,Provena St Joseph Medical Center
8.11,2.88,42.06550,-87.68428,IL,116000,31000,33,55,57,Evanston Hospital
7.82,3.55,39.93563,-91.39833,IL,111000,42000,50,55,92,Blessing Hospital
7.96,3.40,41.72930,-88.26976,IL,113000,39000,50,90,63,Copley Memorial Hospital
4.48,2.37,39.12680,-88.55059,IL,57000,23000,0,0,0,St Anthonys Memorial Hospital
3.60,2.30,38.32292,-88.91026,IL,43000,22000,50,81,90,Good Samaritan Regional Hlth Center
6.97,2.61,42.05624,-87.74012,IL,97000,27000,50,75,85,Skokie Hospital
5.09,2.48,39.80726,-89.64496,IL,67000,25000,50,58,79,St Johns Hospital
5.50,2.74,41.83195,-87.79266,IL,74000,29000,50,78,57,Macneal  Hospital
5.03,2.52,41.66900,-87.81414,IL,66000,25000,50,72,95,Palos Community Hospital
7.93,2.83,40.70200,-89.59222,IL,113000,30000,66,57,3,Saint Francis Medical Center
18.48,2.73,42.37840,-87.83329,IL,284000,29000,50,73,62,Vista Medical Center East
9.28,3.28,41.78829,-87.60485,IL,135000,37000,66,66,11,The University Of Chicago Medical Center
5.66,2.87,40.11696,-88.21506,IL,76000,31000,33,63,13,Carle Foundation Hospital
8.60,3.25,41.97532,-87.69958,IL,124000,37000,50,85,51,Swedish Covenant Hospital
9.61,3.07,41.98743,-87.81440,IL,140000,34000,66,62,69,Resurrection Medical Center
6.50,3.32,41.87497,-87.66927,IL,90000,38000,50,42,33,Rush University Medical Center
7.17,2.42,41.80555,-87.92059,IL,101000,24000,50,67,54,Hinsdale Hospital
6.04,2.39,40.49639,-88.99106,IL,82000,23000,0,0,0,Bromenn Healthcare
4.06,2.36,42.25244,-87.86528,IL,50000,23000,25,90,21,Lake Forest Hospital
4.50,2.37,39.86644,-88.96090,IL,57000,23000,50,60,69,Decatur Memorial Hospital
5.75,2.51,39.80893,-89.65530,IL,78000,25000,83,57,11,Memorial Medical Center
8.80,3.76,41.86927,-87.67052,IL,127000,45000,50,76,29,University Of Illinois Hospital
6.81,3.23,40.87085,-88.67943,IL,95000,37000,0,0,0,Saint James Hospital
6.51,2.41,40.48254,-88.95519,IL,90000,23000,50,91,29,St Joseph Medical Center
9.31,3.04,37.72790,-89.22058,IL,135000,34000,50,63,90,Memorial Hospital Of Carbondale
3.61,2.46,39.82659,-88.93119,IL,43000,24000,50,71,82,St Marys Hospital
7.95,2.62,41.52283,-87.71111,IL,113000,27000,50,75,33,Franciscan St James Health
8.36,3.13,41.93641,-87.65295,IL,120000,35000,50,77,85,Advocate Illinois Masonic Medical Center
3.84,2.35,38.55020,-90.02146,IL,47000,22000,66,81,21,Memorial Hospital
5.89,2.75,41.12572,-87.88526,IL,80000,29000,50,72,81,Riverside Medical Center
5.49,2.35,38.51081,-89.99014,IL,73000,22000,50,65,6,St Elizabeth Hospital
8.47,2.73,41.60726,-87.66060,IL,122000,29000,50,65,76,Ingalls Memorial Hospital
12.37,2.67,41.86362,-87.93567,IL,185000,28000,50,76,92,Elmhurst Memorial Hospital
9.95,2.79,42.27447,-87.95764,IL,146000,30000,50,70,79,Advocate Condell Medical Center
8.15,3.05,41.72031,-87.73249,IL,117000,34000,50,57,74,Advocate Christ Hospital & Medical Center
6.86,2.48,40.70065,-89.59505,IL,96000,25000,50,78,48,Methodist Medical Center Of Illinois
5.93,2.70,41.54446,-87.98379,IL,81000,28000,50,68,88,Silver Cross Hospital  And Medical Centers
6.00,3.15,42.03837,-87.84820,IL,82000,35000,83,77,69,Advocate Lutheran General Hospital
12.12,3.37,42.26584,-89.07428,IL,181000,39000,50,65,76,Swedish American Hospital
5.77,2.41,41.76076,-88.15016,IL,78000,23000,50,68,29,Edward Hospital
6.08,2.42,42.26634,-89.00900,IL,83000,24000,50,50,29,Saint Anthony Medical Center
7.47,2.86,42.29844,-89.09897,IL,106000,31000,50,87,56,Rockford Memorial Hospital
12.01,2.78,41.87269,-88.15684,IL,179000,29000,66,62,88,Central Dupage Hospital
6.80,2.46,41.56720,-87.69566,IL,95000,24000,50,80,63,Advocate South Suburban Hospital
8.50,2.55,41.94560,-87.76897,IL,122000,26000,50,75,21,Our Lady Of The Resurrection Med Ctr
5.02,2.45,42.06732,-87.99368,IL,66000,24000,66,67,57,Northwest Community Hospital
8.06,2.48,42.00413,-88.01745,IL,115000,25000,66,78,88,Alexian Brothers Medical Center
6.09,2.54,41.49581,-90.41871,IL,83000,26000,0,0,0,Genesis Medical Center Illini Campus
5.29,3.11,41.86110,-87.83404,IL,70000,35000,66,46,4,Loyola University Medical Center
4.72,2.29,41.48200,-90.57158,IL,61000,21000,50,58,63,Trinity Rock Island
9.05,3.24,41.89477,-87.62131,IL,131000,37000,50,61,94,Northwestern Memorial Hospital
8.10,2.88,41.81791,-88.00907,IL,116000,31000,50,86,95,Advocate Good Samaritan Hospital
8.41,2.53,42.05260,-88.14173,IL,121000,25000,50,80,57,St Alexius Medical Center
6.72,2.81,42.19586,-88.17286,IL,93000,30000,50,80,95,Advocate Good Shepherd Hospital
5.69,2.84,39.48010,-86.07773,IN,77000,30000,0,0,0,Johnson Memorial Hospital
7.30,2.65,41.59920,-87.35764,IN,103000,27000,50,65,94,Methodist Hospitals Inc
7.98,2.72,41.61055,-86.72511,IN,114000,29000,0,0,0,Indiana University Health La Porte Hospital
5.83,2.27,40.44665,-86.12707,IN,79000,21000,50,80,54,Howard Regional Health System
4.26,2.30,38.28244,-85.74923,IN,53000,22000,50,83,48,Clark Memorial Hospital
6.70,2.57,40.48720,-86.15548,IN,93000,26000,50,75,81,St Joseph Hospital & Health Center Inc
8.31,2.79,41.70877,-86.17026,IN,119000,30000,50,88,57,Saint Joseph Regional Medical Center
7.59,2.61,41.70639,-86.89936,IN,107000,27000,0,0,0,Franciscan St Anthony Health - Michigan City
8.98,2.92,41.03874,-85.24876,IN,130000,32000,66,63,32,Lutheran Hospital Of Indiana
9.17,2.94,41.04659,-85.10906,IN,133000,32000,83,60,44,Parkview Regional Medical Center
4.88,2.43,39.48518,-87.40893,IN,64000,24000,50,62,33,Union Hospital Inc
6.25,2.62,39.72432,-86.10055,IN,86000,27000,0,0,0,Franciscan St Francis Health - Beech Grove
6.42,2.49,41.51266,-87.26125,IN,88000,25000,50,78,85,St Mary Medical Center Inc
11.50,2.77,41.46729,-87.05130,IN,171000,29000,50,75,63,Porter Valparaiso Hospital
3.94,2.27,38.30195,-85.83409,IN,48000,21000,66,85,85,Floyd Memorial Hospital And Health Services
4.94,2.60,39.86405,-84.88413,IN,64000,26000,100,63,27,Reid Hospital & Health Care Services
7.07,2.59,39.16006,-86.54038,IN,99000,26000,50,56,24,Indiana University Health Bloomington Hospital
9.14,3.44,39.79009,-86.16260,IN,133000,40000,50,51,79,Indiana University Health
9.27,2.96,41.68479,-86.25217,IN,135000,32000,66,60,8,Memorial Hospital Of South Bend
6.63,2.69,39.78704,-86.07673,IN,92000,28000,50,82,82,Community Hospital East
4.39,2.27,37.98293,-87.57072,IN,56000,21000,83,66,13,Deaconess Hospital Inc
7.20,2.66,39.91001,-86.19660,IN,101000,27000,66,47,88,St Vincent Hospital & Health Services
7.02,2.84,40.19679,-85.41573,IN,98000,30000,66,62,85,Indiana University Health Ball Memorial Hospital
4.65,2.34,41.49222,-87.52429,IN,60000,22000,50,85,54,Franciscan St Margaret Health - Dyer
8.04,2.45,37.96320,-87.50292,IN,115000,24000,66,67,32,St Mary'S Medical Center Of Evansville Inc
10.60,3.23,40.39424,-86.83516,IN,156000,37000,66,82,17,Franciscan St Elizabeth Health - Lafayette East
5.18,2.67,39.21585,-85.89683,IN,68000,28000,50,76,95,Columbus Regional Hospital
4.44,2.40,41.55065,-87.50619,IN,56000,23000,50,75,85,Community Hospital
4.89,2.41,41.39576,-87.36689,IN,64000,23000,50,83,51,Franciscan St Anthony Health - Crown Point
7.66,2.74,39.63776,-86.13260,IN,109000,29000,50,68,76,Community Hospital South
7.98,2.47,39.98275,-86.14343,IN,114000,24000,50,68,97,St Vincent Carmel Hospital Inc
4.21,2.30,39.90998,-86.26738,IN,53000,22000,0,0,0,Indiana Orthopaedic Hospital Llc
6.57,2.68,39.12069,-86.57191,IN,91000,28000,0,0,0,Monroe Hospital
3.85,2.39,41.53822,-87.51231,IN,47000,23000,0,0,0,Franciscan Physicians Hospital Llc
14.88,9.05,41.44814,-87.32808,IN,226000,131000,0,0,0,Pinnacle Hospital
8.34,2.52,41.18970,-85.09940,IN,120000,25000,0,0,0,Orthopaedic Hospital At Parkview North Llc
6.25,2.31,41.03831,-85.24466,IN,86000,22000,0,0,0,The Orthopaedic Hospital Of Lutheran Health Networ
6.65,2.54,39.90060,-86.04218,IN,92000,26000,50,77,76,Community Hospital North
8.98,3.62,40.40296,-86.80885,IN,130000,43000,50,83,97,Indiana University Health Arnett Hospital
6.65,2.51,41.26886,-95.83923,IA,92000,25000,0,0,0,Alegent Health Mercy Hospital
5.23,2.40,41.66411,-91.52841,IA,69000,23000,50,65,48,Mercy Hospital
5.57,2.32,42.03321,-93.61164,IA,75000,22000,0,0,0,Mary Greeley Medical Center
6.57,2.52,41.98570,-91.66093,IA,91000,25000,66,75,90,St Lukes Hospital
4.07,2.33,40.81009,-91.17356,IA,50000,22000,0,0,0,Great River Medical Center
7.57,3.38,41.66092,-91.54800,IA,107000,39000,16,38,63,University Of Iowa Hospital & Clinics
2.80,2.40,43.15063,-93.21718,IA,30000,23000,50,82,63,Mercy Medical Center-North Iowa
5.01,2.38,42.46407,-92.34532,IA,66000,23000,0,0,0,Covenant Medical Center
4.09,2.18,42.49227,-90.67404,IA,51000,20000,50,75,95,Mercy Medical Center-Dubuque
4.73,2.28,41.97864,-91.65507,IA,61000,21000,50,80,99,Mercy Medical Center - Cedar Rapids
5.99,2.45,41.58955,-93.63248,IA,82000,24000,66,37,82,Iowa Methodist Medical Center
5.45,2.51,41.59886,-93.62344,IA,73000,25000,83,75,29,Mercy Medical Center-Des Moines
4.38,2.46,41.56571,-90.51968,IA,55000,24000,0,0,0,Trinity Bettendorf
4.23,2.32,42.52665,-92.33957,IA,53000,22000,50,81,6,Allen Memorial Hospital
4.97,2.32,43.14994,-95.14317,IA,65000,22000,0,0,0,Spencer Municipal Hospital
3.37,2.45,42.51846,-96.40581,IA,39000,24000,50,60,90,St Lukes Regional Medical Center
5.48,2.34,42.49250,-96.39975,IA,73000,22000,66,71,54,Mercy Medical Center-Sioux City
4.72,2.39,38.83324,-97.61028,KS,61000,23000,50,85,27,Salina Regional Health Center
4.67,2.66,38.87847,-99.29923,KS,60000,27000,50,58,11,Hays Medical Center
4.80,2.29,39.05660,-95.69599,KS,62000,22000,33,51,33,St Francis Health Center Inc
6.10,2.56,37.81826,-96.85834,KS,83000,26000,0,0,0,Susan B Allen Memorial Hospital
7.75,2.79,39.05583,-94.60912,KS,110000,30000,66,53,63,University Of Kansas Hospital
4.14,2.26,38.85279,-94.82413,KS,51000,21000,50,58,62,Olathe Medical Center
8.44,2.52,39.05128,-95.69572,KS,121000,25000,66,71,10,Stormont-Vail Healthcare
6.76,2.31,38.99549,-94.69061,KS,94000,22000,66,46,21,Shawnee Mission Medical Center
4.92,2.45,37.70405,-97.31386,KS,64000,24000,66,68,21,Via Christi Hospitals Wichita Inc
7.02,2.54,37.69556,-97.29785,KS,98000,26000,66,52,5,Wesley Medical Center
2.96,2.18,37.04095,-95.63956,KS,32000,20000,0,0,0,Coffeyville Regional Medical Center
8.56,2.55,39.12677,-94.78643,KS,123000,26000,50,60,82,Providence Medical Center
4.49,2.42,38.91047,-94.65205,KS,57000,24000,50,66,11,Menorah Medical Center
2.39,2.20,37.76853,-97.21136,KS,23000,20000,0,0,0,Kansas Surgery & Recovery Center
4.79,2.29,38.93265,-94.65100,KS,62000,21000,0,0,0,Heartland Surgical Spec Hospital
5.07,2.22,37.74369,-97.22762,KS,67000,20000,0,0,0,Kansas Spine Hospital Llc
4.87,2.25,38.03140,-84.52194,KY,63000,21000,83,67,79,Saint Joseph Hospital
6.66,2.75,36.99641,-86.43006,KY,92000,29000,66,52,33,The Medical Center At Bowling Green
6.24,2.64,39.06704,-84.49946,KY,86000,27000,33,58,79,St Elizabeth Medical Center North
5.79,2.62,37.76518,-87.10197,KY,78000,27000,50,66,29,Owensboro Medical Health System
6.35,2.55,38.24927,-85.75081,KY,87000,26000,66,51,8,Jewish Hospital & St Mary'S Healthcare
7.11,2.78,37.47264,-82.52605,KY,100000,29000,75,86,9,Pikeville Medical Center
6.58,2.56,37.64378,-84.77272,KY,91000,26000,0,0,0,Ephraim Mcdowell Regional Medical Center
4.90,2.94,38.03282,-84.50674,KY,64000,32000,33,62,33,University Of Kentucky Hospital
8.01,2.64,38.24806,-85.75125,KY,114000,27000,50,35,39,Norton Hospitals Inc
7.75,2.62,38.01849,-84.51236,KY,110000,27000,50,71,57,Central Baptist Hospital
5.44,2.30,37.07404,-88.62685,KY,73000,22000,50,80,39,Western Baptist Hospital
4.62,2.32,36.75751,-88.65129,KY,59000,22000,0,0,0,Jackson Purchase Medical Center
5.60,2.40,36.96603,-86.43639,KY,75000,23000,50,85,94,Greenview Regional Hospital
4.43,2.24,38.23898,-85.63941,KY,56000,21000,66,57,74,Baptist Hospital East
6.17,2.47,37.08724,-84.61828,KY,84000,24000,66,60,17,Lake Cumberland Regional Hospital
4.75,2.54,37.99944,-84.43941,KY,61000,26000,50,76,63,Saint Joseph East
6.52,3.10,30.20227,-92.01906,LA,90000,35000,50,73,29,Lafayette General Medical Center
6.56,2.30,29.77956,-90.80568,LA,91000,22000,50,73,92,Thibodaux Regional Medical Center
6.28,2.40,29.59851,-90.71397,LA,86000,23000,25,68,69,Terrebonne General Medical Center
6.25,2.64,30.54354,-92.07608,LA,86000,27000,33,73,3,Opelousas General Health System
5.59,2.50,31.28258,-92.46060,LA,75000,25000,50,65,79,Christus St Frances Cabrini Hospital
6.55,2.52,31.31451,-92.44997,LA,91000,25000,66,40,39,Rapides Regional Medical Center
7.85,2.41,30.21521,-93.22682,LA,112000,23000,50,63,63,Christus St Patrick Hospital
9.56,2.94,30.01875,-90.19452,LA,139000,32000,66,61,62,Ochsner Foundation Hospital
7.90,2.55,29.89089,-90.09395,LA,113000,26000,50,65,85,West Jefferson Medical Center
9.83,4.39,32.49443,-93.75011,LA,144000,56000,50,68,13,Christus Schumpert Health System
6.18,2.46,30.20458,-93.19774,LA,85000,24000,50,80,6,Lake Charles Memorial Hospital
7.46,2.88,30.40118,-91.11160,LA,105000,31000,83,51,33,Our Lady Of The Lake Regional Medical Center
8.42,2.94,30.45015,-91.15273,LA,121000,32000,33,76,37,Baton Rouge General Medical Center
2.79,3.03,32.48177,-93.76264,LA,30000,33000,100,80,0,Lsu Health Sciences Center - Shreveport
5.20,2.35,30.15052,-92.03698,LA,69000,22000,50,71,57,Our Lady Of Lourdes Regional Medical Center Inc
4.76,2.40,32.48393,-93.77884,LA,62000,23000,50,63,62,Willis Knighton Medical Center
5.08,2.46,32.49997,-92.11359,LA,67000,24000,66,62,98,St Francis Medical Center
8.08,2.45,30.01438,-90.18155,LA,115000,24000,66,68,74,East Jefferson General Hospital
4.89,2.40,30.43973,-91.00727,LA,64000,23000,50,68,33,Ochsner Medical Center-Baton Rouge
10.53,2.60,30.19775,-92.07724,LA,155000,27000,50,88,74,The Regional Medical Center Of Acadiana
6.96,2.29,32.50111,-92.11530,LA,97000,22000,0,0,0,P & S Surgical Hospital
7.22,2.25,30.35437,-89.91917,LA,101000,21000,50,86,54,Louisiana Medical Center And Heart Hospital Llc
7.25,2.31,30.17586,-92.02762,LA,102000,22000,0,0,0,Lafayette Surgical Specialty Hospital
6.36,2.38,30.35058,-91.08736,LA,87000,23000,0,0,0,The Neuromedical Center Hospital
7.77,2.37,30.27519,-89.78117,LA,110000,23000,0,0,0,Southern Surgical Hospital
8.37,2.33,32.49813,-93.74607,LA,120000,22000,0,0,0,Specialists Hospital Shreveport
5.32,2.10,31.31391,-92.46790,LA,71000,18000,0,0,0,Central Louisiana Surgical Hospital
3.06,2.31,44.81469,-68.77153,ME,34000,22000,0,0,0,St Joseph Hospital
4.35,2.42,43.65159,-70.26482,ME,55000,24000,0,0,0,Mercy Hospital
4.16,2.75,43.65325,-70.27533,ME,52000,29000,16,47,0,Maine Medical Center
3.95,2.46,44.10107,-70.21432,ME,48000,24000,66,70,57,Central Maine Medical Center
4.15,2.57,44.80988,-68.74929,ME,52000,26000,50,58,37,Eastern Maine Medical Center
6.46,2.64,44.10276,-70.20093,ME,89000,27000,0,0,0,St Marys Regional Medical Center
2.15,2.92,44.54279,-69.66335,ME,19000,32000,0,0,0,Inland Hospital
3.29,3.16,39.62183,-77.68219,MD,38000,36000,0,0,0,Meritus Medical Center
5.28,5.03,39.28817,-76.62438,MD,70000,66000,0,0,0,University Of Maryland Medical Center
3.30,3.16,39.01578,-77.03591,MD,38000,36000,0,0,0,Holy Cross Hospital
2.73,2.63,39.42366,-77.41386,MD,29000,27000,0,0,0,Frederick Memorial Hospital
3.11,2.99,39.38813,-76.61068,MD,35000,33000,0,0,0,Saint Joseph Medical Center
3.42,3.27,39.29297,-76.61314,MD,40000,37000,0,0,0,Mercy Medical Center Inc
4.28,4.10,39.29688,-76.59242,MD,54000,51000,0,0,0,Johns Hopkins Hospital The
3.78,3.60,39.27352,-76.67219,MD,46000,43000,0,0,0,Saint Agnes Hospital
3.07,2.96,39.35262,-76.66196,MD,34000,32000,0,0,0,Sinai Hospital Of Baltimore
2.88,2.77,39.35169,-76.47919,MD,31000,29000,0,0,0,Franklin Square Hospital Center
2.32,2.24,39.15402,-77.05431,MD,22000,21000,0,0,0,Montgomery General Hospital Inc
3.48,3.34,38.36248,-75.59799,MD,41000,38000,0,0,0,Peninsula Regional Medical Center
3.19,3.06,38.99743,-77.11048,MD,36000,34000,0,0,0,Suburban Hospital
3.23,3.10,38.99014,-76.53398,MD,37000,35000,0,0,0,Anne Arundel Medical Center
3.48,3.36,39.32930,-76.61432,MD,41000,39000,0,0,0,Union Memorial Hospital
3.15,3.02,39.64928,-78.73206,MD,35000,33000,0,0,0,Western Maryland Regional Medical Center
3.30,3.17,39.29100,-76.54623,MD,38000,36000,0,0,0,Johns Hopkins Bayview Medical Center
3.73,3.58,39.25189,-76.61399,MD,45000,42000,0,0,0,Harbor Hospital
3.53,3.37,38.76970,-76.07697,MD,42000,39000,0,0,0,Memorial Hospital At Easton
3.48,3.34,38.55963,-76.59455,MD,41000,38000,0,0,0,Calvert Memorial Hospital
5.28,5.02,39.35852,-76.78208,MD,70000,66000,0,0,0,Northwest Hospital Center
3.11,2.98,39.13732,-76.62228,MD,35000,33000,0,0,0,Baltimore Washington  Medical Center
3.03,2.91,39.39017,-76.62216,MD,33000,32000,0,0,0,Greater Baltimore Medical Center
3.67,3.51,39.21273,-76.88526,MD,44000,41000,0,0,0,Howard County General Hospital
4.31,4.12,39.51870,-76.34688,MD,54000,51000,0,0,0,Upper Chesapeake Medical Center
3.96,3.78,38.96851,-76.86203,MD,49000,46000,0,0,0,Doctors'  Community Hospital
3.97,3.80,39.35962,-76.58851,MD,49000,46000,0,0,0,Good Samaritan Hospital
3.54,2.80,42.37441,-71.13378,MA,42000,30000,66,85,17,Mount Auburn Hospital
4.04,2.91,41.65298,-70.27484,MA,50000,32000,50,56,95,Cape Cod Hospital
4.71,3.71,42.35843,-71.05977,MA,61000,44000,66,51,0,Boston Medical Center Corporation
5.08,2.72,42.51078,-70.90712,MA,67000,28000,33,47,69,North Shore Medical Center
3.87,2.56,41.94445,-70.64511,MA,47000,26000,50,82,24,Jordan Hospital Inc
4.71,2.78,42.64636,-71.34118,MA,61000,29000,50,87,95,Lowell General Hospital
5.30,2.72,42.11449,-72.59502,MA,70000,28000,50,77,76,Mercy Medical Center
7.39,3.19,42.36227,-71.06941,MA,104000,36000,50,43,16,Massachusetts General Hospital
4.94,2.84,41.70928,-71.14519,MA,64000,30000,25,51,88,Southcoast Hospital Group Inc
3.62,2.93,42.12077,-72.60525,MA,43000,32000,33,61,82,Baystate Medical Center
6.84,3.05,42.72846,-71.16830,MA,95000,34000,50,73,33,Holy Family Hospital
3.22,3.37,42.33719,-71.10939,MA,37000,39000,33,71,33,Beth Israel Deaconess Medical Center
3.66,2.58,42.32919,-71.10626,MA,44000,26000,0,0,0,New England Baptist Hospital
4.33,2.52,42.17644,-70.95398,MA,55000,25000,66,70,48,South Shore Hospital
5.56,2.61,42.33149,-71.24568,MA,75000,27000,66,70,99,Newton-Wellesley Hospital
2.76,2.42,42.25232,-71.07515,MA,29000,24000,0,0,0,Milton Hospital Inc
6.02,3.10,42.33600,-71.10704,MA,82000,35000,66,40,20,Brigham And Women'S Hospital
4.74,3.44,42.34951,-71.06331,MA,61000,40000,50,63,85,Tufts Medical Center
6.11,3.23,42.27720,-71.75922,MA,83000,37000,50,36,29,Umass Memorial Medical Center Inc
3.51,2.84,42.48585,-71.20686,MA,41000,30000,66,76,16,Lahey Clinic Hospital
5.06,2.87,42.26633,-71.79760,MA,66000,31000,33,75,57,St Vincent Hospital
4.69,2.35,42.39466,-83.40537,MI,60000,22000,50,60,63,St Mary Mercy Hospital
3.79,2.47,43.20588,-86.20839,MI,46000,24000,50,76,57,Mercy Health Partners Mercy Campus
4.84,2.77,42.28551,-85.58042,MI,63000,29000,66,82,13,Bronson Methodist Hospital
4.78,2.71,42.45741,-83.20513,MI,62000,28000,83,57,48,Providence Hospital And Medical Centers
7.90,2.67,42.29077,-83.21504,MI,113000,28000,33,48,69,Oakwood Hospital And Medical Center
6.52,2.78,42.61425,-83.27602,MI,90000,29000,66,52,79,St Joseph Mercy Oakland
4.50,2.91,42.96881,-85.66649,MI,57000,32000,33,66,82,Spectrum Health - Butterworth Campus
3.96,2.28,43.58941,-83.86908,MI,49000,21000,33,55,98,Mclaren Bay Region
6.59,3.18,42.28388,-83.72960,MI,91000,36000,50,61,43,University Of Michigan Health System
5.76,2.54,42.61490,-82.96060,MI,78000,26000,50,66,54,Henry Ford Macomb Hospital
5.09,2.98,42.36762,-83.08461,MI,67000,33000,66,47,8,Henry Ford Hospital
4.67,2.65,46.54758,-87.39560,MI,60000,27000,83,67,48,Marquette General Hospital
3.87,2.70,42.95817,-85.66253,MI,47000,28000,50,53,90,Saint Mary'S Health Care
3.69,2.46,43.42857,-83.95556,MI,44000,24000,83,61,63,Covenant Medical Center Inc
5.40,2.44,42.77487,-86.11378,MI,72000,24000,0,0,0,Holland Community Hospital
2.99,2.44,43.42612,-83.94185,MI,33000,24000,66,63,57,St Mary'S Of Michigan Medical Center
4.18,2.46,42.38392,-82.91480,MI,52000,24000,50,62,51,Beaumont Hospital Grosse Pointe
4.77,2.35,42.25117,-84.39240,MI,62000,22000,50,85,98,Allegiance Health
3.74,2.62,44.76156,-85.64143,MI,45000,27000,50,41,57,Munson Medical Center
6.32,3.45,42.35230,-83.05676,MI,87000,40000,66,62,63,Harper University Hospital
3.11,2.50,45.37209,-84.97065,MI,35000,25000,50,77,24,Northern Michigan Regional Hospital
7.03,2.63,42.30489,-85.56152,MI,98000,27000,66,47,76,Borgess Medical Center
3.27,2.65,42.51418,-83.19259,MI,37000,27000,66,60,16,William Beaumont Hospital
4.44,2.84,45.03551,-84.67540,MI,56000,30000,0,0,0,Otsego Memorial Hospital
6.52,2.66,43.01399,-83.73250,MI,90000,28000,50,60,33,Mclaren Flint
5.61,2.51,42.21065,-83.14861,MI,75000,25000,50,70,95,Henry Ford Wyandotte Hospital
4.27,2.92,42.46176,-83.37629,MI,54000,32000,50,78,24,Botsford Hospital
5.10,2.54,42.26181,-83.66003,MI,67000,26000,66,62,33,St Joseph Mercy Hospital
4.69,2.77,42.41975,-82.91442,MI,60000,29000,66,72,9,St John Hospital And Medical Center
4.31,2.57,42.70417,-84.55488,MI,54000,26000,33,76,21,Mclaren - Greater Lansing
4.44,2.62,42.50514,-83.00422,MI,56000,27000,66,56,85,St John Macomb-Oakland Hospital-Macomb Center
5.94,2.64,42.89254,-83.63621,MI,81000,27000,66,70,13,Genesys Regional Medical Center - Health Park
6.48,2.39,42.98625,-82.42802,MI,90000,23000,50,62,29,Port Huron Hospital
2.84,2.54,43.63618,-84.26187,MI,30000,26000,50,72,69,Midmichigan Medical Center-Midland
6.01,2.53,42.58900,-82.89799,MI,82000,25000,66,61,63,Mount Clemens Regional Medical Center
5.76,2.71,42.73767,-84.51698,MI,78000,28000,83,68,1,Edward W Sparrow Hospital
4.63,2.77,42.85736,-85.71774,MI,59000,29000,50,66,48,Metro Health Hospital
6.27,2.41,42.67850,-83.14771,MI,86000,23000,50,65,79,Crittenton Hospital Medical Center
3.16,2.43,42.61826,-83.09239,MI,36000,24000,83,60,62,William Beaumont Hospital-Troy
7.44,3.23,42.35295,-83.05447,MI,105000,37000,66,65,5,Detroit Receiving Hospital & Univ Health Center
4.84,2.30,42.53914,-83.40777,MI,63000,22000,50,53,39,Henry Ford West Bloomfield Hospital
5.29,2.54,45.01403,-93.32177,MN,70000,26000,66,68,82,North Memorial Medical Center
6.38,2.77,46.79380,-92.09573,MN,88000,29000,83,75,79,Essentia Health St Mary'S Medical Center
4.57,2.84,44.02052,-92.48292,MN,58000,30000,83,42,32,Mayo Clinic - Saint Marys Hospital
4.27,2.50,45.87327,-95.37599,MN,54000,25000,0,0,0,Douglas County Hospital
6.25,2.80,45.57390,-94.16942,MN,86000,30000,50,61,37,St Cloud Hospital
7.00,2.53,44.94214,-93.10858,MN,98000,25000,50,86,33,United Hospital
5.31,2.53,46.79634,-92.08793,MN,70000,25000,50,71,29,St Lukes Hospital
4.17,2.46,44.93031,-93.36276,MN,52000,24000,66,72,94,Park Nicollet Methodist Hospital
6.99,2.79,44.95248,-93.26196,MN,98000,30000,50,70,63,Abbott Northwestern Hospital
6.00,2.84,44.94898,-93.10016,MN,82000,30000,33,66,57,St Joseph'S Hospital
3.93,2.40,45.04805,-92.81903,MN,48000,23000,0,0,0,Lakeview Memorial Hospital
5.44,2.64,44.88645,-93.32693,MN,73000,27000,66,62,94,Fairview Southdale Hospital
5.91,3.16,44.96766,-93.23640,MN,80000,36000,66,56,57,University Of Minnesota  Medical Center Fairview
2.58,2.53,44.16396,-94.00412,MN,26000,25000,50,57,76,Mayo Clinic Health System - Mankato
6.53,2.44,44.77252,-93.50323,MN,90000,24000,0,0,0,St Francis Regional Medical Center
5.68,2.96,44.95570,-93.09429,MN,77000,32000,50,78,17,Regions Hospital
5.61,2.52,45.18355,-93.36789,MN,75000,25000,50,73,95,Mercy Hospital
5.87,2.44,45.10789,-93.25685,MN,80000,24000,33,85,85,Unity Hospital
5.23,2.62,44.74846,-93.27289,MN,69000,27000,50,83,97,Fairview Ridges Hospital
5.77,2.78,45.02892,-93.03418,MN,78000,29000,50,75,24,Healtheast St John'S Hospital
4.70,2.41,44.91542,-92.94757,MN,61000,23000,0,0,0,Healtheast Woodwinds Hospital
5.04,2.36,45.13294,-93.47922,MN,66000,23000,0,0,0,Maple Grove Hospital
4.77,3.10,32.33069,-90.17030,MS,62000,35000,66,51,6,University Of Mississippi Med Center
3.63,2.40,34.24336,-88.71753,MS,43000,23000,66,61,48,North Mississippi Medical Center
7.48,2.43,30.39599,-88.89061,MS,106000,24000,50,80,48,Biloxi Regional Medical Center
6.14,2.36,34.93596,-88.55955,MS,84000,23000,50,72,79,Magnolia Regional Health Center
7.16,2.46,30.36674,-89.11535,MS,101000,24000,50,66,69,Memorial Hospital At Gulfport
9.90,2.99,30.37516,-88.53226,MS,145000,33000,50,70,3,Singing River Hospital
4.50,2.39,32.33616,-90.15652,MS,57000,23000,50,60,44,St Dominic-Jackson Memorial Hospital
3.06,2.42,31.31872,-89.32955,MS,34000,24000,50,57,54,Forrest General Hospital
3.85,2.39,31.32573,-89.36670,MS,47000,23000,50,56,20,Wesley Medical Center
11.18,2.71,32.28618,-90.03434,MS,166000,28000,50,68,6,Crossgates River Oaks Hospital
5.12,2.53,33.52568,-88.42742,MS,67000,25000,50,67,54,Baptist Mem Hosp/Golden Triangle Inc
4.13,2.23,32.31643,-90.17922,MS,51000,20000,66,43,85,Mississippi Baptist Medical Center
6.57,2.35,30.44411,-89.09321,MS,91000,23000,50,72,11,Garden Park Medical Center
6.56,2.42,32.32541,-90.10520,MS,91000,24000,0,0,0,River Oaks Hospital
3.95,2.36,34.96927,-89.99709,MS,48000,23000,50,68,11,Baptist Memorial Hospital Desoto
7.01,2.31,37.06032,-94.52747,MO,98000,22000,0,0,0,St John'S Regional Medical Center
3.71,2.71,39.77393,-94.77089,MO,45000,28000,50,58,51,Heartland Regional Medical Center
4.19,2.17,38.57670,-92.17352,MO,52000,20000,50,86,0,St Marys Health Center
4.94,2.40,38.64281,-90.44448,MO,64000,23000,83,57,74,Mercy Hospital St Louis
7.73,2.88,40.19296,-92.59085,MO,110000,31000,0,0,0,Northeast Regional Medical Center
7.59,2.64,39.00717,-94.55925,MO,108000,27000,33,82,5,Research Medical Center
7.82,3.49,38.63524,-90.26508,MO,111000,41000,50,56,12,Barnes Jewish Hospital
6.42,2.44,37.14560,-93.28037,MO,89000,24000,50,61,85,Cox Medical Center
6.97,2.69,37.17999,-93.27409,MO,97000,28000,66,61,24,St John'S Regional Health Center
4.69,2.20,38.94903,-92.31563,MO,61000,20000,66,73,43,Boone Hospital Center
4.05,2.27,38.50661,-90.38025,MO,50000,21000,66,57,13,St Anthony'S Medical Center
5.04,2.22,38.52738,-90.47501,MO,66000,20000,50,65,44,Ssm St Clare Health Center
5.44,2.27,38.93592,-94.60376,MO,73000,21000,50,75,88,St Joseph Medical Center
7.74,2.31,36.64970,-93.22138,MO,110000,22000,50,71,79,Skaggs Regional Medical Center
7.29,2.52,39.04749,-94.34105,MO,103000,25000,50,72,39,Centerpoint Medical Center Of Independence Llc
5.10,2.28,39.14957,-94.55148,MO,67000,21000,50,58,63,North Kansas City Hospital
4.76,2.37,38.75097,-90.43255,MO,62000,23000,66,68,43,Ssm Depaul Health Center
11.73,3.12,38.62280,-90.24049,MO,175000,35000,50,46,5,St Louis University Hospital
5.11,2.57,38.63702,-90.44699,MO,67000,26000,66,68,48,Missouri Baptist Medical Center
10.82,2.92,37.31072,-89.53990,MO,160000,32000,50,72,8,Southeast Missouri Hospital
13.64,3.79,36.88988,-89.58365,MO,206000,46000,0,0,0,Missouri Delta Medical Center
6.02,2.63,37.05238,-94.52777,MO,82000,27000,83,67,85,Freeman Health System - Freeman West
7.19,2.91,39.04761,-94.59037,MO,101000,32000,66,50,17,St Lukes Hospital Of Kansas City
7.24,2.85,38.95171,-92.33407,MO,102000,31000,66,60,63,University Of Missouri Health Care
7.05,2.42,38.58103,-90.45144,MO,99000,24000,50,70,43,Des Peres Hospital
3.93,2.57,38.65123,-90.50301,MO,48000,26000,66,67,12,St Lukes Hospital
6.77,2.43,38.77576,-90.23906,MO,94000,24000,66,75,4,Christian Hospital Northeast
13.03,3.36,37.30401,-89.57190,MO,196000,39000,50,65,11,St Francis Medical Center
4.24,2.42,38.79427,-90.58049,MO,53000,24000,50,75,32,Barnes-Jewish St Peters Hospital
4.37,2.28,38.80334,-90.77619,MO,55000,21000,50,65,82,Ssm St Joseph Hospital West
4.98,2.50,46.58297,-111.99684,MT,65000,25000,0,0,0,St Peter'S Hospital
6.38,2.45,45.78958,-108.51283,MT,88000,24000,50,86,88,Billings Clinic Hospital
4.84,2.55,47.49139,-111.26255,MT,63000,26000,50,61,57,Benefis Hospitals Inc
4.70,2.41,46.87545,-114.00033,MT,61000,23000,50,77,69,St Patrick Hospital
7.46,3.11,46.00924,-112.54613,MT,105000,35000,0,0,0,St James Healthcare
4.45,2.66,46.84691,-114.04640,MT,56000,28000,0,0,0,Community Medical Center Inc
6.22,2.59,45.79337,-108.51928,MT,85000,26000,50,81,54,St Vincent Healthcare
5.61,2.45,48.21465,-114.32386,MT,75000,24000,50,83,57,Kalispell Regional Medical Center
6.09,2.57,45.66969,-111.01991,MT,83000,26000,50,88,24,Bozeman Deaconess Hospital
5.35,2.54,40.78318,-96.63709,NE,71000,26000,66,70,63,Bryanlgh Medical Center
4.67,2.73,40.70646,-99.08136,NE,60000,29000,50,68,51,Good Samaritan Hospital
6.73,2.88,41.25522,-95.97892,NE,93000,31000,50,52,51,The Nebraska Medical Center
5.77,2.49,40.80816,-96.62689,NE,78000,25000,50,66,20,Saint Elizabeth Regional Medical Center
3.62,2.32,40.59160,-98.38755,NE,43000,22000,0,0,0,Mary Lanning Memorial Hospital
6.39,2.34,41.25797,-96.04164,NE,88000,22000,50,73,33,The Nebraska Methodist Hospital
6.01,2.40,41.23897,-96.03162,NE,82000,23000,50,46,82,Alegent Health Bergan Mercy Medical Center
5.86,2.75,41.88690,-103.66400,NE,79000,29000,50,58,85,Regional West Medical Center
8.63,2.63,41.32182,-96.02133,NE,124000,27000,25,71,51,Alegent Health Immanuel Medical Center
4.36,2.66,42.03257,-97.45100,NE,55000,28000,0,0,0,Faith Regional Health Services
4.94,2.34,41.23273,-96.13538,NE,65000,22000,0,0,0,Nebraska Orthopaedic Hospital
6.42,2.59,41.23771,-96.18052,NE,88000,26000,0,0,0,Alegent Health Lakeside Hospital
4.98,2.32,41.25751,-96.03663,NE,65000,22000,0,0,0,Midwest Surgical Hospital Llc
7.47,2.45,41.32146,-96.02188,NE,105000,24000,0,0,0,Nebraska Spine Hospital Llc
6.01,2.56,39.52637,-119.79456,NV,82000,26000,50,66,17,Renown Regional Medical Center
8.95,2.82,36.13459,-115.13576,NV,130000,30000,66,68,9,Sunrise Hospital And Medical Center
10.03,2.99,36.19568,-115.12284,NV,147000,33000,50,62,8,North Vista Hospital
7.68,2.74,36.15896,-115.16558,NV,109000,29000,33,60,0,Umc Of Southern Nevada
8.64,2.50,39.53066,-119.82067,NV,125000,25000,66,76,44,Saint Mary'S Regional Medical Center
6.06,4.12,39.20247,-119.78446,NV,83000,51000,50,56,69,Carson Tahoe Regional Medical Center
9.91,2.62,36.16380,-115.16574,NV,145000,27000,66,70,54,Valley Hospital Medical Center
10.57,2.52,39.54241,-119.69736,NV,156000,25000,0,0,0,Northern Nevada Medical Center
7.73,2.47,36.21599,-115.25095,NV,110000,24000,66,57,13,Mountainview Hospital
8.91,2.50,36.00527,-115.11618,NV,129000,25000,50,50,33,Saint Rose Dominican Hospital - Siena Campus
11.52,2.45,36.09056,-115.24058,NV,171000,24000,66,78,12,Spring Valley Hospital Medical Center
7.11,2.56,36.07216,-115.29538,NV,100000,26000,50,81,1,Southern Hills Hospital And Medical Center
5.14,2.39,39.19862,-119.78154,NV,68000,23000,0,0,0,Sierra Surgery Hospital
8.62,2.45,36.05712,-115.27116,NV,124000,24000,50,78,18,Saint Rose Dominican Hospital - San Martin Campus
4.46,2.52,43.19846,-71.56230,NH,57000,25000,33,63,94,Concord Hospital
4.39,3.07,43.67286,-72.27232,NH,56000,34000,50,38,0,Mary Hitchcock Memorial Hospital
6.71,2.67,43.52835,-71.46291,NH,93000,28000,0,0,0,Lakes Region General Hospital
4.61,2.40,43.00792,-71.46807,NH,59000,23000,50,57,21,Elliot Hospital
6.39,2.87,43.21231,-70.87499,NH,88000,31000,50,73,3,Wentworth-Douglass Hospital
4.80,2.51,42.75623,-71.46059,NH,62000,25000,50,81,54,Southern Nh Medical Center
8.84,2.82,42.99121,-71.47426,NH,128000,30000,33,63,92,Catholic Medical Center
7.67,3.20,40.88346,-74.05564,NJ,109000,36000,50,58,85,Hackensack University Medical Center
6.86,2.58,40.88275,-74.01021,NJ,96000,26000,66,67,57,Holy Name Medical Center
6.86,2.53,40.35684,-74.66166,NJ,96000,25000,50,56,21,University Medical Center At Princeton
5.92,2.57,40.98359,-74.10047,NJ,80000,26000,50,78,21,Valley Hospital
10.45,3.07,39.94152,-75.11680,NJ,154000,34000,66,42,2,Cooper University Hospital
6.44,2.84,40.78883,-74.46620,NJ,89000,30000,66,43,39,Morristown Memorial Hospital
5.60,3.11,40.90215,-74.16634,NJ,75000,35000,16,53,94,St Joseph'S Regional Medical Center
10.78,2.91,39.78261,-74.91670,NJ,159000,31000,50,52,74,Virtua West Jersey Hospitals Berlin
8.49,2.91,39.44743,-75.05838,NJ,122000,31000,50,62,1,South Jersey Healthcare Regional Medical Center
7.86,2.41,40.35309,-74.06484,NJ,112000,24000,33,61,69,Riverview Medical Center
8.49,2.93,40.49581,-74.44980,NJ,122000,32000,66,51,1,Robert Wood Johnson University Hospital
4.64,2.14,39.96484,-74.21708,NJ,60000,19000,50,47,88,Community Medical Center
5.42,2.84,40.90400,-73.96847,NJ,72000,30000,66,81,54,Englewood Hospital And Medical Center
11.25,2.45,39.31464,-74.59391,NJ,167000,24000,16,72,82,Shore Medical Center
8.71,2.49,40.56804,-74.59579,NJ,126000,25000,50,67,29,Somerset Medical Center
7.30,2.44,40.89538,-74.46479,NJ,103000,24000,50,63,69,Saint Clare'S Hospital
6.64,2.78,40.71264,-74.35460,NJ,92000,29000,50,52,57,Overlook Hospital
7.26,2.72,40.07832,-74.13009,NJ,102000,28000,50,57,48,Ocean Medical Center
9.65,2.52,39.98588,-74.79393,NJ,141000,25000,66,55,54,Virtua Memorial Hospital Of Burlington County
30.00,2.86,40.04632,-74.88059,NJ,471000,31000,50,48,6,Lourdes Medical Center Of Burlington County
9.35,2.58,39.35775,-74.43449,NJ,136000,26000,66,65,88,Atlanticare Regional Medical Center - City Div
7.96,2.37,39.58815,-75.18044,NJ,114000,23000,0,0,0,South Jersey Healthcare-Elmer Hospital
9.04,2.91,40.50214,-74.46015,NJ,131000,32000,50,53,29,Saint Peter'S University Hospital
6.84,2.54,40.21065,-74.03566,NJ,95000,26000,50,58,6,Jersey Shore University Medical Center
7.48,2.83,40.29563,-73.98518,NJ,106000,30000,50,50,85,Monmouth Medical Center
7.60,2.93,40.76190,-74.30335,NJ,108000,32000,83,53,2,Saint Barnabas Medical Center
5.60,2.58,40.55784,-74.34970,NJ,75000,26000,50,71,57,Jfk Medical Ctr - Anthony M. Yelencsics Community
6.02,2.38,40.23861,-74.31289,NJ,82000,23000,33,68,13,Centrastate Medical Center
11.99,2.36,40.40516,-74.19203,NJ,179000,23000,50,81,98,Bayshore Community Hospital
6.18,2.50,40.85399,-74.82906,NJ,85000,25000,0,0,0,Hackettstown Regional Medical Center
12.84,4.65,40.73925,-74.19276,NJ,193000,60000,33,55,11,Umdnj University Hospital
7.22,3.45,35.08838,-106.61590,NM,101000,40000,83,46,11,Unm Hospital
6.82,3.03,35.65960,-105.94578,NM,95000,33000,50,65,29,St Vincent Hospital
5.70,2.88,36.72387,-108.21749,NM,77000,31000,50,71,82,San Juan Regional Medical Center
13.33,2.77,33.42340,-104.52748,NM,201000,29000,50,78,12,Eastern New Mexico Medical Center
5.83,2.43,35.08603,-106.63950,NM,79000,24000,66,62,54,Lovelace Medical Center
6.47,2.52,32.29186,-106.73470,NM,89000,25000,50,63,3,Memorial Medical Center Inc
5.15,2.60,35.08102,-106.63392,NM,68000,27000,33,51,3,Presbyterian Hospital
8.72,2.82,35.08729,-106.63687,NM,126000,30000,0,0,0,Heart Hospital Of New Mexico
5.06,2.36,32.32310,-106.72900,NM,66000,23000,50,68,16,Mountain View Regional Medical Center
3.66,2.20,42.67460,-73.74858,NY,44000,20000,0,0,0,Albany Memorial Hospital
5.33,2.78,42.87482,-78.84942,NY,71000,29000,33,45,8,Kaleida Health
3.73,2.33,42.09299,-75.93704,NY,45000,22000,50,73,99,Our Lady Of Lourdes Memorial Hospital Inc
4.41,2.71,42.65345,-73.77543,NY,56000,28000,66,60,63,Albany Medical Center Hospital
4.73,3.50,40.79041,-73.95386,NY,61000,41000,83,38,5,Mount Sinai Hospital
7.63,2.82,40.87946,-73.41621,NY,108000,30000,50,66,39,Huntington Hospital
7.66,3.58,40.80556,-73.96131,NY,109000,42000,33,56,5,St Luke'S Roosevelt Hospital
4.32,2.52,41.93603,-73.91320,NY,54000,25000,0,0,0,Northern Dutchess Hospital
4.66,3.19,40.74722,-73.82521,NY,60000,36000,66,63,79,New York Hospital Medical Center Of Queens
4.49,2.28,42.65583,-73.80372,NY,57000,21000,33,47,54,St Peter'S Hospital
2.80,2.31,42.87637,-76.98820,NY,30000,22000,0,0,0,Geneva General Hospital
6.47,3.68,40.87987,-73.87996,NY,89000,44000,50,38,44,Montefiore Medical Center
3.99,2.71,43.09378,-79.05038,NY,49000,28000,0,0,0,Niagara Falls Memorial Medical Center
5.03,2.95,41.71846,-73.92710,NY,66000,32000,50,80,79,St Francis Hospital
2.92,2.49,42.92866,-78.84819,NY,32000,25000,50,55,29,Sisters Of Charity Hospital
4.44,2.64,42.10076,-76.82800,NY,56000,27000,50,65,33,Arnot Ogden Medical Center
6.01,3.50,40.76487,-73.95398,NY,82000,41000,33,32,74,New York-Presbyterian Hospital
3.94,2.42,42.97762,-78.88045,NY,48000,24000,50,71,57,Kenmore Mercy Hospital
6.49,3.22,40.77686,-73.70212,NY,90000,37000,33,61,69,North Shore University Hospital
9.29,2.69,40.93376,-72.67383,NY,135000,28000,0,0,0,Peconic Bay Medical Center
7.91,3.28,40.77362,-73.96093,NY,113000,38000,33,46,11,Lenox Hill Hospital
4.00,2.41,43.19244,-77.58590,NY,49000,23000,66,46,17,Rochester General Hospital
5.82,2.64,41.44138,-74.36821,NY,79000,27000,50,62,69,Orange Regional Medical Center
5.39,2.66,43.05571,-76.14981,NY,72000,28000,83,37,20,St Joseph'S Hospital Health Center
3.08,2.44,43.00561,-76.17002,NY,34000,24000,0,0,0,Community-General Hospital Of Greater Syracuse
5.09,2.74,41.19677,-73.72572,NY,67000,29000,50,68,69,Northern Westchester Hospital
3.72,2.55,43.13562,-77.60602,NY,45000,26000,50,43,10,Highland Hospital
10.32,3.33,40.74083,-73.64306,NY,152000,38000,66,50,74,Winthrop-University Hospital
6.65,3.59,40.73265,-73.98162,NY,92000,43000,50,60,39,Beth Israel Medical Center
5.13,3.19,40.91276,-73.78720,NY,68000,36000,50,83,6,Sound Shore Medical Center Of Westschester
4.99,3.60,40.75332,-73.70899,NY,65000,43000,50,45,90,Long Island Jewish Medical Center
6.72,2.73,40.65189,-73.63096,NY,93000,29000,50,52,43,South Nassau Communities Hospital
3.73,2.69,43.04139,-76.13803,NY,45000,28000,50,41,1,Crouse Hospital
3.67,3.07,40.96967,-73.88447,NY,44000,34000,50,75,85,St John'S Riverside Hospital
8.54,3.36,40.74335,-73.97408,NY,123000,39000,33,63,21,Nyu Hospitals Center
4.01,2.98,42.92531,-78.83111,NY,49000,33000,66,63,13,Erie County Medical Center
4.37,2.27,43.08561,-73.79712,NY,55000,21000,50,58,29,Saratoga Hospital
3.13,2.40,43.19054,-77.70177,NY,35000,23000,50,45,82,Unity Hospital Of Rochester
3.07,2.39,42.74285,-73.67673,NY,34000,23000,50,52,69,Seton Health System-St Mary'S Campus
9.46,3.52,41.08773,-73.80395,NY,138000,41000,50,42,63,Westchester Medical Center
5.11,3.02,43.04269,-76.14043,NY,67000,33000,66,41,3,University Hospital S U N Y Health Science Center
6.20,3.10,40.94779,-73.06033,NY,85000,35000,50,58,29,St Charles Hospital
4.53,2.56,42.81327,-75.54316,NY,58000,26000,0,0,0,Community Memorial Hospital Inc
5.13,2.68,41.50307,-74.01517,NY,68000,28000,33,81,95,St Luke'S Cornwall Hospital
5.80,2.98,40.76488,-73.95302,NY,78000,33000,0,0,0,Hospital For Special Surgery
3.57,2.33,42.84782,-78.81264,NY,42000,22000,50,68,13,Mercy Hospital
2.52,2.80,43.12266,-77.62360,NY,25000,30000,50,55,21,Strong Memorial Hospital
8.01,3.70,40.69327,-73.29412,NY,114000,44000,50,70,74,Good Samaritan Hospital Medical Center
5.93,3.30,40.77481,-73.47968,NY,80000,38000,50,56,20,Plainview Hospital
5.82,3.45,40.90922,-73.11520,NY,79000,40000,50,60,44,University Hospital ( Stony Brook )
4.65,2.54,42.11422,-75.95851,NY,60000,26000,66,48,92,United Health Services Hospitals Inc
5.66,2.46,35.43754,-80.60147,NC,76000,24000,66,65,16,Carolinas Medical Center-Northeast
5.09,2.58,35.57658,-82.54922,NC,67000,26000,66,40,81,Memorial Mission Hospital And Asheville Surgery Ce
5.42,2.39,35.95000,-80.00000,NC,72000,23000,50,66,39,High Point Regional Hospital
3.83,2.51,36.07581,-80.29779,NC,46000,25000,50,52,39,Forsyth Memorial Hospital
4.48,2.36,35.68172,-80.47072,NC,57000,23000,50,80,76,Rowan Regional Medical Center
5.20,2.33,35.32080,-82.46812,NC,69000,22000,0,0,0,Margaret R Pardee Memorial Hospital
7.45,2.62,35.03156,-78.93205,NC,105000,27000,50,50,18,Cape Fear Valley Medical Center
7.49,3.07,36.00850,-78.94006,NC,106000,34000,66,43,76,Duke University Hospital
4.08,2.17,35.27341,-81.13688,NC,51000,20000,50,70,69,Gaston Memorial Hospital
8.07,3.08,35.60726,-77.40477,NC,115000,34000,50,46,1,Pitt County Memorial Hospital
5.47,2.90,36.09062,-80.27161,NC,73000,31000,83,55,57,North Carolina Baptist Hospital
5.55,2.29,36.04290,-78.89690,NC,74000,22000,0,0,0,North Carolina Specialty Hospital
10.22,3.29,34.63723,-79.01213,NC,150000,38000,50,71,63,Southeastern Regional Medical Center
7.38,2.56,35.22196,-80.83287,NC,104000,26000,50,63,13,Presbyterian Hospital
7.61,2.64,35.78523,-78.58836,NC,108000,27000,33,50,79,Wakemed Raleigh Campus
7.60,2.68,35.82915,-78.61922,NC,108000,28000,50,81,79,Duke Health Raleigh Hospital
3.73,2.46,36.09251,-79.78855,NC,45000,24000,66,66,51,Moses H Cone Memorial Hospital The
6.41,2.42,35.21029,-80.82084,NC,88000,24000,50,53,51,Carolinas Med Center-Mercy
6.61,2.62,35.92115,-77.55585,NC,92000,27000,50,85,6,Heritage Hospital
6.90,2.86,35.20397,-80.83908,NC,96000,31000,66,63,24,Carolinas Medical Center/Behav Health
7.30,2.34,35.81801,-78.70283,NC,103000,22000,50,65,54,Rex Hospital
4.56,2.39,35.20554,-79.45645,NC,58000,23000,66,60,44,Firsthealth Moore Regional Hospital
7.69,2.30,35.73751,-81.33702,NC,109000,22000,50,67,17,Frye Regional Medical Center
7.50,2.28,35.54775,-80.85563,NC,106000,21000,50,82,4,Lake Norman Regional Medical Center
4.99,2.58,35.11420,-77.06568,NC,65000,26000,33,73,90,Carolina East Medical Center
7.43,2.69,34.23786,-77.94764,NC,105000,28000,83,70,57,New Hanover Regional Medical Center
6.39,2.55,35.71664,-81.26661,NC,88000,26000,50,72,63,Catawba Valley Medical Center
4.36,2.56,35.97538,-77.85012,NC,55000,26000,50,65,13,Nash General Hospital
6.30,2.30,35.21076,-80.82359,NC,86000,22000,0,0,0,Presbyterian-Orthopaedic Hospital
7.83,2.85,36.04960,-78.90617,NC,111000,31000,50,51,69,Durham Regional Hospital
7.46,2.44,35.74046,-78.78127,NC,105000,24000,50,72,13,Wakemed Cary Hospital
7.01,2.61,35.52586,-82.94351,NC,98000,27000,0,0,0,Medwest Haywood
5.24,2.49,46.80739,-100.77773,ND,69000,25000,50,72,76,St Alexius Medical Center
4.97,2.54,46.88496,-96.78609,ND,65000,26000,66,61,48,Sanford Medical Center Fargo
4.74,2.39,46.83250,-96.82805,ND,61000,23000,33,77,20,Essentia Health-Fargo
3.02,2.45,39.08582,-84.34886,OH,33000,24000,50,72,85,Mercy Hospital Anderson
8.44,3.49,39.13707,-84.50392,OH,121000,41000,66,45,21,University Hospital Inc
6.33,2.52,40.03064,-83.03440,OH,87000,25000,83,71,21,Riverside Methodist Hospital
9.19,2.82,40.11479,-82.94677,OH,133000,30000,50,66,12,Mount Carmel St Ann'S Hospital
7.48,2.79,39.96098,-82.99077,OH,106000,30000,66,78,21,Grant Medical Center
4.81,2.37,41.44642,-82.70864,OH,62000,23000,50,86,18,Firelands Regional Medical Center
4.78,2.53,41.07747,-81.53042,OH,62000,25000,66,70,63,Akron General Medical Center
9.39,3.00,39.95805,-83.02191,OH,137000,33000,66,42,1,Mount Carmel Health
5.71,2.73,41.49640,-81.67376,OH,77000,29000,25,55,63,St Vincent Charity Medical Center
4.06,2.55,39.97510,-82.01812,OH,50000,26000,50,78,92,Genesis Healthcare System
6.72,2.85,41.61788,-83.61632,OH,93000,31000,66,68,6,University Of Toledo Medical Center
7.75,2.59,39.74547,-84.18523,OH,110000,26000,66,45,1,Miami Valley Hospital
5.84,2.30,39.31257,-84.51774,OH,79000,22000,50,90,69,Mercy Hospital Fairfield
3.81,3.10,41.46088,-81.69763,OH,46000,35000,50,60,24,Metro Health Medical Center
5.00,2.43,41.11441,-80.65565,OH,65000,24000,83,48,21,St Elizabeth Health Center
8.97,2.54,40.74115,-84.11804,OH,130000,25000,66,73,6,St Rita'S Medical Center
7.44,2.56,41.67775,-83.59589,OH,105000,26000,33,70,57,Toledo Hospital The
3.47,2.45,40.81219,-81.39625,OH,41000,24000,50,62,43,Mercy Medical Center
6.30,2.46,39.49896,-84.31496,OH,87000,24000,50,63,33,Atrium Medical Center
3.74,2.26,41.17554,-81.24915,OH,45000,21000,50,76,37,Robinson Memorial Hospital
7.73,2.49,39.69724,-84.19232,OH,110000,25000,66,80,57,Kettering Medical Center
7.64,2.43,41.63639,-83.48640,OH,108000,24000,50,83,56,Mercy St Charles Hospital
3.77,2.33,40.79609,-81.40360,OH,46000,22000,50,63,17,Aultman Hospital
10.30,3.27,39.99445,-83.01872,OH,152000,37000,66,50,2,Ohio State University Hospitals
6.25,2.45,41.48724,-81.70707,OH,86000,24000,0,0,0,Lutheran Hospital
4.23,2.31,41.55725,-83.68141,OH,53000,22000,50,65,85,St Luke'S Hospital
3.64,2.22,41.13762,-81.83820,OH,43000,20000,50,90,85,Medina Hospital
7.55,3.57,41.01785,-83.65165,OH,107000,42000,50,82,69,Blanchard Valley Hospital
4.29,2.22,41.66317,-81.24696,OH,54000,20000,50,73,39,Lake Health
6.93,2.91,41.66810,-83.54275,OH,97000,32000,50,70,5,Mercy St Vincent Medical Center
4.31,2.42,40.75264,-82.52803,OH,54000,24000,83,81,92,Medcentral Health System
4.90,2.47,41.43653,-81.94451,OH,64000,24000,50,72,76,St John Medical Center
8.43,2.75,39.76950,-84.20285,OH,121000,29000,66,65,90,Grandview Hospital & Medical Center
6.57,2.67,39.13975,-84.52173,OH,91000,28000,66,83,69,Good Samaritan Hospital
5.51,2.95,41.50772,-81.60592,OH,74000,32000,83,46,44,University Hospitals Of Cleveland
6.95,2.46,41.13385,-80.65678,OH,97000,24000,50,62,5,Northside Medical Center
3.28,2.24,41.36649,-82.09708,OH,37000,21000,66,75,98,Emh Regional Medical Center
6.07,2.26,39.43061,-81.46454,OH,83000,21000,50,71,99,Marietta Memorial Hospital
8.06,2.36,41.13297,-81.51061,OH,115000,23000,0,0,0,Summa Western Reserve Hospital
6.19,2.26,41.37028,-81.83189,OH,85000,21000,50,71,74,Southwest General Health Center
3.71,2.46,39.39463,-82.96979,OH,44000,24000,50,50,24,Adena Regional Medical Center
7.92,2.72,39.12105,-84.51059,OH,113000,28000,83,46,88,Christ Hospital
3.57,2.33,41.43688,-82.23761,OH,42000,22000,50,82,69,Mercy Regional Medical Center
6.17,2.48,39.25076,-84.34341,OH,84000,25000,50,62,99,Bethesda North Hospital
5.60,2.76,41.50248,-81.62110,OH,75000,29000,33,32,24,Cleveland Clinic
4.99,2.29,41.52013,-81.43291,OH,65000,22000,66,45,37,Hillcrest Hospital
3.52,2.57,39.20463,-84.57093,OH,41000,26000,50,67,39,Mercy Franciscan Hospital - Mt Airy
7.59,2.33,41.69195,-83.62455,OH,107000,22000,50,81,27,Mercy St Anne Hospital
4.83,2.49,40.08713,-82.79236,OH,63000,25000,0,0,0,Mount Carmel New Albany Surgical Hospital
5.03,2.47,40.04256,-82.46489,OH,66000,24000,0,0,0,Medical Center Of Newark Llc
5.23,2.41,40.09970,-83.16551,OH,69000,23000,0,0,0,Dublin Methodist Hospital
2.78,2.22,41.09698,-81.51355,OH,29000,20000,0,0,0,Crystal Clinic Orthopaedic Center
7.48,2.72,39.35830,-84.36785,OH,106000,28000,50,93,57,West Chester Medical Center
5.65,2.85,36.14687,-95.96841,OK,76000,31000,83,76,32,Hillcrest Medical Center
12.81,2.60,35.22999,-97.44074,OK,192000,26000,50,73,21,Norman Regional Health System
6.47,2.40,35.60735,-97.59693,OK,89000,23000,66,51,6,Mercy Health Center Inc
8.93,2.77,35.52960,-97.57496,OK,129000,29000,100,76,90,Integris Baptist Medical Center
4.73,2.75,35.47800,-97.52352,OK,61000,29000,66,58,33,St Anthony Hospital
5.18,2.54,34.18908,-97.14128,OK,68000,26000,50,51,24,Mercy Memorial Health Center
4.51,2.31,34.60992,-98.43419,OK,58000,22000,50,62,48,Comanche County Memorial Hospital
4.28,2.47,36.06135,-95.95154,OK,54000,24000,83,61,44,Saint Francis Hospital Inc
7.13,3.06,35.48138,-97.49624,OK,100000,34000,66,45,1,O U Medical Center
8.16,2.69,34.59434,-98.46105,OK,117000,28000,0,0,0,Southwestern Medical Center
7.76,2.71,36.13393,-95.96718,OK,110000,28000,50,51,11,St John Medical Center Inc
13.03,2.91,36.03590,-95.86511,OK,196000,31000,50,60,29,Southcrest Hospital
6.51,2.45,35.37587,-97.57038,OK,90000,24000,0,0,0,Community Hospital
5.95,2.22,35.61401,-97.58224,OK,81000,20000,0,0,0,Oklahoma Spine Hospital
3.02,2.27,36.04382,-95.95356,OK,33000,21000,0,0,0,Oklahoma Surgical Hospital Llc
6.48,2.47,36.06382,-96.00428,OK,89000,24000,0,0,0,Tulsa Spine & Specialty Hospital
6.53,2.66,35.42056,-97.53414,OK,90000,27000,0,0,0,Orthopedic Hospital
4.16,2.19,35.56848,-97.51114,OK,52000,20000,0,0,0,Mcbride Clinic Orthopedic Hospital  L L C
6.05,2.20,35.63574,-97.49953,OK,82000,20000,0,0,0,Summit Medical Center
3.23,2.26,35.78090,-95.35819,OK,37000,21000,0,0,0,Muskogee Community Hospital
7.19,2.30,35.38969,-97.42688,OK,101000,22000,50,100,90,Oklahoma Heart Hospital South
4.12,2.66,45.50973,-122.77368,OR,51000,28000,33,55,13,Providence St Vincent Medical Center
6.40,2.78,42.20605,-122.72492,OR,88000,29000,0,0,0,Ashland Community Hospital
5.96,3.05,45.54248,-122.66972,OR,81000,34000,50,62,21,Legacy Emanuel Medical Center
5.04,3.15,45.49956,-122.68802,OR,66000,35000,66,47,6,Ohsu Hospital And Clinics
5.70,2.68,44.60322,-123.25312,OR,77000,28000,33,58,5,Good Samaritan Regional Medical Center
4.58,2.75,45.53028,-122.69692,OR,59000,29000,50,93,39,Legacy Good Samaritan Medical Center
5.97,2.54,42.31769,-122.83333,OR,81000,26000,66,61,90,Rogue Valley Medical Center
4.82,2.48,44.05330,-123.00351,OR,63000,25000,50,67,1,Mckenzie-Willamette Medical Center
5.99,2.61,45.51993,-122.97759,OR,82000,27000,0,0,0,Tuality Community Hospital
6.44,2.79,44.06773,-121.26817,OR,89000,30000,66,70,37,St Charles Medical Center - Bend
4.65,2.86,42.25296,-121.78512,OR,60000,31000,0,0,0,Sky Lakes Medical Center
5.10,2.59,44.93267,-123.03418,OR,67000,26000,66,72,24,Salem Hospital
4.60,2.67,45.51288,-122.55630,OR,59000,28000,50,86,16,Adventist Medical Center
4.70,2.74,45.52677,-122.61469,OR,61000,29000,66,75,0,Providence Portland Medical Center
5.26,2.54,45.19897,-123.16482,OR,70000,25000,0,0,0,Willamette Valley Medical Center
5.45,2.39,42.34086,-122.86108,OR,73000,23000,50,61,54,Providence Medford Medical Center
3.27,2.41,45.37908,-122.74083,OR,37000,23000,50,81,54,Legacy Meridian Park Medical Center
5.89,3.17,43.38402,-124.23280,OR,80000,36000,0,0,0,Bay Area Hospital
4.95,2.60,44.08146,-123.02694,OR,65000,27000,50,60,24,Sacred Heart Medical Center - Riverbend
5.71,2.37,41.40075,-75.64594,PA,77000,23000,50,77,94,Community Medical Center
5.55,2.24,40.25296,-76.92151,PA,74000,21000,83,85,95,Holy Spirit Hospital
7.11,2.89,40.96789,-76.60506,PA,100000,31000,33,56,13,Geisinger Medical Center
9.22,2.43,42.11102,-80.07912,PA,134000,24000,50,72,57,Saint Vincent Health Center
3.64,2.23,40.97877,-76.88593,PA,43000,21000,0,0,0,Evangelical Community Hospital
5.82,2.67,40.43609,-79.98537,PA,79000,28000,83,61,8,Upmc Mercy
3.47,2.20,40.54345,-80.17760,PA,41000,20000,50,80,54,Heritage Valley Sewickley
4.76,2.33,40.18302,-80.24767,PA,62000,22000,50,76,94,Washington Hospital The
6.49,2.74,40.33271,-75.95020,PA,90000,29000,50,67,21,Reading Hospital Medical Center
4.62,2.38,41.24548,-77.01438,PA,59000,23000,50,57,37,Williamsport Regional Medical Center
4.63,2.90,39.94604,-76.71884,PA,59000,31000,66,45,8,York Hospital
12.67,2.86,40.60811,-75.39260,PA,190000,31000,66,53,57,St Luke'S Hospital Bethlehem
4.52,2.61,40.45705,-80.00363,PA,58000,27000,83,70,44,Allegheny General Hospital
6.48,2.37,40.04093,-76.32139,PA,89000,23000,50,75,54,Lancaster Regional Medical Center
7.95,2.62,42.13338,-80.08703,PA,113000,27000,66,50,33,Upmc Hamot
3.59,2.57,40.25661,-76.87572,PA,43000,26000,83,47,0,Pinnacle Health Hospitals
4.59,2.31,40.52204,-78.39824,PA,59000,22000,83,61,39,Altoona Regional Health System
13.99,2.43,40.00955,-75.78622,PA,211000,24000,50,73,63,Brandywine Hospital
4.15,2.56,40.37587,-75.97750,PA,52000,26000,50,70,51,St Joseph Medical Center
6.57,2.49,40.11139,-75.09250,PA,91000,25000,50,72,69,Holy Redeemer Hospital And Medical Center
5.00,2.44,40.04740,-76.30540,PA,65000,24000,66,60,82,Lancaster General Hospital
9.41,2.37,40.48928,-79.89596,PA,137000,23000,50,72,63,Upmc St Margaret
4.90,2.18,40.57319,-80.01455,PA,64000,20000,50,57,48,Upmc Passavant
5.07,2.39,40.32674,-78.92197,PA,67000,23000,50,61,3,Conemaugh Valley Memorial Hospital
11.03,3.26,39.95045,-75.19259,PA,163000,37000,50,33,39,Hospital Of Univ Of Pennsylvania
4.62,2.35,41.64205,-80.14579,PA,59000,22000,50,86,92,Meadville Medical Center
4.65,2.74,40.43754,-79.96040,PA,60000,29000,66,57,57,Magee Womens Hospital Of Upmc Health System
20.89,2.82,40.24397,-75.61364,PA,323000,30000,50,83,48,Pottstown Memorial Medical Center
16.49,2.48,40.12344,-75.51493,PA,252000,25000,50,62,12,Phoenixville Hospital
9.65,2.60,40.60000,-75.47000,PA,141000,26000,66,58,54,Lehigh Valley Hospital
6.12,2.45,40.01883,-75.32115,PA,84000,24000,50,71,85,Main Line Hospital Bryn Mawr Campus
11.54,3.39,40.03678,-75.14351,PA,172000,39000,66,62,4,Albert Einstein Medical Center
5.08,2.33,39.93492,-77.64744,PA,67000,22000,50,58,48,Chambersburg Hospital
5.44,2.47,40.04475,-75.50425,PA,73000,24000,50,71,20,Main Line Hospital Paoli
11.94,2.56,40.68708,-75.24272,PA,178000,26000,66,68,3,Easton Hospital
9.86,2.72,40.44190,-79.96044,PA,144000,28000,83,55,11,Upmc Presbyterian Shadyside
8.62,3.10,39.94969,-75.15712,PA,124000,35000,66,41,57,Thomas Jefferson University Hospital
12.32,2.68,39.85598,-75.36791,PA,184000,28000,66,56,13,Crozer Chester Medical Center
7.01,2.66,39.98905,-75.27707,PA,98000,27000,50,53,24,Main Line Hospital Lankenau
11.19,2.72,40.60798,-75.46817,PA,166000,28000,0,0,0,Sacred Heart Hospital
4.18,2.74,40.99225,-75.17466,PA,52000,29000,50,90,63,Pocono Medical Center
4.72,2.38,40.30531,-75.14763,PA,61000,23000,33,83,92,Doylestown Hospital
3.27,2.33,40.32100,-79.39458,PA,37000,22000,50,83,92,Excela Health Latrobe Hospital
8.10,2.37,39.91254,-75.43047,PA,116000,23000,50,90,79,Riddle Memorial Hospital
4.86,2.27,40.18739,-76.18224,PA,63000,21000,50,72,6,Ephrata Community Hospital
5.84,2.84,39.94560,-75.15561,PA,79000,30000,50,56,69,Pennsylvania Hosp Of The Univ Of Pa Health Sys
5.79,2.18,40.37782,-80.06589,PA,78000,20000,66,81,21,St Clair Memorial Hospital
5.35,2.58,40.12077,-75.11818,PA,71000,26000,83,51,43,Abington Memorial Hospital
6.34,3.10,40.26468,-76.67582,PA,87000,35000,66,40,3,Milton S Hershey Medical Center
8.12,2.37,40.20064,-74.92952,PA,116000,23000,33,71,44,St Mary Medical Center
3.99,2.16,40.31802,-79.93494,PA,49000,19000,50,83,88,Jefferson Regional Medical Center
4.32,2.43,40.42897,-79.74808,PA,54000,24000,50,57,57,Western Pennsylvania Hosp Forbes Regional Campus
6.93,2.47,40.81936,-77.84273,PA,97000,24000,50,91,57,Mount Nittany Medical Center
10.65,2.61,41.25855,-75.81041,PA,157000,27000,66,86,2,Geisinger Wyoming Valley Medical Center
8.08,2.38,40.35854,-75.98805,PA,115000,23000,0,0,0,Surgical Institute Of Reading
3.11,2.22,39.91688,-76.69684,PA,35000,20000,0,0,0,Oss Orthopaedic Hospital
4.05,2.94,41.86943,-71.37561,RI,50000,32000,50,66,6,Memorial Hospital Of Rhode Island
3.81,2.85,41.83350,-71.43529,RI,46000,31000,50,55,29,Roger Williams Medical Center
4.73,2.52,41.85574,-71.45945,RI,61000,25000,50,67,76,St Joseph Health Services Of Ri
3.53,2.43,41.49735,-71.30619,RI,42000,24000,0,0,0,Newport Hospital
4.59,3.08,41.81254,-71.40760,RI,59000,34000,33,48,6,Rhode Island Hospital
2.99,2.53,41.70541,-71.47790,RI,33000,25000,50,50,39,Kent County Memorial Hospital
3.73,2.65,41.85172,-71.39826,RI,45000,27000,66,51,63,Miriam Hospital
4.32,2.42,34.95535,-81.05137,SC,54000,24000,50,75,33,Piedmont Medical Center
6.56,3.23,32.78272,-79.94543,SC,91000,37000,33,76,69,Musc Medical Center
5.22,2.58,34.96733,-81.94021,SC,69000,26000,33,60,54,Spartanburg Regional Medical Center
8.92,2.82,34.02839,-81.03539,SC,129000,30000,33,43,21,Palmetto Health Richland
7.55,2.75,33.37683,-79.29450,SC,107000,29000,0,0,0,Georgetown Memorial Hospital
8.27,2.39,34.83965,-82.42147,SC,118000,23000,66,66,11,St Francis-Downtown
4.46,2.22,34.01469,-81.01343,SC,57000,20000,50,85,29,Sisters Of Charity Providence Hospitals
9.88,2.66,34.51119,-82.64683,SC,145000,28000,50,61,94,Anmed Health
4.37,2.41,34.47263,-81.88066,SC,55000,24000,0,0,0,Laurens County Healthcare System
6.46,2.48,33.78555,-79.00178,SC,89000,25000,50,90,69,Conway Medical Center
7.30,2.55,34.19543,-79.76256,SC,103000,26000,50,50,79,Mcleod Regional Medical Center-Pee Dee
4.56,2.47,32.80878,-80.04216,SC,58000,24000,50,61,69,Bon Secours-St Francis Xavier Hospital
6.40,2.58,32.33977,-80.68817,SC,88000,26000,25,65,29,Beaufort County Memorial Hospital
5.89,2.50,33.92320,-80.34308,SC,80000,25000,50,82,81,Tuomey Healthcare System
8.74,3.16,34.17571,-82.15791,SC,126000,36000,66,65,20,Self Regional Healthcare
5.14,2.36,34.00533,-81.11393,SC,68000,23000,66,63,48,Lexington Medical Center
7.78,2.76,34.81904,-82.41308,SC,111000,29000,50,55,17,Greenville Memorial Hospital
11.60,2.55,32.97605,-80.07302,SC,172000,26000,50,56,48,Trident Medical Center
7.15,2.90,32.22325,-80.71444,SC,100000,31000,0,0,0,Hilton Head Regional Medical Center
5.93,2.62,33.57070,-81.76332,SC,81000,27000,50,80,8,Aiken Regional Medical Center
12.83,2.67,34.94957,-81.93205,SC,193000,28000,50,47,88,Mary Black Memorial Hospital
10.92,2.40,33.70704,-78.89487,SC,161000,23000,66,50,57,Grand Strand Reg Med Center
8.09,3.33,34.00754,-81.03270,SC,116000,38000,33,66,37,Palmetto Health Baptist
5.69,2.28,32.78211,-79.95018,SC,77000,21000,50,66,29,Roper Hospital
9.35,2.50,32.82119,-79.85052,SC,136000,25000,0,0,0,East Cooper Medical Center
11.36,2.36,34.19543,-79.76256,SC,169000,23000,33,66,13,Carolinas Hospital System
8.13,2.76,42.87249,-97.40741,SD,116000,29000,0,0,0,Avera Sacred Heart Hospital
3.88,2.50,45.46141,-98.47929,SD,47000,25000,0,0,0,Avera St Lukes
6.01,2.58,43.53460,-96.71136,SD,82000,26000,66,60,81,Avera Mckennan Hospital & University Health Center
8.35,2.62,43.53562,-96.74305,SD,120000,27000,66,82,57,Sanford Usd Medical Center
5.19,2.80,44.05563,-103.22633,SD,69000,30000,66,42,82,Rapid City Regional Hospital
8.59,2.46,42.48749,-96.48642,SD,124000,24000,0,0,0,Siouxland Surgery Center Lp
6.53,2.38,43.53485,-96.71468,SD,90000,23000,0,0,0,Sioux Falls Specialty Hospital
5.54,2.39,44.04607,-103.22337,SD,74000,23000,0,0,0,Black Hills Surgical Hospital Llp
4.46,2.29,45.47390,-98.49778,SD,57000,21000,0,0,0,Dakota Plains Surgical Center Llp
7.23,2.30,42.87111,-97.39728,SD,102000,22000,0,0,0,Lewis And Clark Specialty Hospital
3.98,2.40,35.63906,-88.83207,TN,49000,23000,66,53,27,Jackson-Madison County General Hospital
8.34,2.71,36.24440,-86.75204,TN,120000,28000,50,71,85,Skyline Medical Center
4.97,2.32,36.58587,-82.25703,TN,65000,22000,50,62,48,Wellmont Bristol Regional Medical Center
7.35,2.62,35.93985,-83.94326,TN,104000,27000,33,62,20,University Of Tn Memorial Hospital
4.66,2.35,36.55401,-82.55483,TN,60000,22000,50,58,33,Wellmont Holston Valley Medical Center
4.70,2.28,35.91595,-86.81799,TN,61000,21000,50,58,39,Williamson Medical Center
9.15,2.89,36.21370,-83.29406,TN,133000,31000,50,87,12,Morristown Hamblen Hospital Association
7.20,2.49,35.98589,-84.28055,TN,101000,25000,66,62,79,Methodist Medical Center Of Oak Ridge
6.67,2.99,36.14316,-86.80048,TN,93000,33000,50,43,43,Vanderbilt University Hospital
4.79,2.38,34.50579,-92.96678,TN,62000,23000,0,0,0,Horizon Medical Center
4.47,2.40,35.12837,-89.86202,TN,57000,23000,50,43,39,Baptist Memorial Hospital
7.77,3.34,35.13640,-90.01928,TN,110000,39000,66,51,37,Methodist Healthcare Memphis Hospitals
5.39,2.43,35.86074,-86.42434,TN,72000,24000,33,87,16,Middle Tennessee Medical Center Inc
3.04,2.36,36.17121,-85.50938,TN,34000,23000,50,73,98,Cookeville Regional Medical Center
9.68,2.67,36.30767,-82.38497,TN,141000,28000,83,50,21,Johnson City Medical Center
5.00,2.30,35.85418,-83.53731,TN,66000,22000,50,88,33,Leconte Medical Center
7.47,2.34,36.12859,-86.84559,TN,106000,22000,16,75,98,St Thomas Hospital
5.67,2.30,35.04157,-85.26037,TN,76000,22000,33,72,99,Memorial Healthcare System Inc
4.99,2.63,35.05068,-85.28823,TN,65000,27000,50,52,0,Erlanger Medical Center
5.44,2.18,35.99233,-83.92697,TN,73000,20000,50,56,85,Tennova Healthcare
8.08,2.46,35.95747,-83.93660,TN,115000,24000,33,56,44,Fort Sanders Regional Medical Center
7.95,2.70,36.15388,-86.80249,TN,113000,28000,66,66,63,Baptist Hospital
13.29,2.89,35.36202,-86.20943,TN,200000,31000,0,0,0,Harton Regional Medical Center
6.15,2.42,36.17752,-86.60840,TN,84000,24000,50,76,29,Summit Medical Center
6.27,2.64,35.03467,-85.26735,TN,86000,27000,50,56,33,Parkridge Medical Center
5.85,2.52,36.15310,-86.80910,TN,79000,25000,66,68,81,Centennial Medical Center
7.30,2.61,35.91765,-84.10080,TN,103000,27000,33,72,82,Parkwest Medical Center
13.09,2.91,36.55057,-82.51465,TN,197000,32000,50,80,32,Indian Path Medical Center
9.42,2.52,35.09925,-89.86301,TN,137000,25000,50,62,57,St Francis Hospital
11.24,2.00,35.68445,-88.85461,TN,167000,17000,50,73,57,Regional Hospital Of Jackson
5.25,2.49,36.07626,-86.72183,TN,70000,25000,50,100,6,Southern Hills Medical Ctr
4.55,2.21,36.15524,-86.80350,TN,58000,20000,0,0,0,The Center For Spinal Surgery
6.04,2.52,35.97510,-86.56688,TN,82000,25000,50,95,62,Stonecrest Medical Center
7.36,2.24,31.77031,-106.50085,TX,104000,21000,50,62,29,Providence Memorial Hospital
7.55,2.66,33.90296,-98.50035,TX,107000,27000,66,86,48,United Regional Health Care System
6.08,2.51,30.65598,-96.34672,TX,83000,25000,50,57,32,St Joseph Regional Health Center
5.01,3.95,29.31233,-94.77317,TX,66000,48000,66,55,21,University Of Texas Medical Branch Gal
5.17,2.68,32.78994,-96.78044,TX,68000,28000,83,58,33,Baylor University Medical Center
10.42,2.47,28.81269,-96.97780,TX,153000,24000,50,71,54,Citizens Medical Center
17.22,2.77,27.53249,-99.47808,TX,264000,29000,50,83,94,Laredo Medical Center
5.53,2.54,26.17446,-97.67014,TX,74000,26000,50,67,57,Vhs Harlingen Hospital Company Llc
9.39,2.71,30.08729,-94.13292,TX,137000,28000,66,86,79,Christus Hospital
6.34,2.35,32.50219,-94.73025,TX,87000,22000,50,73,85,Good Shepherd Medical Center
6.84,2.39,33.57524,-101.89272,TX,95000,23000,50,41,48,Covenant Medical Center
4.98,2.27,31.51444,-97.19927,TX,65000,21000,50,50,33,Providence Health Center
12.32,2.85,27.77751,-97.39515,TX,184000,31000,83,57,95,Christus Spohn Hospital Corpus Christi
5.09,2.72,32.76017,-96.82437,TX,67000,29000,50,40,3,Methodist Dallas Medical Center
5.85,2.64,31.07837,-97.36403,TX,79000,27000,50,56,85,Scott & White Memorial Hospital
9.95,2.62,30.30491,-97.74540,TX,146000,27000,16,56,63,Seton Medical Center Austin
8.64,2.59,29.43360,-98.49265,TX,124000,26000,66,61,24,Baptist Medical Center
8.08,2.59,32.74944,-97.11630,TX,116000,26000,66,55,63,Texas Health Arlington Memorial Hospital
9.06,3.48,29.71431,-95.39680,TX,131000,41000,66,46,13,Memorial Hermann Texas Medical Center
3.97,2.45,32.83520,-96.96101,TX,49000,24000,66,63,24,Baylor Medical Center At Irving
7.83,2.40,32.33824,-95.29122,TX,111000,23000,50,55,92,East Texas Medical Center
19.87,3.79,32.82932,-97.21399,TX,307000,46000,50,67,39,North Hills Hospital
7.13,2.63,29.66575,-95.18131,TX,100000,27000,50,51,44,Bayshore Medical Center
5.25,2.55,31.48969,-97.15613,TX,69000,26000,50,53,39,Hillcrest Baptist Medical Center
5.96,2.31,32.34280,-95.29201,TX,81000,22000,50,60,98,Mother Frances Hospital
5.97,2.51,29.56876,-97.94776,TX,81000,25000,0,0,0,Guadalupe Regional Medical Center
9.44,2.54,31.76998,-106.49897,TX,137000,26000,66,58,8,Las Palmas Medical Center
12.31,2.87,26.26353,-98.18455,TX,184000,31000,66,91,74,South Texas Health System
10.32,3.40,30.27438,-97.73395,TX,152000,39000,33,73,2,University Medical Center At Brackenridge
4.63,2.59,26.15260,-97.97995,TX,59000,26000,50,52,88,Knapp Medical Center
4.48,2.72,31.84507,-102.37373,TX,57000,29000,33,82,29,Medical Center Hospital
4.44,2.41,31.99616,-102.09950,TX,56000,23000,50,55,37,Midland Memorial Hospital
8.92,2.68,32.73780,-97.33899,TX,129000,28000,66,55,57,Texas Health Harris Methodist Fort Worth
7.15,2.80,32.73070,-97.34379,TX,100000,30000,66,57,74,Baylor All Saints Medical Center At Fw
5.71,2.36,33.54243,-101.86066,TX,77000,23000,0,0,0,Grace Medical Center
3.18,2.57,26.19665,-98.31409,TX,36000,26000,25,91,54,Mission Regional Medical Center
5.28,2.69,29.81230,-95.43010,TX,70000,28000,66,62,69,Memorial Hermann Hospital System
7.01,2.70,29.70719,-95.40048,TX,98000,28000,66,43,1,St Lukes Episcopal Hospital
5.43,2.42,33.65984,-95.54752,TX,72000,24000,50,76,48,Paris Regional Medical Center
8.67,2.44,33.42875,-94.04725,TX,125000,24000,0,0,0,Wadley Regional Medical Center
6.05,2.28,32.74765,-97.78477,TX,82000,21000,0,0,0,Weatherford Regional Medical Center
4.70,2.35,32.47171,-99.73315,TX,61000,22000,66,86,39,Hendrick Medical Center
5.15,2.27,35.19533,-101.91907,TX,68000,21000,66,60,21,Baptist St Anthonys Health System-Baptist Campus
3.83,2.60,29.51545,-97.42900,TX,46000,27000,0,0,0,Memorial Hospital
8.24,2.57,33.21990,-97.59383,TX,118000,26000,50,87,32,Wise Regional Health System
4.26,2.48,32.91949,-96.66214,TX,53000,25000,50,76,44,Baylor Medical Center At Garland
13.97,2.56,30.58113,-96.29051,TX,211000,26000,0,0,0,College Station Medical Center
6.65,2.45,33.71085,-96.58493,TX,92000,24000,50,57,21,Texoma Medical Center
6.95,2.53,30.07104,-94.11927,TX,97000,25000,83,63,85,Memorial Hermann Baptist Beaumont Hospital
7.35,2.64,29.71020,-95.39956,TX,104000,27000,100,60,13,Methodist Hospitalthe
8.67,2.64,29.50795,-98.57224,TX,125000,27000,66,62,57,Methodist Hospital
5.50,2.95,32.80420,-96.79456,TX,73000,32000,0,0,0,Baylor Medical Center At Uptown
11.19,3.07,30.28957,-97.72584,TX,166000,34000,66,81,63,St Davids Medical Center
2.47,2.29,29.69329,-96.78466,TX,24000,21000,0,0,0,Colorado Fayette Medical Center
8.12,2.69,32.88076,-96.76226,TX,116000,28000,66,66,3,Texas Health Presbyterian Hospital  Dallas
5.33,2.38,31.61271,-94.64926,TX,71000,23000,50,92,21,Memorial Hospital
3.54,2.37,32.97514,-96.72397,TX,42000,23000,75,80,29,Methodist Richardson Medical Center
6.72,2.33,32.40574,-99.76486,TX,93000,22000,75,57,76,Abilene Regional Medical Center
5.07,2.24,32.93228,-97.09436,TX,67000,21000,50,56,16,Baylor Regional Medical Center At Grapevine
5.26,2.36,31.46574,-100.43466,TX,70000,23000,50,72,79,Shannon Medical Center
13.88,2.44,32.43227,-97.80315,TX,209000,24000,0,0,0,Lake Granbury Medical Center
6.29,2.72,29.78143,-95.54541,TX,86000,28000,83,77,92,Memorial Hermann Memorial City Medical Center
8.92,2.52,29.54043,-95.12730,TX,129000,25000,66,51,21,Clear Lake Regional Medical Center
11.52,2.76,33.02168,-96.76621,TX,171000,29000,50,67,11,Medical Center Of Plano
9.49,2.27,31.65212,-94.65488,TX,138000,21000,0,0,0,Nacogdoches Medical Center
7.24,2.82,29.72272,-95.38754,TX,102000,30000,50,75,76,Park Plaza Hospital
9.34,2.39,31.77757,-106.48060,TX,136000,23000,75,62,48,Sierra Medical Center
11.34,2.95,33.04634,-97.00473,TX,168000,32000,0,0,0,Medical Center Of Lewisville
9.64,2.62,30.08682,-95.62403,TX,141000,27000,50,65,76,Tomball Regional Medical Center
12.96,2.94,32.73563,-97.34483,TX,195000,32000,83,41,74,Plaza Medical Center Of Fort Worth
8.55,2.93,29.35295,-98.54601,TX,123000,32000,75,72,44,Southwest General Hospital
11.48,2.52,32.53312,-94.73022,TX,171000,25000,50,77,8,Longview Regional Medical Center
6.31,2.50,33.02769,-96.88471,TX,87000,25000,50,76,54,Baylor Medical Center At Carrollton
6.14,2.41,33.21746,-97.16488,TX,84000,24000,75,77,74,Texas Health Presbyterian Hospital Denton
4.63,2.49,32.81073,-96.83618,TX,59000,25000,50,73,63,Ut Southwestern University Hospital-Zale Lipshy
7.21,2.63,33.04405,-96.83853,TX,101000,27000,50,75,10,Texas Health Presbyterian Hospital Plano
3.76,2.27,30.01860,-95.44343,TX,45000,21000,0,0,0,Tops Surgical Specialty Hospital
7.40,2.51,32.65818,-97.42078,TX,104000,25000,50,61,81,Texas Health Harris Methodist Hospital Southwest F
6.82,2.48,29.52783,-98.59559,TX,95000,25000,0,0,0,Methodist Ambulatory Surgery Hospital Nw
12.36,3.04,27.69288,-97.34476,TX,185000,34000,50,60,85,Corpus Christi Medical Centerthe
7.59,2.34,33.46323,-94.07490,TX,107000,22000,66,80,6,Christus St Michael Health System
7.02,2.43,29.69445,-95.41451,TX,98000,24000,0,0,0,Texas Orthopedic Hospital
4.19,2.17,30.35117,-97.75114,TX,52000,20000,0,0,0,Northwest Hills Surgical Hospital
9.02,2.44,30.41163,-97.70649,TX,131000,24000,33,65,29,North Austin Medical Center
7.67,2.50,29.58896,-95.63112,TX,109000,25000,50,66,12,Methodist Sugar Land Hospital
11.86,2.70,32.90185,-96.95745,TX,177000,28000,0,0,0,Las Colinas Medical Center
5.13,2.10,26.26301,-98.19935,TX,68000,18000,0,0,0,Cornerstone Regional Hospital
4.29,2.31,33.87594,-98.56163,TX,54000,22000,0,0,0,Kell West Regional Hospital
5.13,2.26,30.65048,-96.29755,TX,67000,21000,0,0,0,Physicians Centrethe
7.24,2.53,26.00624,-97.52922,TX,102000,25000,0,0,0,Brownsville Surgical Hospital
4.78,2.20,31.77972,-106.47734,TX,62000,20000,0,0,0,El Paso Specialty Hospital
9.77,3.06,33.10505,-96.83799,TX,143000,34000,0,0,0,Baylor Medical Center At Frisco
6.15,2.34,26.15761,-97.67550,TX,84000,22000,0,0,0,Harlingen Medical Center
4.64,2.25,29.61329,-98.47759,TX,60000,21000,0,0,0,South Texas Spine And Surgical Hospital
11.73,2.99,30.20579,-95.45830,TX,175000,33000,50,67,54,St Luke'S The Woodlands Hospital
5.11,2.23,32.32974,-95.29946,TX,67000,21000,0,0,0,Texas Spine And Joint Hospital
4.82,2.85,26.25286,-98.20590,TX,62000,31000,33,66,44,Doctors Hospital At Renaissance
7.25,2.63,32.67929,-97.11545,TX,102000,27000,0,0,0,Usmd Hospital At Arlington L P
4.81,2.21,35.21032,-101.91266,TX,62000,20000,0,0,0,Quail Creek Surgical Hospital
8.65,3.90,32.73678,-97.34895,TX,125000,48000,0,0,0,Baylor Surgical Hospital At Fort Worth
9.78,2.52,33.11427,-96.77061,TX,143000,25000,50,85,4,Centennial Medical Center
5.45,2.58,32.94086,-97.12767,TX,73000,26000,0,0,0,Texas Health Harris Methodist Hospital Southlake
5.79,2.35,33.01358,-96.78823,TX,78000,22000,50,72,63,Baylor Regional Medical Center At Plano
6.17,2.73,33.04431,-96.83215,TX,84000,29000,0,0,0,Texas Health Center For Diagnostics & Surgery Plan
7.23,2.53,33.17687,-97.08711,TX,102000,25000,0,0,0,North Texas Hospital
7.66,2.49,32.84016,-96.86869,TX,109000,25000,0,0,0,Pine Creek Medical Center Llp
4.31,2.56,40.24999,-111.66524,UT,54000,26000,50,70,76,Utah Valley Regional Medical Center
5.61,2.64,41.22300,-111.97383,UT,75000,27000,33,70,33,Mckay Dee Hospital Center
7.16,2.42,41.16297,-111.97044,UT,100000,24000,0,0,0,Ogden Regional Medical Center
4.98,3.03,40.77170,-111.83681,UT,65000,33000,33,53,8,University Health Care/Univ Hospitals And  Clinics
4.96,2.69,40.65922,-111.89189,UT,65000,28000,33,58,54,Intermountain Medical Center
4.66,2.47,41.75744,-111.82113,UT,60000,24000,0,0,0,Logan Regional Hospital
3.94,2.55,37.09986,-113.55271,UT,48000,26000,66,61,24,Dixie Regional Medical Center
5.32,2.67,40.88620,-111.86916,UT,71000,28000,0,0,0,Lakeview Hospital
8.08,2.76,40.68610,-111.85735,UT,115000,29000,66,72,8,St Marks Hospital
3.67,2.31,40.63050,-111.88367,UT,44000,22000,0,0,0,The Orthopedic Specialty Hospital
6.18,2.55,40.58979,-111.97499,UT,85000,26000,50,58,29,Jordan Valley Medical Center
