size_charge,size_pay,lat,lon,state,charge,pay,AcquiredInfect,AcquiredConditions,PatientSafetySummary,name
6.77,2.50,31.21673,-85.36307,AL,65000,18000,50,51,21,Southeast Alabama Medical Center
10.02,2.54,34.80175,-87.67514,AL,101000,19000,50,65,2,Eliza Coffee Memorial Hospital
7.48,2.87,33.59616,-86.66750,AL,73000,22000,66,78,1,St Vincent'S East
5.44,2.59,32.32785,-86.27750,AL,51000,19000,50,67,54,Baptist Medical Center South
6.47,2.39,32.36656,-86.28572,AL,62000,17000,50,68,82,Jackson Hospital & Clinic Inc
3.61,2.42,32.63806,-85.40413,AL,31000,17000,50,80,13,East Alabama Medical Center And Snf
7.42,2.90,33.50619,-86.80210,AL,73000,23000,66,45,11,University Of Alabama Hospital
6.09,2.42,34.20768,-86.87489,AL,58000,17000,50,63,79,Cullman Regional Medical Center
8.05,2.50,34.72007,-86.58108,AL,80000,18000,50,65,44,Huntsville Hospital
16.79,2.50,34.00941,-85.97078,AL,176000,18000,66,67,27,Gadsden Regional Medical Center
15.13,2.34,34.00426,-86.00339,AL,158000,17000,75,81,90,Riverview Regional Medical Center
11.10,2.39,31.23767,-85.45625,AL,113000,17000,50,55,79,Flowers Hospital
5.59,2.35,33.50734,-86.78958,AL,52000,17000,50,72,21,St Vincent'S Birmingham
6.49,2.44,33.65640,-85.82284,AL,62000,18000,50,60,5,Northeast Alabama Regional Med Center
3.01,2.41,34.59052,-86.97262,AL,24000,17000,50,77,54,Decatur General Hospital
5.35,2.40,30.68199,-88.19897,AL,50000,17000,83,86,0,Providence Hospital
7.68,2.69,33.20521,-87.52546,AL,76000,20000,66,66,21,D C H Regional Medical Center
6.16,2.27,30.51916,-87.88842,AL,59000,16000,50,90,17,Thomas Hospital
9.02,2.56,33.49854,-86.84633,AL,90000,19000,66,70,8,Baptist Medical Center-Princeton
13.69,2.55,33.51420,-86.74859,AL,142000,19000,66,27,11,Trinity Medical Center
9.43,2.21,34.69279,-86.57179,AL,95000,15000,50,77,33,Crestwood Medical Center
14.07,2.43,33.46420,-86.77409,AL,146000,18000,50,65,29,Brookwood Medical Center
5.72,2.43,32.50808,-85.00867,AL,54000,18000,0,0,0,Jack Hughston Memorial Hospital
8.31,3.13,32.25294,-110.88135,AZ,82000,25000,50,48,3,Tucson Medical Center
6.63,2.76,32.22734,-111.00065,AZ,64000,21000,33,75,63,Carondelet St  Marys Hospital
7.25,2.53,32.22685,-110.85520,AZ,71000,19000,66,55,21,Carondelet St Josephs Hospital
8.31,2.78,32.68274,-114.63506,AZ,82000,21000,50,63,69,Yuma Regional Medical Center
7.89,2.57,33.56894,-112.07108,AZ,78000,19000,50,80,16,John C Lincoln North Mountain Hospital
9.25,4.06,35.20923,-111.64486,AZ,93000,36000,66,78,88,Flagstaff Medical Center
9.27,3.21,33.52511,-112.10189,AZ,93000,26000,50,71,56,Phoenix Baptist Hospital
10.43,2.74,33.29750,-111.87461,AZ,106000,21000,50,78,54,Chandler Regional Medical Center
9.80,2.86,33.48885,-111.92387,AZ,99000,22000,66,76,54,Scottsdale Healthcare-Osborn Medical Center
8.08,2.52,33.60432,-112.28378,AZ,80000,19000,83,75,95,Banner Boswell Medical Center
10.30,3.33,33.39097,-111.87638,AZ,104000,27000,66,80,56,Banner Desert Medical Center
10.24,3.14,34.47988,-114.33938,AZ,104000,25000,50,70,56,Havasu Regional Medical Center
8.08,2.53,32.32103,-111.01102,AZ,80000,19000,50,71,20,Northwest Medical Center
8.69,2.47,33.58235,-111.88527,AZ,87000,18000,66,68,63,Scottsdale Healthcare-Shea Medical Center
8.46,2.47,33.41128,-111.68916,AZ,84000,18000,50,70,63,Banner Baywood Medical Center
8.55,2.55,33.66596,-112.11618,AZ,85000,19000,50,73,69,John C Lincoln Deer Valley Hospital
9.92,2.67,33.65965,-112.37283,AZ,100000,20000,50,77,97,Banner Del E Webb Medical Center
6.96,3.10,33.65947,-111.95626,AZ,68000,25000,66,53,95,Mayo Clinic Hospital
15.26,3.21,33.28686,-111.75246,AZ,159000,26000,50,63,63,Mercy Gilbert Medical Center
10.09,3.07,33.39128,-111.61125,AZ,102000,25000,50,60,11,Mountain Vista Medical Center Lp
8.79,2.57,33.38269,-111.72100,AZ,88000,19000,50,70,57,Banner Gateway Medical Center
5.29,2.52,34.75031,-92.33897,AR,49000,19000,66,63,82,St Vincent Infirmary Medical Center
5.98,2.52,36.31007,-94.18471,AR,57000,19000,50,67,44,Mercy Medical Center
3.23,2.58,35.83746,-90.70386,AR,26000,19000,50,75,2,St Bernards Medical Ctr
6.77,2.60,34.46784,-93.06667,AR,65000,19000,66,66,85,St Josephs Mercy Health Center Inc
6.92,2.63,35.37445,-94.41868,AR,67000,20000,50,53,85,Sparks Regional Medical Center
4.96,2.33,35.35395,-94.35262,AR,46000,16000,50,66,11,St Edward Mercy Medical Center
12.35,2.67,34.48600,-93.03521,AR,127000,20000,50,51,8,National Park Medical Center
5.97,2.45,34.74866,-92.35422,AR,57000,18000,50,43,21,Baptist Health Medical Center-Little Rock
6.53,2.72,35.76927,-91.63408,AR,63000,21000,33,63,37,White River Medical Center
9.82,2.96,37.59283,-122.38249,CA,99000,23000,50,71,33,Peninsula Medical Center
14.46,3.31,38.32472,-122.29671,CA,150000,27000,50,72,82,Queen Of The Valley Medical Center
13.59,3.34,38.57053,-121.45216,CA,141000,28000,83,53,27,Mercy General Hospital
8.91,3.73,32.75426,-117.16592,CA,89000,32000,50,72,69,University Of California San Diego Medical Center
10.99,3.42,32.77495,-117.01467,CA,112000,28000,83,71,33,Grossmont Hospital
9.56,2.79,39.74221,-121.85000,CA,96000,22000,83,71,48,Enloe Medical Center
13.38,3.31,37.82206,-122.26275,CA,138000,27000,50,63,32,Alta Bates Summit Medical Center
13.34,4.30,37.79100,-122.43125,CA,138000,38000,83,63,11,California Pacific Medical Ctr-Pacific Campus Hosp
10.07,3.37,34.67486,-118.15771,CA,102000,28000,50,67,44,Antelope Valley Hospital Med Center
11.03,2.96,33.78036,-117.86495,CA,112000,23000,50,60,88,St Joseph Hospital
13.67,3.85,32.75143,-117.16083,CA,142000,33000,33,62,69,Scripps Mercy Hospital
12.57,2.89,33.73798,-118.30525,CA,130000,23000,50,81,81,Providence Little Co Of Mary Med Ctr San Pedro
12.69,3.54,36.83532,-119.76562,CA,131000,30000,50,66,57,Saint Agnes Medical Center
14.56,3.37,34.02685,-118.48651,CA,151000,28000,50,76,21,Santa Monica - Ucla Med Ctr & Orthopaedic Hospital
8.80,2.80,33.12535,-117.07336,CA,88000,22000,50,55,69,Palomar Medical Center
15.90,3.26,34.22014,-118.53410,CA,166000,27000,33,56,44,Northridge Hospital Medical Center
10.05,3.03,33.18402,-117.29661,CA,102000,24000,50,57,21,Tri-City Medical Center
11.47,3.41,39.13822,-121.59436,CA,117000,28000,50,51,21,Rideout Memorial Hospital
13.63,3.53,36.57886,-121.91316,CA,141000,30000,66,56,57,Community Hospital Of The Monterey Peninsula
15.29,3.52,37.32710,-121.93863,CA,160000,30000,66,71,37,O'Connor Hospital
12.35,2.82,33.96860,-118.04831,CA,127000,22000,50,46,16,Presbyterian Intercommunity Hospital
19.58,3.54,38.44369,-122.70138,CA,207000,30000,66,86,57,Santa Rosa Memorial Hospital
23.81,3.97,37.91341,-122.04163,CA,254000,35000,50,62,33,John Muir Medical Center - Walnut Creek Campus
15.68,3.18,32.61972,-117.02278,CA,164000,26000,50,71,57,Sharp Chula Vista Medical Center
10.57,3.04,33.62229,-117.92995,CA,107000,24000,50,70,51,Hoag Memorial Hospital Presbyterian
19.69,2.99,39.75720,-121.57018,CA,208000,24000,50,65,57,Feather River Hospital
20.87,3.26,34.15601,-118.32834,CA,221000,27000,50,80,97,Providence Saint Joseph Medical Ctr
11.28,2.96,34.13973,-118.03534,CA,115000,23000,50,45,10,Methodist Hospital Of Southern Ca
15.79,3.60,34.14987,-118.23117,CA,165000,30000,66,75,88,Glendale Adventist Medical Center
8.72,3.04,40.58654,-122.39168,CA,87000,24000,83,71,44,Mercy Medical Center Redding
17.82,3.43,37.69502,-121.88095,CA,187000,29000,50,71,82,Valleycare Medical Center
22.56,3.68,37.67947,-122.47447,CA,240000,31000,50,62,24,Seton Medical Center
8.47,2.75,34.03009,-118.47833,CA,84000,21000,50,81,76,Saint John'S Health Center
17.53,3.38,37.36934,-122.08047,CA,184000,28000,66,48,6,El Camino Hospital
12.03,3.05,38.76514,-121.24979,CA,124000,24000,66,77,16,Sutter Roseville Medical Center
13.71,2.81,32.88461,-117.22244,CA,142000,22000,50,63,29,Scripps Memorial Hospital La Jolla
16.74,4.64,34.05076,-117.26395,CA,175000,42000,50,55,16,Loma Linda University Medical Center
14.64,3.31,37.97780,-120.37150,CA,152000,27000,0,0,0,Sonora Regional Medical Center
14.12,2.78,33.81131,-118.34364,CA,147000,21000,66,67,88,Torrance Memorial Medical Center
12.02,2.87,33.83891,-118.35677,CA,123000,22000,50,86,94,Providence Little Company Of Mary Med Ctr Torrance
16.69,3.40,37.94748,-122.53677,CA,175000,28000,50,63,16,Marin General Hospital
25.79,3.80,37.25153,-121.94684,CA,275000,33000,33,63,3,Good Samaritan Hospital
8.84,3.38,34.08802,-117.89341,CA,88000,28000,66,67,29,Citrus Valley Medical Center-Ic Campus
16.14,2.91,34.27459,-119.25812,CA,169000,23000,50,53,8,Community Memorial Hospital San Buenaventura
13.24,3.22,34.13364,-118.15275,CA,137000,26000,66,65,57,Huntington Memorial Hospital
22.42,4.89,37.43436,-122.18013,CA,238000,45000,50,58,27,Stanford Hospital
14.46,4.71,37.76421,-122.45716,CA,150000,43000,66,52,90,Ucsf Medical Center
17.64,3.09,34.20285,-118.62962,CA,185000,25000,50,61,13,West Hills Hospital & Medical Center
11.35,3.31,33.80861,-118.18661,CA,116000,27000,66,65,27,Long Beach Memorial Medical Center
19.99,3.42,37.98396,-122.03464,CA,211000,29000,50,76,97,John Muir Medical Center - Concord Campus
9.85,2.66,33.03634,-117.28487,CA,100000,20000,50,65,5,Scripps Memorial Hospital - Encinitas
11.91,3.62,38.66956,-121.31378,CA,122000,31000,66,66,29,Mercy San Juan Medical Center
20.10,3.87,33.68179,-116.23394,CA,213000,33000,50,70,16,John F Kennedy Memorial Hospital Inc
16.84,3.41,34.20777,-118.88305,CA,177000,28000,50,51,69,Los Robles Hospital & Medical Center
17.53,2.81,33.76335,-116.40628,CA,184000,22000,50,56,39,Eisenhower Medical Center
27.59,4.68,38.55484,-121.45628,CA,295000,42000,50,50,3,University Of California Davis Medical Center
17.56,3.61,34.07664,-118.37955,CA,185000,31000,100,58,48,Cedars-Sinai Medical Center
8.44,2.57,32.99711,-117.05783,CA,84000,19000,50,85,78,Pomerado Hospital
27.70,3.29,33.95076,-118.34828,CA,297000,27000,50,71,99,Centinela Hospital Medical Center
10.80,2.76,34.16028,-118.44948,CA,110000,21000,0,0,0,Sherman Oaks Hospital
20.75,3.23,34.17067,-118.53200,CA,220000,26000,50,57,63,Providence Tarzana Medical Center
16.61,2.98,40.58532,-122.38702,CA,174000,24000,50,78,98,Shasta Regional Medical Center
7.96,2.70,40.41481,-104.70890,CO,79000,21000,50,73,57,North Colorado Medical Center
7.19,2.82,40.57315,-105.05741,CO,70000,22000,50,68,95,Poudre Valley Hospital
9.70,2.62,38.28184,-104.61256,CO,98000,20000,66,68,29,Parkview Medical Center Inc
6.08,2.41,38.83903,-104.80024,CO,58000,17000,66,68,33,Memorial Hospital Central
7.30,3.05,39.09046,-108.56190,CO,71000,24000,50,48,57,St Marys Hospital And Medical Center
11.96,3.09,40.02615,-105.28391,CO,123000,25000,50,91,82,Boulder Community Hospital
10.46,2.64,38.86559,-104.82182,CO,106000,20000,50,70,37,Centura Health-Penrose St Francis Health Services
10.40,3.19,39.73231,-104.93396,CO,106000,26000,75,50,32,Rose Medical Center
8.15,2.88,39.65399,-104.98116,CO,81000,23000,33,47,17,Swedish Medical Center
11.29,2.61,39.68859,-104.83205,CO,115000,20000,50,61,13,Medical Center Of Aurora The
13.42,2.86,39.52910,-104.87121,CO,139000,22000,50,76,79,Sky Ridge Medical Center
11.73,2.68,39.57629,-104.98610,CO,120000,20000,50,78,54,Centura Health-Littleton Adventist Hospital
7.30,3.20,41.30978,-72.93806,CT,71000,26000,66,57,8,Hospital Of St Raphael
5.64,3.28,41.77507,-72.69941,CT,53000,27000,50,53,85,St Francis Hospital & Medical Center
4.88,2.91,41.33722,-72.10380,CT,45000,23000,50,72,92,Lawrence & Memorial Hospital
6.58,3.28,41.18881,-73.16645,CT,63000,27000,50,51,21,Bridgeport Hospital
3.73,2.78,41.79153,-73.13382,CT,32000,21000,25,78,54,Charlotte Hungerford Hospital
6.21,3.36,41.55241,-73.03554,CT,59000,28000,50,56,39,Saint Marys Hospital
10.16,3.03,41.03431,-73.63020,CT,103000,24000,50,48,63,Greenwich Hospital Association
6.51,2.67,41.21646,-73.06525,CT,63000,20000,50,66,24,Milford Hospital Inc
7.63,2.92,41.55473,-72.64872,CT,75000,23000,33,61,92,Middlesex Hospital
10.37,3.94,41.30400,-72.93502,CT,105000,34000,66,41,3,Yale-New Haven Hospital
5.33,3.35,41.75412,-72.67927,CT,50000,28000,50,47,9,Hartford Hospital
7.25,3.16,41.20049,-73.20281,CT,71000,26000,66,78,63,St Vincent'S Medical Center
6.28,3.02,41.40474,-73.44739,CT,60000,24000,50,66,57,Danbury Hospital
7.17,3.16,41.11147,-73.42010,CT,70000,26000,50,72,92,Norwalk Hospital Association
6.15,3.07,41.66107,-72.78671,CT,59000,25000,50,52,8,Hospital Of Central Connecticut The
5.09,3.11,39.69005,-75.68408,DE,47000,25000,66,58,39,Christiana Care Health Services Inc.
6.19,2.76,39.15135,-75.52309,DE,59000,21000,50,58,90,Bayhealth - Kent General Hospital
5.85,2.81,38.77159,-75.14210,DE,55000,22000,50,90,81,Beebe Medical Center
5.93,2.67,38.93576,-77.10909,DC,56000,20000,50,76,97,Sibley Memorial Hospital
10.66,3.41,38.92944,-77.01473,DC,108000,28000,33,58,1,Washington Hospital Center
9.59,2.74,26.50479,-80.06979,FL,97000,21000,50,53,99,Bethesda Memorial Hospital
13.08,3.27,28.52517,-81.37729,FL,135000,27000,66,47,29,Orlando Health
10.04,2.88,28.57345,-81.36990,FL,102000,23000,83,66,24,Florida Hospital
11.10,2.90,25.68309,-80.34038,FL,113000,23000,50,62,85,Baptist Hospital Of Miami Inc
8.83,2.83,26.62849,-81.87423,FL,88000,22000,66,52,16,Lee Memorial Hospital
7.47,2.76,29.20117,-81.05828,FL,73000,21000,66,76,79,Halifax Health Medical Center
7.95,2.69,26.15053,-81.79919,FL,79000,20000,66,62,39,Naples Community Hospital
8.62,2.57,28.08771,-80.61362,FL,86000,19000,66,58,17,Holmes Regional Medical Center
9.65,2.43,28.83363,-82.33561,FL,97000,18000,50,55,44,Citrus Memorial Hospital
7.01,2.80,30.47650,-87.21219,FL,68000,22000,50,41,39,Sacred Heart Hospital
5.80,2.55,30.15963,-85.64818,FL,55000,19000,66,73,43,Bay Medical Center
11.59,2.98,27.76332,-82.64325,FL,119000,24000,50,82,20,Bayfront Medical Center Inc
9.63,2.78,27.49789,-82.56220,FL,97000,21000,50,55,29,Manatee Memorial Hospital
6.74,3.19,26.10282,-80.14245,FL,65000,26000,75,76,97,Broward Health Broward General Medical Center
7.50,2.43,30.30835,-81.68919,FL,74000,18000,50,68,82,St Vincent'S Medical Center
13.30,2.83,27.19837,-80.24306,FL,138000,22000,66,70,57,Martin Memorial Medical Center
12.80,2.87,28.55140,-81.72120,FL,132000,22000,0,0,0,South Lake Hospital
6.33,2.46,28.82358,-81.71133,FL,61000,18000,50,71,48,Florida Hospital Waterman
8.80,2.50,29.17594,-82.13898,FL,88000,18000,50,60,94,Munroe Regional Medical Center
6.40,2.46,29.24333,-81.10760,FL,61000,18000,50,67,95,Florida Hospital Memorial Medical Center
9.58,2.39,27.09043,-82.44499,FL,96000,17000,50,76,48,Venice Regional Medical Center
9.54,2.41,26.18711,-80.11941,FL,96000,17000,83,57,37,Holy Cross Hospital Inc
7.31,2.69,27.98242,-82.49025,FL,71000,20000,66,60,29,St Joseph'S Hospital
11.23,2.63,26.98905,-82.09559,FL,115000,20000,50,68,43,Peace River Regional Medical Center
14.41,2.87,26.59805,-80.09271,FL,150000,22000,100,60,27,Jfk Medical Center
8.26,2.63,28.80659,-81.86906,FL,82000,20000,33,67,24,Leesburg Regional Medical Center
6.94,2.48,26.27623,-80.12220,FL,67000,18000,75,72,57,Broward Health North Broward Medical Center
7.61,2.47,27.31827,-82.53140,FL,75000,18000,33,37,69,Sarasota Memorial Hospital
8.88,2.78,30.31525,-81.66398,FL,89000,21000,66,47,12,Baptist Medical Center
8.92,3.21,29.86371,-81.31749,FL,89000,26000,66,76,29,Flagler Hospital
4.69,2.58,27.65832,-80.39307,FL,42000,19000,66,76,99,Indian River Medical Center
7.35,2.61,27.50001,-81.43962,FL,72000,19000,50,61,85,Florida Hospital Heartland Medical Center
8.06,3.54,29.64155,-82.34844,FL,80000,30000,66,53,29,Shands Hospital At The University Of Florida
6.93,2.86,29.47897,-81.18915,FL,67000,22000,50,51,39,Florida Hospital Flagler
8.65,2.37,27.75214,-82.73951,FL,86000,17000,50,62,85,Palms Of Pasadena Hospital
7.35,2.45,27.95192,-82.80379,FL,72000,18000,66,62,9,Morton Plant Hospital
12.01,3.11,27.93740,-82.45927,FL,123000,25000,66,66,0,Tampa General Hospital
7.81,2.74,30.45726,-84.26175,FL,77000,21000,66,57,63,Tallahassee Memorial Healthcare
16.03,2.55,28.18120,-81.64018,FL,168000,19000,50,72,57,Heart Of Florida Regional Medical Center
9.52,2.68,28.06172,-81.95304,FL,96000,20000,50,52,3,Lakeland Regional Medical Center
11.92,2.80,27.30187,-82.45428,FL,122000,22000,33,67,95,Doctors Hospital Of Sarasota
8.60,2.46,26.35875,-80.10203,FL,86000,18000,66,46,43,Boca Raton Regional Hospital
8.63,2.43,28.07111,-82.42342,FL,86000,18000,50,68,37,Florida Hospital Tampa
11.29,2.57,26.83035,-80.08655,FL,115000,19000,100,56,37,Palm Beach Gardens Medical Center
8.11,2.65,28.36005,-80.62309,FL,80000,20000,50,87,57,Cape Canaveral Hospital
15.81,2.80,30.28793,-81.60103,FL,165000,22000,33,48,24,Memorial Hospital Jacksonville
15.57,2.57,28.19342,-82.46987,FL,163000,19000,50,77,43,Medical Center Of Trinity
13.35,2.53,29.66085,-82.41172,FL,138000,19000,33,52,17,North Florida Regional Medical Center
10.03,2.25,29.17550,-82.13680,FL,101000,16000,83,55,85,Ocala Regional Medical Center
9.44,2.48,27.48213,-82.62126,FL,95000,18000,50,75,69,Blake Medical Center
8.29,2.63,26.52735,-81.83337,FL,82000,20000,50,58,63,Gulf Coast Medical Center Lee Mem Health System
15.01,2.64,30.16550,-81.73775,FL,156000,20000,33,68,57,Orange Park Medical Center
11.40,2.40,30.51624,-87.21856,FL,117000,17000,50,65,4,West Florida Hospital
13.67,2.42,26.98884,-82.09877,FL,142000,18000,50,80,57,Fawcett Memorial Hospital
10.66,2.33,30.18657,-85.66513,FL,108000,16000,50,63,99,Gulf Coast Medical Center
14.20,2.74,27.93259,-82.28759,FL,147000,21000,66,67,21,Brandon Regional Hospital
8.55,2.40,26.63958,-81.94164,FL,85000,17000,50,52,21,Cape Coral Hospital
11.48,2.52,27.91458,-82.80382,FL,117000,19000,50,48,24,Largo Medical Center
9.61,2.34,26.92138,-80.09708,FL,97000,17000,50,61,54,Jupiter Medical Center
12.37,2.44,26.43709,-80.12728,FL,127000,18000,83,72,92,Delray Medical Center
13.95,2.56,27.71350,-82.36512,FL,145000,19000,33,66,33,South Bay Hospital
12.47,2.67,27.28861,-80.29431,FL,128000,20000,50,65,54,St Lucie Medical Center
14.89,2.32,28.53585,-82.53404,FL,155000,16000,66,71,57,Oak Hill Hospital
7.22,2.44,28.03957,-82.70875,FL,70000,18000,66,66,54,Mease Countryside Hospital
8.57,2.77,26.26841,-80.25571,FL,85000,21000,50,67,90,Coral Springs Medical Center
10.92,2.50,26.21388,-81.73257,FL,111000,18000,33,80,33,Physicians Regional Medical Center - Pine Ridge
6.07,2.36,28.94952,-81.95843,FL,58000,17000,33,80,94,Villages Regional Hospital The
19.74,4.05,25.72132,-80.27116,FL,209000,35000,0,0,0,Doctors Hospital Inc
8.82,2.57,30.25377,-81.58270,FL,88000,19000,50,77,29,St Vincent'S Medical Center Southside
5.86,2.70,34.78963,-84.98398,GA,55000,21000,50,76,10,Hamilton Medical Center
10.82,2.68,34.17863,-84.13992,GA,110000,20000,66,63,46,Northside Hospital Forsyth
6.22,2.74,31.59023,-84.15756,GA,59000,21000,50,53,11,Phoebe Putney Memorial Hospital
5.32,2.87,33.79230,-84.32107,GA,49000,22000,50,41,8,Emory University Hospital
6.57,3.03,31.17425,-81.48459,GA,63000,24000,50,61,17,Southeast Georgia Health System- Brunswick Campus
6.57,2.78,33.47096,-81.98176,GA,63000,21000,50,51,21,University Hospital
7.94,2.63,34.30335,-83.81737,GA,78000,20000,66,58,44,Northeast Georgia Medical Center Inc
7.87,2.82,33.96770,-84.55011,GA,78000,22000,66,62,44,Wellstar Kennestone Hospital
6.90,2.75,32.03185,-81.09158,GA,67000,21000,66,61,24,Memorial Health Univ Med Cen Inc
7.59,2.81,30.82614,-83.97393,GA,74000,22000,50,75,48,John D Archbold Memorial Hospital
8.95,2.58,31.98515,-81.15475,GA,90000,19000,66,72,33,St Joseph'S Hospital - Savannah
8.83,2.88,34.26000,-85.17000,GA,88000,23000,50,67,88,Floyd Medical Center
7.69,2.91,32.61642,-83.63065,GA,76000,23000,50,73,74,Houston Medical Center
6.90,2.61,33.96117,-83.39832,GA,67000,20000,50,68,92,Athens Regional Medical Center
6.26,2.85,33.78956,-84.28077,GA,60000,22000,50,83,11,Dekalb Medical Center
5.23,2.78,33.76810,-84.38616,GA,48000,21000,33,45,9,Emory University Hospital Midtown
5.88,2.40,33.90877,-84.35180,GA,56000,17000,50,55,3,Saint Joseph'S Hospital Of Atlanta Inc
6.46,2.50,33.81003,-84.39568,GA,62000,18000,33,57,44,Piedmont Hospital
5.49,2.61,33.96351,-84.01769,GA,51000,20000,50,90,44,Gwinnett Medical Center
7.37,2.88,32.83041,-83.63476,GA,72000,22000,66,48,44,Medical Center Of Central Georgia
12.71,3.28,33.76372,-84.37315,GA,131000,27000,50,71,11,Atlanta Medical Center
7.48,2.45,32.50679,-84.95933,GA,73000,18000,83,67,69,St Francis Hospital Inc
8.36,2.77,33.85638,-84.60446,GA,83000,21000,50,56,33,Wellstar Cobb Hospital
8.78,2.49,33.90903,-84.35410,GA,88000,18000,66,63,19,Northside Hospital
8.52,2.45,34.25704,-85.16467,GA,85000,18000,50,87,24,Redmond Regional Medical Center
9.10,2.68,33.51144,-84.22200,GA,91000,20000,50,91,92,Henry Medical Center Inc
10.03,2.68,33.87683,-84.02136,GA,101000,20000,50,77,44,Emory Eastside Medical Center
12.86,2.65,34.06334,-84.31976,GA,133000,20000,75,70,74,North Fulton Regional Hospital
4.17,2.63,42.59072,-114.49627,ID,37000,20000,50,63,29,St Lukes Magic Valley Rmc
6.68,2.92,43.61218,-116.19234,ID,64000,23000,66,61,16,St Lukes Regional Medical Center
5.13,2.61,43.61359,-116.25484,ID,47000,20000,66,78,24,St Alphonsus Regional Medical Center
4.28,2.49,43.55374,-116.57267,ID,38000,18000,0,0,0,Saint Alphonsus Medical Center - Nampa
6.58,3.11,42.87331,-112.42180,ID,63000,25000,33,76,39,Portneuf Medical Center
5.33,2.62,47.69645,-116.79476,ID,50000,20000,50,71,48,Kootenai Medical Center
9.42,2.63,41.52896,-88.13550,IL,95000,20000,50,75,82,Provena St Joseph Medical Center
7.87,3.00,42.06550,-87.68428,IL,78000,24000,33,55,57,Evanston Hospital
5.93,2.52,37.80207,-89.02660,IL,56000,18000,0,0,0,Herrin Hospital
9.94,2.77,41.72930,-88.26976,IL,100000,21000,50,90,63,Copley Memorial Hospital
9.23,2.79,42.07012,-88.33180,IL,93000,22000,50,82,24,Sherman Hospital
4.44,2.32,39.12680,-88.55059,IL,40000,16000,0,0,0,St Anthonys Memorial Hospital
5.14,2.47,38.32292,-88.91026,IL,47000,18000,50,81,90,Good Samaritan Regional Hlth Center
8.09,2.91,42.05624,-87.74012,IL,80000,23000,50,75,85,Skokie Hospital
8.58,2.36,38.90787,-90.17207,IL,85000,17000,0,0,0,Saint Anthony'S Health Center
7.18,3.21,39.80726,-89.64496,IL,70000,26000,50,58,79,St Johns Hospital
8.79,2.63,41.66900,-87.81414,IL,88000,20000,50,72,95,Palos Community Hospital
9.47,2.75,41.79660,-87.88627,IL,95000,21000,83,63,37,Adventist La Grange Memorial Hospital
9.91,3.05,40.70200,-89.59222,IL,100000,24000,66,57,3,Saint Francis Medical Center
10.56,3.41,41.96698,-87.64941,IL,107000,28000,50,70,43,Louis A Weiss Memorial Hospital
7.30,2.74,40.11696,-88.21506,IL,71000,21000,33,63,13,Carle Foundation Hospital
6.96,2.53,42.31832,-88.27920,IL,68000,19000,50,83,24,Centegra Health System - Mc Henry Hospital
7.64,2.64,41.98743,-87.81440,IL,75000,20000,66,62,69,Resurrection Medical Center
8.68,3.38,41.87497,-87.66927,IL,87000,28000,50,42,33,Rush University Medical Center
8.12,2.45,41.80555,-87.92059,IL,80000,18000,50,67,54,Hinsdale Hospital
5.92,2.49,39.86644,-88.96090,IL,56000,18000,50,60,69,Decatur Memorial Hospital
6.31,2.66,39.80893,-89.65530,IL,60000,20000,83,57,11,Memorial Medical Center
11.53,5.18,41.86927,-87.67052,IL,118000,48000,50,76,29,University Of Illinois Hospital
5.93,2.52,37.72790,-89.22058,IL,56000,19000,50,63,90,Memorial Hospital Of Carbondale
5.45,2.41,38.55020,-90.02146,IL,51000,17000,66,81,21,Memorial Hospital
5.94,2.67,41.12572,-87.88526,IL,56000,20000,50,72,81,Riverside Medical Center
7.40,2.45,38.51081,-89.99014,IL,72000,18000,50,65,6,St Elizabeth Hospital
6.59,2.53,39.48849,-88.27581,IL,64000,19000,0,0,0,Sarah Bush Lincoln Health Center
8.44,2.82,41.60726,-87.66060,IL,84000,22000,50,65,76,Ingalls Memorial Hospital
9.39,2.59,41.86362,-87.93567,IL,94000,19000,50,76,92,Elmhurst Memorial Hospital
8.84,3.47,41.72031,-87.73249,IL,88000,29000,50,57,74,Advocate Christ Hospital & Medical Center
9.32,2.78,40.70065,-89.59505,IL,94000,21000,50,78,48,Methodist Medical Center Of Illinois
10.44,2.76,41.88566,-88.34311,IL,106000,21000,50,81,4,Delnor Community Hospital
8.43,2.83,41.54446,-87.98379,IL,84000,22000,50,68,88,Silver Cross Hospital  And Medical Centers
11.03,2.47,42.03576,-88.32575,IL,112000,18000,50,65,99,Provena - Saint Joseph Hospital
6.88,3.81,42.03837,-87.84820,IL,67000,33000,83,77,69,Advocate Lutheran General Hospital
11.25,2.81,42.26584,-89.07428,IL,115000,22000,50,65,76,Swedish American Hospital
8.26,2.52,41.76076,-88.15016,IL,82000,19000,50,68,29,Edward Hospital
7.41,2.95,42.29844,-89.09897,IL,73000,23000,50,87,56,Rockford Memorial Hospital
9.72,2.53,41.87269,-88.15684,IL,98000,19000,66,62,88,Central Dupage Hospital
7.48,2.60,42.06732,-87.99368,IL,73000,19000,66,67,57,Northwest Community Hospital
9.01,2.60,42.00413,-88.01745,IL,90000,19000,66,78,88,Alexian Brothers Medical Center
5.68,2.53,41.48200,-90.57158,IL,53000,19000,50,58,63,Trinity Rock Island
9.64,3.12,41.89477,-87.62131,IL,97000,25000,50,61,94,Northwestern Memorial Hospital
10.31,2.94,41.96185,-88.72130,IL,105000,23000,50,81,3,Kishwaukee Community Hospital
10.89,2.86,41.81791,-88.00907,IL,111000,22000,50,86,95,Advocate Good Samaritan Hospital
5.60,2.38,38.73818,-89.94728,IL,53000,17000,50,87,29,Anderson Hospital
9.87,2.84,42.05260,-88.14173,IL,100000,22000,50,80,57,St Alexius Medical Center
7.64,2.64,42.19586,-88.17286,IL,75000,20000,50,80,95,Advocate Good Shepherd Hospital
8.37,3.03,41.59920,-87.35764,IN,83000,24000,50,65,94,Methodist Hospitals Inc
5.65,2.67,38.28244,-85.74923,IN,53000,20000,50,83,48,Clark Memorial Hospital
6.69,2.80,40.56435,-85.66576,IN,65000,22000,50,70,88,Marion General Hospital
6.80,2.67,41.70877,-86.17026,IN,66000,20000,50,88,57,Saint Joseph Regional Medical Center
7.86,2.76,41.04659,-85.10906,IN,78000,21000,83,60,44,Parkview Regional Medical Center
9.27,2.77,39.48518,-87.40893,IN,93000,21000,50,62,33,Union Hospital Inc
4.29,2.33,38.67313,-87.53370,IN,38000,16000,50,72,81,Good Samaritan Hospital
5.88,2.51,38.30195,-85.83409,IN,56000,18000,66,85,85,Floyd Memorial Hospital And Health Services
4.38,2.64,39.86405,-84.88413,IN,39000,20000,100,63,27,Reid Hospital & Health Care Services
5.96,2.66,39.16006,-86.54038,IN,57000,20000,50,56,24,Indiana University Health Bloomington Hospital
9.09,3.70,39.79009,-86.16260,IN,91000,32000,50,51,79,Indiana University Health
6.55,2.89,39.60783,-86.35573,IN,63000,23000,0,0,0,Franciscan St Francis Health - Mooresville
6.33,2.41,37.98293,-87.57072,IN,61000,17000,83,66,13,Deaconess Hospital Inc
8.04,3.22,39.91001,-86.19660,IN,79000,26000,66,47,88,St Vincent Hospital & Health Services
6.24,2.42,40.09594,-85.68152,IN,60000,17000,0,0,0,Saint John'S Health System
8.98,2.95,40.19679,-85.41573,IN,90000,23000,66,62,85,Indiana University Health Ball Memorial Hospital
5.99,2.36,37.96320,-87.50292,IN,57000,17000,66,67,32,St Mary'S Medical Center Of Evansville Inc
7.91,2.51,40.39424,-86.83516,IN,78000,18000,66,82,17,Franciscan St Elizabeth Health - Lafayette East
3.59,2.19,38.39499,-86.94089,IN,30000,15000,0,0,0,Memorial Hospital And Health Care Center
6.39,2.55,41.55065,-87.50619,IN,61000,19000,50,75,85,Community Hospital
6.30,2.45,39.63776,-86.13260,IN,60000,18000,50,68,76,Community Hospital South
9.39,3.05,39.78047,-86.34084,IN,94000,24000,0,0,0,Iu Health West Hospital
6.27,2.47,39.90060,-86.04218,IN,60000,18000,50,77,76,Community Hospital North
7.27,2.77,41.26886,-95.83923,IA,71000,21000,0,0,0,Alegent Health Mercy Hospital
4.80,2.50,42.03321,-93.61164,IA,44000,18000,0,0,0,Mary Greeley Medical Center
5.06,2.50,41.54190,-90.55691,IA,47000,18000,66,58,97,Genesis Medical Center-Davenport
6.12,2.67,41.98570,-91.66093,IA,58000,20000,66,75,90,St Lukes Hospital
5.23,2.44,40.81009,-91.17356,IA,48000,18000,0,0,0,Great River Medical Center
5.53,2.61,43.15063,-93.21718,IA,52000,19000,50,82,63,Mercy Medical Center-North Iowa
4.63,2.20,42.49227,-90.67404,IA,42000,15000,50,75,95,Mercy Medical Center-Dubuque
5.38,2.39,41.97864,-91.65507,IA,50000,17000,50,80,99,Mercy Medical Center - Cedar Rapids
6.86,2.73,41.58955,-93.63248,IA,66000,21000,66,37,82,Iowa Methodist Medical Center
5.79,2.68,41.59886,-93.62344,IA,55000,20000,83,75,29,Mercy Medical Center-Des Moines
5.43,2.64,42.52665,-92.33957,IA,51000,20000,50,81,6,Allen Memorial Hospital
6.74,2.54,42.49250,-96.39975,IA,65000,19000,66,71,54,Mercy Medical Center-Sioux City
6.34,2.70,38.83324,-97.61028,KS,61000,21000,50,85,27,Salina Regional Health Center
7.42,3.15,38.87847,-99.29923,KS,73000,25000,50,58,11,Hays Medical Center
4.36,2.47,39.05660,-95.69599,KS,39000,18000,33,51,33,St Francis Health Center Inc
6.15,2.74,38.07731,-97.89183,KS,59000,21000,50,80,90,Hutchinson Regional Medical Center Inc
14.60,3.59,39.05583,-94.60912,KS,152000,30000,66,53,63,University Of Kansas Hospital
4.96,2.41,38.85279,-94.82413,KS,45000,17000,50,58,62,Olathe Medical Center
8.33,2.73,39.05128,-95.69572,KS,83000,21000,66,71,10,Stormont-Vail Healthcare
8.01,2.32,38.99549,-94.69061,KS,79000,16000,66,46,21,Shawnee Mission Medical Center
4.50,2.52,37.32093,-95.26537,KS,40000,19000,0,0,0,Labette Health
6.93,2.65,37.70405,-97.31386,KS,67000,20000,66,68,21,Via Christi Hospitals Wichita Inc
10.82,2.69,37.69556,-97.29785,KS,110000,20000,66,52,5,Wesley Medical Center
4.75,2.43,38.97848,-95.24771,KS,43000,18000,0,0,0,Lawrence Memorial Hospital
6.55,2.59,39.20164,-96.60003,KS,63000,19000,0,0,0,Mercy Regional Health Center
5.64,2.59,38.47021,-82.63498,KY,53000,19000,66,60,54,King'S Daughters' Medical Center
6.11,2.66,38.03140,-84.52194,KY,58000,20000,83,67,79,Saint Joseph Hospital
6.71,2.85,37.11784,-84.10910,KY,65000,22000,50,75,63,Saint Joseph Hospital London
4.38,2.42,37.71183,-85.87623,KY,39000,17000,83,78,39,Hardin Memorial Hospital
4.09,2.64,37.01079,-85.90342,KY,36000,20000,0,0,0,T J Samson Community Hospital
4.78,2.32,37.86188,-85.52322,KY,44000,16000,0,0,0,Flaget Memorial Hospital (Member Of Saint Joseph H
5.66,2.61,39.06704,-84.49946,KY,53000,20000,33,58,79,St Elizabeth Medical Center North
6.53,2.50,38.50697,-82.69222,KY,63000,18000,50,80,90,Our Lady Of Bellefonte Hospital
5.39,2.85,37.76518,-87.10197,KY,50000,22000,50,66,29,Owensboro Medical Health System
7.03,2.99,38.24927,-85.75081,KY,68000,24000,66,51,8,Jewish Hospital & St Mary'S Healthcare
7.97,3.29,37.47264,-82.52605,KY,79000,27000,75,86,9,Pikeville Medical Center
4.78,2.84,37.64378,-84.77272,KY,43000,22000,0,0,0,Ephraim Mcdowell Regional Medical Center
9.45,3.93,38.03282,-84.50674,KY,95000,34000,33,62,33,University Of Kentucky Hospital
7.31,2.69,36.92128,-84.11838,KY,71000,20000,25,78,82,Baptist Regional Medical Center
8.47,2.75,38.24806,-85.75125,KY,84000,21000,50,35,39,Norton Hospitals Inc
6.90,2.47,37.06431,-88.67523,KY,67000,18000,50,42,20,Lourdes Hospital
6.02,2.42,37.07404,-88.62685,KY,57000,17000,50,80,39,Western Baptist Hospital
7.30,2.78,36.96603,-86.43639,KY,71000,21000,50,85,94,Greenview Regional Hospital
5.02,2.33,38.23898,-85.63941,KY,46000,16000,66,57,74,Baptist Hospital East
10.03,3.24,37.08724,-84.61828,KY,101000,27000,66,60,17,Lake Cumberland Regional Hospital
5.43,2.60,37.99944,-84.43941,KY,51000,19000,50,76,63,Saint Joseph East
6.59,2.81,30.54354,-92.07608,LA,63000,22000,33,73,3,Opelousas General Health System
7.41,2.89,30.01875,-90.19452,LA,72000,23000,66,61,62,Ochsner Foundation Hospital
7.31,3.22,32.49443,-93.75011,LA,71000,26000,50,68,13,Christus Schumpert Health System
8.59,2.62,30.46834,-90.11383,LA,86000,20000,50,70,8,St Tammany Parish Hospital
4.53,2.46,30.40118,-91.11160,LA,41000,18000,83,51,33,Our Lady Of The Lake Regional Medical Center
5.53,2.77,30.45015,-91.15273,LA,52000,21000,33,76,37,Baton Rouge General Medical Center
6.37,2.51,30.15052,-92.03698,LA,61000,18000,50,71,57,Our Lady Of Lourdes Regional Medical Center Inc
6.11,2.54,32.48393,-93.77884,LA,58000,19000,50,63,62,Willis Knighton Medical Center
5.14,2.54,32.49997,-92.11359,LA,48000,19000,66,62,98,St Francis Medical Center
5.55,2.36,32.55761,-93.71874,LA,52000,17000,50,88,94,Willis Knighton Bossier Health Center
3.81,2.44,43.65159,-70.26482,ME,33000,18000,0,0,0,Mercy Hospital
6.27,3.11,43.65325,-70.27533,ME,60000,25000,16,47,0,Maine Medical Center
4.57,2.55,43.47840,-70.49221,ME,41000,19000,0,0,0,Southern Maine Medical Center
4.32,2.59,44.10107,-70.21432,ME,38000,19000,66,70,57,Central Maine Medical Center
5.28,2.78,44.80988,-68.74929,ME,49000,21000,50,58,37,Eastern Maine Medical Center
4.72,2.74,45.25378,-69.44547,ME,43000,21000,50,48,51,Maine General Medical Center
3.34,3.19,39.62183,-77.68219,MD,28000,26000,0,0,0,Meritus Medical Center
4.39,4.20,39.01578,-77.03591,MD,39000,37000,0,0,0,Holy Cross Hospital
3.28,3.14,39.42366,-77.41386,MD,27000,25000,0,0,0,Frederick Memorial Hospital
3.14,3.00,39.38813,-76.61068,MD,25000,24000,0,0,0,Saint Joseph Medical Center
3.78,3.60,39.27352,-76.67219,MD,32000,30000,0,0,0,Saint Agnes Hospital
3.69,3.52,39.35262,-76.66196,MD,32000,30000,0,0,0,Sinai Hospital Of Baltimore
4.46,4.25,39.35169,-76.47919,MD,40000,38000,0,0,0,Franklin Square Hospital Center
4.14,3.94,39.15402,-77.05431,MD,36000,34000,0,0,0,Montgomery General Hospital Inc
3.89,3.73,38.36248,-75.59799,MD,34000,32000,0,0,0,Peninsula Regional Medical Center
3.66,3.50,38.99743,-77.11048,MD,31000,29000,0,0,0,Suburban Hospital
3.05,2.91,38.99014,-76.53398,MD,24000,23000,0,0,0,Anne Arundel Medical Center
4.55,4.35,39.32930,-76.61432,MD,41000,39000,0,0,0,Union Memorial Hospital
3.56,3.40,39.64928,-78.73206,MD,30000,28000,0,0,0,Western Maryland Regional Medical Center
3.67,3.51,39.29100,-76.54623,MD,31000,29000,0,0,0,Johns Hopkins Bayview Medical Center
4.31,4.10,39.55808,-76.99107,MD,38000,36000,0,0,0,Carroll Hospital Center
3.31,3.16,38.52905,-76.97068,MD,27000,26000,0,0,0,Civista Medical Center
3.25,3.12,38.76970,-76.07697,MD,27000,25000,0,0,0,Memorial Hospital At Easton
3.20,3.05,39.13732,-76.62228,MD,26000,24000,0,0,0,Baltimore Washington  Medical Center
3.73,3.56,39.39017,-76.62216,MD,32000,30000,0,0,0,Greater Baltimore Medical Center
3.16,3.02,39.21273,-76.88526,MD,26000,24000,0,0,0,Howard County General Hospital
2.96,2.83,39.51870,-76.34688,MD,23000,22000,0,0,0,Upper Chesapeake Medical Center
4.47,4.25,38.74827,-76.87590,MD,40000,38000,0,0,0,Southern Maryland Hospital Center
4.57,4.35,39.35962,-76.58851,MD,41000,39000,0,0,0,Good Samaritan Hospital
3.51,3.36,39.09796,-77.19799,MD,30000,28000,0,0,0,Shady Grove Adventist Hospital
4.03,3.85,38.33876,-75.21128,MD,35000,33000,0,0,0,Atlantic General Hospital
5.50,2.97,41.94236,-71.27364,MA,51000,23000,50,66,13,Sturdy Memorial Hospital
4.08,3.28,41.65298,-70.27484,MA,36000,27000,50,56,95,Cape Cod Hospital
5.51,4.34,42.35843,-71.05977,MA,52000,39000,66,51,0,Boston Medical Center Corporation
7.60,3.06,42.51078,-70.90712,MA,75000,25000,33,47,69,North Shore Medical Center
4.67,3.18,51.46599,-1.28140,MA,42000,26000,50,76,20,Berkshire Medical Center Inc
4.80,2.95,42.03597,-71.09792,MA,44000,23000,50,61,57,Signature Healthcare Brockton Hospital
4.11,2.91,42.64636,-71.34118,MA,36000,23000,50,87,95,Lowell General Hospital
4.32,2.96,42.46049,-71.06203,MA,38000,23000,50,52,76,Hallmark Health System
10.03,3.71,42.36227,-71.06941,MA,101000,32000,50,43,16,Massachusetts General Hospital
5.24,2.90,41.70928,-71.14519,MA,49000,23000,25,51,88,Southcoast Hospital Group Inc
5.47,3.36,42.12077,-72.60525,MA,51000,28000,33,61,82,Baystate Medical Center
5.12,3.21,42.64529,-71.30052,MA,47000,26000,0,0,0,Saints  Medical Center Inc
4.85,3.76,42.33719,-71.10939,MA,44000,32000,33,71,33,Beth Israel Deaconess Medical Center
5.09,3.23,42.32919,-71.10626,MA,47000,26000,0,0,0,New England Baptist Hospital
4.49,2.69,42.17644,-70.95398,MA,40000,20000,66,70,48,South Shore Hospital
6.45,2.80,42.33149,-71.24568,MA,62000,22000,66,70,99,Newton-Wellesley Hospital
10.42,3.76,42.33600,-71.10704,MA,106000,32000,66,40,20,Brigham And Women'S Hospital
3.79,3.18,42.09864,-71.06607,MA,33000,26000,50,58,92,Good Samaritan Medical Center
6.93,3.89,42.34951,-71.06331,MA,67000,34000,50,63,85,Tufts Medical Center
4.78,2.60,41.56412,-70.62200,MA,43000,19000,50,68,94,Falmouth Hospital
8.60,3.69,42.27720,-71.75922,MA,86000,32000,50,36,29,Umass Memorial Medical Center Inc
4.38,3.06,42.48585,-71.20686,MA,39000,25000,66,76,16,Lahey Clinic Hospital
5.02,2.66,42.39466,-83.40537,MI,46000,20000,50,60,63,St Mary Mercy Hospital
4.98,2.82,43.20588,-86.20839,MI,46000,22000,50,76,57,Mercy Health Partners Mercy Campus
5.24,3.31,42.28551,-85.58042,MI,49000,27000,66,82,13,Bronson Methodist Hospital
5.73,2.87,42.45741,-83.20513,MI,54000,22000,83,57,48,Providence Hospital And Medical Centers
7.74,2.99,42.29077,-83.21504,MI,76000,24000,33,48,69,Oakwood Hospital And Medical Center
5.73,2.76,42.08955,-86.47781,MI,54000,21000,33,68,88,Lakeland Hospital St Joseph
4.92,3.09,42.96881,-85.66649,MI,45000,25000,33,66,82,Spectrum Health - Butterworth Campus
7.61,4.22,42.28388,-83.72960,MI,75000,37000,50,61,43,University Of Michigan Health System
4.73,2.52,42.61490,-82.96060,MI,43000,19000,50,66,54,Henry Ford Macomb Hospital
7.26,3.52,42.36762,-83.08461,MI,71000,30000,66,47,8,Henry Ford Hospital
4.16,2.79,46.54758,-87.39560,MI,37000,22000,83,67,48,Marquette General Hospital
5.29,3.18,42.95817,-85.66253,MI,49000,26000,50,53,90,Saint Mary'S Health Care
8.42,3.00,43.42857,-83.95556,MI,84000,24000,83,61,63,Covenant Medical Center Inc
5.90,3.12,42.33111,-85.17817,MI,56000,25000,50,83,63,Bronson Battle Creek Hospital
6.93,2.64,42.25117,-84.39240,MI,67000,20000,50,85,98,Allegiance Health
5.54,2.96,44.76156,-85.64143,MI,52000,23000,50,41,57,Munson Medical Center
4.96,2.63,41.91643,-83.39771,MI,45000,20000,50,68,37,Mercy Memorial Hospital System
8.48,3.03,42.30489,-85.56152,MI,84000,24000,66,47,76,Borgess Medical Center
6.12,3.02,42.51418,-83.19259,MI,58000,24000,66,60,16,William Beaumont Hospital
6.88,3.01,43.01399,-83.73250,MI,67000,24000,50,60,33,Mclaren Flint
6.33,3.03,42.21065,-83.14861,MI,61000,24000,50,70,95,Henry Ford Wyandotte Hospital
5.70,2.67,42.26181,-83.66003,MI,54000,20000,66,62,33,St Joseph Mercy Hospital
5.19,2.92,42.41975,-82.91442,MI,48000,23000,66,72,9,St John Hospital And Medical Center
7.62,2.89,42.70417,-84.55488,MI,75000,23000,33,76,21,Mclaren - Greater Lansing
6.70,2.74,42.11695,-83.21365,MI,65000,21000,33,70,79,Oakwood Southshore Medical Center
5.34,2.56,42.50514,-83.00422,MI,50000,19000,66,56,85,St John Macomb-Oakland Hospital-Macomb Center
6.31,3.07,42.89254,-83.63621,MI,60000,25000,66,70,13,Genesys Regional Medical Center - Health Park
5.20,2.63,42.98625,-82.42802,MI,48000,20000,50,62,29,Port Huron Hospital
5.54,2.72,42.58900,-82.89799,MI,52000,21000,66,61,63,Mount Clemens Regional Medical Center
6.84,2.84,42.73767,-84.51698,MI,66000,22000,83,68,1,Edward W Sparrow Hospital
6.70,2.57,42.67850,-83.14771,MI,65000,19000,50,65,79,Crittenton Hospital Medical Center
6.44,2.84,42.61826,-83.09239,MI,62000,22000,83,60,62,William Beaumont Hospital-Troy
6.36,2.56,45.01403,-93.32177,MN,61000,19000,66,68,82,North Memorial Medical Center
5.47,2.90,46.79380,-92.09573,MN,51000,23000,83,75,79,Essentia Health St Mary'S Medical Center
5.56,3.25,44.02052,-92.48292,MN,52000,27000,83,42,32,Mayo Clinic - Saint Marys Hospital
4.57,2.58,45.87327,-95.37599,MN,41000,19000,0,0,0,Douglas County Hospital
6.23,3.14,45.57390,-94.16942,MN,60000,25000,50,61,37,St Cloud Hospital
7.54,2.63,44.94214,-93.10858,MN,74000,20000,50,86,33,United Hospital
6.28,2.82,46.79634,-92.08793,MN,60000,22000,50,71,29,St Lukes Hospital
3.74,2.57,44.93031,-93.36276,MN,32000,19000,66,72,94,Park Nicollet Methodist Hospital
4.57,2.49,44.84294,-93.79336,MN,41000,18000,0,0,0,Ridgeview Medical Center
10.43,2.93,44.95248,-93.26196,MN,106000,23000,50,70,63,Abbott Northwestern Hospital
5.66,4.22,44.02354,-92.46588,MN,53000,37000,50,35,97,Mayo Clinic Methodist Hospital
5.77,2.54,44.88645,-93.32693,MN,54000,19000,66,62,94,Fairview Southdale Hospital
8.87,4.05,44.96766,-93.23640,MN,89000,35000,66,56,57,University Of Minnesota  Medical Center Fairview
4.01,2.70,44.16396,-94.00412,MN,35000,20000,50,57,76,Mayo Clinic Health System - Mankato
7.12,3.22,44.95570,-93.09429,MN,69000,26000,50,78,17,Regions Hospital
6.55,2.69,45.02892,-93.03418,MN,63000,20000,50,75,24,Healtheast St John'S Hospital
5.94,2.34,44.91542,-92.94757,MN,56000,17000,0,0,0,Healtheast Woodwinds Hospital
7.27,3.30,32.33069,-90.17030,MS,71000,27000,66,51,6,University Of Mississippi Med Center
4.21,2.63,34.24336,-88.71753,MS,37000,20000,66,61,48,North Mississippi Medical Center
7.91,2.61,34.93596,-88.55955,MS,78000,20000,50,72,79,Magnolia Regional Health Center
5.64,2.69,34.34899,-89.52062,MS,53000,20000,50,68,24,Baptist Memorial Hospital North Ms
12.37,3.26,30.37516,-88.53226,MS,127000,27000,50,70,3,Singing River Hospital
6.15,2.65,32.33616,-90.15652,MS,59000,20000,50,60,44,St Dominic-Jackson Memorial Hospital
6.81,2.80,31.31872,-89.32955,MS,66000,22000,50,57,54,Forrest General Hospital
7.50,2.80,33.51824,-90.19832,MS,74000,22000,0,0,0,Greenwood Leflore Hospital
7.67,2.50,32.31643,-90.17922,MS,75000,18000,66,43,85,Mississippi Baptist Medical Center
6.26,2.71,34.96927,-89.99709,MS,60000,21000,50,68,11,Baptist Memorial Hospital Desoto
11.02,2.77,37.06032,-94.52747,MO,112000,21000,0,0,0,St John'S Regional Medical Center
5.86,3.08,39.77393,-94.77089,MO,55000,25000,50,58,51,Heartland Regional Medical Center
6.63,2.65,38.64281,-90.44448,MO,64000,20000,83,57,74,Mercy Hospital St Louis
4.73,2.38,38.16498,-90.38082,MO,43000,17000,50,83,82,Jefferson Regional Medical Center
6.13,2.89,38.63524,-90.26508,MO,58000,23000,50,56,12,Barnes Jewish Hospital
6.17,2.62,37.14560,-93.28037,MO,59000,20000,50,61,85,Cox Medical Center
8.85,2.88,37.17999,-93.27409,MO,88000,22000,66,61,24,St John'S Regional Health Center
4.52,2.21,38.94903,-92.31563,MO,41000,15000,66,73,43,Boone Hospital Center
4.84,2.33,38.50661,-90.38025,MO,44000,16000,66,57,13,St Anthony'S Medical Center
5.08,2.35,38.52738,-90.47501,MO,47000,17000,50,65,44,Ssm St Clare Health Center
7.25,2.49,38.93592,-94.60376,MO,71000,18000,50,75,88,St Joseph Medical Center
5.66,3.00,38.63268,-90.31089,MO,53000,24000,83,77,57,Ssm St Marys Health Center
6.13,2.40,36.64970,-93.22138,MO,58000,17000,50,71,79,Skaggs Regional Medical Center
8.89,2.51,39.04749,-94.34105,MO,89000,18000,50,72,39,Centerpoint Medical Center Of Independence Llc
5.74,2.39,39.14957,-94.55148,MO,54000,17000,50,58,63,North Kansas City Hospital
5.77,2.60,38.75097,-90.43255,MO,54000,19000,66,68,43,Ssm Depaul Health Center
4.88,2.28,38.63702,-90.44699,MO,45000,16000,66,68,48,Missouri Baptist Medical Center
13.71,2.95,36.78510,-90.42779,MO,142000,23000,50,60,39,Poplar Bluff Regional Medical Center
6.93,2.75,37.05238,-94.52777,MO,67000,21000,83,67,85,Freeman Health System - Freeman West
9.76,3.35,38.95171,-92.33407,MO,99000,28000,66,60,63,University Of Missouri Health Care
10.24,2.61,38.58103,-90.45144,MO,104000,20000,50,70,43,Des Peres Hospital
7.52,2.65,39.27591,-94.42572,MO,74000,20000,33,60,33,Liberty Hospital
5.56,2.54,38.65123,-90.50301,MO,52000,19000,66,67,12,St Lukes Hospital
8.88,3.18,37.30401,-89.57190,MO,89000,26000,50,65,11,St Francis Medical Center
10.65,3.43,38.12027,-92.68146,MO,108000,29000,50,52,8,Lake Regional Health System
4.34,2.35,38.79427,-90.58049,MO,39000,17000,50,75,32,Barnes-Jewish St Peters Hospital
4.08,2.70,45.78958,-108.51283,MT,36000,21000,50,86,88,Billings Clinic Hospital
4.55,2.44,46.87545,-114.00033,MT,41000,18000,50,77,69,St Patrick Hospital
6.27,3.04,46.00924,-112.54613,MT,60000,24000,0,0,0,St James Healthcare
5.51,2.96,46.84691,-114.04640,MT,52000,23000,0,0,0,Community Medical Center Inc
4.64,2.64,45.79337,-108.51928,MT,42000,20000,50,81,54,St Vincent Healthcare
6.72,2.66,40.78318,-96.63709,NE,65000,20000,66,70,63,Bryanlgh Medical Center
7.72,3.16,40.70646,-99.08136,NE,76000,26000,50,68,51,Good Samaritan Hospital
7.12,3.10,41.25522,-95.97892,NE,69000,25000,50,52,51,The Nebraska Medical Center
5.73,2.58,40.80816,-96.62689,NE,54000,19000,50,66,20,Saint Elizabeth Regional Medical Center
5.89,2.76,40.92425,-98.37053,NE,56000,21000,50,81,33,St Francis Medical Center
5.23,2.63,40.59160,-98.38755,NE,48000,20000,0,0,0,Mary Lanning Memorial Hospital
7.60,2.62,41.25797,-96.04164,NE,75000,20000,50,73,33,The Nebraska Methodist Hospital
9.04,2.74,41.23897,-96.03162,NE,91000,21000,50,46,82,Alegent Health Bergan Mercy Medical Center
8.53,2.91,39.52637,-119.79456,NV,85000,23000,50,66,17,Renown Regional Medical Center
9.95,3.17,39.20247,-119.78446,NV,101000,26000,50,56,69,Carson Tahoe Regional Medical Center
15.33,2.96,36.21599,-115.25095,NV,160000,23000,66,57,13,Mountainview Hospital
9.51,2.40,36.00527,-115.11618,NV,96000,17000,50,50,33,Saint Rose Dominican Hospital - Siena Campus
20.19,2.94,36.09056,-115.24058,NV,214000,23000,66,78,12,Spring Valley Hospital Medical Center
7.17,2.87,43.19846,-71.56230,NH,70000,22000,33,63,94,Concord Hospital
6.28,3.67,43.67286,-72.27232,NH,60000,31000,50,38,0,Mary Hitchcock Memorial Hospital
7.44,3.02,42.75004,-71.48100,NH,73000,24000,0,0,0,St Joseph Hospital
4.28,2.70,43.00792,-71.46807,NH,38000,21000,50,57,21,Elliot Hospital
7.70,3.01,43.21231,-70.87499,NH,76000,24000,50,73,3,Wentworth-Douglass Hospital
5.80,2.69,42.75623,-71.46059,NH,55000,20000,50,81,54,Southern Nh Medical Center
12.48,3.17,40.88346,-74.05564,NJ,128000,26000,50,58,85,Hackensack University Medical Center
8.50,2.80,40.88275,-74.01021,NJ,85000,22000,66,67,57,Holy Name Medical Center
8.12,2.77,40.98359,-74.10047,NJ,80000,21000,50,78,21,Valley Hospital
8.56,3.00,40.78883,-74.46620,NJ,85000,24000,66,43,39,Morristown Memorial Hospital
11.85,3.38,40.90215,-74.16634,NJ,122000,28000,16,53,94,St Joseph'S Regional Medical Center
16.40,2.86,39.78261,-74.91670,NJ,172000,22000,50,52,74,Virtua West Jersey Hospitals Berlin
11.08,2.43,40.35309,-74.06484,NJ,113000,18000,33,61,69,Riverview Medical Center
11.25,3.38,40.49581,-74.44980,NJ,115000,28000,66,51,1,Robert Wood Johnson University Hospital
7.65,2.52,39.96484,-74.21708,NJ,75000,19000,50,47,88,Community Medical Center
11.17,3.11,40.90400,-73.96847,NJ,114000,25000,66,81,54,Englewood Hospital And Medical Center
12.88,2.69,40.56804,-74.59579,NJ,133000,20000,50,67,29,Somerset Medical Center
9.52,3.08,40.71264,-74.35460,NJ,96000,25000,50,52,57,Overlook Hospital
11.46,2.51,40.07832,-74.13009,NJ,117000,18000,50,57,48,Ocean Medical Center
11.93,2.73,39.98588,-74.79393,NJ,122000,21000,66,55,54,Virtua Memorial Hospital Of Burlington County
14.18,2.71,39.35775,-74.43449,NJ,147000,21000,66,65,88,Atlanticare Regional Medical Center - City Div
17.35,3.23,40.50214,-74.46015,NJ,182000,26000,50,53,29,Saint Peter'S University Hospital
14.98,3.07,40.21065,-74.03566,NJ,156000,25000,50,58,6,Jersey Shore University Medical Center
15.64,3.64,40.76190,-74.30335,NJ,163000,31000,83,53,2,Saint Barnabas Medical Center
11.22,2.63,39.84392,-75.14985,NJ,115000,20000,50,70,33,Underwood - Memorial Hospital
13.60,3.34,39.82811,-75.00895,NJ,141000,28000,66,60,69,Kennedy University Hospital - Stratford Div
13.32,3.51,40.74323,-74.17431,NJ,138000,30000,50,68,51,Saint Michael'S Medical Center Inc
9.85,2.99,40.55784,-74.34970,NJ,99000,24000,50,71,57,Jfk Medical Ctr - Anthony M. Yelencsics Community
17.22,2.60,40.21575,-74.67273,NJ,181000,19000,50,67,79,Robert Wood Johnson University Hospital Hamilton
6.99,2.51,40.23861,-74.31289,NJ,68000,18000,33,68,13,Centrastate Medical Center
7.16,2.75,35.08102,-106.63392,NM,70000,21000,33,51,3,Presbyterian Hospital
6.78,3.26,42.87482,-78.84942,NY,66000,27000,33,45,8,Kaleida Health
4.98,2.71,42.09299,-75.93704,NY,46000,21000,50,73,99,Our Lady Of Lourdes Memorial Hospital Inc
7.78,4.20,40.79041,-73.95386,NY,77000,37000,83,38,5,Mount Sinai Hospital
8.40,2.95,40.87946,-73.41621,NY,83000,23000,50,66,39,Huntington Hospital
7.15,3.73,40.74722,-73.82521,NY,70000,32000,66,63,79,New York Hospital Medical Center Of Queens
6.04,2.67,42.65583,-73.80372,NY,57000,20000,33,47,54,St Peter'S Hospital
9.78,4.82,40.87987,-73.87996,NY,99000,44000,50,38,44,Montefiore Medical Center
7.95,2.87,40.94161,-73.83650,NY,79000,22000,33,63,12,Lawrence Hospital Center
11.54,4.68,40.76487,-73.95398,NY,118000,42000,33,32,74,New York-Presbyterian Hospital
9.65,3.63,40.77686,-73.70212,NY,97000,31000,33,61,69,North Shore University Hospital
11.07,3.03,40.93376,-72.67383,NY,113000,24000,0,0,0,Peconic Bay Medical Center
15.09,3.63,40.77362,-73.96093,NY,157000,31000,33,46,11,Lenox Hill Hospital
3.81,2.65,43.19244,-77.58590,NY,33000,20000,66,46,17,Rochester General Hospital
10.55,3.18,41.44138,-74.36821,NY,107000,26000,50,62,69,Orange Regional Medical Center
5.94,3.67,42.69590,-74.92278,NY,56000,31000,50,83,76,Mary Imogene Bassett Hospital
5.21,2.89,43.05571,-76.14981,NY,48000,23000,83,37,20,St Joseph'S Hospital Health Center
8.20,2.67,42.81963,-73.91653,NY,81000,20000,50,68,21,Ellis Hospital
8.15,3.37,41.19677,-73.72572,NY,81000,28000,50,68,69,Northern Westchester Hospital
5.27,3.20,43.13562,-77.60602,NY,49000,26000,50,43,10,Highland Hospital
14.02,3.84,40.74083,-73.64306,NY,146000,33000,66,50,74,Winthrop-University Hospital
9.94,4.16,40.73265,-73.98162,NY,101000,37000,50,60,39,Beth Israel Medical Center
13.68,3.52,40.80462,-73.67023,NY,142000,30000,83,72,94,St Francis Hospital Roslyn
5.32,2.62,43.30652,-73.64663,NY,49000,20000,50,63,90,Glens Falls Hospital
14.76,5.36,40.63937,-73.99851,NY,154000,50000,50,45,54,Maimonides Medical Center
11.55,3.24,40.65189,-73.63096,NY,118000,27000,50,52,43,South Nassau Communities Hospital
4.99,3.05,43.04139,-76.13803,NY,46000,24000,50,41,1,Crouse Hospital
7.66,3.58,40.96967,-73.88447,NY,75000,30000,50,75,85,St John'S Riverside Hospital
12.30,4.07,40.74335,-73.97408,NY,126000,36000,33,63,21,Nyu Hospitals Center
6.92,2.74,43.08561,-73.79712,NY,67000,21000,50,58,29,Saratoga Hospital
4.88,2.85,43.19054,-77.70177,NY,45000,22000,50,45,82,Unity Hospital Of Rochester
7.26,3.70,43.04269,-76.14043,NY,71000,32000,66,41,3,University Hospital S U N Y Health Science Center
8.16,2.91,40.94779,-73.06033,NY,81000,23000,50,58,29,St Charles Hospital
9.13,3.10,41.50307,-74.01517,NY,92000,25000,33,81,95,St Luke'S Cornwall Hospital
13.54,3.19,41.29201,-73.89529,NY,140000,26000,50,82,76,Hudson Valley Hospital Center
7.65,3.12,40.76488,-73.95302,NY,75000,25000,0,0,0,Hospital For Special Surgery
13.74,3.37,40.69327,-73.29412,NY,142000,28000,50,70,74,Good Samaritan Hospital Medical Center
7.13,2.84,41.02614,-73.76978,NY,69000,22000,50,62,44,White Plains Hospital Center
6.77,4.69,40.64666,-74.02049,NY,65000,42000,50,67,5,Lutheran Medical Center
8.18,3.12,40.77481,-73.47968,NY,81000,25000,50,56,20,Plainview Hospital
9.01,3.77,40.90922,-73.11520,NY,90000,32000,50,60,44,University Hospital ( Stony Brook )
5.64,2.93,42.11422,-75.95851,NY,53000,23000,66,48,92,United Health Services Hospitals Inc
5.23,2.57,35.43754,-80.60147,NC,48000,19000,66,65,16,Carolinas Medical Center-Northeast
4.86,2.64,35.57658,-82.54922,NC,44000,20000,66,40,81,Memorial Mission Hospital And Asheville Surgery Ce
5.44,2.58,35.95000,-80.00000,NC,51000,19000,50,66,39,High Point Regional Hospital
6.83,2.81,34.75124,-79.46789,NC,66000,22000,0,0,0,Scotland Memorial Hospital
4.33,2.92,35.39772,-77.95250,NC,39000,23000,50,81,8,Wayne Memorial Hospital
5.30,2.74,36.07581,-80.29779,NC,49000,21000,50,52,39,Forsyth Memorial Hospital
5.58,2.55,35.68172,-80.47072,NC,52000,19000,50,80,76,Rowan Regional Medical Center
5.36,2.64,35.38602,-83.20290,NC,50000,20000,0,0,0,Medwest Harris
5.01,2.38,35.32080,-82.46812,NC,46000,17000,0,0,0,Margaret R Pardee Memorial Hospital
6.78,2.85,35.03156,-78.93205,NC,66000,22000,50,50,18,Cape Fear Valley Medical Center
7.55,3.46,36.00850,-78.94006,NC,74000,29000,66,43,76,Duke University Hospital
5.67,2.73,35.27341,-81.13688,NC,53000,21000,50,70,69,Gaston Memorial Hospital
9.13,2.69,35.79986,-80.87863,NC,91000,20000,50,62,95,Iredell Memorial Hospital Inc
7.32,3.41,35.60726,-77.40477,NC,72000,28000,50,46,1,Pitt County Memorial Hospital
4.99,2.56,35.91058,-81.53512,NC,46000,19000,50,90,85,Caldwell Memorial Hospital
7.32,3.78,36.09062,-80.27161,NC,72000,32000,83,55,57,North Carolina Baptist Hospital
5.94,3.80,35.90529,-79.04963,NC,56000,33000,66,41,1,University Of North Carolina Hospital
8.73,2.99,35.78523,-78.58836,NC,87000,24000,33,50,79,Wakemed Raleigh Campus
7.71,2.56,35.82915,-78.61922,NC,76000,19000,50,81,79,Duke Health Raleigh Hospital
8.83,3.04,35.50624,-78.32511,NC,88000,24000,50,55,24,Johnston Memorial Hospital
4.70,2.84,36.09251,-79.78855,NC,43000,22000,66,66,51,Moses H Cone Memorial Hospital The
7.69,2.64,35.21029,-80.82084,NC,76000,20000,50,53,51,Carolinas Med Center-Mercy
8.86,3.54,35.20397,-80.83908,NC,89000,30000,66,63,24,Carolinas Medical Center/Behav Health
6.84,2.32,35.81801,-78.70283,NC,66000,16000,50,65,54,Rex Hospital
6.60,2.93,35.20554,-79.45645,NC,64000,23000,66,60,44,Firsthealth Moore Regional Hospital
10.38,2.44,35.73751,-81.33702,NC,105000,18000,50,67,17,Frye Regional Medical Center
6.45,2.60,35.71850,-77.94518,NC,62000,19000,50,68,88,Wilson Medical Center
7.89,2.46,35.54775,-80.85563,NC,78000,18000,50,82,4,Lake Norman Regional Medical Center
6.04,2.81,34.97382,-80.52250,NC,57000,22000,50,68,69,Carolinas Medical Center-Union
7.34,3.21,35.11420,-77.06568,NC,72000,26000,33,73,90,Carolina East Medical Center
5.13,2.69,34.23786,-77.94764,NC,47000,20000,83,70,57,New Hanover Regional Medical Center
5.09,2.91,35.97538,-77.85012,NC,47000,23000,50,65,13,Nash General Hospital
8.11,2.43,35.21076,-80.82359,NC,80000,18000,0,0,0,Presbyterian-Orthopaedic Hospital
6.34,2.57,36.04960,-78.90617,NC,61000,19000,50,51,69,Durham Regional Hospital
6.84,2.44,35.40634,-80.86005,NC,66000,18000,0,0,0,Presbyterian Hospital Huntersville
5.61,2.59,46.80739,-100.77773,ND,53000,19000,50,72,76,St Alexius Medical Center
5.03,2.68,48.23258,-101.28843,ND,46000,20000,50,72,48,Trinity Hospitals
5.01,2.72,46.88496,-96.78609,ND,46000,21000,66,61,48,Sanford Medical Center Fargo
5.93,3.01,47.91045,-97.06742,ND,56000,24000,83,53,1,Altru Hospital
5.51,2.38,39.08582,-84.34886,OH,52000,17000,50,72,85,Mercy Hospital Anderson
9.21,3.80,39.13707,-84.50392,OH,92000,33000,66,45,21,University Hospital Inc
7.18,2.68,40.03064,-83.03440,OH,70000,20000,83,71,21,Riverside Methodist Hospital
8.20,3.01,38.75320,-82.97800,OH,81000,24000,50,61,69,Southern Ohio Medical Center
5.60,2.41,39.20680,-84.38093,OH,53000,17000,50,76,94,Jewish Hospital Llc
8.22,3.13,39.96098,-82.99077,OH,81000,25000,66,78,21,Grant Medical Center
11.36,2.98,41.08161,-81.50007,OH,116000,24000,66,63,33,Summa Health Systems Hospitals
6.26,2.73,41.07747,-81.53042,OH,60000,21000,66,70,63,Akron General Medical Center
5.83,2.70,39.95805,-83.02191,OH,55000,21000,66,42,1,Mount Carmel Health
5.55,2.34,41.38265,-81.73127,OH,52000,17000,50,75,94,Parma Community General Hospital
6.98,3.25,41.61788,-83.61632,OH,68000,27000,66,68,6,University Of Toledo Medical Center
9.70,2.97,39.74547,-84.18523,OH,98000,24000,66,45,1,Miami Valley Hospital
10.33,2.75,39.78778,-84.23493,OH,105000,21000,66,56,16,Good Samaritan Hospital
10.98,2.93,40.74115,-84.11804,OH,112000,23000,66,73,6,St Rita'S Medical Center
12.22,3.36,41.67775,-83.59589,OH,126000,28000,33,70,57,Toledo Hospital The
4.38,2.51,40.81219,-81.39625,OH,39000,18000,50,62,43,Mercy Medical Center
9.49,2.64,39.49896,-84.31496,OH,95000,20000,50,63,33,Atrium Medical Center
5.74,2.97,41.45013,-81.82397,OH,54000,24000,66,60,18,Fairview Hospital
8.10,2.71,39.69724,-84.19232,OH,80000,21000,66,80,57,Kettering Medical Center
10.46,2.93,41.63639,-83.48640,OH,106000,23000,50,83,56,Mercy St Charles Hospital
4.27,2.50,40.79609,-81.40360,OH,38000,18000,50,63,17,Aultman Hospital
10.49,4.02,39.99445,-83.01872,OH,107000,35000,66,50,2,Ohio State University Hospitals
5.20,2.52,39.92755,-83.81573,OH,48000,19000,50,67,48,Springfield Regional Medical Center
6.68,2.64,41.48724,-81.70707,OH,64000,20000,0,0,0,Lutheran Hospital
6.26,2.42,41.66317,-81.24696,OH,60000,17000,50,73,39,Lake Health
4.96,2.32,39.13628,-84.60485,OH,46000,16000,50,77,95,Mercy Franciscan Hospital Western Hills
5.65,2.61,40.75264,-82.52803,OH,53000,20000,83,81,92,Medcentral Health System
5.60,2.64,41.43653,-81.94451,OH,53000,20000,50,72,76,St John Medical Center
6.43,2.66,39.41551,-84.57263,OH,62000,20000,50,80,29,Fort Hamilton Hughes Memorial Hospital
7.85,2.80,39.13975,-84.52173,OH,77000,22000,66,83,69,Good Samaritan Hospital
7.78,3.39,41.50772,-81.60592,OH,77000,28000,83,46,44,University Hospitals Of Cleveland
5.49,2.56,39.39463,-82.96979,OH,51000,19000,50,50,24,Adena Regional Medical Center
8.16,2.97,39.12105,-84.51059,OH,81000,24000,83,46,88,Christ Hospital
6.60,2.72,41.43688,-82.23761,OH,64000,21000,50,82,69,Mercy Regional Medical Center
8.21,2.49,39.25076,-84.34341,OH,81000,18000,50,62,99,Bethesda North Hospital
12.39,3.90,41.50248,-81.62110,OH,128000,34000,33,32,24,Cleveland Clinic
6.35,2.40,41.52013,-81.43291,OH,61000,17000,66,45,37,Hillcrest Hospital
2.66,2.00,41.09698,-81.51355,OH,20000,13000,0,0,0,Crystal Clinic Orthopaedic Center
8.20,3.63,36.14687,-95.96841,OK,81000,31000,83,76,32,Hillcrest Medical Center
10.58,2.72,35.22999,-97.44074,OK,107000,21000,50,73,21,Norman Regional Health System
5.47,2.46,35.60735,-97.59693,OK,51000,18000,66,51,6,Mercy Health Center Inc
4.74,2.60,34.63509,-99.31700,OK,43000,19000,0,0,0,Jackson County Memorial Hospital
12.72,3.25,35.52960,-97.57496,OK,131000,27000,100,76,90,Integris Baptist Medical Center
5.80,2.29,34.93621,-95.74888,OK,55000,16000,0,0,0,Mcalester Regional Health Center
6.35,3.05,35.47800,-97.52352,OK,61000,24000,66,58,33,St Anthony Hospital
5.17,2.67,34.18908,-97.14128,OK,48000,20000,50,51,24,Mercy Memorial Health Center
7.94,2.66,34.60992,-98.43419,OK,78000,20000,50,62,48,Comanche County Memorial Hospital
5.88,2.65,36.06135,-95.95154,OK,56000,20000,83,61,44,Saint Francis Hospital Inc
10.95,3.33,35.48138,-97.49624,OK,112000,27000,66,45,1,O U Medical Center
12.46,2.54,35.46721,-97.39370,OK,128000,19000,50,76,92,Midwest Regional Medical Center
11.54,2.64,35.42168,-97.53306,OK,118000,20000,66,70,24,Integris Southwest Medical Center
6.00,2.84,36.13393,-95.96718,OK,57000,22000,50,51,11,St John Medical Center Inc
4.07,2.01,35.56848,-97.51114,OK,36000,13000,0,0,0,Mcbride Clinic Orthopedic Hospital  L L C
4.96,2.78,45.50973,-122.77368,OR,45000,21000,33,55,13,Providence St Vincent Medical Center
6.46,2.68,44.60322,-123.25312,OR,62000,20000,33,58,5,Good Samaritan Regional Medical Center
5.36,2.95,45.53028,-122.69692,OR,50000,23000,50,93,39,Legacy Good Samaritan Medical Center
8.10,3.14,42.31769,-122.83333,OR,80000,25000,66,61,90,Rogue Valley Medical Center
7.85,3.12,44.06773,-121.26817,OR,77000,25000,66,70,37,St Charles Medical Center - Bend
6.66,2.82,45.51288,-122.55630,OR,64000,22000,50,86,16,Adventist Medical Center
5.54,2.98,45.52677,-122.61469,OR,52000,24000,66,75,0,Providence Portland Medical Center
6.22,3.01,44.08146,-123.02694,OR,59000,24000,50,60,24,Sacred Heart Medical Center - Riverbend
4.99,2.23,40.25296,-76.92151,PA,46000,15000,83,85,95,Holy Spirit Hospital
7.65,2.46,42.11102,-80.07912,PA,75000,18000,50,72,57,Saint Vincent Health Center
6.62,2.85,40.33271,-75.95020,PA,64000,22000,50,67,21,Reading Hospital Medical Center
6.09,2.68,41.24548,-77.01438,PA,58000,20000,50,57,37,Williamsport Regional Medical Center
4.57,3.00,39.94604,-76.71884,PA,41000,24000,66,45,8,York Hospital
12.00,2.85,40.60811,-75.39260,PA,123000,22000,66,53,57,St Luke'S Hospital Bethlehem
8.73,3.16,40.45705,-80.00363,PA,87000,26000,83,70,44,Allegheny General Hospital
9.59,2.71,42.13338,-80.08703,PA,97000,21000,66,50,33,Upmc Hamot
5.79,2.58,40.32799,-76.44588,PA,55000,19000,50,58,69,Good Samaritan Hospital
5.12,2.72,40.25661,-76.87572,PA,47000,21000,83,47,0,Pinnacle Health Hospitals
5.61,2.60,40.52204,-78.39824,PA,53000,19000,83,61,39,Altoona Regional Health System
5.55,2.79,41.98012,-76.52072,PA,52000,22000,50,65,48,Robert Packer Hospital
4.26,2.45,41.11492,-78.77515,PA,38000,18000,50,76,43,Dubois Regional Medical Center
13.21,2.76,40.11139,-75.09250,PA,137000,21000,50,72,69,Holy Redeemer Hospital And Medical Center
5.50,2.55,40.04740,-76.30540,PA,51000,19000,66,60,82,Lancaster General Hospital
7.98,2.67,40.48928,-79.89596,PA,79000,20000,50,72,63,Upmc St Margaret
6.96,2.37,40.57319,-80.01455,PA,68000,17000,50,57,48,Upmc Passavant
7.05,2.64,40.43754,-79.96040,PA,69000,20000,66,57,57,Magee Womens Hospital Of Upmc Health System
10.16,2.78,40.60000,-75.47000,PA,103000,21000,66,58,54,Lehigh Valley Hospital
10.75,2.64,41.25860,-75.86729,PA,109000,20000,50,60,79,Wilkes-Barre General Hospital
8.23,2.57,40.01883,-75.32115,PA,82000,19000,50,71,85,Main Line Hospital Bryn Mawr Campus
5.19,2.64,39.93492,-77.64744,PA,48000,20000,50,58,48,Chambersburg Hospital
9.08,2.52,40.04475,-75.50425,PA,91000,19000,50,71,20,Main Line Hospital Paoli
17.99,2.87,40.68708,-75.24272,PA,189000,22000,66,68,3,Easton Hospital
19.03,3.48,40.44190,-79.96044,PA,201000,29000,83,55,11,Upmc Presbyterian Shadyside
13.89,3.76,39.94969,-75.15712,PA,144000,32000,66,41,57,Thomas Jefferson University Hospital
30.00,3.22,39.85598,-75.36791,PA,322000,26000,66,56,13,Crozer Chester Medical Center
6.67,2.34,40.94875,-75.96386,PA,64000,17000,50,57,97,Hazleton General Hospital
10.74,2.80,39.98905,-75.27707,PA,109000,22000,50,53,24,Main Line Hospital Lankenau
6.73,2.65,41.23235,-80.49626,PA,65000,20000,50,80,76,Sharon Regional Health System
11.94,2.45,39.91254,-75.43047,PA,123000,18000,50,90,79,Riddle Memorial Hospital
15.74,4.25,39.94560,-75.15561,PA,164000,38000,50,56,69,Pennsylvania Hosp Of The Univ Of Pa Health Sys
6.26,2.29,40.37782,-80.06589,PA,60000,16000,66,81,21,St Clair Memorial Hospital
13.54,2.89,40.12077,-75.11818,PA,140000,23000,83,51,43,Abington Memorial Hospital
21.48,9.90,40.26468,-76.67582,PA,228000,100000,66,40,3,Milton S Hershey Medical Center
9.90,2.64,40.20064,-74.92952,PA,100000,20000,33,71,44,St Mary Medical Center
11.99,2.75,40.64463,-75.40842,PA,123000,21000,66,66,8,Lehigh Valley Hospital - Muhlenberg
6.67,3.26,41.81254,-71.40760,RI,64000,27000,33,48,6,Rhode Island Hospital
5.44,2.61,34.95535,-81.05137,SC,51000,20000,50,75,33,Piedmont Medical Center
6.28,2.92,34.96733,-81.94021,SC,60000,23000,33,60,54,Spartanburg Regional Medical Center
7.36,2.63,34.69403,-82.98884,SC,72000,20000,0,0,0,Oconee Medical Center
11.74,3.28,34.02839,-81.03539,SC,120000,27000,33,43,21,Palmetto Health Richland
8.47,2.31,34.83965,-82.42147,SC,84000,16000,66,66,11,St Francis-Downtown
6.25,2.46,34.01469,-81.01343,SC,60000,18000,50,85,29,Sisters Of Charity Providence Hospitals
13.17,2.94,34.51119,-82.64683,SC,136000,23000,50,61,94,Anmed Health
11.78,2.96,34.19543,-79.76256,SC,121000,23000,50,50,79,Mcleod Regional Medical Center-Pee Dee
6.83,2.63,33.62185,-80.74922,SC,66000,20000,33,70,8,Trmc Of Orangeburg & Calhoun
7.16,2.73,33.92320,-80.34308,SC,70000,21000,50,82,81,Tuomey Healthcare System
8.54,3.13,34.17571,-82.15791,SC,85000,25000,66,65,20,Self Regional Healthcare
10.67,3.09,34.00533,-81.11393,SC,109000,25000,66,63,48,Lexington Medical Center
9.53,3.24,34.81904,-82.41308,SC,96000,26000,50,55,17,Greenville Memorial Hospital
10.36,3.09,32.97605,-80.07302,SC,105000,25000,50,56,48,Trident Medical Center
7.20,2.81,33.57070,-81.76332,SC,70000,22000,50,80,8,Aiken Regional Medical Center
6.03,2.40,32.78211,-79.95018,SC,57000,17000,50,66,29,Roper Hospital
7.44,2.48,33.59553,-79.02412,SC,73000,18000,50,76,39,Waccamaw Community Hospital
5.10,2.89,45.46141,-98.47929,SD,47000,23000,0,0,0,Avera St Lukes
5.48,2.79,43.53460,-96.71136,SD,51000,21000,66,60,81,Avera Mckennan Hospital & University Health Center
6.65,2.70,43.53562,-96.74305,SD,64000,21000,66,82,57,Sanford Usd Medical Center
8.44,3.54,44.05563,-103.22633,SD,84000,30000,66,42,82,Rapid City Regional Hospital
4.65,2.64,35.63906,-88.83207,TN,42000,20000,66,53,27,Jackson-Madison County General Hospital
9.67,2.61,36.24440,-86.75204,TN,97000,20000,50,71,85,Skyline Medical Center
7.46,2.46,35.75588,-83.95808,TN,73000,18000,50,75,48,Blount Memorial Hospital
5.08,2.42,36.58587,-82.25703,TN,47000,17000,50,62,48,Wellmont Bristol Regional Medical Center
8.12,2.91,35.93985,-83.94326,TN,80000,23000,33,62,20,University Of Tn Memorial Hospital
6.03,2.43,36.55401,-82.55483,TN,57000,18000,50,58,33,Wellmont Holston Valley Medical Center
6.55,2.52,35.91595,-86.81799,TN,63000,19000,50,58,39,Williamson Medical Center
5.57,2.39,36.21370,-83.29406,TN,52000,17000,50,87,12,Morristown Hamblen Hospital Association
6.36,2.38,35.98589,-84.28055,TN,61000,17000,66,62,79,Methodist Medical Center Of Oak Ridge
10.65,3.32,36.14316,-86.80048,TN,108000,27000,50,43,43,Vanderbilt University Hospital
7.90,2.91,35.12837,-89.86202,TN,78000,23000,50,43,39,Baptist Memorial Hospital
9.62,3.68,35.13640,-90.01928,TN,97000,31000,66,51,37,Methodist Healthcare Memphis Hospitals
6.39,2.53,35.86074,-86.42434,TN,61000,19000,33,87,16,Middle Tennessee Medical Center Inc
3.53,2.45,36.17121,-85.50938,TN,30000,18000,50,73,98,Cookeville Regional Medical Center
8.53,2.65,36.30767,-82.38497,TN,85000,20000,83,50,21,Johnson City Medical Center
4.06,2.18,35.60668,-87.06635,TN,36000,15000,50,72,74,Maury Regional Hospital
6.39,2.35,36.12859,-86.84559,TN,61000,17000,16,75,98,St Thomas Hospital
5.86,2.32,35.04157,-85.26037,TN,55000,16000,33,72,99,Memorial Healthcare System Inc
6.48,2.29,35.99233,-83.92697,TN,62000,16000,50,56,85,Tennova Healthcare
7.82,2.52,35.95747,-83.93660,TN,77000,19000,33,56,44,Fort Sanders Regional Medical Center
4.70,2.28,36.29611,-88.31178,TN,43000,16000,0,0,0,Henry County Medical Center
8.46,2.44,36.17752,-86.60840,TN,84000,18000,50,76,29,Summit Medical Center
9.01,2.88,35.03467,-85.26735,TN,90000,22000,50,56,33,Parkridge Medical Center
5.83,2.37,35.91765,-84.10080,TN,55000,17000,33,72,82,Parkwest Medical Center
8.19,2.36,36.55057,-82.51465,TN,81000,17000,50,80,32,Indian Path Medical Center
10.68,2.80,35.09925,-89.86301,TN,109000,22000,50,62,57,St Francis Hospital
13.74,2.73,35.17731,-84.86873,TN,142000,21000,50,68,37,Skyridge Medical Center
11.36,3.00,36.22069,-86.32731,TN,116000,24000,25,62,20,University Medical Center
5.54,2.56,30.04413,-99.15217,TX,52000,19000,50,71,74,Peterson Regional Medical Center
7.75,2.63,33.90296,-98.50035,TX,76000,20000,66,86,48,United Regional Health Care System
8.52,2.70,30.65598,-96.34672,TX,85000,21000,50,57,32,St Joseph Regional Health Center
9.23,6.40,29.31233,-94.77317,TX,93000,61000,66,55,21,University Of Texas Medical Branch Gal
6.42,2.87,32.78994,-96.78044,TX,62000,22000,83,58,33,Baylor University Medical Center
7.25,2.36,28.81269,-96.97780,TX,71000,17000,50,71,54,Citizens Medical Center
19.04,2.98,27.53249,-99.47808,TX,201000,24000,50,83,94,Laredo Medical Center
7.45,3.02,26.17446,-97.67014,TX,73000,24000,50,67,57,Vhs Harlingen Hospital Company Llc
8.23,2.79,30.08729,-94.13292,TX,82000,22000,66,86,79,Christus Hospital
6.16,2.48,32.50219,-94.73025,TX,59000,18000,50,73,85,Good Shepherd Medical Center
10.32,2.56,33.57524,-101.89272,TX,105000,19000,50,41,48,Covenant Medical Center
5.81,2.53,31.51444,-97.19927,TX,55000,19000,50,50,33,Providence Health Center
7.18,2.93,32.81224,-96.83795,TX,70000,23000,33,63,29,Ut Southwestern University Hospital
10.65,2.71,27.77751,-97.39515,TX,108000,21000,83,57,95,Christus Spohn Hospital Corpus Christi
5.79,2.88,31.07837,-97.36403,TX,55000,23000,50,56,85,Scott & White Memorial Hospital
14.47,2.94,30.30491,-97.74540,TX,151000,23000,16,56,63,Seton Medical Center Austin
9.99,3.04,29.43360,-98.49265,TX,101000,24000,66,61,24,Baptist Medical Center
7.33,2.58,32.74944,-97.11630,TX,72000,19000,66,55,63,Texas Health Arlington Memorial Hospital
11.90,3.99,29.71431,-95.39680,TX,122000,35000,66,46,13,Memorial Hermann Texas Medical Center
8.01,2.89,32.83520,-96.96101,TX,79000,23000,66,63,24,Baylor Medical Center At Irving
10.04,2.44,32.33824,-95.29122,TX,102000,18000,50,55,92,East Texas Medical Center
5.37,2.73,31.48969,-97.15613,TX,50000,21000,50,53,39,Hillcrest Baptist Medical Center
8.12,2.28,32.34280,-95.29201,TX,80000,16000,50,60,98,Mother Frances Hospital
4.34,2.37,29.56876,-97.94776,TX,39000,17000,0,0,0,Guadalupe Regional Medical Center
11.72,2.69,31.76998,-106.49897,TX,120000,20000,66,58,8,Las Palmas Medical Center
5.01,2.44,31.99616,-102.09950,TX,46000,18000,50,55,37,Midland Memorial Hospital
9.95,3.00,32.73780,-97.33899,TX,101000,24000,66,55,57,Texas Health Harris Methodist Fort Worth
7.45,2.94,32.73070,-97.34379,TX,73000,23000,66,57,74,Baylor All Saints Medical Center At Fw
11.27,2.48,28.80765,-96.99896,TX,115000,18000,50,76,6,Detar Hospital Navarro
6.49,2.91,29.81230,-95.43010,TX,62000,23000,66,62,69,Memorial Hermann Hospital System
9.66,3.74,29.70719,-95.40048,TX,97000,32000,66,43,1,St Lukes Episcopal Hospital
8.72,2.91,35.19934,-101.92186,TX,87000,23000,83,82,24,Northwest Texas Hospital
7.39,2.68,32.47171,-99.73315,TX,72000,20000,66,86,39,Hendrick Medical Center
6.04,2.36,35.19533,-101.91907,TX,57000,17000,66,60,21,Baptist St Anthonys Health System-Baptist Campus
9.55,3.37,29.42825,-98.49859,TX,96000,28000,50,80,20,Christus Santa Rosa Hospital
5.72,2.63,32.91949,-96.66214,TX,54000,20000,50,76,44,Baylor Medical Center At Garland
10.08,2.96,29.71020,-95.39956,TX,102000,23000,100,60,13,Methodist Hospitalthe
9.96,2.76,29.50795,-98.57224,TX,101000,21000,66,62,57,Methodist Hospital
15.56,2.74,33.15951,-96.63675,TX,163000,21000,66,65,2,Medical Center Of Mckinney
11.40,2.93,29.76963,-94.97926,TX,117000,23000,50,100,82,San Jacinto Methodist Hospital
9.79,2.83,30.28957,-97.72584,TX,99000,22000,66,81,63,St Davids Medical Center
8.18,2.75,32.88076,-96.76226,TX,81000,21000,66,66,3,Texas Health Presbyterian Hospital  Dallas
8.97,2.66,33.66003,-96.59459,TX,90000,20000,50,71,62,Texas Health Presbyterian Hospital-Wnj
6.63,2.46,32.93228,-97.09436,TX,64000,18000,50,56,16,Baylor Regional Medical Center At Grapevine
6.30,2.53,31.46574,-100.43466,TX,60000,19000,50,72,79,Shannon Medical Center
6.03,2.59,29.78143,-95.54541,TX,57000,19000,83,77,92,Memorial Hermann Memorial City Medical Center
12.97,2.76,29.54043,-95.12730,TX,134000,21000,66,51,21,Clear Lake Regional Medical Center
12.57,3.05,29.72913,-95.59429,TX,129000,24000,50,46,33,West Houston Medical Center
16.05,2.87,32.91132,-96.77424,TX,168000,22000,83,51,6,Medical City Dallas Hospital
13.14,2.64,33.02168,-96.76621,TX,136000,20000,50,67,11,Medical Center Of Plano
8.70,2.59,30.08682,-95.62403,TX,87000,19000,50,65,76,Tomball Regional Medical Center
15.79,2.78,32.73563,-97.34483,TX,165000,21000,83,41,74,Plaza Medical Center Of Fort Worth
14.44,3.03,32.69299,-97.11219,TX,150000,24000,50,60,32,Medical Center Of Arlington
6.66,3.04,33.58838,-101.89214,TX,64000,24000,50,50,24,University Medical Center
10.47,2.57,30.22723,-97.77447,TX,106000,19000,50,43,69,St David'S South Austin Medical Center
11.66,2.77,30.51034,-97.71486,TX,120000,21000,50,63,76,Round Rock Medical Center
5.42,2.71,32.64448,-96.87635,TX,51000,21000,50,43,88,Methodist Charlton Medical Center
8.91,2.57,33.04405,-96.83853,TX,89000,19000,50,75,10,Texas Health Presbyterian Hospital Plano
10.16,2.68,27.69288,-97.34476,TX,103000,20000,50,60,85,Corpus Christi Medical Centerthe
7.33,2.33,33.46323,-94.07490,TX,72000,16000,66,80,6,Christus St Michael Health System
8.61,2.67,29.58896,-95.63112,TX,86000,20000,50,66,12,Methodist Sugar Land Hospital
6.12,2.65,29.78747,-95.78578,TX,58000,20000,50,83,57,Memorial Hermann Katy Hospital
6.55,3.06,26.25286,-98.20590,TX,63000,25000,33,66,44,Doctors Hospital At Renaissance
5.28,2.49,40.24999,-111.66524,UT,49000,18000,50,70,76,Utah Valley Regional Medical Center
5.88,2.58,41.22300,-111.97383,UT,56000,19000,33,70,33,Mckay Dee Hospital Center
5.66,2.63,40.65922,-111.89189,UT,53000,20000,33,58,54,Intermountain Medical Center
4.21,2.28,41.75744,-111.82113,UT,37000,16000,0,0,0,Logan Regional Hospital
4.58,2.73,37.09986,-113.55271,UT,41000,21000,66,61,24,Dixie Regional Medical Center
6.36,2.59,40.68610,-111.85735,UT,61000,19000,66,72,8,St Marks Hospital
6.87,2.55,40.58979,-111.97499,UT,67000,19000,50,58,29,Jordan Valley Medical Center
5.01,3.40,44.47966,-73.19412,VT,46000,28000,66,50,13,Fletcher Allen Hospital Of Vermont
5.83,3.22,43.59828,-72.95512,VT,55000,26000,0,0,0,Rutland Regional Medical Center
4.47,2.77,38.40552,-78.85730,VA,40000,21000,50,70,92,Rockingham Memorial Hospital
4.69,2.86,39.19345,-78.19599,VA,42000,22000,66,60,74,Winchester Medical Center Inc
7.55,3.62,38.02573,-78.51526,VA,74000,31000,33,35,24,University Of Virginia Medical Center
7.67,2.62,36.83716,-76.34786,VA,75000,20000,50,67,95,Bon Secours Maryview Medical Center
5.98,2.84,38.09436,-78.98659,VA,57000,22000,50,82,99,Augusta Health
5.07,2.55,37.41368,-79.16870,VA,47000,19000,50,70,57,Centra  Health Inc
8.14,2.86,38.31158,-77.48061,VA,81000,22000,66,73,17,Mary Washington Hospital Inc
6.59,2.71,37.25129,-79.94125,VA,63000,21000,50,61,1,Carilion Roanoke Memorial Center
5.99,2.98,38.82218,-77.10533,VA,57000,24000,66,68,57,Inova Alexandria Hospital
8.50,2.49,37.14463,-76.51197,VA,85000,18000,50,78,56,Mary Immaculate Hospital
5.61,2.45,36.85098,-76.18989,VA,53000,18000,50,65,76,Sentara Leigh Hospital
8.70,2.41,37.26336,-80.03166,VA,87000,17000,50,48,8,Lewisgale Medical Center
5.49,2.59,38.88916,-77.12796,VA,51000,19000,100,57,57,Virginia Hospital Center - Arlington
6.24,2.83,37.06523,-76.48417,VA,60000,22000,50,68,44,Riverside Regional Medical Center
6.33,2.54,36.86449,-76.02844,VA,61000,19000,66,62,39,Sentara Virginia Beach General Hospital
6.98,2.46,37.58440,-77.51252,VA,68000,18000,50,66,69,Bon Secours - St Marys Hospital Of Richmond
5.90,3.17,38.85764,-77.22772,VA,56000,26000,83,53,1,Inova Fairfax Hospital
8.54,2.69,37.62931,-77.38804,VA,85000,20000,50,67,69,Bon Secours - Memorial Regional Medical
4.15,2.28,38.02176,-78.44530,VA,37000,16000,50,75,88,Martha Jefferson Hospital
8.28,2.58,37.18780,-80.41110,VA,82000,19000,0,0,0,Lewisgale Hospital Montgomery
15.63,2.67,37.51021,-77.59525,VA,163000,20000,83,52,32,Cjw Medical Center
15.42,2.85,37.60459,-77.53929,VA,161000,22000,66,63,29,Henrico Doctors' Hospital
6.22,2.58,36.74610,-76.24609,VA,59000,19000,50,62,85,Chesapeake Regional Medical Center
4.46,2.38,38.74009,-77.07732,VA,40000,17000,50,72,44,Inova Mount Vernon Hospital
10.26,3.02,37.46807,-77.66143,VA,104000,24000,50,62,69,Bon Secours - St Francis Medical Center
7.21,2.66,47.71468,-122.33762,WA,70000,20000,50,63,32,Northwest Hospital
4.85,3.60,47.64928,-122.30681,WA,44000,30000,66,28,44,University Of Washington Medical Ctr
7.46,2.80,47.45757,-122.34315,WA,73000,22000,50,78,79,Highline Medical Center
7.64,2.98,48.00091,-122.20600,WA,75000,24000,66,56,32,Providence Regional Medical Center Everett
5.83,2.89,47.40667,-120.32000,WA,55000,23000,50,75,1,Central Washington Hospital
9.36,3.56,47.05286,-122.84707,WA,94000,30000,50,41,11,Providence St Peter Hospital
9.19,2.91,47.60869,-122.32128,WA,92000,23000,33,56,13,Swedish Medical Center
6.20,2.90,48.77371,-122.47344,WA,59000,23000,50,67,33,St Joseph Medical Center
4.87,2.77,46.59360,-120.54741,WA,44000,21000,50,75,48,Yakima Valley Memorial Hospital
7.32,2.73,47.58295,-122.62506,WA,72000,21000,66,57,33,Harrison Medical Center
9.28,3.38,45.62460,-122.58145,WA,93000,28000,66,53,81,Peacehealth Southwest Medical Center
5.69,2.44,47.61943,-122.18605,WA,54000,18000,50,57,76,Overlake Hospital Medical Center
7.03,3.03,47.64936,-117.41194,WA,68000,24000,66,76,33,Providence Sacred Heart Medical Center
5.93,2.72,47.70969,-117.40722,WA,56000,21000,50,65,88,Providence Holy Family Hospital
15.71,3.80,47.17742,-122.28943,WA,164000,33000,50,96,11,Multicare Good Samaritan Hospital
9.32,3.17,47.44243,-122.21392,WA,94000,26000,50,55,48,Valley Medical Center
15.01,3.72,47.24670,-122.44841,WA,156000,32000,66,66,21,St Joseph Medical Center
7.08,2.58,47.67076,-117.23552,WA,69000,19000,0,0,0,Valley Hospital
7.34,2.94,47.71603,-122.17867,WA,72000,23000,50,65,95,Evergreen Hospital Medical Center
10.68,3.00,47.25980,-122.45243,WA,109000,24000,83,50,57,Tacoma General Allenmore Hospital
4.12,2.59,39.32836,-80.23964,WV,36000,19000,66,61,76,United Hospital Center
3.78,2.62,39.47923,-77.98177,WV,32000,20000,50,68,48,City Hospital
6.06,2.81,38.34739,-81.62600,WV,58000,22000,66,58,10,Charleston Area Medical Center
4.83,2.43,39.66383,-79.94681,WV,44000,18000,50,77,98,Monongalia County General Hospital
5.13,2.42,38.35361,-81.63222,WV,47000,17000,50,81,48,St Francis Hospital
5.26,2.50,39.27035,-81.56026,WV,49000,18000,50,51,10,Camden Clark Medical Center
5.40,2.88,43.80136,-91.23958,WI,50000,22000,25,66,69,Mayo Clinic Hlth System- Franciscan Med Ctr Inc
5.73,2.46,43.01152,-88.24308,WI,54000,18000,50,55,24,Waukesha Memorial Hospital
7.14,3.30,44.79461,-91.51111,WI,70000,27000,66,63,13,Sacred Heart Hsptl
6.78,2.54,43.25993,-87.92418,WI,66000,19000,0,0,0,Columbia St Mary'S Hospital Ozaukee Inc
5.61,2.64,44.96738,-89.66994,WI,53000,20000,50,67,74,Aspirus Wausau Hospital
8.85,2.78,42.68685,-89.03244,WI,88000,21000,50,63,43,Mercy Hlth Sys Corp
5.46,2.53,44.81192,-91.51352,WI,51000,19000,25,55,69,Mayo Clinic Health System Eau Claire Hospital
5.06,2.78,43.05867,-89.40269,WI,47000,21000,66,77,69,St Mary'S Hospital
5.34,2.87,43.79515,-91.24798,WI,50000,22000,16,61,21,Gundersen Luth Med Ctr
9.13,3.26,43.06432,-89.40100,WI,92000,27000,66,43,56,Meriter Hsptl
5.15,2.89,42.73444,-87.82788,WI,48000,23000,50,67,12,Wheaton Franciscan Healthcare- All Saints
8.73,3.02,42.98958,-87.95079,WI,87000,24000,50,65,37,Aurora St Lukes Medical Center
7.45,2.60,43.00120,-88.02675,WI,73000,19000,50,71,63,Aurora West Allis Medical Center
3.67,2.54,44.27860,-88.39550,WI,31000,19000,50,81,39,Appleton Med Ctr
6.60,3.44,43.04008,-88.02523,WI,64000,29000,66,36,11,Froedtert Mem Lutheran Hsptl
17.53,2.61,29.92585,-95.63108,TX,184000,20000,50,81,94,North Cypress Medical Center
5.27,2.34,30.56344,-97.68455,TX,49000,17000,50,78,56,Scott & White Hospital-Round Rock
