size_charge,size_pay,lat,lon,state,charge,pay,AcquiredInfect,AcquiredConditions,PatientSafetySummary,name
5.91,2.26,31.21673,-85.36307,AL,39000,11000,50,51,21,Southeast Alabama Medical Center
5.66,2.09,34.80175,-87.67514,AL,37000,10000,50,65,2,Eliza Coffee Memorial Hospital
3.88,2.24,33.59616,-86.66750,AL,24000,11000,66,78,1,St Vincent'S East
4.91,2.27,33.25607,-86.81035,AL,31000,12000,83,70,63,Shelby Baptist Medical Center
3.31,2.22,34.74649,-87.69895,AL,19000,11000,50,91,33,Helen Keller Memorial Hospital
4.55,2.50,32.32785,-86.27750,AL,29000,13000,50,67,54,Baptist Medical Center South
4.47,2.26,32.36656,-86.28572,AL,28000,11000,50,68,82,Jackson Hospital & Clinic Inc
3.74,2.31,32.63806,-85.40413,AL,23000,12000,50,80,13,East Alabama Medical Center And Snf
7.77,2.69,33.50619,-86.80210,AL,53000,15000,66,45,11,University Of Alabama Hospital
8.07,2.39,34.72007,-86.58108,AL,55000,12000,50,65,44,Huntsville Hospital
11.09,2.26,34.00941,-85.97078,AL,78000,11000,66,67,27,Gadsden Regional Medical Center
6.66,2.15,31.23767,-85.45625,AL,44000,11000,50,55,79,Flowers Hospital
3.68,2.15,33.50734,-86.78958,AL,22000,11000,50,72,21,St Vincent'S Birmingham
4.98,2.28,33.83218,-87.30385,AL,32000,12000,50,78,95,Walker Baptist Medical Center
4.42,2.23,30.68199,-88.19897,AL,28000,11000,83,86,0,Providence Hospital
5.00,2.36,33.20521,-87.52546,AL,32000,12000,66,66,21,D C H Regional Medical Center
10.16,2.34,33.49854,-86.84633,AL,71000,12000,66,70,8,Baptist Medical Center-Princeton
11.53,2.32,33.51420,-86.74859,AL,81000,12000,66,27,11,Trinity Medical Center
3.60,2.17,30.69697,-88.08081,AL,22000,11000,66,55,24,Mobile Infirmary
9.78,2.16,34.69279,-86.57179,AL,68000,11000,50,77,33,Crestwood Medical Center
8.50,2.01,33.46420,-86.77409,AL,58000,10000,50,65,29,Brookwood Medical Center
5.53,2.52,33.23361,-87.57125,AL,36000,13000,0,0,0,Northport Medical Center
4.98,2.28,32.50808,-85.00867,AL,32000,12000,0,0,0,Jack Hughston Memorial Hospital
6.91,3.11,60.94901,-149.17033,AK,46000,18000,50,81,90,Providence Alaska Medical Center
10.31,3.17,61.21082,-149.82866,AK,72000,18000,50,90,43,Alaska Regional Hospital
5.80,2.61,32.25294,-110.88135,AZ,38000,14000,50,48,3,Tucson Medical Center
7.88,2.50,32.22734,-111.00065,AZ,54000,13000,33,75,63,Carondelet St  Marys Hospital
8.74,2.36,32.22685,-110.85520,AZ,60000,12000,66,55,21,Carondelet St Josephs Hospital
5.74,3.63,35.20923,-111.64486,AZ,38000,22000,66,78,88,Flagstaff Medical Center
14.67,3.17,33.48073,-112.07948,AZ,104000,18000,33,52,11,St Joseph'S Hospital And Medical Center
9.61,2.67,33.48885,-111.92387,AZ,67000,14000,66,76,54,Scottsdale Healthcare-Osborn Medical Center
8.14,2.69,33.39097,-111.87638,AZ,55000,15000,66,80,56,Banner Desert Medical Center
8.39,2.40,32.32103,-111.01102,AZ,57000,12000,50,71,20,Northwest Medical Center
8.55,2.47,33.58235,-111.88527,AZ,59000,13000,66,68,63,Scottsdale Healthcare-Shea Medical Center
5.50,2.35,33.53218,-112.09949,AZ,36000,12000,0,0,0,Surgical Specialty Hospital Of Arizona
6.05,2.34,36.10940,-94.16036,AR,40000,12000,33,77,74,Washington Regional Med Ctr At North Hills
5.67,2.37,34.75031,-92.33897,AR,37000,12000,66,63,82,St Vincent Infirmary Medical Center
6.03,2.91,34.74866,-92.35422,AR,40000,16000,50,51,33,Uams Medical Center
2.80,2.42,35.83746,-90.70386,AR,16000,13000,50,75,2,St Bernards Medical Ctr
5.09,2.32,34.46784,-93.06667,AR,33000,12000,66,66,85,St Josephs Mercy Health Center Inc
5.30,2.23,34.77770,-92.12539,AR,34000,11000,50,60,13,Baptist Health Medical Center North Little Rock
8.03,2.49,35.37445,-94.41868,AR,55000,13000,50,53,85,Sparks Regional Medical Center
4.83,2.29,35.35395,-94.35262,AR,31000,12000,50,66,11,St Edward Mercy Medical Center
4.55,2.30,34.74866,-92.35422,AR,29000,12000,50,43,21,Baptist Health Medical Center-Little Rock
4.38,2.40,35.80838,-90.66658,AR,27000,13000,50,57,69,Nea Baptist Memorial Hospital
5.41,2.22,34.81290,-92.20814,AR,35000,11000,0,0,0,St Vincent Medical Center/North
3.83,2.15,34.80457,-92.35122,AR,23000,11000,0,0,0,Arkansas Surgical Hospital
13.17,2.94,40.78366,-124.14246,CA,93000,17000,50,63,63,St Joseph Hospital
9.07,3.41,37.76862,-122.43525,CA,62000,20000,50,50,74,California Pacific Medical Ctr-Davies Campus Hosp
18.41,3.17,38.57053,-121.45216,CA,132000,18000,83,53,27,Mercy General Hospital
12.16,2.95,33.97659,-117.38184,CA,86000,17000,50,65,57,Riverside Community Hospital
10.65,2.80,32.77495,-117.01467,CA,74000,15000,83,71,33,Grossmont Hospital
10.35,2.84,35.38736,-119.01690,CA,72000,16000,33,85,79,Bakersfield Memorial Hospital
9.39,2.55,39.74221,-121.85000,CA,65000,14000,83,71,48,Enloe Medical Center
14.98,3.11,34.67486,-118.15771,CA,107000,18000,50,67,44,Antelope Valley Hospital Med Center
10.46,2.96,36.32737,-119.29548,CA,73000,17000,50,56,12,Kaweah Delta Medical Center
8.53,3.39,36.73000,-119.78000,CA,58000,20000,50,71,0,Community Regional Medical Center
10.72,2.68,33.78036,-117.86495,CA,75000,15000,50,60,88,St Joseph Hospital
16.14,3.12,32.75143,-117.16083,CA,115000,18000,33,62,69,Scripps Mercy Hospital
17.50,3.06,34.21674,-119.15631,CA,126000,17000,50,63,6,St Johns Regional Medical Center
11.14,3.08,37.96987,-121.28873,CA,78000,18000,83,68,97,St Josephs Med Center Of Stockton
9.28,2.78,36.83532,-119.76562,CA,64000,15000,50,66,57,Saint Agnes Medical Center
11.59,2.83,32.79949,-117.15394,CA,81000,16000,66,62,11,Sharp Memorial Hospital
12.46,3.36,38.57155,-121.46874,CA,88000,20000,83,77,79,Sutter General Hospital
10.77,2.85,34.02685,-118.48651,CA,75000,16000,50,76,21,Santa Monica - Ucla Med Ctr & Orthopaedic Hospital
8.19,3.10,34.13495,-117.27603,CA,56000,18000,50,66,48,St Bernardine Medical Center
9.85,3.12,36.57886,-121.91316,CA,68000,18000,66,56,57,Community Hospital Of The Monterey Peninsula
21.87,3.50,37.32710,-121.93863,CA,158000,21000,66,71,37,O'Connor Hospital
17.07,2.84,33.96860,-118.04831,CA,122000,16000,50,46,16,Presbyterian Intercommunity Hospital
14.32,2.74,34.58305,-118.14490,CA,102000,15000,50,86,54,Palmdale Regional Medical Center
10.47,2.51,33.62229,-117.92995,CA,73000,13000,50,70,51,Hoag Memorial Hospital Presbyterian
14.90,2.80,34.15601,-118.32834,CA,106000,16000,50,80,97,Providence Saint Joseph Medical Ctr
9.66,2.97,40.58654,-122.39168,CA,67000,17000,83,71,44,Mercy Medical Center Redding
14.48,3.05,37.69502,-121.88095,CA,103000,17000,50,71,82,Valleycare Medical Center
9.74,2.65,34.03009,-118.47833,CA,68000,14000,50,81,76,Saint John'S Health Center
9.77,2.83,34.50107,-117.17285,CA,68000,16000,50,87,20,St Mary Medical Center
13.74,3.83,37.85593,-122.25730,CA,97000,23000,50,56,8,Alta Bates Summit Medical Center - Alta Bates Camp
19.33,3.04,37.36934,-122.08047,CA,139000,17000,66,48,6,El Camino Hospital
11.36,3.29,38.76514,-121.24979,CA,80000,19000,66,77,16,Sutter Roseville Medical Center
16.28,2.87,32.88461,-117.22244,CA,117000,16000,50,63,29,Scripps Memorial Hospital La Jolla
12.54,3.60,34.05076,-117.26395,CA,89000,22000,50,55,16,Loma Linda University Medical Center
8.10,3.22,36.65910,-121.64630,CA,55000,19000,50,70,37,Salinas Valley Memorial Hospital
28.55,4.63,33.78798,-117.89026,CA,208000,29000,66,56,11,University Of California Irvine Med Center
10.12,2.71,33.81131,-118.34364,CA,70000,15000,66,67,88,Torrance Memorial Medical Center
10.75,2.74,33.83891,-118.35677,CA,75000,15000,50,86,94,Providence Little Company Of Mary Med Ctr Torrance
13.53,2.63,34.27459,-119.25812,CA,96000,14000,50,53,8,Community Memorial Hospital San Buenaventura
10.41,2.89,34.42951,-119.72333,CA,72000,16000,66,72,32,Santa Barbara Cottage Hospital
15.64,3.21,32.89810,-117.24217,CA,112000,19000,50,75,37,Scripps Green Hospital
10.41,2.83,34.13364,-118.15275,CA,73000,16000,66,65,57,Huntington Memorial Hospital
19.32,4.11,37.43436,-122.18013,CA,139000,25000,50,58,27,Stanford Hospital
15.89,4.30,37.76421,-122.45716,CA,114000,27000,66,52,90,Ucsf Medical Center
10.31,3.04,33.80861,-118.18661,CA,72000,17000,66,65,27,Long Beach Memorial Medical Center
17.81,2.86,33.03634,-117.28487,CA,128000,16000,50,65,5,Scripps Memorial Hospital - Encinitas
13.66,2.78,35.29188,-120.66635,CA,97000,15000,50,86,81,Sierra Vista Regional Medical Center
13.27,2.96,34.20777,-118.88305,CA,94000,17000,50,51,69,Los Robles Hospital & Medical Center
11.36,2.58,33.56100,-117.66530,CA,80000,14000,66,58,12,Mission Hospital Regional Med Center
19.60,2.50,33.76335,-116.40628,CA,141000,13000,50,56,39,Eisenhower Medical Center
22.26,3.93,38.55484,-121.45628,CA,161000,24000,50,50,3,University Of California Davis Medical Center
20.48,3.46,34.07664,-118.37955,CA,148000,20000,100,58,48,Cedars-Sinai Medical Center
15.62,2.90,37.77577,-121.95824,CA,112000,16000,50,66,3,San Ramon Regional Medical Ctr
19.37,3.13,34.06193,-118.20157,CA,140000,18000,33,71,3,Keck Hospital Of Usc
7.23,2.70,33.55876,-117.18329,CA,49000,15000,66,73,74,Southwest Healthcare System
5.75,2.52,36.82510,-119.78189,CA,38000,13000,0,0,0,Fresno Surgical Hospital
13.10,2.72,32.77629,-117.05730,CA,93000,15000,75,78,63,Alvarado Hospital Medical Center
8.47,2.49,33.66270,-117.77270,CA,58000,13000,0,0,0,Hoag Orthopedic Institute
8.89,2.56,40.41481,-104.70890,CO,61000,14000,50,73,57,North Colorado Medical Center
5.56,2.47,40.57315,-105.05741,CO,36000,13000,50,68,95,Poudre Valley Hospital
8.75,3.58,37.23629,-107.82578,CO,60000,21000,0,0,0,Mercy Regional Medical Center
12.48,2.54,39.71712,-105.12874,CO,88000,14000,33,67,16,Centura Health-St Anthony Hospital
6.18,2.59,38.83903,-104.80024,CO,41000,14000,66,68,33,Memorial Hospital Central
6.37,2.68,39.09046,-108.56190,CO,42000,15000,50,48,57,St Marys Hospital And Medical Center
14.74,3.38,39.74234,-104.84156,CO,105000,20000,66,66,69,University Of Colorado Hospital Anschutz Inpatient
11.92,2.60,40.02615,-105.28391,CO,84000,14000,50,91,82,Boulder Community Hospital
11.28,2.75,39.73231,-104.93396,CO,79000,15000,75,50,32,Rose Medical Center
7.77,2.62,39.65399,-104.98116,CO,53000,14000,33,47,17,Swedish Medical Center
11.09,2.63,39.68859,-104.83205,CO,78000,14000,50,61,13,Medical Center Of Aurora The
11.59,2.53,39.52910,-104.87121,CO,81000,13000,50,76,79,Sky Ridge Medical Center
15.48,2.53,39.57629,-104.98610,CO,110000,13000,50,78,54,Centura Health-Littleton Adventist Hospital
12.40,2.62,39.54881,-104.77119,CO,87000,14000,50,60,12,Parker Adventist Hospital
6.98,2.41,40.45184,-105.19608,CO,47000,13000,50,78,44,Medical Center Of The Rockies
8.23,3.00,41.30978,-72.93806,CT,56000,17000,66,57,8,Hospital Of St Raphael
3.58,3.01,41.77507,-72.69941,CT,21000,17000,50,53,85,St Francis Hospital & Medical Center
6.14,3.09,41.18881,-73.16645,CT,41000,18000,50,51,21,Bridgeport Hospital
5.70,2.63,41.79153,-73.13382,CT,37000,14000,25,78,54,Charlotte Hungerford Hospital
5.76,2.72,41.58181,-73.40955,CT,38000,15000,0,0,0,New Milford Hospital
11.53,2.78,41.03431,-73.63020,CT,81000,15000,50,48,63,Greenwich Hospital Association
9.38,3.82,41.30400,-72.93502,CT,65000,23000,66,41,3,Yale-New Haven Hospital
4.01,2.64,41.54301,-72.08799,CT,25000,14000,50,70,44,William W Backus Hospital
4.71,3.12,41.75412,-72.67927,CT,30000,18000,50,47,9,Hartford Hospital
5.75,3.06,41.20049,-73.20281,CT,38000,17000,66,78,63,St Vincent'S Medical Center
5.36,2.55,41.67540,-72.93617,CT,35000,14000,50,73,33,Bristol Hospital
6.11,2.82,41.40474,-73.44739,CT,40000,16000,50,66,57,Danbury Hospital
6.55,2.85,41.66107,-72.78671,CT,44000,16000,50,52,8,Hospital Of Central Connecticut The
4.68,3.63,41.73545,-72.79489,CT,30000,22000,25,60,8,John Dempsey Hospital
5.24,2.77,39.69005,-75.68408,DE,34000,15000,66,58,39,Christiana Care Health Services Inc.
4.31,2.38,38.77159,-75.14210,DE,27000,12000,50,90,81,Beebe Medical Center
13.89,3.43,38.90106,-77.05079,DC,99000,20000,50,50,13,George Washington Univ Hospital
13.05,3.22,38.91221,-77.07588,DC,92000,19000,66,65,0,Georgetown University Hospital
10.03,2.99,38.92944,-77.01473,DC,70000,17000,33,58,1,Washington Hospital Center
10.73,3.02,30.34913,-81.66391,FL,75000,17000,50,62,0,Shands Jacksonville Medical Center
8.99,2.54,26.50479,-80.06979,FL,62000,14000,50,53,99,Bethesda Memorial Hospital
7.88,2.66,28.52517,-81.37729,FL,54000,14000,66,47,29,Orlando Health
11.57,2.82,28.57345,-81.36990,FL,81000,16000,83,66,24,Florida Hospital
11.14,2.92,25.78846,-80.21644,FL,78000,16000,83,56,0,University Of Miami Hospital
8.90,2.38,26.62849,-81.87423,FL,61000,12000,66,52,16,Lee Memorial Hospital
7.21,2.44,29.20117,-81.05828,FL,49000,13000,66,76,79,Halifax Health Medical Center
5.68,2.33,26.15053,-81.79919,FL,37000,12000,66,62,39,Naples Community Hospital
8.53,2.48,28.08771,-80.61362,FL,58000,13000,66,58,17,Holmes Regional Medical Center
9.72,3.72,25.79143,-80.21250,FL,67000,22000,83,48,4,Jackson Memorial Hospital
10.33,2.19,28.83363,-82.33561,FL,72000,11000,50,55,44,Citrus Memorial Hospital
8.52,2.48,30.47650,-87.21219,FL,58000,13000,50,41,39,Sacred Heart Hospital
6.81,2.29,30.15963,-85.64818,FL,46000,12000,66,73,43,Bay Medical Center
8.74,2.28,28.63051,-80.82437,FL,60000,12000,50,68,98,Parrish Medical Center
5.75,2.43,28.54917,-81.52746,FL,38000,13000,50,70,57,Health Central
10.76,2.82,26.01867,-80.17981,FL,75000,16000,83,63,76,Memorial Regional Hospital
7.52,2.37,30.30835,-81.68919,FL,51000,12000,50,68,82,St Vincent'S Medical Center
9.51,2.36,28.01404,-82.78368,FL,66000,12000,50,75,54,Mease Hospital Dunedin
9.40,2.40,27.19837,-80.24306,FL,65000,13000,66,70,57,Martin Memorial Medical Center
15.85,2.47,26.94042,-82.04094,FL,113000,13000,50,72,85,Charlotte Regional Medical Center
7.53,2.31,28.02768,-81.72466,FL,51000,12000,50,62,2,Winter Haven Hospital
9.29,2.22,29.17594,-82.13898,FL,64000,11000,50,60,94,Munroe Regional Medical Center
5.90,2.25,29.24333,-81.10760,FL,39000,11000,50,67,95,Florida Hospital Memorial Medical Center
13.61,3.44,28.01266,-82.50384,FL,96000,20000,0,0,0,Florida Hospital Carrollwood
10.00,2.39,27.09043,-82.44499,FL,69000,12000,50,76,48,Venice Regional Medical Center
6.54,2.26,28.91403,-81.28480,FL,44000,11000,83,75,5,Florida Hospital Fish Memorial
12.91,2.50,26.18711,-80.11941,FL,91000,13000,83,57,37,Holy Cross Hospital Inc
9.15,2.67,27.98242,-82.49025,FL,63000,15000,66,60,29,St Joseph'S Hospital
12.45,2.32,26.98905,-82.09559,FL,88000,12000,50,68,43,Peace River Regional Medical Center
10.17,2.55,26.59805,-80.09271,FL,71000,14000,100,60,27,Jfk Medical Center
7.58,2.31,28.80659,-81.86906,FL,51000,12000,33,67,24,Leesburg Regional Medical Center
6.88,2.44,26.27623,-80.12220,FL,46000,13000,75,72,57,Broward Health North Broward Medical Center
7.43,2.31,27.31827,-82.53140,FL,50000,12000,33,37,69,Sarasota Memorial Hospital
8.38,2.56,30.31525,-81.66398,FL,57000,14000,66,47,12,Baptist Medical Center
7.05,3.34,29.86371,-81.31749,FL,47000,20000,66,76,29,Flagler Hospital
8.12,2.32,30.43066,-87.23191,FL,55000,12000,50,72,17,Baptist Hospital
14.55,2.56,28.29946,-81.41021,FL,104000,14000,50,63,51,Osceola Regional Medical Center
8.03,3.13,29.64155,-82.34844,FL,55000,18000,66,53,29,Shands Hospital At The University Of Florida
7.43,2.29,27.95192,-82.80379,FL,50000,12000,66,62,9,Morton Plant Hospital
15.38,3.32,27.93740,-82.45927,FL,110000,19000,66,66,0,Tampa General Hospital
6.01,2.46,30.45726,-84.26175,FL,40000,13000,66,57,63,Tallahassee Memorial Healthcare
8.72,2.62,30.26389,-81.44283,FL,60000,14000,83,62,90,Mayo Clinic
11.92,2.37,28.81611,-81.28351,FL,84000,12000,50,56,97,Central Florida Regional Hospital
10.58,2.28,27.30187,-82.45428,FL,74000,12000,33,67,95,Doctors Hospital Of Sarasota
11.78,2.33,29.66085,-82.41172,FL,83000,12000,33,52,17,North Florida Regional Medical Center
9.07,2.23,29.17550,-82.13680,FL,62000,11000,83,55,85,Ocala Regional Medical Center
7.87,2.22,27.48213,-82.62126,FL,53000,11000,50,75,69,Blake Medical Center
9.41,2.30,26.52735,-81.83337,FL,65000,12000,50,58,63,Gulf Coast Medical Center Lee Mem Health System
12.45,2.29,30.45448,-86.63362,FL,88000,12000,50,72,63,Fort Walton Beach Medical Center
12.32,2.31,30.16550,-81.73775,FL,87000,12000,33,68,57,Orange Park Medical Center
10.96,2.26,30.51624,-87.21856,FL,77000,11000,50,65,4,West Florida Hospital
16.24,2.29,26.98884,-82.09877,FL,116000,12000,50,80,57,Fawcett Memorial Hospital
15.06,2.42,30.18657,-85.66513,FL,107000,13000,50,63,99,Gulf Coast Medical Center
13.87,2.73,27.93259,-82.28759,FL,98000,15000,66,67,21,Brandon Regional Hospital
8.90,2.30,26.63958,-81.94164,FL,61000,12000,50,52,21,Cape Coral Hospital
13.84,2.60,27.43392,-80.34350,FL,98000,14000,83,53,29,Lawnwood Regional Medical Center & Heart Institute
18.42,2.49,27.91458,-82.80382,FL,133000,13000,50,48,24,Largo Medical Center
14.22,2.25,28.95195,-82.62421,FL,101000,11000,50,72,21,Seven Rivers Regional Medical Center
11.32,2.31,26.92138,-80.09708,FL,79000,12000,50,61,54,Jupiter Medical Center
10.73,2.86,30.47616,-84.23140,FL,75000,16000,50,66,57,Capital Regional Medical Center
10.71,2.36,28.36128,-82.68883,FL,75000,12000,66,67,90,Regional Medical Center Bayonet Point
12.42,2.32,26.43709,-80.12728,FL,88000,12000,83,72,92,Delray Medical Center
11.87,2.41,27.28861,-80.29431,FL,83000,13000,50,65,54,St Lucie Medical Center
10.64,2.21,28.53585,-82.53404,FL,74000,11000,66,71,57,Oak Hill Hospital
11.90,2.43,26.21388,-81.73257,FL,84000,13000,33,80,33,Physicians Regional Medical Center - Pine Ridge
7.37,2.20,28.94952,-81.95843,FL,50000,11000,33,80,94,Villages Regional Hospital The
7.71,2.28,30.25377,-81.58270,FL,52000,12000,50,77,29,St Vincent'S Medical Center Southside
4.57,2.64,34.78963,-84.98398,GA,29000,14000,50,76,10,Hamilton Medical Center
8.42,2.30,34.17863,-84.13992,GA,58000,12000,66,63,46,Northside Hospital Forsyth
7.32,2.42,33.94791,-83.40531,GA,49000,13000,50,78,95,St Mary'S Hospital
5.82,2.66,31.59023,-84.15756,GA,38000,14000,50,53,11,Phoebe Putney Memorial Hospital
5.60,2.78,33.79230,-84.32107,GA,36000,15000,50,41,8,Emory University Hospital
6.80,2.58,33.56970,-85.07276,GA,45000,14000,25,78,90,Tanner Medical Center - Carrollton
4.53,2.48,33.47096,-81.98176,GA,28000,13000,50,51,21,University Hospital
7.59,2.55,34.30335,-83.81737,GA,51000,14000,66,58,44,Northeast Georgia Medical Center Inc
11.61,3.82,33.47091,-81.98988,GA,82000,23000,66,45,37,Medical College Of Ga Hospitals And Clinics
7.82,2.71,33.96770,-84.55011,GA,53000,15000,66,62,44,Wellstar Kennestone Hospital
9.36,2.64,32.03185,-81.09158,GA,65000,14000,66,61,24,Memorial Health Univ Med Cen Inc
5.11,2.28,30.82614,-83.97393,GA,33000,12000,50,75,48,John D Archbold Memorial Hospital
6.91,2.25,31.98515,-81.15475,GA,46000,11000,66,72,33,St Joseph'S Hospital - Savannah
9.45,2.76,34.26000,-85.17000,GA,65000,15000,50,67,88,Floyd Medical Center
7.40,2.80,32.46602,-84.98695,GA,50000,16000,33,86,63,Medical Center The
4.39,2.35,32.61642,-83.63065,GA,27000,12000,50,73,74,Houston Medical Center
9.82,2.51,33.96117,-83.39832,GA,68000,13000,50,68,92,Athens Regional Medical Center
5.64,2.74,33.76810,-84.38616,GA,37000,15000,33,45,9,Emory University Hospital Midtown
5.34,2.27,33.90877,-84.35180,GA,35000,12000,50,55,3,Saint Joseph'S Hospital Of Atlanta Inc
7.42,2.70,33.81003,-84.39568,GA,50000,15000,33,57,44,Piedmont Hospital
6.59,2.42,33.96351,-84.01769,GA,44000,13000,50,90,44,Gwinnett Medical Center
5.55,2.37,31.47069,-83.50473,GA,36000,12000,16,80,32,Tift Regional Medical Center
6.45,2.76,32.83041,-83.63476,GA,43000,15000,66,48,44,Medical Center Of Central Georgia
5.06,2.40,30.86250,-83.28630,GA,32000,13000,66,67,74,South Georgia Medical Center
5.56,2.24,32.50679,-84.95933,GA,36000,11000,83,67,69,St Francis Hospital Inc
7.69,3.18,33.85638,-84.60446,GA,52000,18000,50,56,33,Wellstar Cobb Hospital
10.18,2.51,33.90903,-84.35410,GA,71000,13000,66,63,19,Northside Hospital
6.38,2.52,32.84705,-83.61823,GA,42000,13000,66,62,9,Coliseum Medical Center
6.88,2.60,33.57843,-84.38897,GA,46000,14000,50,78,24,Southern Regional Medical Center
5.83,2.39,34.25704,-85.16467,GA,38000,12000,50,87,24,Redmond Regional Medical Center
8.89,2.51,33.48259,-82.09038,GA,61000,13000,50,58,8,Doctors Hospital
8.91,2.32,33.87683,-84.02136,GA,61000,12000,50,77,44,Emory Eastside Medical Center
13.52,2.40,34.06334,-84.31976,GA,96000,12000,75,70,74,North Fulton Regional Hospital
6.98,2.33,32.53607,-84.95468,GA,47000,12000,0,0,0,Hughston Hospital
6.34,2.43,32.86625,-83.69421,GA,42000,13000,0,0,0,Coliseum Northside Hospital
5.10,2.25,30.89823,-83.33519,GA,33000,11000,0,0,0,Smith Northview Hospital
6.55,2.47,33.45252,-84.50697,GA,44000,13000,50,60,33,Piedmont Fayette Hospital
4.23,2.31,34.06670,-84.17643,GA,26000,12000,50,77,88,Emory Johns Creek Hospital
6.67,3.10,21.30780,-157.85505,HI,44000,18000,66,68,44,The Queens Medical Center
9.09,2.98,21.30226,-157.85092,HI,63000,17000,75,83,16,Straub Clinic And Hospital
5.00,2.75,46.41668,-117.02441,ID,32000,15000,50,71,39,St Joseph Regional Medical Center
5.22,2.69,43.61218,-116.19234,ID,34000,15000,66,61,16,St Lukes Regional Medical Center
5.43,2.52,43.61359,-116.25484,ID,35000,13000,66,78,24,St Alphonsus Regional Medical Center
7.52,2.48,43.46987,-111.99208,ID,51000,13000,66,66,57,Eastern Idaho Regional Medical Center
6.09,2.88,42.87331,-112.42180,ID,40000,16000,33,76,39,Portneuf Medical Center
4.61,2.44,47.69645,-116.79476,ID,29000,13000,50,71,48,Kootenai Medical Center
5.77,2.30,47.71536,-116.92471,ID,38000,12000,0,0,0,Northwest Specialty Hospital
11.92,2.47,41.52896,-88.13550,IL,84000,13000,50,75,82,Provena St Joseph Medical Center
9.62,3.31,42.06550,-87.68428,IL,67000,19000,33,55,57,Evanston Hospital
7.07,2.65,39.93563,-91.39833,IL,47000,14000,50,55,92,Blessing Hospital
6.36,2.49,39.80726,-89.64496,IL,42000,13000,50,58,79,St Johns Hospital
10.81,2.95,40.70200,-89.59222,IL,75000,17000,66,57,3,Saint Francis Medical Center
13.16,3.41,41.97532,-87.69958,IL,93000,20000,50,85,51,Swedish Covenant Hospital
10.22,2.52,41.98743,-87.81440,IL,71000,13000,66,62,69,Resurrection Medical Center
8.23,3.44,41.87497,-87.66927,IL,56000,20000,50,42,33,Rush University Medical Center
7.84,3.56,40.49639,-88.99106,IL,53000,21000,0,0,0,Bromenn Healthcare
7.49,2.96,39.80893,-89.65530,IL,51000,17000,83,57,11,Memorial Medical Center
8.25,2.53,40.48254,-88.95519,IL,56000,13000,50,91,29,St Joseph Medical Center
9.77,2.91,37.72790,-89.22058,IL,68000,16000,50,63,90,Memorial Hospital Of Carbondale
4.98,2.28,38.55020,-90.02146,IL,32000,12000,66,81,21,Memorial Hospital
8.73,2.70,41.12572,-87.88526,IL,60000,15000,50,72,81,Riverside Medical Center
9.03,3.23,42.27447,-87.95764,IL,62000,19000,50,70,79,Advocate Condell Medical Center
8.33,3.18,41.72031,-87.73249,IL,57000,18000,50,57,74,Advocate Christ Hospital & Medical Center
9.28,3.02,40.70065,-89.59505,IL,64000,17000,50,78,48,Methodist Medical Center Of Illinois
7.52,3.36,42.03837,-87.84820,IL,51000,20000,83,77,69,Advocate Lutheran General Hospital
13.70,3.29,42.26584,-89.07428,IL,97000,19000,50,65,76,Swedish American Hospital
7.88,2.60,41.76076,-88.15016,IL,54000,14000,50,68,29,Edward Hospital
7.58,2.28,42.26634,-89.00900,IL,51000,12000,50,50,29,Saint Anthony Medical Center
10.03,2.85,42.29844,-89.09897,IL,70000,16000,50,87,56,Rockford Memorial Hospital
7.54,3.02,41.86110,-87.83404,IL,51000,17000,66,46,4,Loyola University Medical Center
6.12,2.37,41.48200,-90.57158,IL,40000,12000,50,58,63,Trinity Rock Island
10.70,3.46,41.89477,-87.62131,IL,75000,20000,50,61,94,Northwestern Memorial Hospital
10.85,3.31,41.81791,-88.00907,IL,76000,19000,50,86,95,Advocate Good Samaritan Hospital
6.83,2.63,41.59920,-87.35764,IN,46000,14000,50,65,94,Methodist Hospitals Inc
6.45,2.30,40.48720,-86.15548,IN,43000,12000,50,75,81,St Joseph Hospital & Health Center Inc
8.54,2.50,41.70877,-86.17026,IN,58000,13000,50,88,57,Saint Joseph Regional Medical Center
10.17,2.78,41.03874,-85.24876,IN,71000,15000,66,63,32,Lutheran Hospital Of Indiana
11.62,2.75,41.04659,-85.10906,IN,82000,15000,83,60,44,Parkview Regional Medical Center
7.82,2.39,39.48518,-87.40893,IN,53000,12000,50,62,33,Union Hospital Inc
6.60,2.33,39.72432,-86.10055,IN,44000,12000,0,0,0,Franciscan St Francis Health - Beech Grove
7.10,3.04,41.51266,-87.26125,IN,48000,17000,50,78,85,St Mary Medical Center Inc
4.89,2.24,38.30195,-85.83409,IN,31000,11000,66,85,85,Floyd Memorial Hospital And Health Services
7.14,2.37,39.16006,-86.54038,IN,48000,12000,50,56,24,Indiana University Health Bloomington Hospital
11.32,3.21,39.79009,-86.16260,IN,79000,19000,50,51,79,Indiana University Health
8.44,3.04,41.68479,-86.25217,IN,58000,17000,66,60,8,Memorial Hospital Of South Bend
8.78,2.60,39.78704,-86.07673,IN,60000,14000,50,82,82,Community Hospital East
4.50,2.21,37.98293,-87.57072,IN,28000,11000,83,66,13,Deaconess Hospital Inc
8.40,2.69,39.91001,-86.19660,IN,57000,15000,66,47,88,St Vincent Hospital & Health Services
8.75,2.85,40.19679,-85.41573,IN,60000,16000,66,62,85,Indiana University Health Ball Memorial Hospital
7.40,2.31,37.96320,-87.50292,IN,50000,12000,66,67,32,St Mary'S Medical Center Of Evansville Inc
11.45,2.54,40.39424,-86.83516,IN,80000,14000,66,82,17,Franciscan St Elizabeth Health - Lafayette East
5.38,2.39,41.55065,-87.50619,IN,35000,12000,50,75,85,Community Hospital
5.28,2.33,39.90998,-86.26738,IN,34000,12000,0,0,0,Indiana Orthopaedic Hospital Llc
8.69,2.22,41.18970,-85.09940,IN,60000,11000,0,0,0,Orthopaedic Hospital At Parkview North Llc
7.82,2.22,41.03831,-85.24466,IN,53000,11000,0,0,0,The Orthopaedic Hospital Of Lutheran Health Networ
8.12,2.53,39.90060,-86.04218,IN,55000,13000,50,77,76,Community Hospital North
8.63,2.31,40.40296,-86.80885,IN,59000,12000,50,83,97,Indiana University Health Arnett Hospital
5.10,2.34,41.98570,-91.66093,IA,33000,12000,66,75,90,St Lukes Hospital
6.11,2.29,41.26786,-95.83505,IA,40000,12000,0,0,0,Jennie Edmundson Hospital
9.08,3.27,41.66092,-91.54800,IA,63000,19000,16,38,63,University Of Iowa Hospital & Clinics
3.88,2.40,43.15063,-93.21718,IA,24000,12000,50,82,63,Mercy Medical Center-North Iowa
6.03,2.39,42.46407,-92.34532,IA,40000,12000,0,0,0,Covenant Medical Center
4.47,2.20,41.97864,-91.65507,IA,28000,11000,50,80,99,Mercy Medical Center - Cedar Rapids
6.74,2.44,41.58955,-93.63248,IA,45000,13000,66,37,82,Iowa Methodist Medical Center
6.31,2.60,41.59886,-93.62344,IA,42000,14000,83,75,29,Mercy Medical Center-Des Moines
4.41,2.34,39.05660,-95.69599,KS,28000,12000,33,51,33,St Francis Health Center Inc
12.36,2.80,39.05583,-94.60912,KS,87000,16000,66,53,63,University Of Kansas Hospital
11.81,2.52,39.05128,-95.69572,KS,83000,13000,66,71,10,Stormont-Vail Healthcare
7.86,2.26,38.99549,-94.69061,KS,53000,11000,66,46,21,Shawnee Mission Medical Center
5.70,2.45,37.70405,-97.31386,KS,37000,13000,66,68,21,Via Christi Hospitals Wichita Inc
7.08,2.52,37.69556,-97.29785,KS,48000,13000,66,52,5,Wesley Medical Center
9.44,2.61,39.12677,-94.78643,KS,65000,14000,50,60,82,Providence Medical Center
8.99,2.39,38.92696,-94.64353,KS,62000,12000,0,0,0,Doctors Hospital Llc
5.03,2.25,38.93265,-94.65100,KS,32000,11000,0,0,0,Heartland Surgical Spec Hospital
6.87,2.26,37.74369,-97.22762,KS,46000,11000,0,0,0,Kansas Spine Hospital Llc
6.31,2.43,38.47021,-82.63498,KY,42000,13000,66,60,54,King'S Daughters' Medical Center
4.97,2.22,38.03140,-84.52194,KY,32000,11000,83,67,79,Saint Joseph Hospital
6.15,2.65,36.99641,-86.43006,KY,41000,14000,66,52,33,The Medical Center At Bowling Green
5.27,2.17,38.20960,-85.23598,KY,34000,11000,0,0,0,Jewish Hospital - Shelbyville
5.86,2.43,39.06704,-84.49946,KY,38000,13000,33,58,79,St Elizabeth Medical Center North
4.55,2.75,37.76518,-87.10197,KY,29000,15000,50,66,29,Owensboro Medical Health System
6.28,2.61,38.24927,-85.75081,KY,42000,14000,66,51,8,Jewish Hospital & St Mary'S Healthcare
6.67,2.87,37.47264,-82.52605,KY,44000,16000,75,86,9,Pikeville Medical Center
6.55,2.39,37.64378,-84.77272,KY,44000,12000,0,0,0,Ephraim Mcdowell Regional Medical Center
5.20,2.97,38.03282,-84.50674,KY,34000,17000,33,62,33,University Of Kentucky Hospital
8.95,2.62,38.24806,-85.75125,KY,62000,14000,50,35,39,Norton Hospitals Inc
5.26,2.34,38.01849,-84.51236,KY,34000,12000,50,71,57,Central Baptist Hospital
6.86,2.21,37.07404,-88.62685,KY,46000,11000,50,80,39,Western Baptist Hospital
6.74,2.35,36.96603,-86.43639,KY,45000,12000,50,85,94,Greenview Regional Hospital
5.07,2.20,38.23898,-85.63941,KY,33000,11000,66,57,74,Baptist Hospital East
6.74,2.48,37.08724,-84.61828,KY,45000,13000,66,60,17,Lake Cumberland Regional Hospital
9.19,3.62,30.20227,-92.01906,LA,63000,22000,50,73,29,Lafayette General Medical Center
7.57,2.31,29.77956,-90.80568,LA,51000,12000,50,73,92,Thibodaux Regional Medical Center
6.20,2.31,29.59851,-90.71397,LA,41000,12000,25,68,69,Terrebonne General Medical Center
11.16,2.50,30.46813,-90.45814,LA,78000,13000,75,71,74,North Oaks Medical Center Llc
9.23,2.47,31.31451,-92.44997,LA,64000,13000,66,40,39,Rapides Regional Medical Center
7.63,2.71,30.21521,-93.22682,LA,52000,15000,50,63,63,Christus St Patrick Hospital
12.33,2.86,29.89089,-90.09395,LA,87000,16000,50,65,85,West Jefferson Medical Center
9.49,2.48,32.49443,-93.75011,LA,66000,13000,50,68,13,Christus Schumpert Health System
5.88,2.59,30.20458,-93.19774,LA,39000,14000,50,80,6,Lake Charles Memorial Hospital
7.18,2.75,30.40118,-91.11160,LA,48000,15000,83,51,33,Our Lady Of The Lake Regional Medical Center
3.44,3.13,32.48177,-93.76264,LA,20000,18000,100,80,0,Lsu Health Sciences Center - Shreveport
5.46,2.35,32.48393,-93.77884,LA,35000,12000,50,63,62,Willis Knighton Medical Center
5.83,2.38,32.49997,-92.11359,LA,38000,12000,66,62,98,St Francis Medical Center
8.59,2.37,30.01438,-90.18155,LA,59000,12000,66,68,74,East Jefferson General Hospital
12.50,2.67,30.19775,-92.07724,LA,88000,15000,50,88,74,The Regional Medical Center Of Acadiana
7.93,2.24,30.17586,-92.02762,LA,54000,11000,0,0,0,Lafayette Surgical Specialty Hospital
6.92,2.15,30.35058,-91.08736,LA,46000,11000,0,0,0,The Neuromedical Center Hospital
15.74,2.42,32.49813,-93.74607,LA,112000,13000,0,0,0,Specialists Hospital Shreveport
7.30,2.00,31.31391,-92.46790,LA,49000,10000,0,0,0,Central Louisiana Surgical Hospital
12.09,2.36,30.48533,-90.41477,LA,85000,12000,0,0,0,Cypress Pointe Surgical Hospital
4.34,2.41,43.65159,-70.26482,ME,27000,13000,0,0,0,Mercy Hospital
4.52,2.97,43.65325,-70.27533,ME,28000,17000,16,47,0,Maine Medical Center
7.86,2.63,44.10276,-70.20093,ME,53000,14000,0,0,0,St Marys Regional Medical Center
3.34,3.20,39.62183,-77.68219,MD,20000,18000,0,0,0,Meritus Medical Center
6.03,5.76,39.28817,-76.62438,MD,40000,38000,0,0,0,University Of Maryland Medical Center
2.41,2.32,39.42366,-77.41386,MD,13000,12000,0,0,0,Frederick Memorial Hospital
3.19,3.06,39.38813,-76.61068,MD,18000,17000,0,0,0,Saint Joseph Medical Center
3.36,3.21,39.29297,-76.61314,MD,20000,19000,0,0,0,Mercy Medical Center Inc
5.00,4.75,39.29688,-76.59242,MD,32000,30000,0,0,0,Johns Hopkins Hospital The
5.20,4.93,39.27352,-76.67219,MD,34000,31000,0,0,0,Saint Agnes Hospital
4.86,4.58,39.35262,-76.66196,MD,31000,29000,0,0,0,Sinai Hospital Of Baltimore
3.03,2.91,39.35169,-76.47919,MD,17000,16000,0,0,0,Franklin Square Hospital Center
4.71,4.49,38.36248,-75.59799,MD,30000,28000,0,0,0,Peninsula Regional Medical Center
3.34,3.21,38.99743,-77.11048,MD,20000,19000,0,0,0,Suburban Hospital
2.79,2.69,38.99014,-76.53398,MD,15000,15000,0,0,0,Anne Arundel Medical Center
3.54,3.41,39.32930,-76.61432,MD,21000,20000,0,0,0,Union Memorial Hospital
4.37,4.17,39.25189,-76.61399,MD,27000,26000,0,0,0,Harbor Hospital
3.57,3.41,39.13732,-76.62228,MD,21000,20000,0,0,0,Baltimore Washington  Medical Center
3.92,3.76,39.51870,-76.34688,MD,24000,23000,0,0,0,Upper Chesapeake Medical Center
4.26,4.08,39.35962,-76.58851,MD,26000,25000,0,0,0,Good Samaritan Hospital
4.29,3.06,41.65298,-70.27484,MA,27000,17000,50,56,95,Cape Cod Hospital
4.51,3.86,42.35843,-71.05977,MA,28000,23000,66,51,0,Boston Medical Center Corporation
4.91,2.83,42.64636,-71.34118,MA,31000,16000,50,87,95,Lowell General Hospital
6.36,2.57,42.11449,-72.59502,MA,42000,14000,50,77,76,Mercy Medical Center
12.51,3.41,42.36227,-71.06941,MA,88000,20000,50,43,16,Massachusetts General Hospital
5.61,2.72,41.70928,-71.14519,MA,37000,15000,25,51,88,Southcoast Hospital Group Inc
4.31,3.06,42.12077,-72.60525,MA,27000,17000,33,61,82,Baystate Medical Center
4.87,3.45,42.33719,-71.10939,MA,31000,20000,33,71,33,Beth Israel Deaconess Medical Center
4.44,2.58,42.32919,-71.10626,MA,28000,14000,0,0,0,New England Baptist Hospital
7.16,2.62,42.33149,-71.24568,MA,48000,14000,66,70,99,Newton-Wellesley Hospital
10.01,3.28,42.33600,-71.10704,MA,70000,19000,66,40,20,Brigham And Women'S Hospital
8.03,3.43,42.27720,-71.75922,MA,55000,20000,50,36,29,Umass Memorial Medical Center Inc
4.34,2.79,42.48585,-71.20686,MA,27000,15000,66,76,16,Lahey Clinic Hospital
4.35,2.47,43.20588,-86.20839,MI,27000,13000,50,76,57,Mercy Health Partners Mercy Campus
5.10,2.77,42.28551,-85.58042,MI,33000,15000,66,82,13,Bronson Methodist Hospital
5.84,2.84,42.45741,-83.20513,MI,38000,16000,83,57,48,Providence Hospital And Medical Centers
8.77,3.03,42.29077,-83.21504,MI,60000,17000,33,48,69,Oakwood Hospital And Medical Center
7.32,2.77,42.61425,-83.27602,MI,49000,15000,66,52,79,St Joseph Mercy Oakland
4.93,2.89,42.96881,-85.66649,MI,31000,16000,33,66,82,Spectrum Health - Butterworth Campus
4.69,2.31,43.58941,-83.86908,MI,30000,12000,33,55,98,Mclaren Bay Region
9.14,3.63,42.28388,-83.72960,MI,63000,22000,50,61,43,University Of Michigan Health System
5.87,2.42,42.61490,-82.96060,MI,38000,13000,50,66,54,Henry Ford Macomb Hospital
5.82,3.07,42.36762,-83.08461,MI,38000,18000,66,47,8,Henry Ford Hospital
4.55,2.70,46.54758,-87.39560,MI,29000,15000,83,67,48,Marquette General Hospital
3.94,2.77,42.95817,-85.66253,MI,24000,15000,50,53,90,Saint Mary'S Health Care
5.97,2.58,43.42857,-83.95556,MI,39000,14000,83,61,63,Covenant Medical Center Inc
6.76,2.43,42.77487,-86.11378,MI,45000,13000,0,0,0,Holland Community Hospital
3.09,2.46,43.42612,-83.94185,MI,18000,13000,66,63,57,St Mary'S Of Michigan Medical Center
5.11,2.38,42.25117,-84.39240,MI,33000,12000,50,85,98,Allegiance Health
4.75,2.69,44.76156,-85.64143,MI,30000,15000,50,41,57,Munson Medical Center
3.35,2.61,45.37209,-84.97065,MI,20000,14000,50,77,24,Northern Michigan Regional Hospital
10.42,2.64,42.30489,-85.56152,MI,73000,14000,66,47,76,Borgess Medical Center
4.03,2.74,42.51418,-83.19259,MI,25000,15000,66,60,16,William Beaumont Hospital
7.34,2.68,43.01399,-83.73250,MI,49000,15000,50,60,33,Mclaren Flint
4.89,2.59,42.21065,-83.14861,MI,31000,14000,50,70,95,Henry Ford Wyandotte Hospital
7.14,2.79,42.26181,-83.66003,MI,48000,15000,66,62,33,St Joseph Mercy Hospital
4.75,2.87,42.41975,-82.91442,MI,30000,16000,66,72,9,St John Hospital And Medical Center
5.30,2.56,42.50514,-83.00422,MI,34000,14000,66,56,85,St John Macomb-Oakland Hospital-Macomb Center
5.55,2.79,42.89254,-83.63621,MI,36000,15000,66,70,13,Genesys Regional Medical Center - Health Park
4.87,2.37,42.98625,-82.42802,MI,31000,12000,50,62,29,Port Huron Hospital
4.24,2.57,43.63618,-84.26187,MI,26000,14000,50,72,69,Midmichigan Medical Center-Midland
5.38,2.78,42.73767,-84.51698,MI,35000,15000,83,68,1,Edward W Sparrow Hospital
4.49,2.79,42.85736,-85.71774,MI,28000,15000,50,66,48,Metro Health Hospital
3.84,2.49,42.61826,-83.09239,MI,23000,13000,83,60,62,William Beaumont Hospital-Troy
5.42,2.37,42.53914,-83.40777,MI,35000,12000,50,53,39,Henry Ford West Bloomfield Hospital
5.11,2.65,46.79380,-92.09573,MN,33000,14000,83,75,79,Essentia Health St Mary'S Medical Center
5.19,3.24,44.02052,-92.48292,MN,33000,19000,83,42,32,Mayo Clinic - Saint Marys Hospital
5.57,2.87,45.57390,-94.16942,MN,36000,16000,50,61,37,St Cloud Hospital
7.33,2.84,44.95248,-93.26196,MN,49000,16000,50,70,63,Abbott Northwestern Hospital
5.12,2.47,44.88645,-93.32693,MN,33000,13000,66,62,94,Fairview Southdale Hospital
6.01,3.32,44.96766,-93.23640,MN,40000,19000,66,56,57,University Of Minnesota  Medical Center Fairview
8.88,3.02,44.95570,-93.09429,MN,61000,17000,50,78,17,Regions Hospital
6.10,3.00,45.18355,-93.36789,MN,40000,17000,50,73,95,Mercy Hospital
7.34,2.51,45.02892,-93.03418,MN,49000,13000,50,75,24,Healtheast St John'S Hospital
7.41,3.56,32.33069,-90.17030,MS,50000,21000,66,51,6,University Of Mississippi Med Center
3.96,2.44,34.24336,-88.71753,MS,24000,13000,66,61,48,North Mississippi Medical Center
9.01,2.46,30.39599,-88.89061,MS,62000,13000,50,80,48,Biloxi Regional Medical Center
9.17,2.35,30.37516,-88.53226,MS,63000,12000,50,70,3,Singing River Hospital
4.88,2.31,32.33616,-90.15652,MS,31000,12000,50,60,44,St Dominic-Jackson Memorial Hospital
3.68,2.45,32.36983,-88.69702,MS,22000,13000,50,83,4,Rush Foundation Hospital
13.11,2.44,32.28805,-90.25566,MS,93000,13000,50,81,8,Central Mississippi Medical Center
4.85,2.49,31.31872,-89.32955,MS,31000,13000,50,57,54,Forrest General Hospital
6.85,2.38,31.32573,-89.36670,MS,46000,12000,50,56,20,Wesley Medical Center
12.78,2.21,32.28618,-90.03434,MS,90000,11000,50,68,6,Crossgates River Oaks Hospital
4.94,3.07,33.51824,-90.19832,MS,32000,17000,0,0,0,Greenwood Leflore Hospital
4.79,2.18,32.31643,-90.17922,MS,30000,11000,66,43,85,Mississippi Baptist Medical Center
9.43,2.38,30.44411,-89.09321,MS,65000,12000,50,72,11,Garden Park Medical Center
8.32,2.47,32.32541,-90.10520,MS,57000,13000,0,0,0,River Oaks Hospital
4.07,2.44,34.96927,-89.99709,MS,25000,13000,50,68,11,Baptist Memorial Hospital Desoto
5.91,2.36,37.06032,-94.52747,MO,39000,12000,0,0,0,St John'S Regional Medical Center
4.61,2.87,39.77393,-94.77089,MO,29000,16000,50,58,51,Heartland Regional Medical Center
6.14,2.20,38.57670,-92.17352,MO,41000,11000,50,86,0,St Marys Health Center
5.44,2.43,38.64281,-90.44448,MO,35000,13000,83,57,74,Mercy Hospital St Louis
7.65,2.83,38.63524,-90.26508,MO,52000,16000,50,56,12,Barnes Jewish Hospital
6.43,2.47,37.14560,-93.28037,MO,43000,13000,50,61,85,Cox Medical Center
7.56,2.45,37.17999,-93.27409,MO,51000,13000,66,61,24,St John'S Regional Health Center
5.23,2.18,38.94903,-92.31563,MO,34000,11000,66,73,43,Boone Hospital Center
3.07,2.18,38.50661,-90.38025,MO,18000,11000,66,57,13,St Anthony'S Medical Center
5.41,2.18,38.52738,-90.47501,MO,35000,11000,50,65,44,Ssm St Clare Health Center
4.65,2.42,38.75097,-90.43255,MO,29000,13000,66,68,43,Ssm Depaul Health Center
5.61,2.85,38.63702,-90.44699,MO,37000,16000,66,68,48,Missouri Baptist Medical Center
12.19,2.53,37.31072,-89.53990,MO,86000,13000,50,72,8,Southeast Missouri Hospital
6.22,2.41,37.05238,-94.52777,MO,41000,13000,83,67,85,Freeman Health System - Freeman West
7.35,2.93,38.95171,-92.33407,MO,50000,17000,66,60,63,University Of Missouri Health Care
6.95,2.40,38.58103,-90.45144,MO,47000,12000,50,70,43,Des Peres Hospital
3.71,2.38,38.65123,-90.50301,MO,22000,12000,66,67,12,St Lukes Hospital
12.72,2.82,37.30401,-89.57190,MO,90000,16000,50,65,11,St Francis Medical Center
5.32,2.46,38.80334,-90.77619,MO,34000,13000,50,65,82,Ssm St Joseph Hospital West
5.02,2.52,47.49139,-111.26255,MT,32000,13000,50,61,57,Benefis Hospitals Inc
5.64,2.41,46.87545,-114.00033,MT,37000,13000,50,77,69,St Patrick Hospital
4.95,2.82,46.84691,-114.04640,MT,32000,16000,0,0,0,Community Medical Center Inc
5.78,2.60,45.79337,-108.51928,MT,38000,14000,50,81,54,St Vincent Healthcare
6.25,2.47,40.78318,-96.63709,NE,41000,13000,66,70,63,Bryanlgh Medical Center
5.48,2.80,40.70646,-99.08136,NE,36000,16000,50,68,51,Good Samaritan Hospital
7.35,2.90,41.25522,-95.97892,NE,50000,16000,50,52,51,The Nebraska Medical Center
5.90,2.37,40.80816,-96.62689,NE,39000,12000,50,66,20,Saint Elizabeth Regional Medical Center
5.45,2.26,41.25797,-96.04164,NE,35000,11000,50,73,33,The Nebraska Methodist Hospital
9.41,2.90,41.88690,-103.66400,NE,65000,16000,50,58,85,Regional West Medical Center
8.04,2.28,41.25751,-96.03663,NE,55000,12000,0,0,0,Midwest Surgical Hospital Llc
7.48,2.45,41.32146,-96.02188,NE,51000,13000,0,0,0,Nebraska Spine Hospital Llc
7.56,2.65,39.52637,-119.79456,NV,51000,14000,50,66,17,Renown Regional Medical Center
10.29,3.05,36.13459,-115.13576,NV,72000,17000,66,68,9,Sunrise Hospital And Medical Center
9.39,3.14,36.15896,-115.16558,NV,65000,18000,33,60,0,Umc Of Southern Nevada
9.86,2.40,39.53066,-119.82067,NV,68000,13000,66,76,44,Saint Mary'S Regional Medical Center
10.36,2.98,39.20247,-119.78446,NV,72000,17000,50,56,69,Carson Tahoe Regional Medical Center
14.82,3.09,36.16380,-115.16574,NV,106000,18000,66,70,54,Valley Hospital Medical Center
14.03,2.37,39.54241,-119.69736,NV,100000,12000,0,0,0,Northern Nevada Medical Center
11.37,2.77,36.21599,-115.25095,NV,80000,15000,66,57,13,Mountainview Hospital
9.94,2.57,36.00527,-115.11618,NV,69000,14000,50,50,33,Saint Rose Dominican Hospital - Siena Campus
9.60,2.73,36.07216,-115.29538,NV,66000,15000,50,81,1,Southern Hills Hospital And Medical Center
6.01,2.41,39.19862,-119.78154,NV,40000,13000,0,0,0,Sierra Surgery Hospital
8.46,3.20,43.67286,-72.27232,NH,58000,18000,50,38,0,Mary Hitchcock Memorial Hospital
4.81,2.57,42.75623,-71.46059,NH,31000,14000,50,81,54,Southern Nh Medical Center
9.69,3.22,40.88346,-74.05564,NJ,67000,19000,50,58,85,Hackensack University Medical Center
14.75,3.22,39.94152,-75.11680,NJ,105000,19000,66,42,2,Cooper University Hospital
8.59,2.83,40.78883,-74.46620,NJ,59000,16000,66,43,39,Morristown Memorial Hospital
6.80,3.23,40.90215,-74.16634,NJ,45000,19000,16,53,94,St Joseph'S Regional Medical Center
7.62,2.84,40.90400,-73.96847,NJ,52000,16000,66,81,54,Englewood Hospital And Medical Center
8.48,2.39,39.31464,-74.59391,NJ,58000,12000,16,72,82,Shore Medical Center
16.92,2.83,39.98588,-74.79393,NJ,121000,16000,66,55,54,Virtua Memorial Hospital Of Burlington County
10.57,2.66,39.35775,-74.43449,NJ,74000,14000,66,65,88,Atlanticare Regional Medical Center - City Div
10.11,3.29,40.21065,-74.03566,NJ,70000,19000,50,58,6,Jersey Shore University Medical Center
8.36,2.94,40.29563,-73.98518,NJ,57000,17000,50,50,85,Monmouth Medical Center
9.06,3.58,35.08838,-106.61590,NM,62000,21000,83,46,11,Unm Hospital
8.12,3.05,35.65960,-105.94578,NM,55000,17000,50,65,29,St Vincent Hospital
9.04,3.10,35.08603,-106.63950,NM,62000,18000,66,62,54,Lovelace Medical Center
6.77,2.69,35.08102,-106.63392,NM,45000,15000,33,51,3,Presbyterian Hospital
6.54,2.75,42.87482,-78.84942,NY,44000,15000,33,45,8,Kaleida Health
5.93,2.90,42.65345,-73.77543,NY,39000,16000,66,60,63,Albany Medical Center Hospital
6.15,3.69,40.79041,-73.95386,NY,41000,22000,83,38,5,Mount Sinai Hospital
6.96,3.12,40.87946,-73.41621,NY,47000,18000,50,66,39,Huntington Hospital
6.26,2.32,42.65583,-73.80372,NY,41000,12000,33,47,54,St Peter'S Hospital
5.21,2.94,41.71846,-73.92710,NY,34000,17000,50,80,79,St Francis Hospital
6.55,3.75,40.76487,-73.95398,NY,44000,23000,33,32,74,New York-Presbyterian Hospital
3.73,2.27,42.97762,-78.88045,NY,22000,12000,50,71,57,Kenmore Mercy Hospital
11.29,3.31,40.77686,-73.70212,NY,79000,19000,33,61,69,North Shore University Hospital
8.47,3.20,40.77362,-73.96093,NY,58000,18000,33,46,11,Lenox Hill Hospital
4.87,2.48,43.05571,-76.14981,NY,31000,13000,83,37,20,St Joseph'S Hospital Health Center
6.52,2.61,41.19677,-73.72572,NY,43000,14000,50,68,69,Northern Westchester Hospital
4.20,2.64,43.13562,-77.60602,NY,26000,14000,50,43,10,Highland Hospital
9.52,3.49,40.74083,-73.64306,NY,66000,21000,66,50,74,Winthrop-University Hospital
4.01,2.69,43.04139,-76.13803,NY,25000,15000,50,41,1,Crouse Hospital
10.85,3.49,40.74335,-73.97408,NY,76000,21000,33,63,21,Nyu Hospitals Center
3.41,2.41,43.19054,-77.70177,NY,20000,13000,50,45,82,Unity Hospital Of Rochester
2.91,2.31,42.74285,-73.67673,NY,16000,12000,50,52,69,Seton Health System-St Mary'S Campus
6.76,3.23,43.04269,-76.14043,NY,45000,19000,66,41,3,University Hospital S U N Y Health Science Center
3.80,2.39,42.81327,-75.54316,NY,23000,12000,0,0,0,Community Memorial Hospital Inc
8.83,3.27,40.76488,-73.95302,NY,61000,19000,0,0,0,Hospital For Special Surgery
7.11,3.22,40.69327,-73.29412,NY,48000,19000,50,70,74,Good Samaritan Hospital Medical Center
8.34,3.55,40.90922,-73.11520,NY,57000,21000,50,60,44,University Hospital ( Stony Brook )
5.08,2.53,42.11422,-75.95851,NY,33000,13000,66,48,92,United Health Services Hospitals Inc
5.74,2.60,35.43754,-80.60147,NC,38000,14000,66,65,16,Carolinas Medical Center-Northeast
5.65,2.54,35.57658,-82.54922,NC,37000,14000,66,40,81,Memorial Mission Hospital And Asheville Surgery Ce
4.31,2.54,35.39772,-77.95250,NC,27000,14000,50,81,8,Wayne Memorial Hospital
5.59,2.42,36.07581,-80.29779,NC,36000,13000,50,52,39,Forsyth Memorial Hospital
3.88,2.32,35.68172,-80.47072,NC,24000,12000,50,80,76,Rowan Regional Medical Center
9.39,3.18,36.00850,-78.94006,NC,65000,18000,66,43,76,Duke University Hospital
4.86,2.45,35.27341,-81.13688,NC,31000,13000,50,70,69,Gaston Memorial Hospital
9.16,2.99,35.60726,-77.40477,NC,63000,17000,50,46,1,Pitt County Memorial Hospital
6.48,3.13,36.09062,-80.27161,NC,43000,18000,83,55,57,North Carolina Baptist Hospital
6.01,2.24,36.04290,-78.89690,NC,40000,11000,0,0,0,North Carolina Specialty Hospital
12.51,2.87,34.63723,-79.01213,NC,88000,16000,50,71,63,Southeastern Regional Medical Center
8.70,2.48,35.22196,-80.83287,NC,60000,13000,50,63,13,Presbyterian Hospital
8.27,3.33,35.90529,-79.04963,NC,57000,19000,66,41,1,University Of North Carolina Hospital
7.09,2.64,35.78523,-78.58836,NC,48000,14000,33,50,79,Wakemed Raleigh Campus
8.82,2.39,35.82915,-78.61922,NC,61000,12000,50,81,79,Duke Health Raleigh Hospital
3.93,2.46,36.09251,-79.78855,NC,24000,13000,66,66,51,Moses H Cone Memorial Hospital The
5.60,2.30,35.21029,-80.82084,NC,37000,12000,50,53,51,Carolinas Med Center-Mercy
12.69,2.40,34.90228,-79.71125,NC,90000,13000,0,0,0,Sandhills Regional Medical Center
8.36,2.83,35.92115,-77.55585,NC,57000,16000,50,85,6,Heritage Hospital
7.69,3.01,35.20397,-80.83908,NC,52000,17000,66,63,24,Carolinas Medical Center/Behav Health
6.86,2.46,35.81801,-78.70283,NC,46000,13000,50,65,54,Rex Hospital
4.49,2.38,35.20554,-79.45645,NC,28000,12000,66,60,44,Firsthealth Moore Regional Hospital
8.20,2.25,35.73751,-81.33702,NC,56000,11000,50,67,17,Frye Regional Medical Center
5.80,2.65,35.11420,-77.06568,NC,38000,14000,33,73,90,Carolina East Medical Center
7.01,2.55,34.23786,-77.94764,NC,47000,14000,83,70,57,New Hanover Regional Medical Center
6.61,2.40,35.71664,-81.26661,NC,44000,13000,50,72,63,Catawba Valley Medical Center
11.90,2.48,35.81875,-80.82896,NC,84000,13000,0,0,0,Davis Regional Medical Center
6.80,2.74,35.97538,-77.85012,NC,45000,15000,50,65,13,Nash General Hospital
7.09,2.47,35.21076,-80.82359,NC,48000,13000,0,0,0,Presbyterian-Orthopaedic Hospital
7.31,2.49,36.04960,-78.90617,NC,49000,13000,50,51,69,Durham Regional Hospital
6.63,2.32,35.52586,-82.94351,NC,44000,12000,0,0,0,Medwest Haywood
4.54,2.63,46.80739,-100.77773,ND,29000,14000,50,72,76,St Alexius Medical Center
5.37,2.64,46.88496,-96.78609,ND,35000,14000,66,61,48,Sanford Medical Center Fargo
9.96,3.33,39.13707,-84.50392,OH,69000,19000,66,45,21,University Hospital Inc
8.06,2.60,40.03064,-83.03440,OH,55000,14000,83,71,21,Riverside Methodist Hospital
9.19,2.86,39.96098,-82.99077,OH,63000,16000,66,78,21,Grant Medical Center
6.40,2.37,41.44642,-82.70864,OH,43000,12000,50,86,18,Firelands Regional Medical Center
5.35,2.52,41.07747,-81.53042,OH,35000,13000,66,70,63,Akron General Medical Center
7.71,2.74,39.95805,-83.02191,OH,52000,15000,66,42,1,Mount Carmel Health
6.69,2.79,41.49640,-81.67376,OH,45000,15000,25,55,63,St Vincent Charity Medical Center
4.64,2.48,39.97510,-82.01812,OH,29000,13000,50,78,92,Genesis Healthcare System
8.70,3.41,41.61788,-83.61632,OH,60000,20000,66,68,6,University Of Toledo Medical Center
9.28,2.68,39.74547,-84.18523,OH,64000,15000,66,45,1,Miami Valley Hospital
5.11,3.21,41.46088,-81.69763,OH,33000,19000,50,60,24,Metro Health Medical Center
6.34,2.37,41.11441,-80.65565,OH,42000,12000,83,48,21,St Elizabeth Health Center
9.34,2.33,40.74115,-84.11804,OH,65000,12000,66,73,6,St Rita'S Medical Center
7.46,2.46,41.67775,-83.59589,OH,50000,13000,33,70,57,Toledo Hospital The
8.72,2.45,39.69724,-84.19232,OH,60000,13000,66,80,57,Kettering Medical Center
3.85,2.62,40.79609,-81.40360,OH,23000,14000,50,63,17,Aultman Hospital
8.38,2.52,41.48724,-81.70707,OH,57000,13000,0,0,0,Lutheran Hospital
6.48,2.55,41.01785,-83.65165,OH,43000,14000,50,82,69,Blanchard Valley Hospital
4.61,2.19,41.66317,-81.24696,OH,29000,11000,50,73,39,Lake Health
6.93,2.91,41.66810,-83.54275,OH,46000,16000,50,70,5,Mercy St Vincent Medical Center
7.77,2.81,39.76950,-84.20285,OH,53000,16000,66,65,90,Grandview Hospital & Medical Center
6.52,2.61,39.13975,-84.52173,OH,43000,14000,66,83,69,Good Samaritan Hospital
7.47,3.05,41.50772,-81.60592,OH,51000,17000,83,46,44,University Hospitals Of Cleveland
5.13,2.48,39.39463,-82.96979,OH,33000,13000,50,50,24,Adena Regional Medical Center
7.07,2.69,39.12105,-84.51059,OH,47000,15000,83,46,88,Christ Hospital
8.54,2.50,39.25076,-84.34341,OH,59000,13000,50,62,99,Bethesda North Hospital
7.39,2.74,41.50248,-81.62110,OH,50000,15000,33,32,24,Cleveland Clinic
4.99,2.34,41.52013,-81.43291,OH,32000,12000,66,45,37,Hillcrest Hospital
4.72,2.41,40.08713,-82.79236,OH,30000,13000,0,0,0,Mount Carmel New Albany Surgical Hospital
7.81,2.53,40.09970,-83.16551,OH,53000,13000,0,0,0,Dublin Methodist Hospital
3.22,2.22,41.09698,-81.51355,OH,19000,11000,0,0,0,Crystal Clinic Orthopaedic Center
7.76,2.42,39.35830,-84.36785,OH,53000,13000,50,93,57,West Chester Medical Center
6.32,2.78,36.14687,-95.96841,OK,42000,15000,83,76,32,Hillcrest Medical Center
6.30,2.39,35.60735,-97.59693,OK,42000,12000,66,51,6,Mercy Health Center Inc
4.44,2.17,36.39385,-97.87094,OK,28000,11000,50,77,63,St Mary'S Regional Medical Center
12.21,2.82,35.52960,-97.57496,OK,86000,16000,100,76,90,Integris Baptist Medical Center
5.51,2.95,35.47800,-97.52352,OK,36000,17000,66,58,33,St Anthony Hospital
5.88,2.30,34.60992,-98.43419,OK,39000,12000,50,62,48,Comanche County Memorial Hospital
4.73,2.43,36.06135,-95.95154,OK,30000,13000,83,61,44,Saint Francis Hospital Inc
10.88,3.12,35.48138,-97.49624,OK,76000,18000,66,45,1,O U Medical Center
7.80,2.73,34.59434,-98.46105,OK,53000,15000,0,0,0,Southwestern Medical Center
6.91,2.33,36.13393,-95.96718,OK,46000,12000,50,51,11,St John Medical Center Inc
6.56,2.17,35.37587,-97.57038,OK,44000,11000,0,0,0,Community Hospital
5.87,2.19,35.61401,-97.58224,OK,39000,11000,0,0,0,Oklahoma Spine Hospital
3.67,2.22,36.04382,-95.95356,OK,22000,11000,0,0,0,Oklahoma Surgical Hospital Llc
7.61,2.25,36.06382,-96.00428,OK,52000,11000,0,0,0,Tulsa Spine & Specialty Hospital
5.62,3.27,45.50973,-122.77368,OR,37000,19000,33,55,13,Providence St Vincent Medical Center
6.27,3.27,45.49956,-122.68802,OR,42000,19000,66,47,6,Ohsu Hospital And Clinics
5.49,2.46,44.60322,-123.25312,OR,36000,13000,33,58,5,Good Samaritan Regional Medical Center
4.56,2.48,42.31769,-122.83333,OR,29000,13000,66,61,90,Rogue Valley Medical Center
7.08,2.49,44.05330,-123.00351,OR,48000,13000,50,67,1,Mckenzie-Willamette Medical Center
7.12,2.62,45.51993,-122.97759,OR,48000,14000,0,0,0,Tuality Community Hospital
7.06,2.59,44.06773,-121.26817,OR,47000,14000,66,70,37,St Charles Medical Center - Bend
6.46,2.84,42.25296,-121.78512,OR,43000,16000,0,0,0,Sky Lakes Medical Center
5.73,2.57,44.93267,-123.03418,OR,37000,14000,66,72,24,Salem Hospital
6.09,2.76,45.51288,-122.55630,OR,40000,15000,50,86,16,Adventist Medical Center
5.15,2.74,45.52677,-122.61469,OR,33000,15000,66,75,0,Providence Portland Medical Center
8.42,2.52,45.19897,-123.16482,OR,58000,13000,0,0,0,Willamette Valley Medical Center
5.98,2.60,42.34086,-122.86108,OR,39000,14000,50,61,54,Providence Medford Medical Center
4.71,2.40,45.37908,-122.74083,OR,30000,13000,50,81,54,Legacy Meridian Park Medical Center
6.88,3.14,43.38402,-124.23280,OR,46000,18000,0,0,0,Bay Area Hospital
5.66,2.62,44.08146,-123.02694,OR,37000,14000,50,60,24,Sacred Heart Medical Center - Riverbend
6.67,2.35,41.40075,-75.64594,PA,45000,12000,50,77,94,Community Medical Center
8.74,2.91,40.96789,-76.60506,PA,60000,16000,33,56,13,Geisinger Medical Center
10.54,2.49,42.11102,-80.07912,PA,73000,13000,50,72,57,Saint Vincent Health Center
30.00,3.64,40.00504,-75.15155,PA,219000,22000,83,57,33,Temple University Hospital
3.86,2.17,40.54345,-80.17760,PA,23000,11000,50,80,54,Heritage Valley Sewickley
8.01,2.55,40.33271,-75.95020,PA,55000,14000,50,67,21,Reading Hospital Medical Center
4.37,2.36,41.24548,-77.01438,PA,27000,12000,50,57,37,Williamsport Regional Medical Center
4.91,2.71,39.94604,-76.71884,PA,31000,15000,66,45,8,York Hospital
13.67,3.24,40.60811,-75.39260,PA,97000,19000,66,53,57,St Luke'S Hospital Bethlehem
6.11,2.57,40.45705,-80.00363,PA,40000,14000,83,70,44,Allegheny General Hospital
8.30,2.32,40.04093,-76.32139,PA,57000,12000,50,75,54,Lancaster Regional Medical Center
4.39,2.58,40.25661,-76.87572,PA,27000,14000,83,47,0,Pinnacle Health Hospitals
5.46,2.38,40.04740,-76.30540,PA,35000,12000,66,60,82,Lancaster General Hospital
7.88,3.28,40.48928,-79.89596,PA,54000,19000,50,72,63,Upmc St Margaret
6.12,2.25,40.57319,-80.01455,PA,40000,11000,50,57,48,Upmc Passavant
15.58,3.52,39.95045,-75.19259,PA,111000,21000,50,33,39,Hospital Of Univ Of Pennsylvania
11.47,2.63,40.60000,-75.47000,PA,80000,14000,66,58,54,Lehigh Valley Hospital
13.39,2.80,40.44190,-79.96044,PA,95000,15000,83,55,11,Upmc Presbyterian Shadyside
12.31,3.17,39.94969,-75.15712,PA,87000,18000,66,41,57,Thomas Jefferson University Hospital
9.50,2.93,39.94560,-75.15561,PA,66000,16000,50,56,69,Pennsylvania Hosp Of The Univ Of Pa Health Sys
9.59,2.60,40.12077,-75.11818,PA,66000,14000,83,51,43,Abington Memorial Hospital
7.62,3.50,40.26468,-76.67582,PA,52000,21000,66,40,3,Milton S Hershey Medical Center
7.60,2.40,40.81936,-77.84273,PA,51000,13000,50,91,57,Mount Nittany Medical Center
10.27,2.79,41.25855,-75.81041,PA,71000,15000,66,86,2,Geisinger Wyoming Valley Medical Center
4.45,2.37,39.91688,-76.69684,PA,28000,12000,0,0,0,Oss Orthopaedic Hospital
4.24,2.92,41.83350,-71.43529,RI,26000,16000,50,55,29,Roger Williams Medical Center
4.06,2.47,41.85574,-71.45945,RI,25000,13000,50,67,76,St Joseph Health Services Of Ri
5.81,3.24,41.81254,-71.40760,RI,38000,19000,33,48,6,Rhode Island Hospital
4.49,2.51,34.95535,-81.05137,SC,28000,13000,50,75,33,Piedmont Medical Center
9.02,3.74,32.78272,-79.94543,SC,62000,23000,33,76,69,Musc Medical Center
5.03,2.67,34.96733,-81.94021,SC,32000,15000,33,60,54,Spartanburg Regional Medical Center
10.36,3.16,34.02839,-81.03539,SC,72000,18000,33,43,21,Palmetto Health Richland
7.83,2.49,33.37683,-79.29450,SC,53000,13000,0,0,0,Georgetown Memorial Hospital
8.83,2.37,34.83965,-82.42147,SC,61000,12000,66,66,11,St Francis-Downtown
11.57,2.62,34.51119,-82.64683,SC,81000,14000,50,61,94,Anmed Health
8.20,2.47,33.78555,-79.00178,SC,56000,13000,50,90,69,Conway Medical Center
10.48,2.74,34.19543,-79.76256,SC,73000,15000,50,50,79,Mcleod Regional Medical Center-Pee Dee
5.67,2.45,32.80878,-80.04216,SC,37000,13000,50,61,69,Bon Secours-St Francis Xavier Hospital
7.95,3.01,34.17571,-82.15791,SC,54000,17000,66,65,20,Self Regional Healthcare
7.59,2.46,34.00533,-81.11393,SC,51000,13000,66,63,48,Lexington Medical Center
7.27,2.84,34.81904,-82.41308,SC,49000,16000,50,55,17,Greenville Memorial Hospital
13.65,2.68,32.97605,-80.07302,SC,97000,15000,50,56,48,Trident Medical Center
10.02,3.07,32.22325,-80.71444,SC,70000,18000,0,0,0,Hilton Head Regional Medical Center
10.08,2.30,34.94957,-81.93205,SC,70000,12000,50,47,88,Mary Black Memorial Hospital
15.59,2.34,33.70704,-78.89487,SC,111000,12000,66,50,57,Grand Strand Reg Med Center
10.64,2.81,34.00754,-81.03270,SC,74000,16000,33,66,37,Palmetto Health Baptist
6.09,2.26,32.78211,-79.95018,SC,40000,11000,50,66,29,Roper Hospital
10.95,2.45,32.82119,-79.85052,SC,77000,13000,0,0,0,East Cooper Medical Center
17.07,2.45,34.19543,-79.76256,SC,122000,13000,33,66,13,Carolinas Hospital System
8.75,2.55,43.53460,-96.71136,SD,60000,14000,66,60,81,Avera Mckennan Hospital & University Health Center
10.07,2.50,43.53562,-96.74305,SD,70000,13000,66,82,57,Sanford Usd Medical Center
8.35,2.34,42.48749,-96.48642,SD,57000,12000,0,0,0,Siouxland Surgery Center Lp
8.48,2.58,44.04607,-103.22337,SD,58000,14000,0,0,0,Black Hills Surgical Hospital Llp
4.48,2.39,35.63906,-88.83207,TN,28000,12000,66,53,27,Jackson-Madison County General Hospital
9.13,2.43,36.24440,-86.75204,TN,63000,13000,50,71,85,Skyline Medical Center
5.54,2.25,36.58587,-82.25703,TN,36000,11000,50,62,48,Wellmont Bristol Regional Medical Center
6.52,2.57,35.93985,-83.94326,TN,43000,14000,33,62,20,University Of Tn Memorial Hospital
5.73,2.29,36.55401,-82.55483,TN,37000,12000,50,58,33,Wellmont Holston Valley Medical Center
5.09,2.36,35.91595,-86.81799,TN,33000,12000,50,58,39,Williamson Medical Center
6.72,2.17,35.98589,-84.28055,TN,45000,11000,66,62,79,Methodist Medical Center Of Oak Ridge
10.25,3.20,36.14316,-86.80048,TN,71000,19000,50,43,43,Vanderbilt University Hospital
4.66,2.38,35.12837,-89.86202,TN,29000,12000,50,43,39,Baptist Memorial Hospital
8.23,3.31,35.13640,-90.01928,TN,56000,19000,66,51,37,Methodist Healthcare Memphis Hospitals
3.02,2.36,36.17121,-85.50938,TN,17000,12000,50,73,98,Cookeville Regional Medical Center
10.11,2.67,36.30767,-82.38497,TN,70000,15000,83,50,21,Johnson City Medical Center
6.61,2.29,35.04157,-85.26037,TN,44000,12000,33,72,99,Memorial Healthcare System Inc
5.42,2.66,35.05068,-85.28823,TN,35000,14000,50,52,0,Erlanger Medical Center
6.34,2.16,35.99233,-83.92697,TN,42000,11000,50,56,85,Tennova Healthcare
6.57,2.24,35.95747,-83.93660,TN,44000,11000,33,56,44,Fort Sanders Regional Medical Center
7.91,2.62,36.15388,-86.80249,TN,54000,14000,66,66,63,Baptist Hospital
10.43,2.30,35.36202,-86.20943,TN,73000,12000,0,0,0,Harton Regional Medical Center
6.43,2.48,36.17752,-86.60840,TN,43000,13000,50,76,29,Summit Medical Center
6.31,2.80,35.03467,-85.26735,TN,42000,16000,50,56,33,Parkridge Medical Center
7.83,2.57,36.15310,-86.80910,TN,53000,14000,66,68,81,Centennial Medical Center
7.44,2.27,35.91765,-84.10080,TN,50000,12000,33,72,82,Parkwest Medical Center
6.13,2.39,36.07626,-86.72183,TN,40000,12000,50,100,6,Southern Hills Medical Ctr
4.64,2.19,36.15524,-86.80350,TN,29000,11000,0,0,0,The Center For Spinal Surgery
6.29,2.38,35.97510,-86.56688,TN,42000,12000,50,95,62,Stonecrest Medical Center
8.58,2.56,33.90296,-98.50035,TX,59000,14000,66,86,48,United Regional Health Care System
8.39,2.47,30.65598,-96.34672,TX,57000,13000,50,57,32,St Joseph Regional Health Center
5.79,4.15,29.31233,-94.77317,TX,38000,26000,66,55,21,University Of Texas Medical Branch Gal
6.28,2.61,32.78994,-96.78044,TX,42000,14000,83,58,33,Baylor University Medical Center
10.57,2.89,30.08729,-94.13292,TX,74000,16000,66,86,79,Christus Hospital
6.50,2.36,32.50219,-94.73025,TX,43000,12000,50,73,85,Good Shepherd Medical Center
8.91,2.40,33.57524,-101.89272,TX,61000,12000,50,41,48,Covenant Medical Center
4.17,2.27,31.51444,-97.19927,TX,26000,12000,50,50,33,Providence Health Center
15.58,2.76,27.77751,-97.39515,TX,111000,15000,83,57,95,Christus Spohn Hospital Corpus Christi
5.94,2.77,32.76017,-96.82437,TX,39000,15000,50,40,3,Methodist Dallas Medical Center
8.92,2.69,31.07837,-97.36403,TX,61000,15000,50,56,85,Scott & White Memorial Hospital
9.60,2.51,29.43360,-98.49265,TX,66000,13000,66,61,24,Baptist Medical Center
8.96,2.53,32.33824,-95.29122,TX,62000,14000,50,55,92,East Texas Medical Center
7.19,2.21,32.34280,-95.29201,TX,48000,11000,50,60,98,Mother Frances Hospital
13.66,2.91,31.76998,-106.49897,TX,97000,16000,66,58,8,Las Palmas Medical Center
9.37,2.92,30.27438,-97.73395,TX,65000,16000,33,73,2,University Medical Center At Brackenridge
6.85,2.51,31.99616,-102.09950,TX,46000,13000,50,55,37,Midland Memorial Hospital
9.11,2.66,32.73780,-97.33899,TX,63000,14000,66,55,57,Texas Health Harris Methodist Fort Worth
7.04,2.57,32.73070,-97.34379,TX,47000,14000,66,57,74,Baylor All Saints Medical Center At Fw
6.46,2.33,33.54243,-101.86066,TX,43000,12000,0,0,0,Grace Medical Center
6.18,2.69,29.81230,-95.43010,TX,41000,15000,66,62,69,Memorial Hermann Hospital System
8.80,3.67,29.70719,-95.40048,TX,60000,22000,66,43,1,St Lukes Episcopal Hospital
8.12,2.41,33.65984,-95.54752,TX,55000,13000,50,76,48,Paris Regional Medical Center
9.05,2.43,33.42875,-94.04725,TX,62000,13000,0,0,0,Wadley Regional Medical Center
9.08,2.60,35.19934,-101.92186,TX,63000,14000,83,82,24,Northwest Texas Hospital
12.74,2.24,31.33632,-94.74205,TX,90000,11000,50,71,63,Memorial Health System Of East Texas- Lufkin
5.48,2.54,32.47171,-99.73315,TX,36000,14000,66,86,39,Hendrick Medical Center
5.66,2.29,35.19533,-101.91907,TX,37000,12000,66,60,21,Baptist St Anthonys Health System-Baptist Campus
10.90,2.88,29.42825,-98.49859,TX,76000,16000,50,80,20,Christus Santa Rosa Hospital
8.71,2.57,33.71085,-96.58493,TX,60000,14000,50,57,21,Texoma Medical Center
8.22,2.39,30.07104,-94.11927,TX,56000,12000,83,63,85,Memorial Hermann Baptist Beaumont Hospital
9.32,2.68,29.71020,-95.39956,TX,64000,15000,100,60,13,Methodist Hospitalthe
10.02,2.65,29.50795,-98.57224,TX,70000,14000,66,62,57,Methodist Hospital
10.51,2.70,30.28957,-97.72584,TX,73000,15000,66,81,63,St Davids Medical Center
8.54,3.36,32.88076,-96.76226,TX,59000,20000,66,66,3,Texas Health Presbyterian Hospital  Dallas
4.20,2.25,32.97514,-96.72397,TX,26000,11000,75,80,29,Methodist Richardson Medical Center
7.15,2.34,32.40574,-99.76486,TX,48000,12000,75,57,76,Abilene Regional Medical Center
5.86,2.48,31.46574,-100.43466,TX,38000,13000,50,72,79,Shannon Medical Center
6.18,3.25,29.78143,-95.54541,TX,41000,19000,83,77,92,Memorial Hermann Memorial City Medical Center
8.90,2.69,29.54043,-95.12730,TX,61000,15000,66,51,21,Clear Lake Regional Medical Center
15.44,2.61,33.02168,-96.76621,TX,110000,14000,50,67,11,Medical Center Of Plano
12.49,2.21,31.65212,-94.65488,TX,88000,11000,0,0,0,Nacogdoches Medical Center
9.91,2.69,29.72272,-95.38754,TX,69000,15000,50,75,76,Park Plaza Hospital
14.59,2.43,31.77757,-106.48060,TX,104000,13000,75,62,48,Sierra Medical Center
14.66,2.90,32.73563,-97.34483,TX,104000,16000,83,41,74,Plaza Medical Center Of Fort Worth
12.74,2.41,30.51034,-97.71486,TX,90000,13000,50,63,76,Round Rock Medical Center
6.48,2.49,32.81073,-96.83618,TX,43000,13000,50,73,63,Ut Southwestern University Hospital-Zale Lipshy
10.65,2.53,27.69288,-97.34476,TX,74000,13000,50,60,85,Corpus Christi Medical Centerthe
8.53,2.22,33.46323,-94.07490,TX,58000,11000,66,80,6,Christus St Michael Health System
7.57,2.38,29.69445,-95.41451,TX,51000,12000,0,0,0,Texas Orthopedic Hospital
4.61,2.23,30.35117,-97.75114,TX,29000,11000,0,0,0,Northwest Hills Surgical Hospital
12.01,2.38,30.41163,-97.70649,TX,84000,12000,33,65,29,North Austin Medical Center
7.43,2.35,29.58896,-95.63112,TX,50000,12000,50,66,12,Methodist Sugar Land Hospital
6.20,2.33,26.26301,-98.19935,TX,41000,12000,0,0,0,Cornerstone Regional Hospital
4.07,2.27,33.87594,-98.56163,TX,25000,12000,0,0,0,Kell West Regional Hospital
9.03,2.67,26.00624,-97.52922,TX,62000,15000,0,0,0,Brownsville Surgical Hospital
9.15,2.25,33.10505,-96.83799,TX,63000,11000,0,0,0,Baylor Medical Center At Frisco
7.89,2.67,26.15761,-97.67550,TX,54000,15000,0,0,0,Harlingen Medical Center
9.06,2.20,29.61329,-98.47759,TX,62000,11000,0,0,0,South Texas Spine And Surgical Hospital
10.13,2.99,30.20579,-95.45830,TX,70000,17000,50,67,54,St Luke'S The Woodlands Hospital
5.77,2.44,32.32974,-95.29946,TX,38000,13000,0,0,0,Texas Spine And Joint Hospital
6.26,3.07,26.25286,-98.20590,TX,41000,18000,33,66,44,Doctors Hospital At Renaissance
8.76,3.11,32.67929,-97.11545,TX,60000,18000,0,0,0,Usmd Hospital At Arlington L P
5.13,2.21,35.21032,-101.91266,TX,33000,11000,0,0,0,Quail Creek Surgical Hospital
7.87,2.72,32.73678,-97.34895,TX,54000,15000,0,0,0,Baylor Surgical Hospital At Fort Worth
9.08,2.38,33.11427,-96.77061,TX,63000,12000,50,85,4,Centennial Medical Center
7.10,2.66,33.04431,-96.83215,TX,48000,14000,0,0,0,Texas Health Center For Diagnostics & Surgery Plan
8.26,2.61,32.84016,-96.86869,TX,56000,14000,0,0,0,Pine Creek Medical Center Llp
3.50,2.51,40.24999,-111.66524,UT,21000,13000,50,70,76,Utah Valley Regional Medical Center
5.00,3.03,40.77170,-111.83681,UT,32000,17000,33,53,8,University Health Care/Univ Hospitals And  Clinics
5.02,2.68,40.65922,-111.89189,UT,32000,15000,33,58,54,Intermountain Medical Center
5.52,2.45,40.88620,-111.86916,UT,36000,13000,0,0,0,Lakeview Hospital
7.07,2.49,40.68610,-111.85735,UT,47000,13000,66,72,8,St Marks Hospital
4.97,3.07,44.47966,-73.19412,VT,32000,17000,66,50,13,Fletcher Allen Hospital Of Vermont
4.04,2.59,39.19345,-78.19599,VA,25000,14000,66,60,74,Winchester Medical Center Inc
7.89,3.20,36.86268,-76.30355,VA,54000,18000,83,58,4,Sentara Norfolk General Hospital
10.81,3.38,38.02573,-78.51526,VA,76000,20000,33,35,24,University Of Virginia Medical Center
8.05,2.56,36.89933,-76.28157,VA,55000,14000,50,85,57,Bon Secours - Depaul Medical Center
6.20,2.42,36.83716,-76.34786,VA,41000,13000,50,67,95,Bon Secours Maryview Medical Center
3.95,2.33,37.41368,-79.16870,VA,24000,12000,50,70,57,Centra  Health Inc
6.44,2.55,38.31158,-77.48061,VA,43000,14000,66,73,17,Mary Washington Hospital Inc
7.33,2.68,37.25129,-79.94125,VA,49000,15000,50,61,1,Carilion Roanoke Memorial Center
7.99,3.49,37.54330,-77.42932,VA,54000,21000,66,48,0,Medical College Of Virginia Hospitals
7.55,2.25,37.14463,-76.51197,VA,51000,11000,50,78,56,Mary Immaculate Hospital
5.87,2.25,36.85098,-76.18989,VA,39000,11000,50,65,76,Sentara Leigh Hospital
8.74,2.23,37.26336,-80.03166,VA,60000,11000,50,48,8,Lewisgale Medical Center
7.97,2.53,38.88916,-77.12796,VA,54000,13000,100,57,57,Virginia Hospital Center - Arlington
5.47,2.60,37.06523,-76.48417,VA,36000,14000,50,68,44,Riverside Regional Medical Center
9.77,2.58,37.58440,-77.51252,VA,68000,14000,50,66,69,Bon Secours - St Marys Hospital Of Richmond
5.49,2.79,38.85764,-77.22772,VA,36000,15000,83,53,1,Inova Fairfax Hospital
4.27,2.28,37.05580,-76.39048,VA,27000,12000,66,66,74,Sentara Careplex Hospital
4.99,2.62,38.88483,-77.37995,VA,32000,14000,50,75,94,Inova Fair Oaks Hospital
6.68,2.61,38.96206,-77.36489,VA,45000,14000,50,68,74,Reston Hospital Center
19.44,2.58,37.51021,-77.59525,VA,140000,14000,83,52,32,Cjw Medical Center
5.56,2.50,38.63463,-77.28361,VA,36000,13000,50,62,98,Sentara Potomac Hospital
5.45,2.25,36.74610,-76.24609,VA,35000,11000,50,62,85,Chesapeake Regional Medical Center
7.93,2.37,37.46807,-77.66143,VA,54000,12000,50,62,69,Bon Secours - St Francis Medical Center
5.75,2.43,46.06348,-118.34082,WA,38000,13000,0,0,0,Providence St Mary Medical Center
12.73,2.65,46.59643,-120.52005,WA,90000,14000,50,77,2,Yakima Regional Medical And Cardiac Center
5.68,2.62,47.40667,-120.32000,WA,37000,14000,50,75,1,Central Washington Hospital
9.76,2.99,47.05286,-122.84707,WA,68000,17000,50,41,11,Providence St Peter Hospital
10.60,2.71,47.60648,-122.31106,WA,74000,15000,25,53,10,Swedish Medical Center/Cherry Hill
10.81,3.22,47.60869,-122.32128,WA,75000,19000,33,56,13,Swedish Medical Center
5.84,2.79,48.77371,-122.47344,WA,38000,15000,50,67,33,St Joseph Medical Center
11.32,2.77,47.65191,-117.42329,WA,79000,15000,50,57,13,Deaconess Hospital
7.02,2.70,45.62460,-122.58145,WA,47000,15000,66,53,81,Peacehealth Southwest Medical Center
6.53,2.85,47.64936,-117.41194,WA,43000,16000,66,76,33,Providence Sacred Heart Medical Center
6.31,2.97,46.28132,-119.28218,WA,42000,17000,33,77,54,Kadlec Regional Medical Center
13.77,4.68,47.60351,-122.32305,WA,98000,30000,66,52,0,Harborview Medical Center
9.14,2.89,47.44243,-122.21392,WA,63000,16000,50,55,48,Valley Medical Center
12.41,2.78,47.24670,-122.44841,WA,87000,15000,66,66,21,St Joseph Medical Center
6.35,2.79,47.71603,-122.17867,WA,42000,15000,50,65,95,Evergreen Hospital Medical Center
13.70,2.99,47.25980,-122.45243,WA,97000,17000,83,50,57,Tacoma General Allenmore Hospital
8.40,2.64,47.04174,-122.95125,WA,57000,14000,0,0,0,Capital Medical Center
5.07,2.57,47.43282,-120.32200,WA,33000,14000,0,0,0,Wenatchee Valley Hospital
8.88,3.19,39.65498,-79.95814,WV,61000,18000,83,31,5,West Virginia University Hospitals
4.51,2.58,38.43236,-82.40067,WV,28000,14000,66,60,17,St Mary'S Medical Center
3.86,2.27,40.05809,-80.68471,WV,23000,12000,66,68,29,Wheeling Hospital
4.50,2.94,38.40959,-82.42708,WV,28000,17000,50,51,8,Cabell-Huntington Hospital Inc
5.76,2.21,39.27035,-81.56026,WV,38000,11000,50,51,10,Camden Clark Medical Center
9.08,2.81,37.78754,-81.20183,WV,63000,16000,66,73,82,Raleigh General Hospital
7.59,2.44,43.01152,-88.24308,WI,51000,13000,50,55,24,Waukesha Memorial Hospital
10.51,3.56,44.79461,-91.51111,WI,73000,21000,66,63,13,Sacred Heart Hsptl
6.60,2.37,44.96738,-89.66994,WI,44000,12000,50,67,74,Aspirus Wausau Hospital
7.20,2.94,44.67759,-90.17818,WI,48000,17000,50,57,13,Ministry Saint Joseph'S Hospital
4.66,2.40,44.18700,-88.45431,WI,29000,12000,75,83,0,Theda Clark Med Ctr
5.97,2.82,43.06195,-87.87861,WI,39000,16000,83,67,24,Columbia St Marys Hsptl  Milw (Col & Milw Campus)
4.95,2.59,43.05867,-89.40269,WI,32000,14000,66,77,69,St Mary'S Hospital
5.66,3.24,43.07633,-89.43133,WI,37000,19000,50,35,16,University Of Wi  Hospitals & Clinics Authority
9.03,3.06,42.98958,-87.95079,WI,62000,17000,50,65,37,Aurora St Lukes Medical Center
6.25,3.05,43.04008,-88.02523,WI,41000,17000,66,36,11,Froedtert Mem Lutheran Hsptl
5.43,2.49,44.47472,-87.94018,WI,35000,13000,50,67,88,Aurora Baycare Med Ctr
8.89,3.48,42.84802,-106.30851,WY,61000,21000,50,70,8,Wyoming Medical Center
10.57,3.99,41.14037,-104.81660,WY,74000,24000,50,70,33,Cheyenne Regional Medical Center
6.79,2.26,42.84079,-106.22644,WY,45000,11000,0,0,0,Mountain View Regional Hospital
5.16,2.52,30.29626,-97.82532,TX,33000,13000,0,0,0,The Hospital At Westlake Medical Center
10.82,2.54,29.53410,-95.12601,TX,76000,14000,0,0,0,Houston Physicians' Hospital
7.60,2.32,29.72406,-95.46114,TX,51000,12000,0,0,0,Foundation Surgical Hospital
20.73,2.71,29.92585,-95.63108,TX,150000,15000,50,81,94,North Cypress Medical Center
5.18,2.31,29.64125,-95.16176,TX,33000,12000,50,78,6,St Luke'S Patients Medical Center
13.33,2.57,30.56899,-97.65104,TX,94000,14000,75,91,29,Seton Medical Center Williamson
9.65,2.36,29.61578,-98.47479,TX,67000,12000,50,76,33,Methodist Stone Oak Hospital
9.49,3.74,30.20344,-95.45738,TX,66000,23000,0,0,0,St Lukes Lakeside Hospital
8.41,2.40,33.04581,-97.06749,TX,58000,12000,0,0,0,Texas Health Presbyterian Hospital Flower Mound
4.05,2.40,32.98478,-96.82942,TX,25000,13000,0,0,0,Methodist Hospital For Surgery
