size_charge,size_pay,lat,lon,charge,pay,AcquiredInfect,AcquiredConditions,PatientSafetySummary,name
5.91,2.26,31.21673,-85.36307,38770.45,11485.79,0.50,0.51,0.21,SOUTHEAST ALABAMA MEDICAL CENTER
5.66,2.09,34.80175,-87.67514,36935.53,10208.41,0.50,0.65,0.03,ELIZA COFFEE MEMORIAL HOSPITAL
3.88,2.24,33.59616,-86.66750,23604.07,11312.00,0.67,0.79,0.01,ST VINCENT'S EAST
4.91,2.27,33.25607,-86.81035,31326.81,11543.50,0.83,0.70,0.64,SHELBY BAPTIST MEDICAL CENTER
3.31,2.22,34.74649,-87.69895,19363.24,11192.48,0.50,0.91,0.33,HELEN KELLER MEMORIAL HOSPITAL
4.55,2.50,32.32785,-86.27750,28614.90,13294.88,0.50,0.68,0.54,BAPTIST MEDICAL CENTER SOUTH
4.47,2.26,32.36656,-86.28572,28056.12,11433.46,0.50,0.69,0.83,JACKSON HOSPITAL & CLINIC INC
3.74,2.31,32.63806,-85.40413,22520.74,11864.14,0.50,0.80,0.14,EAST ALABAMA MEDICAL CENTER AND SNF
7.77,2.69,33.50619,-86.80210,52714.19,14674.22,0.67,0.45,0.11,UNIVERSITY OF ALABAMA HOSPITAL
8.07,2.39,34.72007,-86.58108,54951.41,12420.36,0.50,0.65,0.45,HUNTSVILLE HOSPITAL
11.09,2.26,34.00941,-85.97078,77617.10,11430.68,0.67,0.68,0.28,GADSDEN REGIONAL MEDICAL CENTER
6.66,2.15,31.23767,-85.45625,44454.56,10633.37,0.50,0.55,0.80,FLOWERS HOSPITAL
3.68,2.15,33.50734,-86.78958,22103.01,10642.80,0.50,0.72,0.21,ST VINCENT'S BIRMINGHAM
4.98,2.28,33.83218,-87.30385,31814.55,11611.81,0.50,0.79,0.96,WALKER BAPTIST MEDICAL CENTER
4.42,2.23,30.68199,-88.19897,27616.00,11265.86,0.83,0.86,0.01,PROVIDENCE HOSPITAL
5.00,2.36,33.20521,-87.52546,32013.40,12209.14,0.67,0.66,0.21,D C H REGIONAL MEDICAL CENTER
10.16,2.34,33.49854,-86.84633,70678.56,12081.44,0.67,0.70,0.08,BAPTIST MEDICAL CENTER-PRINCETON
11.53,2.32,33.51420,-86.74859,80925.57,11908.93,0.67,0.28,0.11,TRINITY MEDICAL CENTER
3.60,2.17,30.69697,-88.08081,21514.49,10816.58,0.67,0.55,0.25,MOBILE INFIRMARY
9.78,2.16,34.69279,-86.57179,67816.68,10722.01,0.50,0.78,0.33,CRESTWOOD MEDICAL CENTER
8.50,2.01,33.46420,-86.77409,58186.20,9567.56,0.50,0.65,0.30,BROOKWOOD MEDICAL CENTER
5.53,2.52,33.23361,-87.57125,35935.64,13392.00,0.00,0.00,0.00,NORTHPORT MEDICAL CENTER
4.98,2.28,32.50808,-85.00867,31863.44,11585.68,0.00,0.00,0.00,JACK HUGHSTON MEMORIAL HOSPITAL
6.91,3.11,60.94901,-149.17033,46312.21,17798.55,0.50,0.81,0.91,PROVIDENCE ALASKA MEDICAL CENTER
10.31,3.17,61.21082,-149.82866,71744.40,18290.80,0.50,0.90,0.43,ALASKA REGIONAL HOSPITAL
5.80,2.61,32.25294,-110.88135,37996.96,14106.67,0.50,0.49,0.03,TUCSON MEDICAL CENTER
7.88,2.50,32.22734,-111.00065,53533.33,13244.60,0.33,0.75,0.64,CARONDELET ST  MARYS HOSPITAL
8.74,2.36,32.22685,-110.85520,59996.06,12224.28,0.67,0.55,0.21,CARONDELET ST JOSEPHS HOSPITAL
5.74,3.63,35.20923,-111.64486,37523.02,21757.76,0.67,0.79,0.89,FLAGSTAFF MEDICAL CENTER
14.67,3.17,33.48073,-112.07948,104440.76,18309.72,0.33,0.53,0.11,ST JOSEPH'S HOSPITAL AND MEDICAL CENTER
9.61,2.67,33.48885,-111.92387,66503.05,14499.10,0.67,0.76,0.54,SCOTTSDALE HEALTHCARE-OSBORN MEDICAL CENTER
8.14,2.69,33.39097,-111.87638,55484.21,14661.79,0.67,0.80,0.57,BANNER DESERT MEDICAL CENTER
8.39,2.40,32.32103,-111.01102,57416.23,12482.44,0.50,0.71,0.20,NORTHWEST MEDICAL CENTER
8.55,2.47,33.58235,-111.88527,58604.21,13010.57,0.67,0.69,0.64,SCOTTSDALE HEALTHCARE-SHEA MEDICAL CENTER
5.50,2.35,33.53218,-112.09949,35738.61,12106.03,0.00,0.00,0.00,SURGICAL SPECIALTY HOSPITAL OF ARIZONA
6.05,2.34,36.10940,-94.16036,39820.20,12082.27,0.33,0.78,0.74,WASHINGTON REGIONAL MED CTR AT NORTH HILLS
5.67,2.37,34.75031,-92.33897,37026.36,12303.55,0.67,0.64,0.83,ST VINCENT INFIRMARY MEDICAL CENTER
6.03,2.91,34.74866,-92.35422,39679.57,16349.43,0.50,0.51,0.33,UAMS MEDICAL CENTER
2.80,2.42,35.83746,-90.70386,15524.25,12686.68,0.50,0.75,0.03,ST BERNARDS MEDICAL CTR
5.09,2.32,34.46784,-93.06667,32677.02,11924.28,0.67,0.66,0.86,ST JOSEPHS MERCY HEALTH CENTER INC
5.30,2.23,34.77770,-92.12539,34228.08,11253.00,0.50,0.60,0.14,BAPTIST HEALTH MEDICAL CENTER NORTH LITTLE ROCK
8.03,2.49,35.37445,-94.41868,54664.17,13171.72,0.50,0.54,0.86,SPARKS REGIONAL MEDICAL CENTER
4.83,2.29,35.35395,-94.35262,30706.07,11693.36,0.50,0.66,0.11,ST EDWARD MERCY MEDICAL CENTER
4.55,2.30,34.74866,-92.35422,28608.85,11763.45,0.50,0.44,0.21,BAPTIST HEALTH MEDICAL CENTER-LITTLE ROCK
4.38,2.40,35.80838,-90.66658,27329.39,12537.17,0.50,0.57,0.70,NEA BAPTIST MEMORIAL HOSPITAL
5.41,2.22,34.81290,-92.20814,35036.62,11157.00,0.00,0.00,0.00,ST VINCENT MEDICAL CENTER/NORTH
3.83,2.15,34.80457,-92.35122,23251.09,10645.49,0.00,0.00,0.00,ARKANSAS SURGICAL HOSPITAL
13.17,2.94,40.78366,-124.14246,93202.79,16588.00,0.50,0.64,0.64,ST JOSEPH HOSPITAL
9.07,3.41,37.76862,-122.43525,62485.18,20070.27,0.50,0.50,0.74,CALIFORNIA PACIFIC MEDICAL CTR-DAVIES CAMPUS HOSP
18.41,3.17,38.57053,-121.45216,132475.07,18246.57,0.83,0.54,0.28,MERCY GENERAL HOSPITAL
12.16,2.95,33.97659,-117.38184,85596.64,16651.45,0.50,0.65,0.58,RIVERSIDE COMMUNITY HOSPITAL
10.65,2.80,32.77495,-117.01467,74336.78,15483.64,0.83,0.71,0.33,GROSSMONT HOSPITAL
10.35,2.84,35.38736,-119.01690,72043.38,15816.06,0.33,0.85,0.80,BAKERSFIELD MEMORIAL HOSPITAL
9.39,2.55,39.74221,-121.85000,64902.71,13614.38,0.83,0.71,0.48,ENLOE MEDICAL CENTER
14.98,3.11,34.67486,-118.15771,106735.40,17863.08,0.50,0.68,0.45,ANTELOPE VALLEY HOSPITAL MED CENTER
10.46,2.96,36.32737,-119.29548,72880.34,16732.56,0.50,0.56,0.12,KAWEAH DELTA MEDICAL CENTER
8.53,3.39,36.73000,-119.78000,58431.77,19948.35,0.50,0.71,0.00,COMMUNITY REGIONAL MEDICAL CENTER
10.72,2.68,33.78036,-117.86495,74815.67,14590.30,0.50,0.60,0.89,ST JOSEPH HOSPITAL
16.14,3.12,32.75143,-117.16083,115449.00,17876.77,0.33,0.62,0.70,SCRIPPS MERCY HOSPITAL
17.50,3.06,34.21674,-119.15631,125604.57,17433.43,0.50,0.64,0.07,ST JOHNS REGIONAL MEDICAL CENTER
11.14,3.08,37.96987,-121.28873,77974.33,17595.40,0.83,0.69,0.97,ST JOSEPHS MED CENTER OF STOCKTON
9.28,2.78,36.83532,-119.76562,64084.86,15345.64,0.50,0.66,0.58,SAINT AGNES MEDICAL CENTER
11.59,2.83,32.79949,-117.15394,81391.04,15771.48,0.67,0.62,0.11,SHARP MEMORIAL HOSPITAL
12.46,3.36,38.57155,-121.46874,87842.50,19681.11,0.83,0.78,0.80,SUTTER GENERAL HOSPITAL
10.77,2.85,34.02685,-118.48651,75228.15,15864.65,0.50,0.76,0.21,SANTA MONICA - UCLA MED CTR & ORTHOPAEDIC HOSPITAL
8.19,3.10,34.13495,-117.27603,55878.86,17776.64,0.50,0.66,0.48,ST BERNARDINE MEDICAL CENTER
9.85,3.12,36.57886,-121.91316,68290.24,17899.07,0.67,0.56,0.58,COMMUNITY HOSPITAL OF THE MONTEREY PENINSULA
21.87,3.50,37.32710,-121.93863,158389.73,20773.73,0.67,0.71,0.38,O'CONNOR HOSPITAL
17.07,2.84,33.96860,-118.04831,122440.08,15819.00,0.50,0.46,0.16,PRESBYTERIAN INTERCOMMUNITY HOSPITAL
14.32,2.74,34.58305,-118.14490,101814.46,15055.00,0.50,0.86,0.54,PALMDALE REGIONAL MEDICAL CENTER
10.47,2.51,33.62229,-117.92995,72957.91,13320.00,0.50,0.70,0.51,HOAG MEMORIAL HOSPITAL PRESBYTERIAN
14.90,2.80,34.15601,-118.32834,106181.33,15505.00,0.50,0.80,0.97,PROVIDENCE SAINT JOSEPH MEDICAL CTR
9.66,2.97,40.58654,-122.39168,66908.74,16818.50,0.83,0.71,0.45,MERCY MEDICAL CENTER REDDING
14.48,3.05,37.69502,-121.88095,102977.50,17419.00,0.50,0.71,0.83,VALLEYCARE MEDICAL CENTER
9.74,2.65,34.03009,-118.47833,67517.15,14368.56,0.50,0.81,0.76,SAINT JOHN'S HEALTH CENTER
9.77,2.83,34.50107,-117.17285,67725.75,15731.83,0.50,0.88,0.20,ST MARY MEDICAL CENTER
13.74,3.83,37.85593,-122.25730,97495.26,23261.11,0.50,0.56,0.08,ALTA BATES SUMMIT MEDICAL CENTER - ALTA BATES CAMP
19.33,3.04,37.36934,-122.08047,139349.07,17279.47,0.67,0.49,0.07,EL CAMINO HOSPITAL
11.36,3.29,38.76514,-121.24979,79649.13,19163.40,0.67,0.78,0.16,SUTTER ROSEVILLE MEDICAL CENTER
16.28,2.87,32.88461,-117.22244,116528.21,16035.84,0.50,0.64,0.30,SCRIPPS MEMORIAL HOSPITAL LA JOLLA
12.54,3.60,34.05076,-117.26395,88505.35,21522.41,0.50,0.55,0.16,LOMA LINDA UNIVERSITY MEDICAL CENTER
8.10,3.22,36.65910,-121.64630,55210.42,18651.21,0.50,0.70,0.38,SALINAS VALLEY MEMORIAL HOSPITAL
28.55,4.63,33.78798,-117.89026,208417.73,29211.87,0.67,0.56,0.11,UNIVERSITY OF CALIFORNIA IRVINE MED CENTER
10.12,2.71,33.81131,-118.34364,70330.14,14854.41,0.67,0.68,0.89,TORRANCE MEMORIAL MEDICAL CENTER
10.75,2.74,33.83891,-118.35677,75060.92,15046.83,0.50,0.86,0.94,PROVIDENCE LITTLE COMPANY OF MARY MED CTR TORRANCE
13.53,2.63,34.27459,-119.25812,95857.62,14213.00,0.50,0.54,0.08,COMMUNITY MEMORIAL HOSPITAL SAN BUENAVENTURA
10.41,2.89,34.42951,-119.72333,72491.06,16196.38,0.67,0.72,0.32,SANTA BARBARA COTTAGE HOSPITAL
15.64,3.21,32.89810,-117.24217,111678.77,18592.32,0.50,0.75,0.38,SCRIPPS GREEN HOSPITAL
10.41,2.83,34.13364,-118.15275,72551.12,15721.62,0.67,0.65,0.58,HUNTINGTON MEMORIAL HOSPITAL
19.32,4.11,37.43436,-122.18013,139271.85,25298.65,0.50,0.59,0.28,STANFORD HOSPITAL
15.89,4.30,37.76421,-122.45716,113554.27,26751.46,0.67,0.53,0.91,UCSF MEDICAL CENTER
10.31,3.04,33.80861,-118.18661,71758.93,17285.07,0.67,0.65,0.28,LONG BEACH MEMORIAL MEDICAL CENTER
17.81,2.86,33.03634,-117.28487,127977.36,15946.27,0.50,0.65,0.05,SCRIPPS MEMORIAL HOSPITAL - ENCINITAS
13.66,2.78,35.29188,-120.66635,96854.85,15359.77,0.50,0.86,0.82,SIERRA VISTA REGIONAL MEDICAL CENTER
13.27,2.96,34.20777,-118.88305,93911.67,16722.33,0.50,0.51,0.70,LOS ROBLES HOSPITAL & MEDICAL CENTER
11.36,2.58,33.56100,-117.66530,79644.33,13841.40,0.67,0.59,0.13,MISSION HOSPITAL REGIONAL MED CENTER
19.60,2.50,33.76335,-116.40628,141355.43,13280.70,0.50,0.56,0.39,EISENHOWER MEDICAL CENTER
22.26,3.93,38.55484,-121.45628,161301.95,23942.90,0.50,0.50,0.03,UNIVERSITY OF CALIFORNIA DAVIS MEDICAL CENTER
20.48,3.46,34.07664,-118.37955,147948.14,20489.16,1.00,0.59,0.48,CEDARS-SINAI MEDICAL CENTER
15.62,2.90,37.77577,-121.95824,111529.25,16258.50,0.50,0.66,0.03,SAN RAMON REGIONAL MEDICAL CTR
19.37,3.13,34.06193,-118.20157,139660.62,18006.67,0.33,0.71,0.03,KECK HOSPITAL OF USC
7.23,2.70,33.55876,-117.18329,48688.50,14770.75,0.67,0.74,0.74,SOUTHWEST HEALTHCARE SYSTEM
5.75,2.52,36.82510,-119.78189,37642.25,13445.17,0.00,0.00,0.00,FRESNO SURGICAL HOSPITAL
13.10,2.72,32.77629,-117.05730,92694.82,14934.82,0.75,0.79,0.64,ALVARADO HOSPITAL MEDICAL CENTER
8.47,2.49,33.66270,-117.77270,57983.77,13152.00,0.00,0.00,0.00,HOAG ORTHOPEDIC INSTITUTE
8.89,2.56,40.41481,-104.70890,61131.06,13676.62,0.50,0.74,0.58,NORTH COLORADO MEDICAL CENTER
5.56,2.47,40.57315,-105.05741,36172.66,13014.24,0.50,0.69,0.96,POUDRE VALLEY HOSPITAL
8.75,3.58,37.23629,-107.82578,60072.33,21332.42,0.00,0.00,0.00,MERCY REGIONAL MEDICAL CENTER
12.48,2.54,39.71712,-105.12874,87991.24,13577.60,0.33,0.68,0.16,CENTURA HEALTH-ST ANTHONY HOSPITAL
6.18,2.59,38.83903,-104.80024,40814.08,13942.46,0.67,0.69,0.33,MEMORIAL HOSPITAL CENTRAL
6.37,2.68,39.09046,-108.56190,42271.79,14596.36,0.50,0.49,0.58,ST MARYS HOSPITAL AND MEDICAL CENTER
14.74,3.38,39.74234,-104.84156,104957.65,19863.65,0.67,0.66,0.70,UNIVERSITY OF COLORADO HOSPITAL ANSCHUTZ INPATIENT
11.92,2.60,40.02615,-105.28391,83847.77,14028.77,0.50,0.91,0.83,BOULDER COMMUNITY HOSPITAL
11.28,2.75,39.73231,-104.93396,79018.67,15149.93,0.75,0.50,0.32,ROSE MEDICAL CENTER
7.77,2.62,39.65399,-104.98116,52709.91,14127.83,0.33,0.47,0.17,SWEDISH MEDICAL CENTER
11.09,2.63,39.68859,-104.83205,77640.73,14223.87,0.50,0.61,0.14,MEDICAL CENTER OF AURORA THE
11.59,2.53,39.52910,-104.87121,81330.00,13461.24,0.50,0.76,0.80,SKY RIDGE MEDICAL CENTER
15.48,2.53,39.57629,-104.98610,110485.69,13480.12,0.50,0.79,0.54,CENTURA HEALTH-LITTLETON ADVENTIST HOSPITAL
12.40,2.62,39.54881,-104.77119,87424.47,14136.58,0.50,0.60,0.12,PARKER ADVENTIST HOSPITAL
6.98,2.41,40.45184,-105.19608,46821.36,12587.36,0.50,0.79,0.45,MEDICAL CENTER OF THE ROCKIES
8.23,3.00,41.30978,-72.93806,56194.24,17015.06,0.67,0.57,0.08,HOSPITAL OF ST RAPHAEL
3.58,3.01,41.77507,-72.69941,21379.74,17053.32,0.50,0.54,0.86,ST FRANCIS HOSPITAL & MEDICAL CENTER
6.14,3.09,41.18881,-73.16645,40546.82,17701.18,0.50,0.51,0.21,BRIDGEPORT HOSPITAL
5.70,2.63,41.79153,-73.13382,37245.71,14250.07,0.25,0.79,0.54,CHARLOTTE HUNGERFORD HOSPITAL
5.76,2.72,41.58181,-73.40955,37711.36,14907.00,0.00,0.00,0.00,NEW MILFORD HOSPITAL
11.53,2.78,41.03431,-73.63020,80902.38,15341.15,0.50,0.49,0.64,GREENWICH HOSPITAL ASSOCIATION
9.38,3.82,41.30400,-72.93502,64813.24,23135.65,0.67,0.41,0.03,YALE-NEW HAVEN HOSPITAL
4.01,2.64,41.54301,-72.08799,24576.30,14320.39,0.50,0.70,0.45,WILLIAM W BACKUS HOSPITAL
4.71,3.12,41.75412,-72.67927,29786.96,17875.74,0.50,0.47,0.10,HARTFORD HOSPITAL
5.75,3.06,41.20049,-73.20281,37631.31,17481.19,0.67,0.79,0.64,ST VINCENT'S MEDICAL CENTER
5.36,2.55,41.67540,-72.93617,34717.00,13616.00,0.50,0.74,0.33,BRISTOL HOSPITAL
6.11,2.82,41.40474,-73.44739,40293.33,15660.11,0.50,0.66,0.58,DANBURY HOSPITAL
6.55,2.85,41.66107,-72.78671,43578.73,15860.33,0.50,0.53,0.08,HOSPITAL OF CENTRAL CONNECTICUT THE
4.68,3.63,41.73545,-72.79489,29574.61,21734.11,0.25,0.60,0.08,JOHN DEMPSEY HOSPITAL
5.24,2.77,39.69005,-75.68408,33772.44,15272.60,0.67,0.59,0.39,CHRISTIANA CARE HEALTH SERVICES INC.
4.31,2.38,38.77159,-75.14210,26842.92,12337.42,0.50,0.90,0.82,BEEBE MEDICAL CENTER
13.89,3.43,38.90106,-77.05079,98567.00,20258.92,0.50,0.50,0.14,GEORGE WASHINGTON UNIV HOSPITAL
13.05,3.22,38.91221,-77.07588,92298.94,18634.24,0.67,0.65,0.01,GEORGETOWN UNIVERSITY HOSPITAL
10.03,2.99,38.92944,-77.01473,69660.36,16930.36,0.33,0.59,0.02,WASHINGTON HOSPITAL CENTER
10.73,3.02,30.34913,-81.66391,74926.19,17133.44,0.50,0.62,0.00,SHANDS JACKSONVILLE MEDICAL CENTER
8.99,2.54,26.50479,-80.06979,61892.56,13543.38,0.50,0.54,0.99,BETHESDA MEMORIAL HOSPITAL
7.88,2.66,28.52517,-81.37729,53544.05,14423.12,0.67,0.47,0.29,ORLANDO HEALTH
11.57,2.82,28.57345,-81.36990,81208.52,15646.82,0.83,0.66,0.25,FLORIDA HOSPITAL
11.14,2.92,25.78846,-80.21644,77961.75,16424.00,0.83,0.56,0.01,UNIVERSITY OF MIAMI HOSPITAL
8.90,2.38,26.62849,-81.87423,61186.33,12331.22,0.67,0.53,0.16,LEE MEMORIAL HOSPITAL
7.21,2.44,29.20117,-81.05828,48512.42,12779.96,0.67,0.76,0.80,HALIFAX HEALTH MEDICAL CENTER
5.68,2.33,26.15053,-81.79919,37093.42,11985.04,0.67,0.62,0.39,NAPLES COMMUNITY HOSPITAL
8.53,2.48,28.08771,-80.61362,58410.31,13115.73,0.67,0.59,0.17,HOLMES REGIONAL MEDICAL CENTER
9.72,3.72,25.79143,-80.21250,67324.29,22401.05,0.83,0.49,0.05,JACKSON MEMORIAL HOSPITAL
10.33,2.19,28.83363,-82.33561,71947.18,10935.56,0.50,0.55,0.45,CITRUS MEMORIAL HOSPITAL
8.52,2.48,30.47650,-87.21219,58356.02,13148.78,0.50,0.41,0.39,SACRED HEART HOSPITAL
6.81,2.29,30.15963,-85.64818,45554.75,11700.20,0.67,0.74,0.43,BAY MEDICAL CENTER
8.74,2.28,28.63051,-80.82437,60010.45,11639.18,0.50,0.69,0.98,PARRISH MEDICAL CENTER
5.75,2.43,28.54917,-81.52746,37628.59,12753.35,0.50,0.70,0.58,HEALTH CENTRAL
10.76,2.82,26.01867,-80.17981,75159.93,15695.57,0.83,0.64,0.76,MEMORIAL REGIONAL HOSPITAL
7.52,2.37,30.30835,-81.68919,50867.27,12279.12,0.50,0.69,0.83,ST VINCENT'S MEDICAL CENTER
9.51,2.36,28.01404,-82.78368,65751.19,12205.70,0.50,0.75,0.54,MEASE HOSPITAL DUNEDIN
9.40,2.40,27.19837,-80.24306,64947.12,12545.26,0.67,0.70,0.58,MARTIN MEMORIAL MEDICAL CENTER
15.85,2.47,26.94042,-82.04094,113251.50,13040.41,0.50,0.72,0.86,CHARLOTTE REGIONAL MEDICAL CENTER
7.53,2.31,28.02768,-81.72466,50950.65,11851.00,0.50,0.62,0.03,WINTER HAVEN HOSPITAL
9.29,2.22,29.17594,-82.13898,64131.87,11128.33,0.50,0.60,0.94,MUNROE REGIONAL MEDICAL CENTER
5.90,2.25,29.24333,-81.10760,38722.36,11418.86,0.50,0.68,0.96,FLORIDA HOSPITAL MEMORIAL MEDICAL CENTER
13.61,3.44,28.01266,-82.50384,96466.56,20329.17,0.00,0.00,0.00,FLORIDA HOSPITAL CARROLLWOOD
10.00,2.39,27.09043,-82.44499,69470.93,12471.57,0.50,0.76,0.48,VENICE REGIONAL MEDICAL CENTER
6.54,2.26,28.91403,-81.28480,43532.42,11450.89,0.83,0.75,0.05,FLORIDA HOSPITAL FISH MEMORIAL
12.91,2.50,26.18711,-80.11941,91282.20,13295.41,0.83,0.57,0.38,HOLY CROSS HOSPITAL INC
9.15,2.67,27.98242,-82.49025,63046.12,14543.71,0.67,0.60,0.30,ST JOSEPH'S HOSPITAL
12.45,2.32,26.98905,-82.09559,87789.07,11911.73,0.50,0.69,0.43,PEACE RIVER REGIONAL MEDICAL CENTER
10.17,2.55,26.59805,-80.09271,70714.24,13601.48,1.00,0.60,0.28,JFK MEDICAL CENTER
7.58,2.31,28.80659,-81.86906,51323.52,11809.76,0.33,0.68,0.25,LEESBURG REGIONAL MEDICAL CENTER
6.88,2.44,26.27623,-80.12220,46092.36,12827.09,0.75,0.72,0.58,BROWARD HEALTH NORTH BROWARD MEDICAL CENTER
7.43,2.31,27.31827,-82.53140,50222.45,11814.64,0.33,0.38,0.70,SARASOTA MEMORIAL HOSPITAL
8.38,2.56,30.31525,-81.66398,57275.02,13738.89,0.67,0.47,0.13,BAPTIST MEDICAL CENTER
7.05,3.34,29.86371,-81.31749,47368.03,19549.93,0.67,0.76,0.30,FLAGLER HOSPITAL
8.12,2.32,30.43066,-87.23191,55362.80,11899.60,0.50,0.72,0.17,BAPTIST HOSPITAL
14.55,2.56,28.29946,-81.41021,103504.87,13707.00,0.50,0.64,0.51,OSCEOLA REGIONAL MEDICAL CENTER
8.03,3.13,29.64155,-82.34844,54706.83,18006.22,0.67,0.54,0.30,SHANDS HOSPITAL AT THE UNIVERSITY OF FLORIDA
7.43,2.29,27.95192,-82.80379,50219.79,11720.26,0.67,0.62,0.10,MORTON PLANT HOSPITAL
15.38,3.32,27.93740,-82.45927,109748.00,19433.80,0.67,0.66,0.00,TAMPA GENERAL HOSPITAL
6.01,2.46,30.45726,-84.26175,39535.96,12996.33,0.67,0.57,0.64,TALLAHASSEE MEMORIAL HEALTHCARE
8.72,2.62,30.26389,-81.44283,59827.91,14197.09,0.83,0.62,0.91,MAYO CLINIC
11.92,2.37,28.81611,-81.28351,83808.92,12288.69,0.50,0.56,0.98,CENTRAL FLORIDA REGIONAL HOSPITAL
10.58,2.28,27.30187,-82.45428,73812.08,11626.67,0.33,0.68,0.96,DOCTORS HOSPITAL OF SARASOTA
11.78,2.33,29.66085,-82.41172,82758.74,11965.41,0.33,0.53,0.17,NORTH FLORIDA REGIONAL MEDICAL CENTER
9.07,2.23,29.17550,-82.13680,62480.01,11238.99,0.83,0.55,0.86,OCALA REGIONAL MEDICAL CENTER
7.87,2.22,27.48213,-82.62126,53461.31,11182.40,0.50,0.75,0.69,BLAKE MEDICAL CENTER
9.41,2.30,26.52735,-81.83337,65012.51,11791.59,0.50,0.59,0.64,GULF COAST MEDICAL CENTER LEE MEM HEALTH SYSTEM
12.45,2.29,30.45448,-86.63362,87784.50,11692.02,0.50,0.72,0.64,FORT WALTON BEACH MEDICAL CENTER
12.32,2.31,30.16550,-81.73775,86829.43,11846.00,0.33,0.69,0.58,ORANGE PARK MEDICAL CENTER
10.96,2.26,30.51624,-87.21856,76674.98,11436.36,0.50,0.65,0.05,WEST FLORIDA HOSPITAL
16.24,2.29,26.98884,-82.09877,116168.37,11666.16,0.50,0.80,0.58,FAWCETT MEMORIAL HOSPITAL
15.06,2.42,30.18657,-85.66513,107339.81,12656.62,0.50,0.64,0.99,GULF COAST MEDICAL CENTER
13.87,2.73,27.93259,-82.28759,98442.84,15006.65,0.67,0.68,0.21,BRANDON REGIONAL HOSPITAL
8.90,2.30,26.63958,-81.94164,61172.79,11759.26,0.50,0.53,0.21,CAPE CORAL HOSPITAL
13.84,2.60,27.43392,-80.34350,98207.00,14012.00,0.83,0.54,0.30,LAWNWOOD REGIONAL MEDICAL CENTER & HEART INSTITUTE
18.42,2.49,27.91458,-82.80382,132520.70,13187.22,0.50,0.49,0.25,LARGO MEDICAL CENTER
14.22,2.25,28.95195,-82.62421,101089.86,11370.43,0.50,0.72,0.21,SEVEN RIVERS REGIONAL MEDICAL CENTER
11.32,2.31,26.92138,-80.09708,79302.82,11871.55,0.50,0.61,0.54,JUPITER MEDICAL CENTER
10.73,2.86,30.47616,-84.23140,74918.06,15981.12,0.50,0.66,0.58,CAPITAL REGIONAL MEDICAL CENTER
10.71,2.36,28.36128,-82.68883,74738.07,12218.73,0.67,0.68,0.91,REGIONAL MEDICAL CENTER BAYONET POINT
12.42,2.32,26.43709,-80.12728,87547.95,11877.00,0.83,0.72,0.93,DELRAY MEDICAL CENTER
11.87,2.41,27.28861,-80.29431,83444.14,12591.29,0.50,0.65,0.54,ST LUCIE MEDICAL CENTER
10.64,2.21,28.53585,-82.53404,74223.90,11111.50,0.67,0.71,0.58,OAK HILL HOSPITAL
11.90,2.43,26.21388,-81.73257,83656.00,12717.63,0.33,0.80,0.33,PHYSICIANS REGIONAL MEDICAL CENTER - PINE RIDGE
7.37,2.20,28.94952,-81.95843,49756.27,10991.00,0.33,0.80,0.94,VILLAGES REGIONAL HOSPITAL THE
7.71,2.28,30.25377,-81.58270,52321.35,11624.23,0.50,0.78,0.30,ST VINCENT'S MEDICAL CENTER SOUTHSIDE
4.57,2.64,34.78963,-84.98398,28779.62,14279.94,0.50,0.76,0.11,HAMILTON MEDICAL CENTER
8.42,2.30,34.17863,-84.13992,57636.40,11780.13,0.67,0.64,0.47,NORTHSIDE HOSPITAL FORSYTH
7.32,2.42,33.94791,-83.40531,49355.17,12659.29,0.50,0.79,0.96,ST MARY'S HOSPITAL
5.82,2.66,31.59023,-84.15756,38159.42,14475.95,0.50,0.54,0.11,PHOEBE PUTNEY MEMORIAL HOSPITAL
5.60,2.78,33.79230,-84.32107,36485.35,15391.47,0.50,0.41,0.08,EMORY UNIVERSITY HOSPITAL
6.80,2.58,33.56970,-85.07276,45470.68,13842.54,0.25,0.79,0.91,TANNER MEDICAL CENTER - CARROLLTON
4.53,2.48,33.47096,-81.98176,28479.72,13128.20,0.50,0.51,0.21,UNIVERSITY HOSPITAL
7.59,2.55,34.30335,-83.81737,51371.85,13626.59,0.67,0.59,0.45,NORTHEAST GEORGIA MEDICAL CENTER INC
11.61,3.82,33.47091,-81.98988,81524.02,23114.98,0.67,0.45,0.38,MEDICAL COLLEGE OF GA HOSPITALS AND CLINICS
7.82,2.71,33.96770,-84.55011,53131.90,14815.69,0.67,0.62,0.45,WELLSTAR KENNESTONE HOSPITAL
9.36,2.64,32.03185,-81.09158,64644.00,14288.13,0.67,0.61,0.25,MEMORIAL HEALTH UNIV MED CEN INC
5.11,2.28,30.82614,-83.97393,32841.08,11586.73,0.50,0.75,0.48,JOHN D ARCHBOLD MEMORIAL HOSPITAL
6.91,2.25,31.98515,-81.15475,46310.62,11411.81,0.67,0.72,0.33,ST JOSEPH'S HOSPITAL - SAVANNAH
9.45,2.76,34.26000,-85.17000,65335.49,15199.44,0.50,0.68,0.89,FLOYD MEDICAL CENTER
7.40,2.80,32.46602,-84.98695,49937.45,15504.90,0.33,0.86,0.64,MEDICAL CENTER THE
4.39,2.35,32.61642,-83.63065,27407.77,12171.82,0.50,0.74,0.74,HOUSTON MEDICAL CENTER
9.82,2.51,33.96117,-83.39832,68123.97,13307.55,0.50,0.69,0.93,ATHENS REGIONAL MEDICAL CENTER
5.64,2.74,33.76810,-84.38616,36754.00,15078.29,0.33,0.45,0.10,EMORY UNIVERSITY HOSPITAL MIDTOWN
5.34,2.27,33.90877,-84.35180,34522.94,11538.69,0.50,0.55,0.03,SAINT JOSEPH'S HOSPITAL OF ATLANTA INC
7.42,2.70,33.81003,-84.39568,50089.91,14737.56,0.33,0.57,0.45,PIEDMONT HOSPITAL
6.59,2.42,33.96351,-84.01769,43864.43,12674.14,0.50,0.90,0.45,GWINNETT MEDICAL CENTER
5.55,2.37,31.47069,-83.50473,36075.55,12296.21,0.17,0.80,0.32,TIFT REGIONAL MEDICAL CENTER
6.45,2.76,32.83041,-83.63476,42849.04,15184.37,0.67,0.49,0.45,MEDICAL CENTER OF CENTRAL GEORGIA
5.06,2.40,30.86250,-83.28630,32446.96,12528.47,0.67,0.68,0.74,SOUTH GEORGIA MEDICAL CENTER
5.56,2.24,32.50679,-84.95933,36200.85,11333.44,0.83,0.68,0.70,ST FRANCIS HOSPITAL INC
7.69,3.18,33.85638,-84.60446,52121.93,18386.60,0.50,0.56,0.33,WELLSTAR COBB HOSPITAL
10.18,2.51,33.90903,-84.35410,70787.17,13341.28,0.67,0.64,0.19,NORTHSIDE HOSPITAL
6.38,2.52,32.84705,-83.61823,42329.17,13399.72,0.67,0.62,0.10,COLISEUM MEDICAL CENTER
6.88,2.60,33.57843,-84.38897,46036.38,14043.81,0.50,0.79,0.25,SOUTHERN REGIONAL MEDICAL CENTER
5.83,2.39,34.25704,-85.16467,38192.05,12415.10,0.50,0.88,0.25,REDMOND REGIONAL MEDICAL CENTER
8.89,2.51,33.48259,-82.09038,61108.47,13359.12,0.50,0.59,0.08,DOCTORS HOSPITAL
8.91,2.32,33.87683,-84.02136,61269.00,11944.47,0.50,0.78,0.45,EMORY EASTSIDE MEDICAL CENTER
13.52,2.40,34.06334,-84.31976,95795.00,12477.00,0.75,0.70,0.74,NORTH FULTON REGIONAL HOSPITAL
6.98,2.33,32.53607,-84.95468,46843.62,11995.92,0.00,0.00,0.00,HUGHSTON HOSPITAL
6.34,2.43,32.86625,-83.69421,42041.23,12736.31,0.00,0.00,0.00,COLISEUM NORTHSIDE HOSPITAL
5.10,2.25,30.89823,-83.33519,32723.91,11358.00,0.00,0.00,0.00,SMITH NORTHVIEW HOSPITAL
6.55,2.47,33.45252,-84.50697,43582.54,13014.77,0.50,0.60,0.33,PIEDMONT FAYETTE HOSPITAL
4.23,2.31,34.06670,-84.17643,26237.12,11871.88,0.50,0.78,0.89,EMORY JOHNS CREEK HOSPITAL
6.67,3.10,21.30780,-157.85505,44488.72,17744.67,0.67,0.69,0.45,THE QUEENS MEDICAL CENTER
9.09,2.98,21.30226,-157.85092,62598.87,16883.73,0.75,0.84,0.16,STRAUB CLINIC AND HOSPITAL
5.00,2.75,46.41668,-117.02441,32010.62,15097.59,0.50,0.71,0.39,ST JOSEPH REGIONAL MEDICAL CENTER
5.22,2.69,43.61218,-116.19234,33651.86,14665.69,0.67,0.61,0.16,ST LUKES REGIONAL MEDICAL CENTER
5.43,2.52,43.61359,-116.25484,35228.28,13434.64,0.67,0.79,0.25,ST ALPHONSUS REGIONAL MEDICAL CENTER
7.52,2.48,43.46987,-111.99208,50843.43,13092.87,0.67,0.66,0.58,EASTERN IDAHO REGIONAL MEDICAL CENTER
6.09,2.88,42.87331,-112.42180,40120.55,16091.09,0.33,0.76,0.39,PORTNEUF MEDICAL CENTER
4.61,2.44,47.69645,-116.79476,29064.57,12797.61,0.50,0.71,0.48,KOOTENAI MEDICAL CENTER
5.77,2.30,47.71536,-116.92471,37754.32,11801.00,0.00,0.00,0.00,NORTHWEST SPECIALTY HOSPITAL
11.92,2.47,41.52896,-88.13550,83820.58,13065.33,0.50,0.75,0.83,PROVENA ST JOSEPH MEDICAL CENTER
9.62,3.31,42.06550,-87.68428,66633.00,19336.13,0.33,0.55,0.58,EVANSTON HOSPITAL
7.07,2.65,39.93563,-91.39833,47495.31,14422.50,0.50,0.55,0.93,BLESSING HOSPITAL
6.36,2.49,39.80726,-89.64496,42205.18,13221.00,0.50,0.59,0.80,ST JOHNS HOSPITAL
10.81,2.95,40.70200,-89.59222,75487.73,16641.23,0.67,0.57,0.03,SAINT FRANCIS MEDICAL CENTER
13.16,3.41,41.97532,-87.69958,93144.50,20047.06,0.50,0.85,0.51,SWEDISH COVENANT HOSPITAL
10.22,2.52,41.98743,-87.81440,71070.64,13439.29,0.67,0.62,0.70,RESURRECTION MEDICAL CENTER
8.23,3.44,41.87497,-87.66927,56169.02,20316.58,0.50,0.42,0.33,RUSH UNIVERSITY MEDICAL CENTER
7.84,3.56,40.49639,-88.99106,53258.00,21171.00,0.00,0.00,0.00,BROMENN HEALTHCARE
7.49,2.96,39.80893,-89.65530,50607.57,16678.40,0.83,0.57,0.11,MEMORIAL MEDICAL CENTER
8.25,2.53,40.48254,-88.95519,56353.05,13480.95,0.50,0.91,0.30,ST JOSEPH MEDICAL CENTER
9.77,2.91,37.72790,-89.22058,67759.55,16303.45,0.50,0.64,0.91,MEMORIAL HOSPITAL OF CARBONDALE
4.98,2.28,38.55020,-90.02146,31808.15,11588.20,0.67,0.81,0.21,MEMORIAL HOSPITAL
8.73,2.70,41.12572,-87.88526,59947.17,14722.92,0.50,0.72,0.82,RIVERSIDE MEDICAL CENTER
9.03,3.23,42.27447,-87.95764,62154.16,18749.12,0.50,0.70,0.80,ADVOCATE CONDELL MEDICAL CENTER
8.33,3.18,41.72031,-87.73249,56953.50,18381.31,0.50,0.57,0.74,ADVOCATE CHRIST HOSPITAL & MEDICAL CENTER
9.28,3.02,40.70065,-89.59505,64065.75,17185.17,0.50,0.79,0.48,METHODIST MEDICAL CENTER OF ILLINOIS
7.52,3.36,42.03837,-87.84820,50888.74,19725.84,0.83,0.78,0.70,ADVOCATE LUTHERAN GENERAL HOSPITAL
13.70,3.29,42.26584,-89.07428,97132.27,19172.91,0.50,0.65,0.76,SWEDISH AMERICAN HOSPITAL
7.88,2.60,41.76076,-88.15016,53578.76,13998.41,0.50,0.69,0.30,EDWARD HOSPITAL
7.58,2.28,42.26634,-89.00900,51324.61,11617.55,0.50,0.50,0.30,SAINT ANTHONY MEDICAL CENTER
10.03,2.85,42.29844,-89.09897,69676.69,15883.15,0.50,0.88,0.57,ROCKFORD MEMORIAL HOSPITAL
7.54,3.02,41.86110,-87.83404,51036.04,17176.56,0.67,0.46,0.05,LOYOLA UNIVERSITY MEDICAL CENTER
6.12,2.37,41.48200,-90.57158,40369.93,12258.07,0.50,0.59,0.64,TRINITY ROCK ISLAND
10.70,3.46,41.89477,-87.62131,74655.90,20437.00,0.50,0.61,0.94,NORTHWESTERN MEMORIAL HOSPITAL
10.85,3.31,41.81791,-88.00907,75790.86,19339.93,0.50,0.86,0.96,ADVOCATE GOOD SAMARITAN HOSPITAL
6.83,2.63,41.59920,-87.35764,45665.00,14213.16,0.50,0.65,0.94,METHODIST HOSPITALS INC
6.45,2.30,40.48720,-86.15548,42856.21,11756.84,0.50,0.75,0.82,ST JOSEPH HOSPITAL & HEALTH CENTER INC
8.54,2.50,41.70877,-86.17026,58492.36,13228.09,0.50,0.89,0.58,SAINT JOSEPH REGIONAL MEDICAL CENTER
10.17,2.78,41.03874,-85.24876,70703.57,15323.46,0.67,0.64,0.32,LUTHERAN HOSPITAL OF INDIANA
11.62,2.75,41.04659,-85.10906,81600.41,15166.18,0.83,0.60,0.45,PARKVIEW REGIONAL MEDICAL CENTER
7.82,2.39,39.48518,-87.40893,53100.10,12452.10,0.50,0.62,0.33,UNION HOSPITAL INC
6.60,2.33,39.72432,-86.10055,44011.24,11994.18,0.00,0.00,0.00,FRANCISCAN ST FRANCIS HEALTH - BEECH GROVE
7.10,3.04,41.51266,-87.26125,47752.82,17327.00,0.50,0.79,0.86,ST MARY MEDICAL CENTER INC
4.89,2.24,38.30195,-85.83409,31162.92,11324.00,0.67,0.85,0.86,FLOYD MEMORIAL HOSPITAL AND HEALTH SERVICES
7.14,2.37,39.16006,-86.54038,47993.34,12290.79,0.50,0.56,0.25,INDIANA UNIVERSITY HEALTH BLOOMINGTON HOSPITAL
11.32,3.21,39.79009,-86.16260,79325.73,18611.68,0.50,0.51,0.80,INDIANA UNIVERSITY HEALTH
8.44,3.04,41.68479,-86.25217,57741.43,17287.90,0.67,0.60,0.08,MEMORIAL HOSPITAL OF SOUTH BEND
8.78,2.60,39.78704,-86.07673,60269.95,14016.70,0.50,0.82,0.83,COMMUNITY HOSPITAL EAST
4.50,2.21,37.98293,-87.57072,28235.36,11093.06,0.83,0.66,0.14,DEACONESS HOSPITAL INC
8.40,2.69,39.91001,-86.19660,57481.64,14687.27,0.67,0.47,0.89,ST VINCENT HOSPITAL & HEALTH SERVICES
8.75,2.85,40.19679,-85.41573,60058.21,15872.58,0.67,0.62,0.85,INDIANA UNIVERSITY HEALTH BALL MEMORIAL HOSPITAL
7.40,2.31,37.96320,-87.50292,49949.49,11875.62,0.67,0.68,0.32,ST MARY'S MEDICAL CENTER OF EVANSVILLE INC
11.45,2.54,40.39424,-86.83516,80309.95,13537.70,0.67,0.82,0.17,FRANCISCAN ST ELIZABETH HEALTH - LAFAYETTE EAST
5.38,2.39,41.55065,-87.50619,34835.68,12413.11,0.50,0.75,0.86,COMMUNITY HOSPITAL
5.28,2.33,39.90998,-86.26738,34107.61,11972.06,0.00,0.00,0.00,INDIANA ORTHOPAEDIC HOSPITAL LLC
8.69,2.22,41.18970,-85.09940,59613.61,11166.35,0.00,0.00,0.00,ORTHOPAEDIC HOSPITAL AT PARKVIEW NORTH LLC
7.82,2.22,41.03831,-85.24466,53128.75,11173.44,0.00,0.00,0.00,THE ORTHOPAEDIC HOSPITAL OF LUTHERAN HEALTH NETWOR
8.12,2.53,39.90060,-86.04218,55373.56,13450.56,0.50,0.78,0.76,COMMUNITY HOSPITAL NORTH
8.63,2.31,40.40296,-86.80885,59153.79,11870.43,0.50,0.84,0.97,INDIANA UNIVERSITY HEALTH ARNETT HOSPITAL
5.10,2.34,41.98570,-91.66093,32703.73,12074.07,0.67,0.75,0.91,ST LUKES HOSPITAL
6.11,2.29,41.26786,-95.83505,40294.55,11703.91,0.00,0.00,0.00,JENNIE EDMUNDSON HOSPITAL
9.08,3.27,41.66092,-91.54800,62524.06,19032.56,0.17,0.39,0.64,UNIVERSITY OF IOWA HOSPITAL & CLINICS
3.88,2.40,43.15063,-93.21718,23634.45,12491.00,0.50,0.82,0.64,MERCY MEDICAL CENTER-NORTH IOWA
6.03,2.39,42.46407,-92.34532,39702.90,12467.19,0.00,0.00,0.00,COVENANT MEDICAL CENTER
4.47,2.20,41.97864,-91.65507,28023.86,11046.86,0.50,0.80,1.00,MERCY MEDICAL CENTER - CEDAR RAPIDS
6.74,2.44,41.58955,-93.63248,45059.54,12803.08,0.67,0.38,0.83,IOWA METHODIST MEDICAL CENTER
6.31,2.60,41.59886,-93.62344,41799.18,14010.45,0.83,0.75,0.29,MERCY MEDICAL CENTER-DES MOINES
4.41,2.34,39.05660,-95.69599,27587.81,12028.69,0.33,0.51,0.33,ST FRANCIS HEALTH CENTER INC
12.36,2.80,39.05583,-94.60912,87100.72,15546.20,0.67,0.54,0.64,UNIVERSITY OF KANSAS HOSPITAL
11.81,2.52,39.05128,-95.69572,83015.54,13405.77,0.67,0.71,0.11,STORMONT-VAIL HEALTHCARE
7.86,2.26,38.99549,-94.69061,53421.05,11486.80,0.67,0.46,0.21,SHAWNEE MISSION MEDICAL CENTER
5.70,2.45,37.70405,-97.31386,37233.43,12913.74,0.67,0.69,0.21,VIA CHRISTI HOSPITALS WICHITA INC
7.08,2.52,37.69556,-97.29785,47577.13,13394.60,0.67,0.53,0.05,WESLEY MEDICAL CENTER
9.44,2.61,39.12677,-94.78643,65275.70,14092.65,0.50,0.60,0.83,PROVIDENCE MEDICAL CENTER
8.99,2.39,38.92696,-94.64353,61899.25,12464.38,0.00,0.00,0.00,DOCTORS HOSPITAL LLC
5.03,2.25,38.93265,-94.65100,32238.87,11392.93,0.00,0.00,0.00,HEARTLAND SURGICAL SPEC HOSPITAL
6.87,2.26,37.74369,-97.22762,46009.81,11482.59,0.00,0.00,0.00,KANSAS SPINE HOSPITAL LLC
6.31,2.43,38.47021,-82.63498,41830.46,12733.14,0.67,0.60,0.54,KING'S DAUGHTERS' MEDICAL CENTER
4.97,2.22,38.03140,-84.52194,31737.30,11130.19,0.83,0.68,0.80,SAINT JOSEPH HOSPITAL
6.15,2.65,36.99641,-86.43006,40607.09,14353.17,0.67,0.53,0.33,THE MEDICAL CENTER AT BOWLING GREEN
5.27,2.17,38.20960,-85.23598,34035.92,10802.08,0.00,0.00,0.00,JEWISH HOSPITAL - SHELBYVILLE
5.86,2.43,39.06704,-84.49946,38422.00,12721.93,0.33,0.59,0.80,ST ELIZABETH MEDICAL CENTER NORTH
4.55,2.75,37.76518,-87.10197,28624.50,15099.64,0.50,0.66,0.30,OWENSBORO MEDICAL HEALTH SYSTEM
6.28,2.61,38.24927,-85.75081,41558.86,14112.07,0.67,0.51,0.08,JEWISH HOSPITAL & ST MARY'S HEALTHCARE
6.67,2.87,37.47264,-82.52605,44479.22,15996.39,0.75,0.86,0.10,PIKEVILLE MEDICAL CENTER
6.55,2.39,37.64378,-84.77272,43619.27,12467.20,0.00,0.00,0.00,EPHRAIM MCDOWELL REGIONAL MEDICAL CENTER
5.20,2.97,38.03282,-84.50674,33504.42,16797.55,0.33,0.62,0.33,UNIVERSITY OF KENTUCKY HOSPITAL
8.95,2.62,38.24806,-85.75125,61600.32,14136.75,0.50,0.35,0.39,NORTON HOSPITALS INC
5.26,2.34,38.01849,-84.51236,33956.59,12096.91,0.50,0.71,0.58,CENTRAL BAPTIST HOSPITAL
6.86,2.21,37.07404,-88.62685,45915.35,11083.62,0.50,0.80,0.39,WESTERN BAPTIST HOSPITAL
6.74,2.35,36.96603,-86.43639,45027.83,12151.00,0.50,0.85,0.94,GREENVIEW REGIONAL HOSPITAL
5.07,2.20,38.23898,-85.63941,32548.61,11029.55,0.67,0.57,0.74,BAPTIST HOSPITAL EAST
6.74,2.48,37.08724,-84.61828,45007.96,13103.15,0.67,0.60,0.17,LAKE CUMBERLAND REGIONAL HOSPITAL
9.19,3.62,30.20227,-92.01906,63372.75,21670.62,0.50,0.74,0.30,LAFAYETTE GENERAL MEDICAL CENTER
7.57,2.31,29.77956,-90.80568,51265.38,11815.08,0.50,0.74,0.93,THIBODAUX REGIONAL MEDICAL CENTER
6.20,2.31,29.59851,-90.71397,41005.30,11858.77,0.25,0.69,0.69,TERREBONNE GENERAL MEDICAL CENTER
11.16,2.50,30.46813,-90.45814,78116.45,13273.55,0.75,0.71,0.74,NORTH OAKS MEDICAL CENTER LLC
9.23,2.47,31.31451,-92.44997,63647.93,13046.60,0.67,0.40,0.39,RAPIDES REGIONAL MEDICAL CENTER
7.63,2.71,30.21521,-93.22682,51667.47,14827.40,0.50,0.64,0.64,CHRISTUS ST PATRICK HOSPITAL
12.33,2.86,29.89089,-90.09395,86872.09,15971.36,0.50,0.65,0.86,WEST JEFFERSON MEDICAL CENTER
9.49,2.48,32.49443,-93.75011,65629.00,13111.00,0.50,0.69,0.14,CHRISTUS SCHUMPERT HEALTH SYSTEM
5.88,2.59,30.20458,-93.19774,38566.47,13944.47,0.50,0.80,0.07,LAKE CHARLES MEMORIAL HOSPITAL
7.18,2.75,30.40118,-91.11160,48304.43,15097.89,0.83,0.51,0.33,OUR LADY OF THE LAKE REGIONAL MEDICAL CENTER
3.44,3.13,32.48177,-93.76264,20302.15,18000.38,1.00,0.80,0.00,LSU HEALTH SCIENCES CENTER - SHREVEPORT
5.46,2.35,32.48393,-93.77884,35407.17,12170.01,0.50,0.64,0.63,WILLIS KNIGHTON MEDICAL CENTER
5.83,2.38,32.49997,-92.11359,38219.57,12366.30,0.67,0.62,0.99,ST FRANCIS MEDICAL CENTER
8.59,2.37,30.01438,-90.18155,58895.43,12269.89,0.67,0.69,0.74,EAST JEFFERSON GENERAL HOSPITAL
12.50,2.67,30.19775,-92.07724,88150.31,14509.56,0.50,0.89,0.74,THE REGIONAL MEDICAL CENTER OF ACADIANA
7.93,2.24,30.17586,-92.02762,53958.00,11304.30,0.00,0.00,0.00,LAFAYETTE SURGICAL SPECIALTY HOSPITAL
6.92,2.15,30.35058,-91.08736,46382.71,10647.00,0.00,0.00,0.00,THE NEUROMEDICAL CENTER HOSPITAL
15.74,2.42,32.49813,-93.74607,112440.08,12692.00,0.00,0.00,0.00,SPECIALISTS HOSPITAL SHREVEPORT
7.30,2.00,31.31391,-92.46790,49235.68,9516.28,0.00,0.00,0.00,CENTRAL LOUISIANA SURGICAL HOSPITAL
12.09,2.36,30.48533,-90.41477,85076.53,12199.27,0.00,0.00,0.00,CYPRESS POINTE SURGICAL HOSPITAL
4.34,2.41,43.65159,-70.26482,27061.54,12623.23,0.00,0.00,0.00,MERCY HOSPITAL
4.52,2.97,43.65325,-70.27533,28416.88,16816.00,0.17,0.47,0.01,MAINE MEDICAL CENTER
7.86,2.63,44.10276,-70.20093,53391.67,14232.00,0.00,0.00,0.00,ST MARYS REGIONAL MEDICAL CENTER
3.34,3.20,39.62183,-77.68219,19542.82,18473.09,0.00,0.00,0.00,MERITUS MEDICAL CENTER
6.03,5.76,39.28817,-76.62438,39735.21,37689.96,0.00,0.00,0.00,UNIVERSITY OF MARYLAND MEDICAL CENTER
2.41,2.32,39.42366,-77.41386,12581.33,11889.33,0.00,0.00,0.00,FREDERICK MEMORIAL HOSPITAL
3.19,3.06,39.38813,-76.61068,18463.47,17486.94,0.00,0.00,0.00,SAINT JOSEPH MEDICAL CENTER
3.36,3.21,39.29297,-76.61314,19689.95,18576.84,0.00,0.00,0.00,MERCY MEDICAL CENTER INC
5.00,4.75,39.29688,-76.59242,32002.94,30145.44,0.00,0.00,0.00,JOHNS HOPKINS HOSPITAL THE
5.20,4.93,39.27352,-76.67219,33510.40,31499.73,0.00,0.00,0.00,SAINT AGNES HOSPITAL
4.86,4.58,39.35262,-76.66196,30963.40,28828.91,0.00,0.00,0.00,SINAI HOSPITAL OF BALTIMORE
3.03,2.91,39.35169,-76.47919,17263.00,16341.00,0.00,0.00,0.00,FRANKLIN SQUARE HOSPITAL CENTER
4.71,4.49,38.36248,-75.59799,29834.33,28180.58,0.00,0.00,0.00,PENINSULA REGIONAL MEDICAL CENTER
3.34,3.21,38.99743,-77.11048,19570.50,18559.38,0.00,0.00,0.00,SUBURBAN HOSPITAL
2.79,2.69,38.99014,-76.53398,15433.84,14717.03,0.00,0.00,0.00,ANNE ARUNDEL MEDICAL CENTER
3.54,3.41,39.32930,-76.61432,21067.55,20071.82,0.00,0.00,0.00,UNION MEMORIAL HOSPITAL
4.37,4.17,39.25189,-76.61399,27249.88,25797.78,0.00,0.00,0.00,HARBOR HOSPITAL
3.57,3.41,39.13732,-76.62228,21274.36,20049.36,0.00,0.00,0.00,BALTIMORE WASHINGTON  MEDICAL CENTER
3.92,3.76,39.51870,-76.34688,23928.33,22731.63,0.00,0.00,0.00,UPPER CHESAPEAKE MEDICAL CENTER
4.26,4.08,39.35962,-76.58851,26414.85,25113.52,0.00,0.00,0.00,GOOD SAMARITAN HOSPITAL
4.29,3.06,41.65298,-70.27484,26702.91,17488.51,0.50,0.56,0.96,CAPE COD HOSPITAL
4.51,3.86,42.35843,-71.05977,28329.21,23459.86,0.67,0.51,0.00,BOSTON MEDICAL CENTER CORPORATION
4.91,2.83,42.64636,-71.34118,31298.09,15761.91,0.50,0.88,0.96,LOWELL GENERAL HOSPITAL
6.36,2.57,42.11449,-72.59502,42155.00,13815.25,0.50,0.78,0.76,MERCY MEDICAL CENTER
12.51,3.41,42.36227,-71.06941,88257.08,20049.33,0.50,0.44,0.16,MASSACHUSETTS GENERAL HOSPITAL
5.61,2.72,41.70928,-71.14519,36542.05,14940.42,0.25,0.51,0.89,SOUTHCOAST HOSPITAL GROUP INC
4.31,3.06,42.12077,-72.60525,26787.17,17431.08,0.33,0.61,0.83,BAYSTATE MEDICAL CENTER
4.87,3.45,42.33719,-71.10939,31028.44,20358.04,0.33,0.71,0.33,BETH ISRAEL DEACONESS MEDICAL CENTER
4.44,2.58,42.32919,-71.10626,27791.42,13875.35,0.00,0.00,0.00,NEW ENGLAND BAPTIST HOSPITAL
7.16,2.62,42.33149,-71.24568,48198.69,14153.92,0.67,0.70,0.99,NEWTON-WELLESLEY HOSPITAL
10.01,3.28,42.33600,-71.10704,69529.45,19088.41,0.67,0.40,0.20,BRIGHAM AND WOMEN'S HOSPITAL
8.03,3.43,42.27720,-71.75922,54674.63,20208.11,0.50,0.36,0.30,UMASS MEMORIAL MEDICAL CENTER INC
4.34,2.79,42.48585,-71.20686,27050.40,15436.07,0.67,0.76,0.16,LAHEY CLINIC HOSPITAL
4.35,2.47,43.20588,-86.20839,27120.10,13063.75,0.50,0.76,0.58,MERCY HEALTH PARTNERS MERCY CAMPUS
5.10,2.77,42.28551,-85.58042,32731.92,15316.46,0.67,0.82,0.14,BRONSON METHODIST HOSPITAL
5.84,2.84,42.45741,-83.20513,38312.70,15793.95,0.83,0.57,0.48,PROVIDENCE HOSPITAL AND MEDICAL CENTERS
8.77,3.03,42.29077,-83.21504,60221.76,17209.24,0.33,0.49,0.70,OAKWOOD HOSPITAL AND MEDICAL CENTER
7.32,2.77,42.61425,-83.27602,49363.37,15310.46,0.67,0.53,0.80,ST JOSEPH MERCY OAKLAND
4.93,2.89,42.96881,-85.66649,31495.32,16201.36,0.33,0.66,0.83,SPECTRUM HEALTH - BUTTERWORTH CAMPUS
4.69,2.31,43.58941,-83.86908,29632.16,11854.53,0.33,0.55,0.99,MCLAREN BAY REGION
9.14,3.63,42.28388,-83.72960,62984.27,21702.14,0.50,0.61,0.43,UNIVERSITY OF MICHIGAN HEALTH SYSTEM
5.87,2.42,42.61490,-82.96060,38487.15,12678.08,0.50,0.66,0.54,HENRY FORD MACOMB HOSPITAL
5.82,3.07,42.36762,-83.08461,38154.18,17519.24,0.67,0.47,0.08,HENRY FORD HOSPITAL
4.55,2.70,46.54758,-87.39560,28593.62,14763.12,0.83,0.68,0.48,MARQUETTE GENERAL HOSPITAL
3.94,2.77,42.95817,-85.66253,24057.24,15274.76,0.50,0.54,0.91,SAINT MARY'S HEALTH CARE
5.97,2.58,43.42857,-83.95556,39268.10,13867.94,0.83,0.61,0.64,COVENANT MEDICAL CENTER INC
6.76,2.43,42.77487,-86.11378,45161.83,12760.83,0.00,0.00,0.00,HOLLAND COMMUNITY HOSPITAL
3.09,2.46,43.42612,-83.94185,17664.58,12977.81,0.67,0.64,0.58,ST MARY'S OF MICHIGAN MEDICAL CENTER
5.11,2.38,42.25117,-84.39240,32816.05,12389.90,0.50,0.85,0.99,ALLEGIANCE HEALTH
4.75,2.69,44.76156,-85.64143,30119.82,14669.49,0.50,0.41,0.58,MUNSON MEDICAL CENTER
3.35,2.61,45.37209,-84.97065,19625.89,14099.74,0.50,0.78,0.25,NORTHERN MICHIGAN REGIONAL HOSPITAL
10.42,2.64,42.30489,-85.56152,72574.78,14274.44,0.67,0.47,0.76,BORGESS MEDICAL CENTER
4.03,2.74,42.51418,-83.19259,24727.56,15089.94,0.67,0.60,0.16,WILLIAM BEAUMONT HOSPITAL
7.34,2.68,43.01399,-83.73250,49499.31,14640.54,0.50,0.60,0.33,MCLAREN FLINT
4.89,2.59,42.21065,-83.14861,31175.52,13967.16,0.50,0.70,0.96,HENRY FORD WYANDOTTE HOSPITAL
7.14,2.79,42.26181,-83.66003,48057.82,15422.73,0.67,0.62,0.33,ST JOSEPH MERCY HOSPITAL
4.75,2.87,42.41975,-82.91442,30143.91,16026.82,0.67,0.72,0.10,ST JOHN HOSPITAL AND MEDICAL CENTER
5.30,2.56,42.50514,-83.00422,34239.08,13741.77,0.67,0.56,0.86,ST JOHN MACOMB-OAKLAND HOSPITAL-MACOMB CENTER
5.55,2.79,42.89254,-83.63621,36101.25,15444.12,0.67,0.70,0.14,GENESYS REGIONAL MEDICAL CENTER - HEALTH PARK
4.87,2.37,42.98625,-82.42802,31043.64,12269.73,0.50,0.62,0.30,PORT HURON HOSPITAL
4.24,2.57,43.63618,-84.26187,26291.77,13811.89,0.50,0.72,0.70,MIDMICHIGAN MEDICAL CENTER-MIDLAND
5.38,2.78,42.73767,-84.51698,34846.08,15387.08,0.83,0.69,0.01,EDWARD W SPARROW HOSPITAL
4.49,2.79,42.85736,-85.71774,28134.75,15410.61,0.50,0.66,0.48,METRO HEALTH HOSPITAL
3.84,2.49,42.61826,-83.09239,23278.67,13192.80,0.83,0.60,0.63,WILLIAM BEAUMONT HOSPITAL-TROY
5.42,2.37,42.53914,-83.40777,35150.53,12323.60,0.50,0.54,0.39,HENRY FORD WEST BLOOMFIELD HOSPITAL
5.11,2.65,46.79380,-92.09573,32814.73,14422.18,0.83,0.75,0.80,ESSENTIA HEALTH ST MARY'S MEDICAL CENTER
5.19,3.24,44.02052,-92.48292,33450.55,18823.60,0.83,0.42,0.32,MAYO CLINIC - SAINT MARYS HOSPITAL
5.57,2.87,45.57390,-94.16942,36223.11,16034.57,0.50,0.61,0.38,ST CLOUD HOSPITAL
7.33,2.84,44.95248,-93.26196,49440.45,15784.48,0.50,0.70,0.64,ABBOTT NORTHWESTERN HOSPITAL
5.12,2.47,44.88645,-93.32693,32893.56,13012.88,0.67,0.62,0.94,FAIRVIEW SOUTHDALE HOSPITAL
6.01,3.32,44.96766,-93.23640,39574.00,19410.81,0.67,0.56,0.58,UNIVERSITY OF MINNESOTA  MEDICAL CENTER FAIRVIEW
8.88,3.02,44.95570,-93.09429,61019.81,17170.57,0.50,0.79,0.17,REGIONS HOSPITAL
6.10,3.00,45.18355,-93.36789,40265.92,16994.92,0.50,0.74,0.96,MERCY HOSPITAL
7.34,2.51,45.02892,-93.03418,49486.72,13328.44,0.50,0.75,0.25,HEALTHEAST ST JOHN'S HOSPITAL
7.41,3.56,32.33069,-90.17030,50070.57,21202.07,0.67,0.51,0.07,UNIVERSITY OF MISSISSIPPI MED CENTER
3.96,2.44,34.24336,-88.71753,24231.50,12835.23,0.67,0.61,0.48,NORTH MISSISSIPPI MEDICAL CENTER
9.01,2.46,30.39599,-88.89061,62035.87,12990.13,0.50,0.80,0.48,BILOXI REGIONAL MEDICAL CENTER
9.17,2.35,30.37516,-88.53226,63251.47,12141.93,0.50,0.70,0.03,SINGING RIVER HOSPITAL
4.88,2.31,32.33616,-90.15652,31111.13,11850.72,0.50,0.60,0.45,ST DOMINIC-JACKSON MEMORIAL HOSPITAL
3.68,2.45,32.36983,-88.69702,22093.12,12896.35,0.50,0.84,0.05,RUSH FOUNDATION HOSPITAL
13.11,2.44,32.28805,-90.25566,92728.08,12821.33,0.50,0.81,0.08,CENTRAL MISSISSIPPI MEDICAL CENTER
4.85,2.49,31.31872,-89.32955,30866.24,13174.55,0.50,0.57,0.54,FORREST GENERAL HOSPITAL
6.85,2.38,31.32573,-89.36670,45863.58,12360.16,0.50,0.56,0.20,WESLEY MEDICAL CENTER
12.78,2.21,32.28618,-90.03434,90239.92,11110.25,0.50,0.69,0.07,CROSSGATES RIVER OAKS HOSPITAL
4.94,3.07,33.51824,-90.19832,31504.83,17499.33,0.00,0.00,0.00,GREENWOOD LEFLORE HOSPITAL
4.79,2.18,32.31643,-90.17922,30398.83,10873.29,0.67,0.44,0.86,MISSISSIPPI BAPTIST MEDICAL CENTER
9.43,2.38,30.44411,-89.09321,65163.08,12335.67,0.50,0.72,0.11,GARDEN PARK MEDICAL CENTER
8.32,2.47,32.32541,-90.10520,56898.02,13036.51,0.00,0.00,0.00,RIVER OAKS HOSPITAL
4.07,2.44,34.96927,-89.99709,25036.23,12825.85,0.50,0.69,0.11,BAPTIST MEMORIAL HOSPITAL DESOTO
5.91,2.36,37.06032,-94.52747,38805.00,12226.78,0.00,0.00,0.00,ST JOHN'S REGIONAL MEDICAL CENTER
4.61,2.87,39.77393,-94.77089,29084.72,16034.28,0.50,0.59,0.51,HEARTLAND REGIONAL MEDICAL CENTER
6.14,2.20,38.57670,-92.17352,40525.12,11006.38,0.50,0.86,0.01,ST MARYS HEALTH CENTER
5.44,2.43,38.64281,-90.44448,35274.67,12734.20,0.83,0.57,0.74,MERCY HOSPITAL ST LOUIS
7.65,2.83,38.63524,-90.26508,51852.41,15749.45,0.50,0.56,0.12,BARNES JEWISH HOSPITAL
6.43,2.47,37.14560,-93.28037,42722.67,13025.74,0.50,0.61,0.86,COX MEDICAL CENTER
7.56,2.45,37.17999,-93.27409,51164.06,12893.21,0.67,0.61,0.25,ST JOHN'S REGIONAL HEALTH CENTER
5.23,2.18,38.94903,-92.31563,33750.00,10850.44,0.67,0.74,0.43,BOONE HOSPITAL CENTER
3.07,2.18,38.50661,-90.38025,17561.10,10900.93,0.67,0.57,0.14,ST ANTHONY'S MEDICAL CENTER
5.41,2.18,38.52738,-90.47501,35036.44,10899.11,0.50,0.65,0.45,SSM ST CLARE HEALTH CENTER
4.65,2.42,38.75097,-90.43255,29385.06,12630.06,0.67,0.69,0.43,SSM DEPAUL HEALTH CENTER
5.61,2.85,38.63702,-90.44699,36526.50,15901.88,0.67,0.69,0.48,MISSOURI BAPTIST MEDICAL CENTER
12.19,2.53,37.31072,-89.53990,85815.64,13471.05,0.50,0.72,0.08,SOUTHEAST MISSOURI HOSPITAL
6.22,2.41,37.05238,-94.52777,41146.16,12609.47,0.83,0.68,0.86,FREEMAN HEALTH SYSTEM - FREEMAN WEST
7.35,2.93,38.95171,-92.33407,49630.32,16501.42,0.67,0.60,0.64,UNIVERSITY OF MISSOURI HEALTH CARE
6.95,2.40,38.58103,-90.45144,46614.27,12482.50,0.50,0.70,0.43,DES PERES HOSPITAL
3.71,2.38,38.65123,-90.50301,22291.26,12365.22,0.67,0.68,0.12,ST LUKES HOSPITAL
12.72,2.82,37.30401,-89.57190,89828.43,15647.28,0.50,0.65,0.11,ST FRANCIS MEDICAL CENTER
5.32,2.46,38.80334,-90.77619,34351.46,12979.77,0.50,0.65,0.83,SSM ST JOSEPH HOSPITAL WEST
5.02,2.52,47.49139,-111.26255,32114.77,13446.15,0.50,0.61,0.58,BENEFIS HOSPITALS INC
5.64,2.41,46.87545,-114.00033,36774.50,12605.42,0.50,0.78,0.70,ST PATRICK HOSPITAL
4.95,2.82,46.84691,-114.04640,31593.61,15666.39,0.00,0.00,0.00,COMMUNITY MEDICAL CENTER INC
5.78,2.60,45.79337,-108.51928,37822.86,13993.14,0.50,0.81,0.54,ST VINCENT HEALTHCARE
6.25,2.47,40.78318,-96.63709,41339.24,13044.18,0.67,0.70,0.64,BRYANLGH MEDICAL CENTER
5.48,2.80,40.70646,-99.08136,35601.16,15531.06,0.50,0.69,0.51,GOOD SAMARITAN HOSPITAL
7.35,2.90,41.25522,-95.97892,49575.92,16223.62,0.50,0.53,0.51,THE NEBRASKA MEDICAL CENTER
5.90,2.37,40.80816,-96.62689,38696.69,12283.31,0.50,0.66,0.20,SAINT ELIZABETH REGIONAL MEDICAL CENTER
5.45,2.26,41.25797,-96.04164,35328.18,11491.09,0.50,0.74,0.33,THE NEBRASKA METHODIST HOSPITAL
9.41,2.90,41.88690,-103.66400,65048.60,16260.47,0.50,0.59,0.86,REGIONAL WEST MEDICAL CENTER
8.04,2.28,41.25751,-96.03663,54781.89,11590.46,0.00,0.00,0.00,MIDWEST SURGICAL HOSPITAL LLC
7.48,2.45,41.32146,-96.02188,50553.86,12914.48,0.00,0.00,0.00,NEBRASKA SPINE HOSPITAL LLC
7.56,2.65,39.52637,-119.79456,51190.09,14361.68,0.50,0.66,0.17,RENOWN REGIONAL MEDICAL CENTER
10.29,3.05,36.13459,-115.13576,71592.21,17389.25,0.67,0.69,0.10,SUNRISE HOSPITAL AND MEDICAL CENTER
9.39,3.14,36.15896,-115.16558,64839.60,18052.87,0.33,0.60,0.00,UMC OF SOUTHERN NEVADA
9.86,2.40,39.53066,-119.82067,68380.08,12516.68,0.67,0.76,0.45,SAINT MARY'S REGIONAL MEDICAL CENTER
10.36,2.98,39.20247,-119.78446,72173.90,16864.33,0.50,0.56,0.70,CARSON TAHOE REGIONAL MEDICAL CENTER
14.82,3.09,36.16380,-115.16574,105578.71,17683.58,0.67,0.70,0.54,VALLEY HOSPITAL MEDICAL CENTER
14.03,2.37,39.54241,-119.69736,99617.42,12277.67,0.00,0.00,0.00,NORTHERN NEVADA MEDICAL CENTER
11.37,2.77,36.21599,-115.25095,79686.14,15299.36,0.67,0.57,0.14,MOUNTAINVIEW HOSPITAL
9.94,2.57,36.00527,-115.11618,68988.00,13778.38,0.50,0.50,0.33,SAINT ROSE DOMINICAN HOSPITAL - SIENA CAMPUS
9.60,2.73,36.07216,-115.29538,66450.16,14993.49,0.50,0.81,0.01,SOUTHERN HILLS HOSPITAL AND MEDICAL CENTER
6.01,2.41,39.19862,-119.78154,39545.52,12574.43,0.00,0.00,0.00,SIERRA SURGERY HOSPITAL
8.46,3.20,43.67286,-72.27232,57934.55,18475.82,0.50,0.39,0.01,MARY HITCHCOCK MEMORIAL HOSPITAL
4.81,2.57,42.75623,-71.46059,30548.89,13815.50,0.50,0.81,0.54,SOUTHERN NH MEDICAL CENTER
9.69,3.22,40.88346,-74.05564,67119.71,18659.50,0.50,0.59,0.86,HACKENSACK UNIVERSITY MEDICAL CENTER
14.75,3.22,39.94152,-75.11680,105018.45,18652.00,0.67,0.42,0.03,COOPER UNIVERSITY HOSPITAL
8.59,2.83,40.78883,-74.46620,58894.44,15760.38,0.67,0.44,0.39,MORRISTOWN MEMORIAL HOSPITAL
6.80,3.23,40.90215,-74.16634,45439.73,18750.91,0.17,0.54,0.94,ST JOSEPH'S REGIONAL MEDICAL CENTER
7.62,2.84,40.90400,-73.96847,51614.95,15790.58,0.67,0.81,0.54,ENGLEWOOD HOSPITAL AND MEDICAL CENTER
8.48,2.39,39.31464,-74.59391,58096.76,12433.35,0.17,0.72,0.83,SHORE MEDICAL CENTER
16.92,2.83,39.98588,-74.79393,121277.00,15763.15,0.67,0.55,0.54,VIRTUA MEMORIAL HOSPITAL OF BURLINGTON COUNTY
10.57,2.66,39.35775,-74.43449,73721.69,14452.77,0.67,0.65,0.89,ATLANTICARE REGIONAL MEDICAL CENTER - CITY DIV
10.11,3.29,40.21065,-74.03566,70270.06,19162.82,0.50,0.59,0.07,JERSEY SHORE UNIVERSITY MEDICAL CENTER
8.36,2.94,40.29563,-73.98518,57150.13,16570.13,0.50,0.50,0.86,MONMOUTH MEDICAL CENTER
9.06,3.58,35.08838,-106.61590,62440.00,21359.29,0.83,0.46,0.11,UNM HOSPITAL
8.12,3.05,35.65960,-105.94578,55356.50,17409.64,0.50,0.65,0.30,ST VINCENT HOSPITAL
9.04,3.10,35.08603,-106.63950,62250.41,17788.12,0.67,0.62,0.54,LOVELACE MEDICAL CENTER
6.77,2.69,35.08102,-106.63392,45222.57,14683.86,0.33,0.51,0.03,PRESBYTERIAN HOSPITAL
6.54,2.75,42.87482,-78.84942,43541.51,15152.83,0.33,0.45,0.08,KALEIDA HEALTH
5.93,2.90,42.65345,-73.77543,38942.96,16245.04,0.67,0.60,0.64,ALBANY MEDICAL CENTER HOSPITAL
6.15,3.69,40.79041,-73.95386,40608.08,22199.20,0.83,0.39,0.05,MOUNT SINAI HOSPITAL
6.96,3.12,40.87946,-73.41621,46656.08,17882.15,0.50,0.66,0.39,HUNTINGTON HOSPITAL
6.26,2.32,42.65583,-73.80372,41447.14,11887.14,0.33,0.47,0.54,ST PETER'S HOSPITAL
5.21,2.94,41.71846,-73.92710,33528.00,16568.18,0.50,0.80,0.80,ST FRANCIS HOSPITAL
6.55,3.75,40.76487,-73.95398,43574.38,22590.62,0.33,0.33,0.74,NEW YORK-PRESBYTERIAN HOSPITAL
3.73,2.27,42.97762,-78.88045,22487.80,11537.40,0.50,0.71,0.58,KENMORE MERCY HOSPITAL
11.29,3.31,40.77686,-73.70212,79129.04,19346.44,0.33,0.61,0.69,NORTH SHORE UNIVERSITY HOSPITAL
8.47,3.20,40.77362,-73.96093,57983.67,18484.58,0.33,0.46,0.11,LENOX HILL HOSPITAL
4.87,2.48,43.05571,-76.14981,31047.03,13115.45,0.83,0.38,0.20,ST JOSEPH'S HOSPITAL HEALTH CENTER
6.52,2.61,41.19677,-73.72572,43366.26,14098.21,0.50,0.69,0.70,NORTHERN WESTCHESTER HOSPITAL
4.20,2.64,43.13562,-77.60602,26029.23,14298.54,0.50,0.44,0.11,HIGHLAND HOSPITAL
9.52,3.49,40.74083,-73.64306,65828.06,20683.62,0.67,0.50,0.74,WINTHROP-UNIVERSITY HOSPITAL
4.01,2.69,43.04139,-76.13803,24583.44,14681.11,0.50,0.41,0.02,CROUSE HOSPITAL
10.85,3.49,40.74335,-73.97408,75781.39,20700.89,0.33,0.64,0.21,NYU HOSPITALS CENTER
3.41,2.41,43.19054,-77.70177,20065.67,12559.43,0.50,0.45,0.83,UNITY HOSPITAL OF ROCHESTER
2.91,2.31,42.74285,-73.67673,16321.54,11823.08,0.50,0.53,0.70,SETON HEALTH SYSTEM-ST MARY'S CAMPUS
6.76,3.23,43.04269,-76.14043,45141.83,18761.21,0.67,0.41,0.03,UNIVERSITY HOSPITAL S U N Y HEALTH SCIENCE CENTER
3.80,2.39,42.81327,-75.54316,22968.33,12412.27,0.00,0.00,0.00,COMMUNITY MEMORIAL HOSPITAL INC
8.83,3.27,40.76488,-73.95302,60667.47,19046.44,0.00,0.00,0.00,HOSPITAL FOR SPECIAL SURGERY
7.11,3.22,40.69327,-73.29412,47788.33,18678.00,0.50,0.70,0.74,GOOD SAMARITAN HOSPITAL MEDICAL CENTER
8.34,3.55,40.90922,-73.11520,57009.07,21159.14,0.50,0.60,0.45,UNIVERSITY HOSPITAL ( STONY BROOK )
5.08,2.53,42.11422,-75.95851,32614.47,13493.66,0.67,0.49,0.93,UNITED HEALTH SERVICES HOSPITALS INC
5.74,2.60,35.43754,-80.60147,37522.80,14037.45,0.67,0.65,0.16,CAROLINAS MEDICAL CENTER-NORTHEAST
5.65,2.54,35.57658,-82.54922,36835.73,13573.28,0.67,0.40,0.82,MEMORIAL MISSION HOSPITAL AND ASHEVILLE SURGERY CE
4.31,2.54,35.39772,-77.95250,26842.08,13597.15,0.50,0.81,0.08,WAYNE MEMORIAL HOSPITAL
5.59,2.42,36.07581,-80.29779,36394.07,12684.10,0.50,0.53,0.39,FORSYTH MEMORIAL HOSPITAL
3.88,2.32,35.68172,-80.47072,23627.02,11922.62,0.50,0.80,0.76,ROWAN REGIONAL MEDICAL CENTER
9.39,3.18,36.00850,-78.94006,64882.56,18364.65,0.67,0.44,0.76,DUKE UNIVERSITY HOSPITAL
4.86,2.45,35.27341,-81.13688,30911.25,12923.42,0.50,0.70,0.70,GASTON MEMORIAL HOSPITAL
9.16,2.99,35.60726,-77.40477,63189.23,16928.21,0.50,0.46,0.01,PITT COUNTY MEMORIAL HOSPITAL
6.48,3.13,36.09062,-80.27161,43055.94,17993.55,0.83,0.55,0.58,NORTH CAROLINA BAPTIST HOSPITAL
6.01,2.24,36.04290,-78.89690,39536.12,11305.94,0.00,0.00,0.00,NORTH CAROLINA SPECIALTY HOSPITAL
12.51,2.87,34.63723,-79.01213,88246.68,16061.92,0.50,0.71,0.64,SOUTHEASTERN REGIONAL MEDICAL CENTER
8.70,2.48,35.22196,-80.83287,59682.67,13085.00,0.50,0.64,0.14,PRESBYTERIAN HOSPITAL
8.27,3.33,35.90529,-79.04963,56500.82,19496.94,0.67,0.41,0.01,UNIVERSITY OF NORTH CAROLINA HOSPITAL
7.09,2.64,35.78523,-78.58836,47612.13,14343.30,0.33,0.50,0.80,WAKEMED RALEIGH CAMPUS
8.82,2.39,35.82915,-78.61922,60639.56,12412.23,0.50,0.81,0.80,DUKE HEALTH RALEIGH HOSPITAL
3.93,2.46,36.09251,-79.78855,23972.74,12962.39,0.67,0.66,0.51,MOSES H CONE MEMORIAL HOSPITAL THE
5.60,2.30,35.21029,-80.82084,36521.20,11784.67,0.50,0.54,0.51,CAROLINAS MED CENTER-MERCY
12.69,2.40,34.90228,-79.71125,89601.62,12526.90,0.00,0.00,0.00,SANDHILLS REGIONAL MEDICAL CENTER
8.36,2.83,35.92115,-77.55585,57135.07,15735.80,0.50,0.85,0.06,HERITAGE HOSPITAL
7.69,3.01,35.20397,-80.83908,52170.53,17046.97,0.67,0.64,0.25,CAROLINAS MEDICAL CENTER/BEHAV HEALTH
6.86,2.46,35.81801,-78.70283,45927.45,12980.43,0.50,0.65,0.54,REX HOSPITAL
4.49,2.38,35.20554,-79.45645,28158.26,12329.63,0.67,0.60,0.45,FIRSTHEALTH MOORE REGIONAL HOSPITAL
8.20,2.25,35.73751,-81.33702,55943.83,11363.38,0.50,0.68,0.17,FRYE REGIONAL MEDICAL CENTER
5.80,2.65,35.11420,-77.06568,38019.53,14377.37,0.33,0.74,0.91,CAROLINA EAST MEDICAL CENTER
7.01,2.55,34.23786,-77.94764,47032.95,13664.27,0.83,0.70,0.58,NEW HANOVER REGIONAL MEDICAL CENTER
6.61,2.40,35.71664,-81.26661,44014.71,12507.71,0.50,0.72,0.64,CATAWBA VALLEY MEDICAL CENTER
11.90,2.48,35.81875,-80.82896,83665.62,13128.17,0.00,0.00,0.00,DAVIS REGIONAL MEDICAL CENTER
6.80,2.74,35.97538,-77.85012,45489.05,15053.84,0.50,0.65,0.14,NASH GENERAL HOSPITAL
7.09,2.47,35.21076,-80.82359,47678.76,13024.41,0.00,0.00,0.00,PRESBYTERIAN-ORTHOPAEDIC HOSPITAL
7.31,2.49,36.04960,-78.90617,49299.53,13195.40,0.50,0.51,0.70,DURHAM REGIONAL HOSPITAL
6.63,2.32,35.52586,-82.94351,44224.69,11879.86,0.00,0.00,0.00,MEDWEST HAYWOOD
4.54,2.63,46.80739,-100.77773,28537.44,14209.03,0.50,0.72,0.76,ST ALEXIUS MEDICAL CENTER
5.37,2.64,46.88496,-96.78609,34758.88,14322.00,0.67,0.61,0.48,SANFORD MEDICAL CENTER FARGO
9.96,3.33,39.13707,-84.50392,69132.18,19475.09,0.67,0.45,0.21,UNIVERSITY HOSPITAL INC
8.06,2.60,40.03064,-83.03440,54941.93,13988.18,0.83,0.71,0.21,RIVERSIDE METHODIST HOSPITAL
9.19,2.86,39.96098,-82.99077,63405.50,15928.75,0.67,0.79,0.21,GRANT MEDICAL CENTER
6.40,2.37,41.44642,-82.70864,42506.46,12285.62,0.50,0.86,0.19,FIRELANDS REGIONAL MEDICAL CENTER
5.35,2.52,41.07747,-81.53042,34602.96,13385.89,0.67,0.70,0.64,AKRON GENERAL MEDICAL CENTER
7.71,2.74,39.95805,-83.02191,52294.98,15039.63,0.67,0.42,0.02,MOUNT CARMEL HEALTH
6.69,2.79,41.49640,-81.67376,44635.33,15409.08,0.25,0.55,0.64,ST VINCENT CHARITY MEDICAL CENTER
4.64,2.48,39.97510,-82.01812,29275.91,13090.09,0.50,0.79,0.93,GENESIS HEALTHCARE SYSTEM
8.70,3.41,41.61788,-83.61632,59672.91,20075.91,0.67,0.69,0.07,UNIVERSITY OF TOLEDO MEDICAL CENTER
9.28,2.68,39.74547,-84.18523,64034.58,14642.52,0.67,0.45,0.02,MIAMI VALLEY HOSPITAL
5.11,3.21,41.46088,-81.69763,32826.80,18562.30,0.50,0.60,0.25,METRO HEALTH MEDICAL CENTER
6.34,2.37,41.11441,-80.65565,42000.79,12307.53,0.83,0.49,0.21,ST ELIZABETH HEALTH CENTER
9.34,2.33,40.74115,-84.11804,64537.86,11989.23,0.67,0.74,0.07,ST RITA'S MEDICAL CENTER
7.46,2.46,41.67775,-83.59589,50439.50,12983.36,0.33,0.70,0.58,TOLEDO HOSPITAL THE
8.72,2.45,39.69724,-84.19232,59835.25,12873.62,0.67,0.80,0.58,KETTERING MEDICAL CENTER
3.85,2.62,40.79609,-81.40360,23367.22,14192.52,0.50,0.64,0.17,AULTMAN HOSPITAL
8.38,2.52,41.48724,-81.70707,57299.15,13396.23,0.00,0.00,0.00,LUTHERAN HOSPITAL
6.48,2.55,41.01785,-83.65165,43058.73,13628.64,0.50,0.82,0.70,BLANCHARD VALLEY HOSPITAL
4.61,2.19,41.66317,-81.24696,29061.44,10929.00,0.50,0.74,0.39,LAKE HEALTH
6.93,2.91,41.66810,-83.54275,46481.67,16348.22,0.50,0.70,0.05,MERCY ST VINCENT MEDICAL CENTER
7.77,2.81,39.76950,-84.20285,52762.94,15574.29,0.67,0.65,0.91,GRANDVIEW HOSPITAL & MEDICAL CENTER
6.52,2.61,39.13975,-84.52173,43414.13,14056.13,0.67,0.84,0.69,GOOD SAMARITAN HOSPITAL
7.47,3.05,41.50772,-81.60592,50502.39,17345.56,0.83,0.46,0.45,UNIVERSITY HOSPITALS OF CLEVELAND
5.13,2.48,39.39463,-82.96979,32977.00,13075.53,0.50,0.50,0.25,ADENA REGIONAL MEDICAL CENTER
7.07,2.69,39.12105,-84.51059,47492.23,14722.15,0.83,0.46,0.89,CHRIST HOSPITAL
8.54,2.50,39.25076,-84.34341,58517.16,13298.43,0.50,0.62,0.99,BETHESDA NORTH HOSPITAL
7.39,2.74,41.50248,-81.62110,49925.48,15053.04,0.33,0.33,0.25,CLEVELAND CLINIC
4.99,2.34,41.52013,-81.43291,31952.70,12069.35,0.67,0.45,0.38,HILLCREST HOSPITAL
4.72,2.41,40.08713,-82.79236,29910.11,12609.16,0.00,0.00,0.00,MOUNT CARMEL NEW ALBANY SURGICAL HOSPITAL
7.81,2.53,40.09970,-83.16551,53025.31,13461.00,0.00,0.00,0.00,DUBLIN METHODIST HOSPITAL
3.22,2.22,41.09698,-81.51355,18644.97,11165.87,0.00,0.00,0.00,CRYSTAL CLINIC ORTHOPAEDIC CENTER
7.76,2.42,39.35830,-84.36785,52672.93,12683.83,0.50,0.94,0.58,WEST CHESTER MEDICAL CENTER
6.32,2.78,36.14687,-95.96841,41869.55,15372.49,0.83,0.76,0.32,HILLCREST MEDICAL CENTER
6.30,2.39,35.60735,-97.59693,41702.04,12466.15,0.67,0.51,0.07,MERCY HEALTH CENTER INC
4.44,2.17,36.39385,-97.87094,27778.07,10767.00,0.50,0.78,0.64,ST MARY'S REGIONAL MEDICAL CENTER
12.21,2.82,35.52960,-97.57496,86028.34,15651.71,1.00,0.76,0.91,INTEGRIS BAPTIST MEDICAL CENTER
5.51,2.95,35.47800,-97.52352,35792.00,16641.53,0.67,0.59,0.33,ST ANTHONY HOSPITAL
5.88,2.30,34.60992,-98.43419,38567.95,11797.95,0.50,0.62,0.48,COMANCHE COUNTY MEMORIAL HOSPITAL
4.73,2.43,36.06135,-95.95154,29959.56,12736.88,0.83,0.61,0.45,SAINT FRANCIS HOSPITAL INC
10.88,3.12,35.48138,-97.49624,76043.23,17919.62,0.67,0.45,0.01,O U MEDICAL CENTER
7.80,2.73,34.59434,-98.46105,52974.00,14971.00,0.00,0.00,0.00,SOUTHWESTERN MEDICAL CENTER
6.91,2.33,36.13393,-95.96718,46308.38,12012.69,0.50,0.51,0.11,ST JOHN MEDICAL CENTER INC
6.56,2.17,35.37587,-97.57038,43645.29,10767.00,0.00,0.00,0.00,COMMUNITY HOSPITAL
5.87,2.19,35.61401,-97.58224,38509.50,10972.81,0.00,0.00,0.00,OKLAHOMA SPINE HOSPITAL
3.67,2.22,36.04382,-95.95356,21998.52,11184.70,0.00,0.00,0.00,OKLAHOMA SURGICAL HOSPITAL LLC
7.61,2.25,36.06382,-96.00428,51575.73,11386.67,0.00,0.00,0.00,TULSA SPINE & SPECIALTY HOSPITAL
5.62,3.27,45.50973,-122.77368,36603.70,19049.52,0.33,0.55,0.14,PROVIDENCE ST VINCENT MEDICAL CENTER
6.27,3.27,45.49956,-122.68802,41509.00,18997.62,0.67,0.47,0.07,OHSU HOSPITAL AND CLINICS
5.49,2.46,44.60322,-123.25312,35637.27,12960.60,0.33,0.59,0.05,GOOD SAMARITAN REGIONAL MEDICAL CENTER
4.56,2.48,42.31769,-122.83333,28682.09,13141.45,0.67,0.61,0.91,ROGUE VALLEY MEDICAL CENTER
7.08,2.49,44.05330,-123.00351,47581.07,13170.50,0.50,0.68,0.01,MCKENZIE-WILLAMETTE MEDICAL CENTER
7.12,2.62,45.51993,-122.97759,47869.71,14195.50,0.00,0.00,0.00,TUALITY COMMUNITY HOSPITAL
7.06,2.59,44.06773,-121.26817,47439.81,13957.89,0.67,0.70,0.38,ST CHARLES MEDICAL CENTER - BEND
6.46,2.84,42.25296,-121.78512,42925.62,15820.00,0.00,0.00,0.00,SKY LAKES MEDICAL CENTER
5.73,2.57,44.93267,-123.03418,37447.27,13770.18,0.67,0.72,0.25,SALEM HOSPITAL
6.09,2.76,45.51288,-122.55630,40164.07,15173.07,0.50,0.86,0.16,ADVENTIST MEDICAL CENTER
5.15,2.74,45.52677,-122.61469,33141.35,15088.17,0.67,0.75,0.00,PROVIDENCE PORTLAND MEDICAL CENTER
8.42,2.52,45.19897,-123.16482,57596.56,13410.69,0.00,0.00,0.00,WILLAMETTE VALLEY MEDICAL CENTER
5.98,2.60,42.34086,-122.86108,39346.00,14023.53,0.50,0.61,0.54,PROVIDENCE MEDFORD MEDICAL CENTER
4.71,2.40,45.37908,-122.74083,29849.85,12546.00,0.50,0.81,0.54,LEGACY MERIDIAN PARK MEDICAL CENTER
6.88,3.14,43.38402,-124.23280,46057.93,18048.00,0.00,0.00,0.00,BAY AREA HOSPITAL
5.66,2.62,44.08146,-123.02694,36938.94,14127.40,0.50,0.60,0.25,SACRED HEART MEDICAL CENTER - RIVERBEND
6.67,2.35,41.40075,-75.64594,44536.42,12107.26,0.50,0.78,0.94,COMMUNITY MEDICAL CENTER
8.74,2.91,40.96789,-76.60506,60030.00,16343.87,0.33,0.56,0.14,GEISINGER MEDICAL CENTER
10.54,2.49,42.11102,-80.07912,73477.56,13204.16,0.50,0.72,0.58,SAINT VINCENT HEALTH CENTER
30.00,3.64,40.00504,-75.15155,219272.64,21838.00,0.83,0.57,0.33,TEMPLE UNIVERSITY HOSPITAL
3.86,2.17,40.54345,-80.17760,23471.10,10755.19,0.50,0.80,0.54,HERITAGE VALLEY SEWICKLEY
8.01,2.55,40.33271,-75.95020,54510.75,13665.67,0.50,0.68,0.21,READING HOSPITAL MEDICAL CENTER
4.37,2.36,41.24548,-77.01438,27246.51,12250.46,0.50,0.57,0.38,WILLIAMSPORT REGIONAL MEDICAL CENTER
4.91,2.71,39.94604,-76.71884,31319.14,14839.43,0.67,0.45,0.08,YORK HOSPITAL
13.67,3.24,40.60811,-75.39260,96957.15,18821.05,0.67,0.54,0.58,ST LUKE'S HOSPITAL BETHLEHEM
6.11,2.57,40.45705,-80.00363,40340.75,13817.92,0.83,0.70,0.45,ALLEGHENY GENERAL HOSPITAL
8.30,2.32,40.04093,-76.32139,56733.71,11888.41,0.50,0.75,0.54,LANCASTER REGIONAL MEDICAL CENTER
4.39,2.58,40.25661,-76.87572,27396.92,13873.72,0.83,0.47,0.01,PINNACLE HEALTH HOSPITALS
5.46,2.38,40.04740,-76.30540,35468.74,12386.43,0.67,0.60,0.83,LANCASTER GENERAL HOSPITAL
7.88,3.28,40.48928,-79.89596,53597.79,19130.71,0.50,0.72,0.64,UPMC ST MARGARET
6.12,2.25,40.57319,-80.01455,40370.64,11416.14,0.50,0.57,0.48,UPMC PASSAVANT
15.58,3.52,39.95045,-75.19259,111257.83,20875.42,0.50,0.34,0.39,HOSPITAL OF UNIV OF PENNSYLVANIA
11.47,2.63,40.60000,-75.47000,80482.18,14250.50,0.67,0.59,0.54,LEHIGH VALLEY HOSPITAL
13.39,2.80,40.44190,-79.96044,94855.95,15491.62,0.83,0.55,0.11,UPMC PRESBYTERIAN SHADYSIDE
12.31,3.17,39.94969,-75.15712,86725.34,18278.61,0.67,0.41,0.58,THOMAS JEFFERSON UNIVERSITY HOSPITAL
9.50,2.93,39.94560,-75.15561,65731.50,16496.82,0.50,0.56,0.70,PENNSYLVANIA HOSP OF THE UNIV OF PA HEALTH SYS
9.59,2.60,40.12077,-75.11818,66368.50,14048.50,0.83,0.51,0.43,ABINGTON MEMORIAL HOSPITAL
7.62,3.50,40.26468,-76.67582,51621.57,20731.62,0.67,0.40,0.03,MILTON S HERSHEY MEDICAL CENTER
7.60,2.40,40.81936,-77.84273,51499.83,12544.08,0.50,0.91,0.58,MOUNT NITTANY MEDICAL CENTER
10.27,2.79,41.25855,-75.81041,71488.36,15436.86,0.67,0.86,0.03,GEISINGER WYOMING VALLEY MEDICAL CENTER
4.45,2.37,39.91688,-76.69684,27891.35,12317.24,0.00,0.00,0.00,OSS ORTHOPAEDIC HOSPITAL
4.24,2.92,41.83350,-71.43529,26308.92,16398.96,0.50,0.55,0.30,ROGER WILLIAMS MEDICAL CENTER
4.06,2.47,41.85574,-71.45945,24925.21,13041.00,0.50,0.68,0.76,ST JOSEPH HEALTH SERVICES OF RI
5.81,3.24,41.81254,-71.40760,38027.78,18776.56,0.33,0.49,0.07,RHODE ISLAND HOSPITAL
4.49,2.51,34.95535,-81.05137,28185.82,13344.14,0.50,0.75,0.33,PIEDMONT MEDICAL CENTER
9.02,3.74,32.78272,-79.94543,62089.88,22529.58,0.33,0.76,0.70,MUSC MEDICAL CENTER
5.03,2.67,34.96733,-81.94021,32187.82,14551.82,0.33,0.60,0.54,SPARTANBURG REGIONAL MEDICAL CENTER
10.36,3.16,34.02839,-81.03539,72152.17,18199.42,0.33,0.44,0.21,PALMETTO HEALTH RICHLAND
7.83,2.49,33.37683,-79.29450,53167.12,13196.94,0.00,0.00,0.00,GEORGETOWN MEMORIAL HOSPITAL
8.83,2.37,34.83965,-82.42147,60666.71,12302.55,0.67,0.66,0.11,ST FRANCIS-DOWNTOWN
11.57,2.62,34.51119,-82.64683,81201.18,14185.53,0.50,0.61,0.94,ANMED HEALTH
8.20,2.47,33.78555,-79.00178,55960.08,13069.54,0.50,0.90,0.69,CONWAY MEDICAL CENTER
10.48,2.74,34.19543,-79.76256,73024.80,15054.73,0.50,0.50,0.80,MCLEOD REGIONAL MEDICAL CENTER-PEE DEE
5.67,2.45,32.80878,-80.04216,37040.07,12869.64,0.50,0.61,0.70,BON SECOURS-ST FRANCIS XAVIER HOSPITAL
7.95,3.01,34.17571,-82.15791,54088.00,17051.83,0.67,0.65,0.20,SELF REGIONAL HEALTHCARE
7.59,2.46,34.00533,-81.11393,51414.95,12942.20,0.67,0.64,0.48,LEXINGTON MEDICAL CENTER
7.27,2.84,34.81904,-82.41308,49003.39,15811.48,0.50,0.55,0.17,GREENVILLE MEMORIAL HOSPITAL
13.65,2.68,32.97605,-80.07302,96811.14,14637.16,0.50,0.56,0.48,TRIDENT MEDICAL CENTER
10.02,3.07,32.22325,-80.71444,69608.50,17541.69,0.00,0.00,0.00,HILTON HEAD REGIONAL MEDICAL CENTER
10.08,2.30,34.94957,-81.93205,70074.54,11786.69,0.50,0.47,0.89,MARY BLACK MEMORIAL HOSPITAL
15.59,2.34,33.70704,-78.89487,111294.44,12076.53,0.67,0.50,0.58,GRAND STRAND REG MED CENTER
10.64,2.81,34.00754,-81.03270,74265.71,15600.47,0.33,0.66,0.38,PALMETTO HEALTH BAPTIST
6.09,2.26,32.78211,-79.95018,40148.94,11489.58,0.50,0.66,0.30,ROPER HOSPITAL
10.95,2.45,32.82119,-79.85052,76542.12,12915.79,0.00,0.00,0.00,EAST COOPER MEDICAL CENTER
17.07,2.45,34.19543,-79.76256,122386.32,12853.76,0.33,0.66,0.14,CAROLINAS HOSPITAL SYSTEM
8.75,2.55,43.53460,-96.71136,60081.40,13602.27,0.67,0.60,0.82,AVERA MCKENNAN HOSPITAL & UNIVERSITY HEALTH CENTER
10.07,2.50,43.53562,-96.74305,69934.16,13238.55,0.67,0.82,0.58,SANFORD USD MEDICAL CENTER
8.35,2.34,42.48749,-96.48642,57064.56,12035.94,0.00,0.00,0.00,SIOUXLAND SURGERY CENTER LP
8.48,2.58,44.04607,-103.22337,58072.44,13829.72,0.00,0.00,0.00,BLACK HILLS SURGICAL HOSPITAL LLP
4.48,2.39,35.63906,-88.83207,28076.37,12466.13,0.67,0.54,0.28,JACKSON-MADISON COUNTY GENERAL HOSPITAL
9.13,2.43,36.24440,-86.75204,62918.33,12727.00,0.50,0.71,0.86,SKYLINE MEDICAL CENTER
5.54,2.25,36.58587,-82.25703,36041.75,11361.88,0.50,0.62,0.48,WELLMONT BRISTOL REGIONAL MEDICAL CENTER
6.52,2.57,35.93985,-83.94326,43348.58,13805.57,0.33,0.62,0.20,UNIVERSITY OF TN MEMORIAL HOSPITAL
5.73,2.29,36.55401,-82.55483,37459.47,11718.12,0.50,0.59,0.33,WELLMONT HOLSTON VALLEY MEDICAL CENTER
5.09,2.36,35.91595,-86.81799,32672.24,12238.68,0.50,0.59,0.39,WILLIAMSON MEDICAL CENTER
6.72,2.17,35.98589,-84.28055,44885.47,10771.40,0.67,0.62,0.80,METHODIST MEDICAL CENTER OF OAK RIDGE
10.25,3.20,36.14316,-86.80048,71317.00,18520.11,0.50,0.44,0.43,VANDERBILT UNIVERSITY HOSPITAL
4.66,2.38,35.12837,-89.86202,29465.03,12350.88,0.50,0.44,0.39,BAPTIST MEMORIAL HOSPITAL
8.23,3.31,35.13640,-90.01928,56160.22,19303.64,0.67,0.51,0.38,METHODIST HEALTHCARE MEMPHIS HOSPITALS
3.02,2.36,36.17121,-85.50938,17187.54,12175.88,0.50,0.74,0.99,COOKEVILLE REGIONAL MEDICAL CENTER
10.11,2.67,36.30767,-82.38497,70301.45,14541.50,0.83,0.50,0.21,JOHNSON CITY MEDICAL CENTER
6.61,2.29,35.04157,-85.26037,44080.48,11685.20,0.33,0.72,0.99,MEMORIAL HEALTHCARE SYSTEM INC
5.42,2.66,35.05068,-85.28823,35158.10,14442.10,0.50,0.53,0.00,ERLANGER MEDICAL CENTER
6.34,2.16,35.99233,-83.92697,42016.71,10680.25,0.50,0.56,0.85,TENNOVA HEALTHCARE
6.57,2.24,35.95747,-83.93660,43769.68,11306.84,0.33,0.56,0.45,FORT SANDERS REGIONAL MEDICAL CENTER
7.91,2.62,36.15388,-86.80249,53755.73,14139.91,0.67,0.66,0.64,BAPTIST HOSPITAL
10.43,2.30,35.36202,-86.20943,72631.07,11741.79,0.00,0.00,0.00,HARTON REGIONAL MEDICAL CENTER
6.43,2.48,36.17752,-86.60840,42681.71,13143.17,0.50,0.76,0.30,SUMMIT MEDICAL CENTER
6.31,2.80,35.03467,-85.26735,41832.13,15540.60,0.50,0.56,0.33,PARKRIDGE MEDICAL CENTER
7.83,2.57,36.15310,-86.80910,53177.60,13782.42,0.67,0.69,0.82,CENTENNIAL MEDICAL CENTER
7.44,2.27,35.91765,-84.10080,50266.00,11576.21,0.33,0.72,0.83,PARKWEST MEDICAL CENTER
6.13,2.39,36.07626,-86.72183,40456.85,12420.62,0.50,1.00,0.07,SOUTHERN HILLS MEDICAL CTR
4.64,2.19,36.15524,-86.80350,29260.11,10930.00,0.00,0.00,0.00,THE CENTER FOR SPINAL SURGERY
6.29,2.38,35.97510,-86.56688,41629.18,12366.00,0.50,0.95,0.63,STONECREST MEDICAL CENTER
8.58,2.56,33.90296,-98.50035,58809.51,13747.41,0.67,0.86,0.48,UNITED REGIONAL HEALTH CARE SYSTEM
8.39,2.47,30.65598,-96.34672,57382.20,13060.76,0.50,0.57,0.32,ST JOSEPH REGIONAL HEALTH CENTER
5.79,4.15,29.31233,-94.77317,37873.38,25635.69,0.67,0.55,0.21,UNIVERSITY OF TEXAS MEDICAL BRANCH GAL
6.28,2.61,32.78994,-96.78044,41564.58,14114.45,0.83,0.59,0.33,BAYLOR UNIVERSITY MEDICAL CENTER
10.57,2.89,30.08729,-94.13292,73707.12,16197.83,0.67,0.86,0.80,CHRISTUS HOSPITAL
6.50,2.36,32.50219,-94.73025,43199.48,12183.30,0.50,0.74,0.86,GOOD SHEPHERD MEDICAL CENTER
8.91,2.40,33.57524,-101.89272,61294.00,12479.64,0.50,0.41,0.48,COVENANT MEDICAL CENTER
4.17,2.27,31.51444,-97.19927,25742.01,11509.24,0.50,0.50,0.33,PROVIDENCE HEALTH CENTER
15.58,2.76,27.77751,-97.39515,111233.05,15219.71,0.83,0.57,0.96,CHRISTUS SPOHN HOSPITAL CORPUS CHRISTI
5.94,2.77,32.76017,-96.82437,39008.16,15307.88,0.50,0.40,0.03,METHODIST DALLAS MEDICAL CENTER
8.92,2.69,31.07837,-97.36403,61321.44,14687.12,0.50,0.56,0.86,SCOTT & WHITE MEMORIAL HOSPITAL
9.60,2.51,29.43360,-98.49265,66485.73,13358.80,0.67,0.61,0.25,BAPTIST MEDICAL CENTER
8.96,2.53,32.33824,-95.29122,61663.49,13516.91,0.50,0.55,0.93,EAST TEXAS MEDICAL CENTER
7.19,2.21,32.34280,-95.29201,48361.73,11067.35,0.50,0.60,0.98,MOTHER FRANCES HOSPITAL
13.66,2.91,31.76998,-106.49897,96894.41,16296.53,0.67,0.59,0.08,LAS PALMAS MEDICAL CENTER
9.37,2.92,30.27438,-97.73395,64694.35,16391.18,0.33,0.74,0.03,UNIVERSITY MEDICAL CENTER AT BRACKENRIDGE
6.85,2.51,31.99616,-102.09950,45823.50,13329.36,0.50,0.55,0.38,MIDLAND MEMORIAL HOSPITAL
9.11,2.66,32.73780,-97.33899,62803.06,14457.33,0.67,0.55,0.58,TEXAS HEALTH HARRIS METHODIST FORT WORTH
7.04,2.57,32.73070,-97.34379,47258.54,13753.46,0.67,0.57,0.74,BAYLOR ALL SAINTS MEDICAL CENTER AT FW
6.46,2.33,33.54243,-101.86066,42898.59,11965.18,0.00,0.00,0.00,GRACE MEDICAL CENTER
6.18,2.69,29.81230,-95.43010,40833.10,14661.95,0.67,0.62,0.70,MEMORIAL HERMANN HOSPITAL SYSTEM
8.80,3.67,29.70719,-95.40048,60441.28,22059.40,0.67,0.44,0.01,ST LUKES EPISCOPAL HOSPITAL
8.12,2.41,33.65984,-95.54752,55337.73,12578.00,0.50,0.76,0.48,PARIS REGIONAL MEDICAL CENTER
9.05,2.43,33.42875,-94.04725,62344.64,12735.10,0.00,0.00,0.00,WADLEY REGIONAL MEDICAL CENTER
9.08,2.60,35.19934,-101.92186,62583.08,14017.23,0.83,0.82,0.25,NORTHWEST TEXAS HOSPITAL
12.74,2.24,31.33632,-94.74205,89963.91,11306.18,0.50,0.71,0.64,MEMORIAL HEALTH SYSTEM OF EAST TEXAS- LUFKIN
5.48,2.54,32.47171,-99.73315,35592.93,13546.21,0.67,0.86,0.39,HENDRICK MEDICAL CENTER
5.66,2.29,35.19533,-101.91907,36945.70,11724.83,0.67,0.60,0.21,BAPTIST ST ANTHONYS HEALTH SYSTEM-BAPTIST CAMPUS
10.90,2.88,29.42825,-98.49859,76158.91,16133.55,0.50,0.80,0.20,CHRISTUS SANTA ROSA HOSPITAL
8.71,2.57,33.71085,-96.58493,59750.79,13795.37,0.50,0.57,0.21,TEXOMA MEDICAL CENTER
8.22,2.39,30.07104,-94.11927,56088.93,12412.18,0.83,0.64,0.86,MEMORIAL HERMANN BAPTIST BEAUMONT HOSPITAL
9.32,2.68,29.71020,-95.39956,64380.94,14603.28,1.00,0.60,0.14,METHODIST HOSPITALTHE
10.02,2.65,29.50795,-98.57224,69566.32,14348.99,0.67,0.62,0.58,METHODIST HOSPITAL
10.51,2.70,30.28957,-97.72584,73241.87,14748.00,0.67,0.81,0.64,ST DAVIDS MEDICAL CENTER
8.54,3.36,32.88076,-96.76226,58512.96,19687.61,0.67,0.66,0.03,TEXAS HEALTH PRESBYTERIAN HOSPITAL  DALLAS
4.20,2.25,32.97514,-96.72397,25967.64,11404.00,0.75,0.80,0.30,METHODIST RICHARDSON MEDICAL CENTER
7.15,2.34,32.40574,-99.76486,48110.64,12027.73,0.75,0.57,0.76,ABILENE REGIONAL MEDICAL CENTER
5.86,2.48,31.46574,-100.43466,38404.24,13142.70,0.50,0.72,0.80,SHANNON MEDICAL CENTER
6.18,3.25,29.78143,-95.54541,40812.75,18846.45,0.83,0.78,0.93,MEMORIAL HERMANN MEMORIAL CITY MEDICAL CENTER
8.90,2.69,29.54043,-95.12730,61193.27,14681.59,0.67,0.51,0.21,CLEAR LAKE REGIONAL MEDICAL CENTER
15.44,2.61,33.02168,-96.76621,110208.62,14097.54,0.50,0.68,0.11,MEDICAL CENTER OF PLANO
12.49,2.21,31.65212,-94.65488,88115.44,11081.00,0.00,0.00,0.00,NACOGDOCHES MEDICAL CENTER
9.91,2.69,29.72272,-95.38754,68791.44,14706.44,0.50,0.75,0.76,PARK PLAZA HOSPITAL
14.59,2.43,31.77757,-106.48060,103861.09,12761.55,0.75,0.62,0.48,SIERRA MEDICAL CENTER
14.66,2.90,32.73563,-97.34483,104337.45,16229.64,0.83,0.41,0.74,PLAZA MEDICAL CENTER OF FORT WORTH
12.74,2.41,30.51034,-97.71486,89937.69,12565.00,0.50,0.64,0.76,ROUND ROCK MEDICAL CENTER
6.48,2.49,32.81073,-96.83618,43109.88,13197.42,0.50,0.74,0.64,UT SOUTHWESTERN UNIVERSITY HOSPITAL-ZALE LIPSHY
10.65,2.53,27.69288,-97.34476,74316.41,13472.41,0.50,0.60,0.86,CORPUS CHRISTI MEDICAL CENTERTHE
8.53,2.22,33.46323,-94.07490,58404.27,11147.60,0.67,0.80,0.07,CHRISTUS ST MICHAEL HEALTH SYSTEM
7.57,2.38,29.69445,-95.41451,51248.00,12354.35,0.00,0.00,0.00,TEXAS ORTHOPEDIC HOSPITAL
4.61,2.23,30.35117,-97.75114,29062.24,11220.00,0.00,0.00,0.00,NORTHWEST HILLS SURGICAL HOSPITAL
12.01,2.38,30.41163,-97.70649,84480.88,12348.15,0.33,0.65,0.29,NORTH AUSTIN MEDICAL CENTER
7.43,2.35,29.58896,-95.63112,50187.06,12108.72,0.50,0.66,0.12,METHODIST SUGAR LAND HOSPITAL
6.20,2.33,26.26301,-98.19935,40993.64,11955.00,0.00,0.00,0.00,CORNERSTONE REGIONAL HOSPITAL
4.07,2.27,33.87594,-98.56163,24989.76,11512.00,0.00,0.00,0.00,KELL WEST REGIONAL HOSPITAL
9.03,2.67,26.00624,-97.52922,62147.93,14509.00,0.00,0.00,0.00,BROWNSVILLE SURGICAL HOSPITAL
9.15,2.25,33.10505,-96.83799,63088.00,11391.00,0.00,0.00,0.00,BAYLOR MEDICAL CENTER AT FRISCO
7.89,2.67,26.15761,-97.67550,53613.15,14510.75,0.00,0.00,0.00,HARLINGEN MEDICAL CENTER
9.06,2.20,29.61329,-98.47759,62418.86,11048.45,0.00,0.00,0.00,SOUTH TEXAS SPINE AND SURGICAL HOSPITAL
10.13,2.99,30.20579,-95.45830,70384.00,16968.00,0.50,0.68,0.54,ST LUKE'S THE WOODLANDS HOSPITAL
5.77,2.44,32.32974,-95.29946,37763.60,12814.47,0.00,0.00,0.00,TEXAS SPINE AND JOINT HOSPITAL
6.26,3.07,26.25286,-98.20590,41459.72,17545.50,0.33,0.66,0.45,DOCTORS HOSPITAL AT RENAISSANCE
8.76,3.11,32.67929,-97.11545,60164.07,17807.93,0.00,0.00,0.00,USMD HOSPITAL AT ARLINGTON L P
5.13,2.21,35.21032,-101.91266,32980.13,11081.33,0.00,0.00,0.00,QUAIL CREEK SURGICAL HOSPITAL
7.87,2.72,32.73678,-97.34895,53504.88,14885.31,0.00,0.00,0.00,BAYLOR SURGICAL HOSPITAL AT FORT WORTH
9.08,2.38,33.11427,-96.77061,62526.09,12391.36,0.50,0.85,0.05,CENTENNIAL MEDICAL CENTER
7.10,2.66,33.04431,-96.83215,47741.36,14442.64,0.00,0.00,0.00,TEXAS HEALTH CENTER FOR DIAGNOSTICS & SURGERY PLAN
8.26,2.61,32.84016,-96.86869,56427.69,14067.88,0.00,0.00,0.00,PINE CREEK MEDICAL CENTER LLP
3.50,2.51,40.24999,-111.66524,20746.91,13299.88,0.50,0.70,0.76,UTAH VALLEY REGIONAL MEDICAL CENTER
5.00,3.03,40.77170,-111.83681,32020.07,17244.07,0.33,0.54,0.08,UNIVERSITY HEALTH CARE/UNIV HOSPITALS AND  CLINICS
5.02,2.68,40.65922,-111.89189,32132.51,14580.74,0.33,0.59,0.54,INTERMOUNTAIN MEDICAL CENTER
5.52,2.45,40.88620,-111.86916,35906.89,12908.58,0.00,0.00,0.00,LAKEVIEW HOSPITAL
7.07,2.49,40.68610,-111.85735,47480.49,13184.90,0.67,0.72,0.08,ST MARKS HOSPITAL
4.97,3.07,44.47966,-73.19412,31783.61,17496.39,0.67,0.50,0.14,FLETCHER ALLEN HOSPITAL OF VERMONT
4.04,2.59,39.19345,-78.19599,24810.20,13932.40,0.67,0.60,0.74,WINCHESTER MEDICAL CENTER INC
7.89,3.20,36.86268,-76.30355,53652.83,18472.98,0.83,0.59,0.05,SENTARA NORFOLK GENERAL HOSPITAL
10.81,3.38,38.02573,-78.51526,75551.10,19824.03,0.33,0.35,0.25,UNIVERSITY OF VIRGINIA MEDICAL CENTER
8.05,2.56,36.89933,-76.28157,54824.96,13680.52,0.50,0.85,0.58,BON SECOURS - DEPAUL MEDICAL CENTER
6.20,2.42,36.83716,-76.34786,40978.93,12694.50,0.50,0.68,0.96,BON SECOURS MARYVIEW MEDICAL CENTER
3.95,2.33,37.41368,-79.16870,24137.95,12016.26,0.50,0.70,0.58,CENTRA  HEALTH INC
6.44,2.55,38.31158,-77.48061,42755.84,13645.50,0.67,0.74,0.17,MARY WASHINGTON HOSPITAL INC
7.33,2.68,37.25129,-79.94125,49450.52,14600.48,0.50,0.61,0.01,CARILION ROANOKE MEMORIAL CENTER
7.99,3.49,37.54330,-77.42932,54415.91,20695.55,0.67,0.49,0.00,MEDICAL COLLEGE OF VIRGINIA HOSPITALS
7.55,2.25,37.14463,-76.51197,51127.57,11393.50,0.50,0.79,0.57,MARY IMMACULATE HOSPITAL
5.87,2.25,36.85098,-76.18989,38535.18,11418.64,0.50,0.65,0.76,SENTARA LEIGH HOSPITAL
8.74,2.23,37.26336,-80.03166,59978.70,11263.65,0.50,0.49,0.08,LEWISGALE MEDICAL CENTER
7.97,2.53,38.88916,-77.12796,54224.46,13461.18,1.00,0.57,0.58,VIRGINIA HOSPITAL CENTER - ARLINGTON
5.47,2.60,37.06523,-76.48417,35530.19,13974.42,0.50,0.69,0.45,RIVERSIDE REGIONAL MEDICAL CENTER
9.77,2.58,37.58440,-77.51252,67755.55,13896.19,0.50,0.66,0.70,BON SECOURS - ST MARYS HOSPITAL OF RICHMOND
5.49,2.79,38.85764,-77.22772,35659.05,15442.03,0.83,0.54,0.01,INOVA FAIRFAX HOSPITAL
4.27,2.28,37.05580,-76.39048,26549.15,11611.77,0.67,0.66,0.74,SENTARA CAREPLEX HOSPITAL
4.99,2.62,38.88483,-77.37995,31893.18,14197.42,0.50,0.75,0.94,INOVA FAIR OAKS HOSPITAL
6.68,2.61,38.96206,-77.36489,44608.04,14104.79,0.50,0.69,0.74,RESTON HOSPITAL CENTER
19.44,2.58,37.51021,-77.59525,140189.91,13896.55,0.83,0.53,0.32,CJW MEDICAL CENTER
5.56,2.50,38.63463,-77.28361,36203.83,13279.67,0.50,0.62,0.99,SENTARA POTOMAC HOSPITAL
5.45,2.25,36.74610,-76.24609,35343.80,11370.00,0.50,0.62,0.86,CHESAPEAKE REGIONAL MEDICAL CENTER
7.93,2.37,37.46807,-77.66143,53952.77,12276.77,0.50,0.62,0.70,BON SECOURS - ST FRANCIS MEDICAL CENTER
5.75,2.43,46.06348,-118.34082,37634.40,12755.90,0.00,0.00,0.00,PROVIDENCE ST MARY MEDICAL CENTER
12.73,2.65,46.59643,-120.52005,89930.77,14410.27,0.50,0.78,0.03,YAKIMA REGIONAL MEDICAL AND CARDIAC CENTER
5.68,2.62,47.40667,-120.32000,37082.84,14138.68,0.50,0.75,0.02,CENTRAL WASHINGTON HOSPITAL
9.76,2.99,47.05286,-122.84707,67649.37,16908.84,0.50,0.41,0.11,PROVIDENCE ST PETER HOSPITAL
10.60,2.71,47.60648,-122.31106,73939.61,14860.25,0.25,0.54,0.10,SWEDISH MEDICAL CENTER/CHERRY HILL
10.81,3.22,47.60869,-122.32128,75479.12,18618.75,0.33,0.56,0.14,SWEDISH MEDICAL CENTER
5.84,2.79,48.77371,-122.47344,38309.16,15448.57,0.50,0.68,0.33,ST JOSEPH MEDICAL CENTER
11.32,2.77,47.65191,-117.42329,79306.40,15316.60,0.50,0.57,0.14,DEACONESS HOSPITAL
7.02,2.70,45.62460,-122.58145,47138.54,14725.25,0.67,0.54,0.82,PEACEHEALTH SOUTHWEST MEDICAL CENTER
6.53,2.85,47.64936,-117.41194,43416.10,15859.76,0.67,0.76,0.33,PROVIDENCE SACRED HEART MEDICAL CENTER
6.31,2.97,46.28132,-119.28218,41805.85,16803.81,0.33,0.78,0.54,KADLEC REGIONAL MEDICAL CENTER
13.77,4.68,47.60351,-122.32305,97723.55,29562.36,0.67,0.53,0.00,HARBORVIEW MEDICAL CENTER
9.14,2.89,47.44243,-122.21392,63038.44,16181.41,0.50,0.55,0.48,VALLEY MEDICAL CENTER
12.41,2.78,47.24670,-122.44841,87481.29,15354.79,0.67,0.66,0.21,ST JOSEPH MEDICAL CENTER
6.35,2.79,47.71603,-122.17867,42081.57,15399.43,0.50,0.65,0.96,EVERGREEN HOSPITAL MEDICAL CENTER
13.70,2.99,47.25980,-122.45243,97148.95,16916.47,0.83,0.50,0.58,TACOMA GENERAL ALLENMORE HOSPITAL
8.40,2.64,47.04174,-122.95125,57477.86,14342.71,0.00,0.00,0.00,CAPITAL MEDICAL CENTER
5.07,2.57,47.43282,-120.32200,32528.55,13823.64,0.00,0.00,0.00,WENATCHEE VALLEY HOSPITAL
8.88,3.19,39.65498,-79.95814,61057.98,18398.12,0.83,0.31,0.05,WEST VIRGINIA UNIVERSITY HOSPITALS
4.51,2.58,38.43236,-82.40067,28301.17,13898.42,0.67,0.60,0.17,ST MARY'S MEDICAL CENTER
3.86,2.27,40.05809,-80.68471,23426.46,11516.38,0.67,0.69,0.30,WHEELING HOSPITAL
4.50,2.94,38.40959,-82.42708,28219.44,16550.11,0.50,0.51,0.08,CABELL-HUNTINGTON HOSPITAL INC
5.76,2.21,39.27035,-81.56026,37696.29,11082.45,0.50,0.51,0.11,CAMDEN CLARK MEDICAL CENTER
9.08,2.81,37.78754,-81.20183,62528.77,15577.77,0.67,0.74,0.83,RALEIGH GENERAL HOSPITAL
7.59,2.44,43.01152,-88.24308,51391.25,12849.55,0.50,0.55,0.25,WAUKESHA MEMORIAL HOSPITAL
10.51,3.56,44.79461,-91.51111,73300.25,21184.00,0.67,0.64,0.14,SACRED HEART HSPTL
6.60,2.37,44.96738,-89.66994,44008.27,12275.36,0.50,0.68,0.74,ASPIRUS WAUSAU HOSPITAL
7.20,2.94,44.67759,-90.17818,48478.00,16590.92,0.50,0.57,0.14,MINISTRY SAINT JOSEPH'S HOSPITAL
4.66,2.40,44.18700,-88.45431,29476.07,12495.40,0.75,0.84,0.01,THEDA CLARK MED CTR
5.97,2.82,43.06195,-87.87861,39243.64,15673.27,0.83,0.68,0.25,COLUMBIA ST MARYS HSPTL  MILW (COL & MILW CAMPUS)
4.95,2.59,43.05867,-89.40269,31589.54,13968.38,0.67,0.78,0.70,ST MARY'S HOSPITAL
5.66,3.24,43.07633,-89.43133,36906.53,18828.40,0.50,0.35,0.16,UNIVERSITY OF WI  HOSPITALS & CLINICS AUTHORITY
9.03,3.06,42.98958,-87.95079,62193.56,17420.19,0.50,0.65,0.38,AURORA ST LUKES MEDICAL CENTER
6.25,3.05,43.04008,-88.02523,41321.04,17386.24,0.67,0.36,0.11,FROEDTERT MEM LUTHERAN HSPTL
5.43,2.49,44.47472,-87.94018,35203.95,13178.98,0.50,0.68,0.89,AURORA BAYCARE MED CTR
8.89,3.48,42.84802,-106.30851,61162.86,20597.71,0.50,0.70,0.08,WYOMING MEDICAL CENTER
10.57,3.99,41.14037,-104.81660,73681.56,24457.94,0.50,0.70,0.33,CHEYENNE REGIONAL MEDICAL CENTER
6.79,2.26,42.84079,-106.22644,45372.36,11484.00,0.00,0.00,0.00,MOUNTAIN VIEW REGIONAL HOSPITAL
5.16,2.52,30.29626,-97.82532,33205.88,13417.21,0.00,0.00,0.00,THE HOSPITAL AT WESTLAKE MEDICAL CENTER
10.82,2.54,29.53410,-95.12601,75576.83,13562.58,0.00,0.00,0.00,HOUSTON PHYSICIANS' HOSPITAL
7.60,2.32,29.72406,-95.46114,51445.78,11914.71,0.00,0.00,0.00,FOUNDATION SURGICAL HOSPITAL
20.73,2.71,29.92585,-95.63108,149822.00,14824.96,0.50,0.81,0.94,NORTH CYPRESS MEDICAL CENTER
5.18,2.31,29.64125,-95.16176,33316.19,11838.62,0.50,0.79,0.07,ST LUKE'S PATIENTS MEDICAL CENTER
13.33,2.57,30.56899,-97.65104,94359.00,13758.47,0.75,0.91,0.30,SETON MEDICAL CENTER WILLIAMSON
9.65,2.36,29.61578,-98.47479,66822.68,12188.36,0.50,0.76,0.33,METHODIST STONE OAK HOSPITAL
9.49,3.74,30.20344,-95.45738,65597.86,22514.64,0.00,0.00,0.00,ST LUKES LAKESIDE HOSPITAL
8.41,2.40,33.04581,-97.06749,57571.18,12476.91,0.00,0.00,0.00,TEXAS HEALTH PRESBYTERIAN HOSPITAL FLOWER MOUND
4.05,2.40,32.98478,-96.82942,24905.91,12529.23,0.00,0.00,0.00,METHODIST HOSPITAL FOR SURGERY
