size_charge,size_pay,lat,lon,charge,pay,name
3.09,2.40,35.83746,-90.70386,19585.66,11520.02,ST BERNARDS MEDICAL CTR
6.52,2.38,36.18082,-94.13644,59580.00,11291.47,NW ARKANSAS HOSPITALS, LLC
4.63,2.33,34.46784,-93.06667,37535.52,10731.92,ST JOSEPHS MERCY HEALTH CENTER INC
2.95,2.25,36.34295,-92.39442,17975.68,9823.13,BAXTER REGIONAL MEDICAL CENTER
3.48,2.30,35.08546,-92.45774,24111.09,10381.23,CONWAY REGIONAL MEDICAL CENTER
3.36,2.26,34.77770,-92.12539,22739.88,9900.61,BAPTIST HEALTH MEDICAL CENTER NORTH LITTLE ROCK
3.38,2.31,36.05214,-90.49908,22933.33,10547.10,ARKANSAS METHODIST MEDICAL CENTER
4.42,2.33,35.28275,-93.14901,35100.08,10712.61,ST MARYS REGIONAL MEDICAL CENTER
4.49,2.59,35.14320,-90.18837,35849.32,13735.03,CRITTENDEN MEMORIAL HOSPITAL
3.35,2.36,33.57575,-92.83683,22670.30,11112.61,OUACHITA COUNTY MEDICAL CENTER
2.54,2.27,33.62900,-91.79096,13262.50,10084.83,DREW MEMORIAL HOSPITAL
3.78,2.35,35.37445,-94.41868,27683.33,11005.30,SPARKS REGIONAL MEDICAL CENTER
5.02,2.35,35.35395,-94.35262,42023.52,10951.90,ST EDWARD MERCY MEDICAL CENTER
2.68,2.32,33.27510,-93.24001,14790.00,10618.28,MAGNOLIA HOSPITAL
2.98,2.54,35.94320,-89.91713,18338.83,13185.83,GREAT RIVER MEDICAL CENTER
5.71,2.50,34.18894,-92.01886,50073.20,12757.49,JEFFERSON REGIONAL MEDICAL CENTER
2.43,2.33,34.51764,-91.55932,11874.65,10741.73,BAPTIST HEALTH MEDICAL CENTER-STUTTGART
3.01,2.21,34.87240,-92.12256,18670.00,9332.67,NORTH METRO MEDICAL CENTER
3.19,2.32,34.35877,-92.78638,20769.38,10609.56,HOT SPRING COUNTY MEDICAL CENTER
10.21,2.41,34.48600,-93.03521,102473.93,11713.69,NATIONAL PARK MEDICAL CENTER
6.18,2.30,35.60836,-91.26499,55562.38,10430.69,HARRIS HOSPITAL
3.52,2.29,34.57290,-92.58508,24630.25,10342.31,SALINE MEMORIAL HOSPITAL
4.44,2.40,34.51022,-90.62718,35342.69,11552.31,HELENA REGIONAL MEDICAL CENTER
6.53,2.42,33.22053,-92.67102,59594.82,11818.58,MEDICAL CENTER SOUTH ARKANSAS
3.09,2.30,33.64905,-93.58704,19661.63,10371.11,MEDICAL PARK HOSPITAL
4.58,2.35,34.74866,-92.35422,36982.15,11000.29,BAPTIST HEALTH MEDICAL CENTER-LITTLE ROCK
4.40,2.38,35.80838,-90.66658,34867.76,11365.48,NEA BAPTIST MEMORIAL HOSPITAL
4.86,2.43,35.76927,-91.63408,40176.83,11937.96,WHITE RIVER MEDICAL CENTER
4.04,2.24,34.73868,-92.39307,30628.82,9700.27,ARKANSAS HEART HOSPITAL
4.13,2.21,34.81290,-92.20814,31770.60,9390.80,ST VINCENT MEDICAL CENTER/NORTH
13.52,3.32,37.63362,-122.08802,140989.80,22282.28,ST ROSE HOSPITAL
6.53,2.69,40.78366,-124.14246,59645.69,14912.34,ST JOSEPH HOSPITAL
7.47,2.66,37.59283,-122.38249,70624.36,14588.57,PENINSULA MEDICAL CENTER
9.18,2.62,37.76862,-122.43525,90500.96,14112.60,CALIFORNIA PACIFIC MEDICAL CTR-DAVIES CAMPUS HOSP
8.80,2.86,38.32472,-122.29671,86105.75,16958.57,QUEEN OF THE VALLEY MEDICAL CENTER
7.85,2.84,38.54384,-122.47401,75024.98,16721.85,ST HELENA HOSPITAL
6.12,2.71,38.35073,-120.76468,54932.64,15225.64,SUTTER AMADOR HOSPITAL
6.46,2.51,35.11346,-120.59054,58872.83,12905.43,ARROYO GRANDE COMMUNITY HOSPITAL
8.12,2.78,38.57053,-121.45216,78183.76,15957.57,MERCY GENERAL HOSPITAL
5.49,3.19,34.06505,-118.23913,47486.30,20779.12,PACIFIC ALLIANCE MEDICAL CENTER
10.94,2.90,33.97659,-117.38184,111019.21,17346.20,RIVERSIDE COMMUNITY HOSPITAL
6.13,2.80,32.68425,-117.08161,55019.75,16208.40,PARADISE VALLEY HOSPITAL
6.48,3.30,32.75426,-117.16592,59058.25,22094.15,UNIVERSITY OF CALIFORNIA SAN DIEGO MEDICAL CENTER
7.60,2.60,32.77495,-117.01467,72148.02,13891.11,GROSSMONT HOSPITAL
4.76,2.59,40.89631,-124.09145,39090.75,13754.81,MAD RIVER COMMUNITY HOSPITAL
6.91,2.67,39.50528,-121.54100,64088.58,14674.92,OROVILLE HOSPITAL
9.62,2.74,35.38736,-119.01690,95605.88,15495.26,BAKERSFIELD MEMORIAL HOSPITAL
7.41,3.67,37.31288,-121.93329,69843.91,26335.78,SANTA CLARA VALLEY MEDICAL CENTER
8.12,2.57,39.74221,-121.85000,78186.68,13546.42,ENLOE MEDICAL CENTER
6.04,3.43,34.30238,-118.36957,53971.53,23620.80,LAC/OLIVE VIEW-UCLA MEDICAL CENTER
6.06,2.62,40.14813,-122.21934,54176.38,14174.56,ST ELIZABETH COMMUNITY HOSPITAL
11.09,3.26,37.82206,-122.26275,112672.71,21607.03,ALTA BATES SUMMIT MEDICAL CENTER
7.37,2.80,32.78037,-115.56848,69459.15,16232.41,EL CENTRO REGIONAL MEDICAL CENTER
10.04,3.33,37.79100,-122.43125,100561.63,22364.22,CALIFORNIA PACIFIC MEDICAL CTR-PACIFIC CAMPUS HOSP
4.93,2.67,33.93183,-116.94587,41083.41,14688.59,SAN GORGONIO MEMORIAL HOSPITAL
8.70,3.18,37.74717,-122.42088,84896.22,20643.36,CALIFORNIA PACIFIC MEDICAL CTR - ST. LUKE'S CAMPUS
6.27,2.87,34.67486,-118.15771,56615.57,17061.71,ANTELOPE VALLEY HOSPITAL MED CENTER
7.06,2.71,36.32737,-119.29548,65821.17,15148.27,KAWEAH DELTA MEDICAL CENTER
10.78,3.08,34.12834,-118.25777,109070.07,19468.12,GLENDALE MEM HOSPITAL & HLTH CENTER
5.89,2.96,36.73000,-119.78000,52154.65,18077.33,COMMUNITY REGIONAL MEDICAL CENTER
8.89,3.22,34.09643,-118.29103,87079.61,21101.04,HOLLYWOOD PRESBYTERIAN MEDICAL CENTER
4.74,2.57,37.75708,-120.86109,38847.36,13575.00,OAK VALLEY DISTRICT HOSPITAL
8.45,2.65,33.78036,-117.86495,82000.83,14478.01,ST JOSEPH HOSPITAL
5.06,2.65,37.65915,-122.43932,42491.87,14523.02,KAISER FOUNDATION HOSPITAL - SOUTH SAN FRANCISCO
6.16,3.20,37.33569,-121.99595,55366.23,20856.60,KAISER FOUNDATION HOSPITAL-SANTA CLARA
5.28,2.76,37.89135,-122.05971,45148.69,15757.64,KAISER FOUNDATION HOSPITAL - WALNUT CREEK
5.78,2.68,38.12852,-122.24704,50870.00,14813.95,KAISER FOUNDATION HOSPITAL AND REHAB CENTER
5.80,2.84,37.82448,-122.25759,51097.40,16672.86,KAISER FOUNDATION HOSPITAL OAKLAND/RICHMOND
6.88,2.82,37.78248,-122.44290,63734.04,16507.00,KAISER FOUNDATION HOSPITAL - SAN FRANCISCO
8.30,2.84,32.75143,-117.16083,80304.96,16654.90,SCRIPPS MERCY HOSPITAL
10.53,2.67,33.73798,-118.30525,106184.85,14676.24,PROVIDENCE LITTLE CO OF MARY MED CTR SAN PEDRO
11.58,3.13,37.95337,-122.33672,118468.98,20091.59,DOCTORS MEDICAL CENTER-SAN PABLO
9.09,2.73,34.21674,-119.15631,89432.21,15437.94,ST JOHNS REGIONAL MEDICAL CENTER
10.01,2.81,37.96987,-121.28873,100107.62,16319.39,ST JOSEPHS MED CENTER OF STOCKTON
9.84,3.08,34.13101,-117.32181,98211.93,19476.54,COMMUNITY HOSPITAL OF SAN BERNARDINO
5.40,2.64,38.28820,-122.46533,46512.22,14418.81,SONOMA VALLEY HOSPITAL
7.12,2.99,33.98932,-118.22426,66573.30,18442.85,COMMUNITY AND MISSION  HOSPITAL OF HUNTINGTON PARK
6.67,2.66,36.83532,-119.76562,61243.49,14628.45,SAINT AGNES MEDICAL CENTER
6.58,2.55,34.10130,-117.63651,60247.73,13275.01,SAN ANTONIO COMMUNITY HOSPITAL
7.30,2.71,32.79949,-117.15394,68631.49,15195.57,SHARP MEMORIAL HOSPITAL
9.91,3.01,38.13118,-122.23732,98971.51,18675.97,SUTTER SOLANO MEDICAL CENTER
8.39,2.84,33.92798,-117.43847,81311.10,16692.71,PARKVIEW COMMUNITY HOSPITAL MEDICAL CENTER
11.56,3.19,34.04932,-118.21746,118173.74,20769.62,WHITE MEMORIAL MEDICAL CENTER
8.78,3.27,33.92963,-118.20332,85799.06,21679.28,SAINT FRANCIS MEDICAL CENTER
6.78,2.68,34.95099,-120.41322,62579.74,14805.41,MARIAN MEDICAL CENTER
9.81,2.98,38.57155,-121.46874,97796.87,18337.05,SUTTER GENERAL HOSPITAL
3.21,2.63,34.64075,-120.43958,21025.21,14205.07,LOMPOC VALLEY MEDICAL CENTER
7.15,2.91,34.07558,-118.28424,66865.57,17461.67,TEMPLE COMMUNITY HOSPITAL
9.86,2.90,34.02685,-118.48651,98405.27,17374.43,SANTA MONICA - UCLA MED CTR & ORTHOPAEDIC HOSPITAL
6.35,2.54,33.12535,-117.07336,57546.33,13241.41,PALOMAR MEDICAL CENTER
10.66,2.80,34.22014,-118.53410,107704.11,16251.12,NORTHRIDGE HOSPITAL MEDICAL CENTER
14.54,2.56,37.80132,-121.19690,152827.65,13469.09,DOCTORS HOSPITAL OF MANTECA
6.92,2.81,36.32362,-119.66726,64153.92,16343.98,ADVENTIST MEDICAL CENTER
11.62,2.78,37.96125,-121.30103,118859.05,16055.67,DAMERON HOSPITAL
6.17,2.51,34.20495,-118.21589,55412.11,12849.40,VERDUGO HILLS HOSPITAL
15.12,3.39,37.36257,-121.84974,159581.17,23057.16,REGIONAL MEDICAL CENTER OF SAN JOSE
7.51,2.90,34.19494,-118.46319,71001.20,17349.16,VALLEY PRESBYTERIAN HOSPITAL
7.29,2.66,38.66404,-121.79212,68518.59,14613.46,WOODLAND MEMORIAL HOSPITAL
6.56,2.63,33.18402,-117.29661,60014.98,14206.23,TRI-CITY MEDICAL CENTER
7.76,2.72,34.13495,-117.27603,73961.55,15289.79,ST BERNARDINE MEDICAL CENTER
8.44,2.68,38.09906,-122.56011,81927.20,14803.83,NOVATO COMMUNITY HOSPITAL
14.24,3.11,34.10081,-118.10588,149356.41,19827.14,SAN GABRIEL VALLEY MEDICAL CENTER
8.73,2.96,39.13822,-121.59436,85206.57,18135.96,RIDEOUT MEMORIAL HOSPITAL
6.86,3.02,34.09638,-118.32518,63531.17,18844.03,HOLLYWOOD COMMUNITY HOSPITAL OF HOLLYWOOD
8.62,2.73,38.25455,-122.63177,83965.92,15444.91,PETALUMA VALLEY HOSPITAL
4.01,2.29,34.22143,-118.43018,30260.12,10273.52,KAISER FOUNDATION HOSPITAL - PANORAMA CITY
5.12,2.71,34.09816,-118.29541,43262.04,15167.92,KAISER FOUNDATION HOSPITAL - LOS ANGELES
3.57,2.30,33.91909,-118.12873,25242.60,10459.29,KAISER FOUNDATION HOSPITAL - DOWNEY
4.43,2.54,34.07225,-117.43197,35209.10,13219.70,KAISER FOUNDATION HOSPITAL FONTANA
8.30,3.14,36.57886,-121.91316,80219.04,20180.42,COMMUNITY HOSPITAL OF THE MONTEREY PENINSULA
6.81,3.20,34.03705,-118.26575,62939.08,20862.89,CALIFORNIA HOSPITAL MEDICAL CENTER LA
5.94,2.56,39.22809,-121.04721,52795.77,13455.95,SIERRA NEVADA MEMORIAL HOSPITAL
11.11,3.16,37.78963,-122.41700,112907.59,20415.84,SAINT FRANCIS MEMORIAL HOSPITAL
10.44,3.01,37.32710,-121.93863,105106.79,18722.35,O'CONNOR HOSPITAL
7.42,2.46,34.15804,-118.48755,69966.56,12222.46,ENCINO HOSPITAL MEDICAL CENTER
7.22,3.11,34.28029,-119.25410,67631.29,19813.39,VENTURA COUNTY MEDICAL CENTER
7.60,3.39,37.88664,-121.28308,72084.73,23070.22,SAN JOAQUIN GENERAL HOSPITAL
8.40,2.57,33.89465,-117.92716,81454.60,13544.65,ST JUDE MEDICAL CENTER
11.14,2.64,33.96860,-118.04831,113338.21,14397.71,PRESBYTERIAN INTERCOMMUNITY HOSPITAL
9.13,2.82,38.44369,-122.70138,89885.26,16506.95,SANTA ROSA MEMORIAL HOSPITAL
11.84,2.73,37.51164,-120.83800,121437.23,15385.27,EMANUEL MEDICAL CENTER INC
16.86,3.33,37.91341,-122.04163,179885.78,22359.73,JOHN MUIR MEDICAL CENTER - WALNUT CREEK CAMPUS
9.28,3.03,33.77991,-118.18602,91689.78,18961.55,ST MARY MEDICAL CENTER
16.88,3.35,36.92821,-121.79360,180118.16,22627.25,WATSONVILLE COMMUNITY HOSPITAL
17.59,3.29,37.55717,-121.98126,188365.91,21878.98,WASHINGTON HOSPITAL
14.20,2.89,37.48000,-122.25441,148954.31,17260.27,SEQUOIA HOSPITAL
7.87,2.61,34.58305,-118.14490,75243.77,13989.28,PALMDALE REGIONAL MEDICAL CENTER
7.91,2.78,34.12865,-117.86501,75709.61,15945.15,EAST VALLEY HOSPITAL MEDICAL CENTER
6.65,2.88,37.76288,-122.25412,61084.73,17116.18,ALAMEDA HOSPITAL
5.82,2.79,33.91255,-118.09846,51389.80,16061.07,COAST PLAZA HOSPITAL
10.54,2.80,32.61972,-117.02278,106270.52,16187.69,SHARP CHULA VISTA MEDICAL CENTER
5.97,2.51,33.62229,-117.92995,53171.20,12824.97,HOAG MEMORIAL HOSPITAL PRESBYTERIAN
11.98,2.56,39.75720,-121.57018,123125.22,13475.54,FEATHER RIVER HOSPITAL
9.95,2.61,33.84780,-117.93661,99471.30,14063.32,AHMC ANAHEIM REGIONAL MEDICAL CENTER
12.02,4.17,37.75676,-122.40461,123591.43,32192.30,SAN FRANCISCO GENERAL HOSPITAL
7.54,3.05,33.77483,-117.91329,71444.43,19165.18,GARDEN GROVE HOSPITAL & MEDICAL CENTER
12.55,2.98,34.07709,-117.75063,129673.24,18384.37,POMONA VALLEY HOSPITAL MEDICAL CENTER
7.26,2.47,35.27882,-120.65047,68140.31,12363.41,FRENCH HOSPITAL MEDICAL CENTER
6.76,2.40,32.69430,-117.16793,62337.10,11588.44,SHARP CORONADO HOSPITAL AND HLTHCR CTR
12.94,2.71,34.15601,-118.32834,134309.76,15180.01,PROVIDENCE SAINT JOSEPH MEDICAL CTR
9.81,2.71,34.28920,-118.74484,97844.35,15176.78,SIMI VALLEY HOSPITAL & HEALTH CARE SERVICES
8.39,2.72,34.13973,-118.03534,81272.96,15286.91,METHODIST HOSPITAL OF SOUTHERN CA
12.64,3.20,34.14987,-118.23117,130798.67,20896.28,GLENDALE ADVENTIST MEDICAL CENTER
12.44,3.08,36.98999,-121.98357,128488.51,19535.41,DOMINICAN HOSPITAL
12.82,2.72,33.83862,-116.54557,132919.82,15345.75,DESERT REGIONAL MEDICAL CENTER
6.10,3.26,34.07389,-117.35111,54628.86,21555.36,ARROWHEAD REGIONAL MEDICAL CENTER
9.92,2.79,38.72562,-120.79096,99121.29,16100.81,MARSHALL MEDICAL CENTER (1-RH)
7.09,2.77,36.06956,-119.02748,66127.89,15887.51,SIERRA VIEW DISTRICT HOSPITAL
8.90,3.67,34.06675,-118.44613,87210.77,26410.59,RONALD REAGAN UCLA MEDICAL CENTER
7.05,2.85,37.71291,-122.14320,65652.75,16832.00,SAN LEANDRO HOSPITAL
7.67,2.54,34.03721,-117.20474,72940.25,13237.61,REDLANDS COMMUNITY HOSPITAL
8.39,4.61,38.00655,-122.13312,81323.09,37267.91,CONTRA COSTA REGIONAL MEDICAL CENTER
9.98,3.07,33.80733,-118.19305,99793.25,19420.43,PACIFIC HOSPITAL OF LONG BEACH
16.25,2.92,34.27915,-118.46006,172740.46,17593.31,PROVIDENCE HOLY CROSS MEDICAL CENTER
5.37,2.73,34.13075,-116.27502,46148.49,15388.71,HI-DESERT MEDICAL CENTER
6.78,2.71,40.58654,-122.39168,62534.05,15217.90,MERCY MEDICAL CENTER REDDING
9.23,2.98,34.09049,-118.14410,91093.54,18300.44,ALHAMBRA HOSPITAL MEDICAL CENTER
11.15,2.80,37.69502,-121.88095,113386.76,16238.46,VALLEYCARE MEDICAL CENTER
14.73,3.17,37.67947,-122.47447,155043.62,20588.02,SETON MEDICAL CENTER
6.69,2.47,34.03009,-118.47833,61470.38,12368.37,SAINT JOHN'S HEALTH CENTER
9.33,3.27,38.46964,-122.70746,92295.87,21675.65,SUTTER MEDICAL CENTER OF SANTA ROSA
8.69,3.13,33.91173,-117.19590,84777.16,20103.33,RIVERSIDE COUNTY REGIONAL MEDICAL CENTER
8.98,2.59,35.37279,-119.02817,88127.11,13822.57,MERCY HOSPITAL
5.84,2.95,36.83491,-121.38651,51648.68,17943.36,HAZEL HAWKINS MEMORIAL HOSPITAL
8.54,2.79,34.89341,-117.01930,83007.73,16130.44,BARSTOW COMMUNITY HOSPITAL
7.55,2.72,34.50107,-117.17285,71579.89,15319.52,ST MARY MEDICAL CENTER
4.60,2.63,39.15350,-123.20435,37223.40,14203.00,UKIAH VALLEY MEDICAL CENTER/HOSPITAL D
10.27,3.18,37.85593,-122.25730,103149.42,20628.50,ALTA BATES SUMMIT MEDICAL CENTER - ALTA BATES CAMP
9.03,2.82,37.36934,-122.08047,88761.14,16458.20,EL CAMINO HOSPITAL
6.94,2.62,38.76514,-121.24979,64476.10,14081.72,SUTTER ROSEVILLE MEDICAL CENTER
8.26,2.78,37.74409,-121.43469,79832.69,15970.95,SUTTER TRACY COMMUNITY HOSPITAL
8.29,3.93,37.79943,-122.23307,80178.39,29399.82,ALAMEDA COUNTY MEDICAL CENTER
7.84,2.46,32.88461,-117.22244,74848.98,12310.15,SCRIPPS MEMORIAL HOSPITAL LA JOLLA
8.92,3.39,34.05076,-117.26395,87515.16,23099.37,LOMA LINDA UNIVERSITY MEDICAL CENTER
6.33,2.68,33.87236,-117.56809,57333.29,14785.59,CORONA REGIONAL MEDICAL CENTER
9.36,3.39,36.65910,-121.64630,92629.42,23125.06,SALINAS VALLEY MEMORIAL HOSPITAL
8.36,2.81,37.97780,-120.37150,80987.78,16291.78,SONORA REGIONAL MEDICAL CENTER
13.58,2.65,38.12186,-121.28665,141759.51,14495.10,LODI MEMORIAL HOSPITAL
6.71,2.79,32.95813,-115.55388,61727.59,16116.71,PIONEERS MEMORIAL HEALTHCARE DISTRICT
13.61,3.62,33.78798,-117.89026,142093.65,25730.44,UNIVERSITY OF CALIFORNIA IRVINE MED CENTER
4.99,2.83,34.01501,-118.10064,41668.02,16601.04,BEVERLY HOSPITAL
10.25,2.65,33.81131,-118.34364,102906.46,14466.06,TORRANCE MEMORIAL MEDICAL CENTER
6.77,3.08,38.91161,-119.99760,62495.16,19493.16,BARTON MEMORIAL HOSPITAL
9.37,2.57,33.83891,-118.35677,92706.45,13517.55,PROVIDENCE LITTLE COMPANY OF MARY MED CTR TORRANCE
5.37,2.34,34.43343,-119.81039,46144.23,10922.38,GOLETA VALLEY COTTAGE HOSPITAL
5.17,2.70,36.22008,-119.33764,43832.65,15088.32,TULARE REGIONAL MEDICAL CENTER
12.87,3.07,37.94748,-122.53677,133491.13,19340.56,MARIN GENERAL HOSPITAL
18.84,3.49,38.26174,-122.04662,202964.24,24220.17,NORTHBAY MEDICAL CENTER
12.52,4.26,34.06034,-118.21014,129322.28,33244.94,LAC+USC MEDICAL CENTER
5.76,3.48,33.83043,-118.29402,50715.59,24196.36,LAC/HARBOR-UCLA MED CENTER
3.92,3.05,34.24018,-118.39632,29270.73,19174.14,PACIFICA HOSPITAL OF THE VALLEY
10.52,2.84,37.25153,-121.94684,106106.02,16742.84,GOOD SAMARITAN HOSPITAL
6.17,2.88,34.08802,-117.89341,55488.62,17155.24,CITRUS VALLEY MEDICAL CENTER-IC CAMPUS
4.33,2.75,38.39711,-122.81924,34021.33,15675.15,PALM DRIVE HOSPITAL
5.48,2.56,33.75117,-116.96028,47447.51,13448.60,HEMET VALLEY MEDICAL CENTER
10.36,2.77,33.93530,-118.13030,104175.27,15879.44,DOWNEY REGIONAL MEDICAL CENTER
9.18,2.63,34.27459,-119.25812,90526.72,14211.89,COMMUNITY MEMORIAL HOSPITAL SAN BUENAVENTURA
8.66,2.81,34.42951,-119.72333,84460.35,16397.10,SANTA BARBARA COTTAGE HOSPITAL
4.59,2.41,33.78899,-118.29401,37105.17,11708.97,KAISER FOUNDATION HOSPITAL - SOUTH BAY
7.29,2.57,38.67039,-121.14552,68441.88,13544.08,MERCY HOSPITAL OF FOLSOM
5.58,2.85,41.77451,-124.19400,48555.40,16851.80,SUTTER COAST HOSPITAL
4.94,3.13,33.61289,-114.59498,41150.09,20026.27,PALO VERDE HOSPITAL
6.39,2.65,32.89810,-117.24217,57999.90,14446.60,SCRIPPS GREEN HOSPITAL
4.48,2.56,38.60127,-121.39412,35792.02,13454.65,KAISER FOUNDATION HOSPITAL - SACRAMENTO
6.26,2.59,33.82557,-117.99493,56461.16,13839.40,WEST ANAHEIM MEDICAL CENTER
5.92,2.57,33.38091,-117.24446,52545.41,13540.30,FALLBROOK HOSPITAL
10.20,2.80,34.13364,-118.15275,102372.57,16189.64,HUNTINGTON MEMORIAL HOSPITAL
17.28,4.17,37.43436,-122.18013,184766.06,32173.19,STANFORD HOSPITAL
8.63,2.90,37.34027,-120.46817,84110.94,17405.39,MERCY MEDICAL CENTER
6.24,2.95,35.64086,-117.67119,56316.23,18020.13,RIDGECREST REGIONAL HOSPITAL
12.81,3.82,37.76421,-122.45716,132795.15,28162.90,UCSF MEDICAL CENTER
8.23,2.67,35.38338,-119.01969,79448.81,14699.82,SAN JOAQUIN COMMUNITY HOSPITAL
8.77,2.91,37.77449,-122.45429,85728.88,17557.43,ST MARY'S MEDICAL CENTER
19.12,2.97,37.66540,-120.99743,206138.32,18205.88,DOCTORS MEDICAL CENTER
5.86,2.86,33.89307,-118.29506,51907.98,16885.94,MEMORIAL HOSPITAL OF GARDENA
10.33,2.99,34.05336,-118.26558,103848.67,18421.61,GOOD SAMARITAN HOSPITAL
13.09,2.72,34.20285,-118.62962,135949.96,15264.37,WEST HILLS HOSPITAL & MEDICAL CENTER
7.66,2.77,33.80861,-118.18661,72823.20,15866.17,LONG BEACH MEMORIAL MEDICAL CENTER
8.34,2.88,37.69824,-122.08730,80723.14,17148.40,EDEN MEDICAL CENTER
6.52,2.54,36.83863,-119.66183,59480.93,13246.21,CLOVIS COMMUNITY MEDICAL CENTER
13.85,2.88,37.98396,-122.03464,144828.55,17213.36,JOHN MUIR MEDICAL CENTER - CONCORD CAMPUS
6.63,2.62,38.94514,-121.10174,60849.00,14151.79,SUTTER AUBURN FAITH HOSPITAL
9.44,3.10,34.06389,-118.27347,93552.49,19702.61,SAINT VINCENT MEDICAL CENTER
6.92,2.55,33.03634,-117.28487,64191.81,13364.53,SCRIPPS MEMORIAL HOSPITAL - ENCINITAS
12.50,2.65,35.29188,-120.66635,129181.45,14442.93,SIERRA VISTA REGIONAL MEDICAL CENTER
3.83,2.61,38.00584,-122.55492,28275.75,14060.54,KAISER FOUNDATION HOSPITAL
4.67,2.67,37.63058,-122.09502,38011.46,14731.59,KAISER FOUNDATION HOSPITAL FREMONT/HAYWARD
4.78,2.43,32.79197,-117.09498,39281.38,11965.81,KAISER FOUNDATION HOSPITAL - SAN DIEGO
7.94,2.77,38.66956,-121.31378,76116.18,15869.07,MERCY SAN JUAN MEDICAL CENTER
6.57,2.84,34.52856,-117.29305,60168.89,16647.79,VICTOR VALLEY COMMUNITY HOSPITAL
9.97,3.05,37.98224,-121.80362,99653.94,19137.31,SUTTER DELTA MEDICAL CENTER
7.31,2.63,33.70376,-117.98776,68701.53,14231.57,HUNTINGTON BEACH HOSPITAL
7.34,4.79,37.06419,-120.85958,69103.15,39366.23,MEMORIAL HOSPITAL LOS BANOS
7.10,2.95,33.87472,-118.14862,66227.08,18003.77,BELLFLOWER MEDICAL CENTER
11.04,2.92,33.68179,-116.23394,112156.72,17611.09,JOHN F KENNEDY MEMORIAL HOSPITAL, INC
5.35,2.54,38.56276,-121.77207,45862.38,13184.35,SUTTER DAVIS HOSPITAL
4.49,2.67,37.48897,-122.22322,35876.96,14760.88,KAISER FOUNDATION HOSPITAL - REDWOOD CITY
12.34,2.92,34.20777,-118.88305,127260.00,17615.34,LOS ROBLES HOSPITAL & MEDICAL CENTER
13.22,2.54,33.80441,-118.06665,137516.84,13162.87,LOS ALAMITOS MEDICAL CENTER
10.31,2.65,37.66867,-120.97339,103692.88,14539.40,MEMORIAL  MEDICAL CENTER
4.43,2.43,34.03868,-118.37516,35199.11,11929.82,KAISER FOUNDATION HOSPITAL - WEST LA
9.89,2.66,33.56100,-117.66530,98809.44,14640.64,MISSION HOSPITAL REGIONAL MED CENTER
4.93,2.93,36.94433,-120.04507,40968.75,17720.04,MADERA COMMUNITY HOSPITAL
11.05,2.99,33.71466,-117.93322,112292.75,18468.66,FOUNTAIN VALLEY REGIONAL HOSPITAL & MEDICAL CENTER
11.50,2.52,33.76335,-116.40628,117452.25,12987.93,EISENHOWER MEDICAL CENTER
7.66,2.74,33.83340,-118.08118,72831.31,15485.44,TRI-CITY REGIONAL MEDICAL CENTER
6.67,2.79,33.84753,-118.03841,61233.80,16169.90,LA PALMA INTERCOMMUNITY HOSPITAL
12.07,2.72,33.84932,-118.15323,124097.19,15272.50,LAKEWOOD REGIONAL MEDICAL CENTER
4.59,2.67,34.02561,-117.68583,37062.97,14701.39,CHINO VALLEY MEDICAL CENTER
7.72,2.49,34.09764,-117.83444,73498.89,12619.93,SAN DIMAS COMMUNITY HOSPITAL
10.03,2.53,33.88515,-117.84346,100345.08,13080.21,PLACENTIA LINDA HOSPITAL
8.67,3.00,38.46387,-121.41645,84506.59,18540.22,METHODIST HOSPITAL OF SACRAMENTO
5.64,2.62,34.13289,-117.87121,49265.36,14121.76,FOOTHILL PRESBYTERIAN HOSPITAL
11.81,3.40,38.55484,-121.45628,121087.36,23214.12,UNIVERSITY OF CALIFORNIA DAVIS MEDICAL CENTER
7.72,2.53,33.60883,-117.70881,73445.11,13041.47,SADDLEBACK MEMORIAL MEDICAL CENTER
4.86,2.69,37.23946,-121.80035,40235.68,14942.64,KAISER FOUNDATION HOSPITAL-SAN JOSE
4.71,2.55,33.85375,-117.81651,38463.32,13328.95,KAISER FOUNDATION HOSPITAL ANAHEIM
9.24,2.54,34.24359,-119.01992,91170.47,13212.72,ST JOHNS PLEASANT VALLEY HOSPITAL
11.69,2.61,34.39755,-118.55330,119702.51,14040.70,HENRY MAYO NEWHALL MEMORIAL HOSPITAL
15.99,3.44,34.07664,-118.37955,169799.70,23715.44,CEDARS-SINAI MEDICAL CENTER
13.03,2.65,35.55536,-120.72067,135285.11,14436.50,TWIN CITIES COMMUNITY HOSPITAL
6.33,2.53,32.99711,-117.05783,57311.40,13063.12,POMERADO HOSPITAL
7.24,3.09,34.02391,-118.18386,67962.20,19598.89,EAST LOS ANGELES DOCTORS HOSPITAL
8.13,2.92,34.03556,-118.30962,78270.04,17676.29,LOS ANGELES METROPOLITAN MEDICAL CTR
7.10,3.04,34.01936,-118.18661,66243.72,18972.08,LOS ANGELES COMMUNITY HOSPITAL
4.72,2.63,38.46958,-121.41947,38538.16,14202.27,KAISER FOUNDATION HOSP SO SACRAMENTO
4.78,2.62,34.17099,-118.58974,39274.60,14177.67,KAISER FOUNDATION HOSPITAL - WOODLAND HILLS
9.04,2.59,33.70167,-117.95566,88842.82,13778.54,ORANGE COAST MEMORIAL MEDICAL CENTER
18.79,3.07,38.35586,-121.95196,202368.43,19358.14,NORTHBAY VACAVALLEY HOSPITAL
6.73,2.50,33.71818,-117.16690,61987.87,12764.00,MENIFEE VALLEY MEDICAL CENTER
3.45,2.47,33.90752,-117.46879,23793.52,12349.55,KAISER FOUNDATION HOSPITAL, RIVERSIDE
10.58,3.04,37.03560,-121.57109,106817.20,18986.68,SAINT LOUISE REGIONAL HOSPITAL
11.42,2.78,37.77577,-121.95824,116525.79,15972.46,SAN RAMON REGIONAL MEDICAL CTR
4.50,2.67,38.47149,-122.72640,36001.79,14761.93,KAISER FOUNDATION HOSPITAL-SANTA ROSA
20.00,4.42,34.06193,-118.20157,216438.29,35090.67,KECK HOSPITAL OF USC
6.06,2.65,33.55876,-117.18329,54201.61,14476.99,SOUTHWEST HEALTHCARE SYSTEM
4.56,2.93,34.22139,-118.45660,36760.79,17775.70,MISSION COMMUNITY HOSPITAL - PANORAMA
5.79,2.51,34.47174,-117.29791,51065.71,12862.59,DESERT VALLEY HOSPITAL
3.48,2.34,34.06538,-117.98588,24175.75,10824.50,KAISER FOUNDATION HOSPITAL - BALDWIN PARK
7.02,2.48,35.38506,-119.03992,65333.49,12528.99,BAKERSFIELD HEART HOSPITAL
9.43,2.50,33.78824,-118.14563,93358.17,12768.20,COMMUNITY HOSPITAL OF LONG BEACH
10.04,2.87,33.95038,-118.00463,100526.31,17105.78,WHITTIER HOSPITAL MEDICAL CENTER
13.57,3.10,34.04924,-118.13842,141604.63,19729.40,MONTEREY PARK HOSPITAL
17.07,3.37,34.06760,-118.12291,182286.87,22856.26,GARFIELD MEDICAL CENTER
9.30,3.00,34.04777,-118.04344,91859.88,18598.92,GREATER EL MONTE COMMUNITY HOSPITAL
9.74,2.78,33.95076,-118.34828,97071.34,16014.95,CENTINELA HOSPITAL MEDICAL CENTER
8.99,2.48,33.98219,-118.43930,88285.76,12547.43,MARINA DEL REY HOSPITAL
13.61,2.61,34.05723,-118.36025,142032.25,13969.46,OLYMPIA MEDICAL CENTER
7.58,2.85,33.81982,-117.90902,71925.39,16833.87,WESTERN MEDICAL CENTER HOSP ANAHEIM
7.08,2.44,33.78873,-117.82639,66101.05,12085.38,CHAPMAN MEDICAL CENTER
7.81,2.88,33.75286,-117.83409,74564.49,17176.35,WESTERN MEDICAL CENTER SANTA ANA
9.05,3.09,33.71025,-117.88493,88983.48,19611.65,COASTAL COMMUNITIES HOSPITAL
5.21,2.35,37.79809,-121.24610,44299.46,11035.31,KAISER FOUNDATION HOSPITAL MANTECA
9.64,2.67,34.02303,-118.39741,95857.91,14686.70,BROTMAN MEDICAL CENTER
6.82,2.77,34.16028,-118.44948,63076.44,15903.45,SHERMAN OAKS HOSPITAL
6.26,2.53,32.77629,-117.05730,56532.82,13104.80,ALVARADO HOSPITAL MEDICAL CENTER
4.95,2.82,34.07861,-117.69582,41304.11,16522.66,MONTCLAIR HOSPITAL MEDICAL CENTER
5.59,2.71,37.95186,-121.77704,48669.58,15132.00,KAISER FOUNDATION HOSPITAL - ANTIOCH
12.75,2.71,34.17067,-118.53200,132047.24,15232.86,PROVIDENCE TARZANA MEDICAL CENTER
7.19,3.20,34.06958,-118.26344,67370.40,20861.57,SILVER LAKE MEDICAL CENTER
7.73,2.64,40.58532,-122.38702,73606.63,14337.10,SHASTA REGIONAL MEDICAL CENTER
4.98,2.38,33.89740,-117.18603,41619.06,11294.69,KAISER FOUNDATION HOSPITAL-MORENO VALLEY
5.02,2.35,33.81559,-118.00704,42052.18,10940.45,ANAHEIM GENERAL HOSPITAL
4.76,2.50,40.41481,-104.70890,39083.03,12704.88,NORTH COLORADO MEDICAL CENTER
8.41,2.78,40.18134,-105.12769,81478.16,15961.61,LONGMONT UNITED HOSPITAL
4.34,2.53,39.96455,-104.76855,34167.00,13096.18,PLATTE VALLEY MEDICAL CENTER
3.49,2.35,38.48040,-107.86857,24270.38,10982.15,MONTROSE MEMORIAL HOSPITAL
3.45,2.40,37.47150,-105.88350,23761.93,11621.56,SAN LUIS VALLEY REGIONAL MEDICAL CENTER
6.79,2.44,39.76893,-105.09006,62644.61,12088.49,EXEMPLA LUTHERAN MEDICAL CENTER
5.72,2.58,40.57315,-105.05741,50275.39,13710.66,POUDRE VALLEY HOSPITAL
6.23,3.16,39.72730,-104.99157,56179.56,20474.74,DENVER HEALTH MEDICAL CENTER
5.97,2.42,38.23421,-104.62292,53115.00,11783.67,CENTURA HEALTH-ST MARY CORWIN MEDICAL CENTER
4.40,2.63,37.23629,-107.82578,34856.42,14233.76,MERCY REGIONAL MEDICAL CENTER
9.54,2.98,39.74615,-104.96682,94689.84,18372.20,PRESBYTERIAN/ST LUKE'S MEDICAL CENTER
6.94,2.44,39.71712,-105.12874,64445.41,12032.92,CENTURA HEALTH-ST ANTHONY HOSPITAL
4.08,2.48,38.45565,-105.23021,31172.43,12515.33,CENTURA HEALTH-ST THOMAS MORE HOSPITAL
5.45,2.39,38.28184,-104.61256,47036.70,11500.80,PARKVIEW MEDICAL CENTER INC
6.32,2.53,38.83903,-104.80024,57255.06,13080.63,MEMORIAL HOSPITAL CENTRAL
5.38,2.57,39.09046,-108.56190,46268.97,13550.21,ST MARYS HOSPITAL AND MEDICAL CENTER
6.62,3.05,39.74234,-104.84156,60651.29,19166.68,UNIVERSITY OF COLORADO HOSPITAL ANSCHUTZ INPATIENT
5.38,2.34,40.02615,-105.28391,46221.25,10914.34,BOULDER COMMUNITY HOSPITAL
5.17,2.51,39.74601,-104.96909,43864.16,12885.38,EXEMPLA SAINT JOSEPH HOSPITAL
4.08,2.37,40.41320,-105.05139,31178.69,11272.95,MCKEE MEDICAL CENTER
5.37,2.37,38.86559,-104.82182,46154.66,11200.47,CENTURA HEALTH-PENROSE ST FRANCIS HEALTH SERVICES
8.10,2.54,39.73231,-104.93396,77870.14,13158.69,ROSE MEDICAL CENTER
10.12,2.57,39.65399,-104.98116,101432.52,13534.11,SWEDISH MEDICAL CENTER
4.06,2.56,40.26035,-103.79536,30941.45,13390.55,COLORADO PLAINS MEDICAL CENTER
3.20,2.29,39.08601,-108.55355,20910.46,10241.15,COMMUNITY HOSPITAL
6.03,2.45,39.67005,-104.97490,53799.22,12173.85,CENTURA HEALTH-PORTER ADVENTIST HOSPITAL
6.42,2.45,39.86430,-104.98481,58339.98,12181.06,NORTH SUBURBAN MEDICAL CENTER
4.99,2.96,39.53243,-107.32158,41691.74,18094.71,VALLEY VIEW HOSPITAL ASSOCIATION
4.39,2.81,40.61244,-103.22063,34722.43,16338.00,STERLING REGIONAL MEDCENTER
7.88,2.46,39.68859,-104.83205,75379.97,12287.89,MEDICAL CENTER OF AURORA, THE
4.98,2.44,39.95164,-105.15158,41571.69,12023.38,CENTURA HEALTH-AVISTA ADVENTIST HOSPITAL
5.86,2.54,39.84960,-105.01825,51835.76,13255.18,CENTURA HEALTH-ST ANTHONY NORTH HOSPITAL
7.27,2.37,39.52910,-104.87121,68316.44,11231.58,SKY RIDGE MEDICAL CENTER
8.75,2.40,39.57629,-104.98610,85496.98,11599.71,CENTURA HEALTH-LITTLETON ADVENTIST HOSPITAL
6.69,2.35,39.54881,-104.77119,61486.49,10945.86,PARKER ADVENTIST HOSPITAL
5.70,2.39,39.97043,-105.08661,50046.17,11474.83,EXEMPLA GOOD SAMARITAN MEDICAL CENTER LLC
4.97,2.54,40.45184,-105.19608,41495.12,13174.06,MEDICAL CENTER OF THE ROCKIES
6.44,2.78,41.30978,-72.93806,58638.71,16055.88,HOSPITAL OF ST RAPHAEL
5.81,3.03,41.77507,-72.69941,51323.62,18857.19,ST FRANCIS HOSPITAL & MEDICAL CENTER
2.82,2.44,41.90922,-71.91467,16439.12,12042.02,DAY KIMBALL HOSPITAL
4.08,2.88,41.88142,-73.48367,31118.81,17118.29,SHARON HOSPITAL
5.30,2.65,41.55959,-73.05941,45293.78,14455.74,WATERBURY HOSPITAL
6.53,2.75,41.05562,-73.55390,59626.75,15703.11,STAMFORD HOSPITAL
3.38,2.54,41.33722,-72.10380,22974.69,13166.07,LAWRENCE & MEMORIAL HOSPITAL
3.51,2.43,41.97762,-72.39127,24549.82,11934.14,JOHNSON MEMORIAL HOSPITAL
6.53,3.04,41.18881,-73.16645,59648.78,19000.71,BRIDGEPORT HOSPITAL
2.92,2.49,41.79153,-73.13382,17646.69,12639.66,CHARLOTTE HUNGERFORD HOSPITAL
3.43,2.47,41.86708,-72.45056,23602.80,12425.38,ROCKVILLE GENERAL HOSPITAL
4.97,2.76,41.58181,-73.40955,41514.03,15824.81,NEW MILFORD HOSPITAL
3.11,2.71,41.55241,-73.03554,19839.11,15130.75,SAINT MARYS HOSPITAL
4.13,2.53,41.54874,-72.80148,31764.10,13093.36,MIDSTATE MEDICAL CENTER
5.04,2.62,41.03431,-73.63020,42358.84,14108.30,GREENWICH HOSPITAL ASSOCIATION
3.87,2.44,41.21646,-73.06525,28660.11,12097.92,MILFORD HOSPITAL, INC
5.05,2.55,41.55473,-72.64872,42395.41,13334.00,MIDDLESEX HOSPITAL
3.18,2.79,41.71622,-72.22399,20702.10,16091.04,WINDHAM COMM MEM HOSP & HATCH HOSP
8.03,3.24,41.30400,-72.93502,77072.32,21380.34,YALE-NEW HAVEN HOSPITAL
4.13,2.58,41.54301,-72.08799,31667.19,13720.68,WILLIAM W BACKUS HOSPITAL
5.13,2.91,41.75412,-72.67927,43375.63,17546.59,HARTFORD HOSPITAL
3.65,2.47,41.78185,-72.52591,26114.37,12344.08,MANCHESTER MEMORIAL HOSPITAL
5.57,2.74,41.20049,-73.20281,48522.52,15589.24,ST VINCENT'S MEDICAL CENTER
3.82,2.45,41.67540,-72.93617,28072.36,12150.06,BRISTOL HOSPITAL
5.06,2.67,41.33493,-73.08978,42583.95,14683.87,GRIFFIN HOSPITAL
4.55,2.77,41.40474,-73.44739,36607.17,15879.99,DANBURY HOSPITAL
5.65,2.79,41.11147,-73.42010,49374.24,16150.17,NORWALK HOSPITAL ASSOCIATION
4.34,2.65,41.66107,-72.78671,34115.28,14440.45,HOSPITAL OF CENTRAL CONNECTICUT, THE
3.84,3.22,41.73545,-72.79489,28307.85,21113.59,JOHN DEMPSEY HOSPITAL
2.10,2.41,41.46281,-72.83650,8110.23,11751.15,MASONIC HOME AND HOSPITAL
4.18,2.70,39.69005,-75.68408,32343.25,15050.96,CHRISTIANA CARE HEALTH SERVICES, INC.
4.00,2.54,39.74954,-75.56662,30164.98,13150.56,ST FRANCIS HOSPITAL
4.35,2.52,39.15135,-75.52309,34316.21,13003.66,BAYHEALTH - KENT GENERAL HOSPITAL
3.52,2.69,38.64231,-75.60660,24620.62,15004.36,NANTICOKE MEMORIAL HOSPITAL
5.19,2.53,38.77159,-75.14210,44072.70,13064.92,BEEBE MEDICAL CENTER
4.03,2.36,38.90742,-75.43278,30552.14,11138.71,BAYHEALTH - MILFORD MEMORIAL HOSPITAL
7.92,2.98,38.90106,-77.05079,75879.03,18363.74,GEORGE WASHINGTON UNIV HOSPITAL
7.77,3.95,38.91770,-77.02193,74035.38,29641.79,HOWARD UNIVERSITY HOSPITAL
7.53,3.10,38.91221,-77.07588,71339.76,19697.47,GEORGETOWN UNIVERSITY HOSPITAL
4.51,2.37,38.93576,-77.10909,36132.14,11214.94,SIBLEY MEMORIAL HOSPITAL
4.85,2.75,38.94397,-76.99040,40067.94,15699.01,PROVIDENCE HOSPITAL
6.33,2.73,38.83504,-76.98388,57351.31,15403.22,UNITED MEDICAL CENTER
5.90,2.82,38.92944,-77.01473,52317.46,16465.06,WASHINGTON HOSPITAL CENTER
6.20,2.88,30.34913,-81.66391,55847.92,17209.29,SHANDS JACKSONVILLE MEDICAL CENTER
7.83,2.50,26.50479,-80.06979,74782.62,12732.36,BETHESDA MEMORIAL HOSPITAL
7.98,2.61,28.52517,-81.37729,76485.85,14068.01,ORLANDO HEALTH
8.09,2.61,28.57345,-81.36990,77855.55,14047.30,FLORIDA HOSPITAL
10.34,2.82,25.68309,-80.34038,104015.20,16502.53,BAPTIST HOSPITAL OF MIAMI INC
8.68,2.70,25.78846,-80.21644,84709.00,15060.28,UNIVERSITY OF MIAMI HOSPITAL
5.64,2.41,26.62849,-81.87423,49340.37,11642.08,LEE MEMORIAL HOSPITAL
3.93,2.24,29.01347,-80.94096,29377.65,9736.78,BERT FISH MEDICAL CENTER
4.43,2.41,29.20117,-81.05828,35176.84,11726.69,HALIFAX HEALTH MEDICAL CENTER
4.89,2.36,26.15053,-81.79919,40514.83,11076.21,NAPLES COMMUNITY HOSPITAL
5.65,2.32,28.08771,-80.61362,49391.10,10622.31,HOLMES REGIONAL MEDICAL CENTER
6.52,3.39,25.79143,-80.21250,59477.39,23136.32,JACKSON MEMORIAL HOSPITAL
4.59,2.26,28.83363,-82.33561,37013.52,9901.69,CITRUS MEMORIAL HOSPITAL
3.92,2.44,30.47650,-87.21219,29255.36,11987.82,SACRED HEART HOSPITAL
4.38,2.32,30.15963,-85.64818,34666.06,10668.88,BAY MEDICAL CENTER
4.01,2.34,28.63051,-80.82437,30303.99,10892.07,PARRISH MEDICAL CENTER
9.56,2.67,25.86166,-80.21398,94935.94,14713.32,NORTH SHORE MEDICAL CENTER
5.42,2.39,28.54917,-81.52746,46676.17,11465.74,HEALTH CENTRAL
8.15,2.62,27.76332,-82.64325,78542.08,14143.34,BAYFRONT MEDICAL CENTER INC
8.44,2.71,25.81317,-80.13996,81849.34,15202.89,MOUNT SINAI MEDICAL CENTER
5.95,2.42,27.49789,-82.56220,52946.96,11840.01,MANATEE MEMORIAL HOSPITAL
8.92,2.67,26.01867,-80.17981,87437.14,14766.85,MEMORIAL REGIONAL HOSPITAL
6.13,2.79,26.10282,-80.14245,54944.09,16168.69,BROWARD HEALTH BROWARD GENERAL MEDICAL CENTER
5.16,2.36,30.30835,-81.68919,43654.57,11059.27,ST VINCENT'S MEDICAL CENTER
5.44,2.28,28.01404,-82.78368,46982.45,10124.11,MEASE HOSPITAL DUNEDIN
7.21,2.40,27.19837,-80.24306,67612.36,11538.42,MARTIN MEMORIAL MEDICAL CENTER
4.54,2.37,29.04263,-81.31635,36458.04,11230.31,FLORIDA HOSPITAL DELAND
6.87,2.28,28.26092,-82.18802,63592.05,10216.47,FLORIDA HOSPITAL ZEPHYRHILLS
8.18,2.30,26.94042,-82.04094,78831.52,10453.69,CHARLOTTE REGIONAL MEDICAL CENTER
4.19,2.42,30.95015,-87.15095,32376.53,11773.65,JAY HOSPITAL
6.27,2.33,27.46707,-81.43358,56639.38,10738.14,HIGHLANDS REGIONAL MEDICAL CENTER
5.56,2.66,25.86856,-80.31222,48369.35,14553.72,PALM SPRINGS GENERAL HOSPITAL
8.90,2.58,28.55140,-81.72120,87269.38,13728.80,SOUTH LAKE HOSPITAL
6.19,2.33,28.02768,-81.72466,55702.29,10795.90,WINTER HAVEN HOSPITAL
10.56,2.84,25.84597,-80.26872,106509.22,16740.55,HIALEAH HOSPITAL
9.17,2.29,30.53493,-86.49628,90366.06,10250.12,TWIN CITIES HOSPITAL
5.19,2.28,28.13321,-82.75839,44000.49,10168.94,HELEN ELLIS MEMORIAL HOSPITAL
4.57,2.29,28.82358,-81.71133,36813.34,10297.48,FLORIDA HOSPITAL WATERMAN
7.34,2.61,25.74067,-80.21244,69123.02,14059.20,MERCY HOSPITAL INC
4.86,2.29,29.17594,-82.13898,40165.69,10264.75,MUNROE REGIONAL MEDICAL CENTER
5.49,2.34,28.25431,-82.71447,47592.80,10842.82,MORTON PLANT NORTH BAY HOSPITAL
6.44,2.39,27.78088,-82.65126,58631.52,11491.65,ST ANTHONY'S HOSPITAL
4.34,2.31,29.24333,-81.10760,34144.50,10539.53,FLORIDA HOSPITAL MEMORIAL MEDICAL CENTER
5.23,2.44,28.01266,-82.50384,44490.42,12077.26,FLORIDA HOSPITAL CARROLLWOOD
5.22,2.28,27.09043,-82.44499,44381.84,10158.26,VENICE REGIONAL MEDICAL CENTER
10.53,2.45,28.53906,-82.44193,106185.89,12142.31,BROOKSVILLE REGIONAL HOSPITAL
4.10,2.29,28.91403,-81.28480,31370.84,10277.69,FLORIDA HOSPITAL FISH MEMORIAL
6.19,2.33,26.18711,-80.11941,55682.91,10776.80,HOLY CROSS HOSPITAL INC
5.86,2.51,27.98242,-82.49025,51871.43,12799.66,ST JOSEPH'S HOSPITAL
6.77,2.84,25.77941,-80.29397,62420.87,16722.00,METROPOLITAN HOSPITAL OF MIAMI
6.89,2.36,26.98905,-82.09559,63878.68,11094.93,PEACE RIVER REGIONAL MEDICAL CENTER
7.49,2.44,26.59805,-80.09271,70863.75,12057.42,JFK MEDICAL CENTER
4.92,2.33,28.80659,-81.86906,40860.32,10725.89,LEESBURG REGIONAL MEDICAL CENTER
5.66,2.42,26.27623,-80.12220,49474.02,11770.37,BROWARD HEALTH NORTH BROWARD MEDICAL CENTER
4.37,2.31,27.31827,-82.53140,34533.70,10492.74,SARASOTA MEMORIAL HOSPITAL
6.68,2.56,30.31525,-81.66398,61388.76,13409.54,BAPTIST MEDICAL CENTER
7.34,2.62,29.86371,-81.31749,69134.62,14150.77,FLAGLER HOSPITAL
5.26,2.36,28.33522,-80.72319,44839.21,11136.81,WUESTHOFF MEDICAL CENTER  ROCKLEDGE
5.09,2.33,30.43066,-87.23191,42870.96,10725.84,BAPTIST HOSPITAL
6.64,2.27,27.89590,-81.56547,60926.05,10112.98,LAKE WALES MEDICAL CENTER
4.77,2.32,30.19345,-82.63268,39164.04,10651.54,SHANDS LAKE SHORE REGIONAL MEDICAL CENTER
3.43,2.37,27.65832,-80.39307,23593.52,11267.39,INDIAN RIVER MEDICAL CENTER
3.13,2.48,30.12015,-83.59309,20096.67,12467.74,DOCTOR'S MEMORIAL HOSPITAL INC
6.72,2.34,26.61563,-81.65945,61889.14,10906.95,LEHIGH REGIONAL MEDICAL CENTER
6.00,2.37,27.50001,-81.43962,53536.82,11197.46,FLORIDA HOSPITAL HEARTLAND MEDICAL CENTER
9.71,2.44,28.29946,-81.41021,96617.19,12030.79,OSCEOLA REGIONAL MEDICAL CENTER
5.31,3.03,29.64155,-82.34844,45451.45,18927.97,SHANDS HOSPITAL AT THE UNIVERSITY OF FLORIDA
5.45,2.35,30.27449,-81.40071,47093.14,10993.98,BAPTIST MEDICAL CENTER  BEACHES
4.15,2.46,29.47897,-81.18915,32004.11,12294.02,FLORIDA HOSPITAL FLAGLER
5.84,2.30,27.91798,-81.84402,51631.05,10401.09,BARTOW REGIONAL MEDICAL CENTER
7.87,2.34,30.73540,-86.56171,75206.38,10863.96,NORTH OKALOOSA MEDICAL CENTER
6.61,2.34,30.63421,-87.06708,60623.11,10902.56,SANTA ROSA MEDICAL CENTER
8.24,2.77,25.47971,-80.43038,79528.69,15863.26,HOMESTEAD HOSPITAL
5.95,2.27,27.75214,-82.73951,52858.38,10011.62,PALMS OF PASADENA HOSPITAL
5.14,2.36,27.95192,-82.80379,43445.86,11136.61,MORTON PLANT HOSPITAL
10.37,3.08,27.93740,-82.45927,104351.14,19510.14,TAMPA GENERAL HOSPITAL
7.14,2.61,26.72399,-80.67127,66749.67,14029.44,LAKESIDE MEDICAL CENTER
10.81,2.61,25.96994,-80.14533,109476.40,14003.08,AVENTURA HOSPITAL AND MEDICAL CENTER
5.24,2.35,28.01563,-82.13900,44623.91,10944.61,SOUTH FLORIDA BAPTIST HOSPITAL
5.30,2.43,30.45726,-84.26175,45377.62,11953.69,TALLAHASSEE MEMORIAL HEALTHCARE
8.07,2.35,28.18120,-81.64018,77628.47,10996.88,HEART OF FLORIDA REGIONAL MEDICAL CENTER
3.30,2.25,30.65118,-81.44923,22088.18,9870.67,BAPTIST MEDICAL CENTER - NASSAU
3.37,2.31,30.78675,-85.24189,22906.10,10541.55,JACKSON HOSPITAL
6.39,2.85,24.58076,-81.74233,58026.60,16811.87,LOWER KEYS MEDICAL CENTER
4.67,2.85,30.26389,-81.44283,38034.37,16836.40,MAYO CLINIC
9.62,2.74,25.70328,-80.29391,95646.78,15492.97,SOUTH MIAMI HOSPITAL, INC
5.04,2.47,30.18340,-82.68783,42296.32,12401.11,LAKE CITY MEDICAL CENTER
6.20,2.38,28.06172,-81.95304,55787.12,11360.81,LAKELAND REGIONAL MEDICAL CENTER
5.68,2.34,28.81611,-81.28351,49737.94,10843.29,CENTRAL FLORIDA REGIONAL HOSPITAL
7.82,2.30,27.30187,-82.45428,74685.36,10380.80,DOCTORS HOSPITAL OF SARASOTA
9.66,2.76,26.12647,-80.20519,96112.93,15768.74,PLANTATION GENERAL HOSPITAL
5.29,2.34,26.35875,-80.10203,45234.86,10904.96,BOCA RATON REGIONAL HOSPITAL
5.67,2.32,28.07111,-82.42342,49674.89,10648.00,FLORIDA HOSPITAL TAMPA
4.39,2.42,27.22739,-81.85108,34745.54,11822.12,DESOTO MEMORIAL HOSPITAL
8.52,2.42,26.83035,-80.08655,82838.16,11829.54,PALM BEACH GARDENS MEDICAL CENTER
4.45,2.34,28.36005,-80.62309,35425.15,10891.47,CAPE CANAVERAL HOSPITAL
9.71,2.37,30.28793,-81.60103,96696.77,11261.41,MEMORIAL HOSPITAL JACKSONVILLE
11.38,2.50,27.80541,-82.72694,116055.71,12798.16,ST PETERSBURG GENERAL HOSPITAL
6.99,2.77,25.70558,-80.29311,65007.86,15863.20,LARKIN COMMUNITY HOSPITAL
12.04,2.79,25.74360,-80.25465,123811.58,16099.52,CORAL GABLES HOSPITAL
9.13,2.77,25.88563,-80.32635,89929.30,15843.00,PALMETTO GENERAL HOSPITAL
8.04,2.42,26.26259,-80.20292,77177.55,11799.42,NORTHWEST MEDICAL CENTER
8.67,2.30,28.19342,-82.46987,84556.82,10471.00,MEDICAL CENTER OF TRINITY
5.73,2.40,26.20644,-80.11086,50361.21,11623.41,BROWARD HEALTH IMPERIAL POINT MEDICAL CENTER
9.56,2.35,29.66085,-82.41172,94964.00,10996.20,NORTH FLORIDA REGIONAL MEDICAL CENTER
5.64,2.26,27.93758,-82.48933,49243.43,9953.43,MEMORIAL HOSPITAL OF TAMPA
8.13,2.68,25.73195,-80.38580,78331.08,14783.67,KENDALL REGIONAL MEDICAL CENTER
5.80,2.30,28.34805,-82.19963,51104.06,10402.16,PASCO REGIONAL MEDICAL CENTER
6.68,2.27,29.17550,-82.13680,61437.36,10080.53,OCALA REGIONAL MEDICAL CENTER
7.20,2.29,27.48213,-82.62126,67483.12,10327.42,BLAKE MEDICAL CENTER
7.00,2.35,27.84359,-80.48849,65158.45,11019.06,SEBASTIAN RIVER MEDICAL CENTER
6.11,2.43,26.52735,-81.83337,54710.52,11916.33,GULF COAST MEDICAL CENTER LEE MEM HEALTH SYSTEM
10.52,2.35,30.45448,-86.63362,106140.84,11051.80,FORT WALTON BEACH MEDICAL CENTER
8.50,2.37,26.21219,-80.25478,82630.69,11238.45,UNIVERSITY HOSPITAL AND MEDICAL CENTER
9.52,2.33,30.16550,-81.73775,94498.71,10757.25,ORANGE PARK MEDICAL CENTER
9.19,2.40,26.12354,-80.25951,90623.41,11573.72,WESTSIDE REGIONAL MEDICAL CENTER
9.44,2.56,26.02951,-80.24607,93488.64,13407.58,MEMORIAL HOSPITAL PEMBROKE
7.45,2.33,30.51624,-87.21856,70313.52,10716.67,WEST FLORIDA HOSPITAL
4.48,2.36,29.64481,-81.69431,35831.53,11095.09,PUTNAM COMMUNITY MEDICAL CENTER
9.80,2.57,26.76167,-80.08781,97742.18,13589.86,COLUMBIA HOSPITAL
9.46,2.30,26.98884,-82.09877,93812.35,10459.10,FAWCETT MEMORIAL HOSPITAL
9.74,2.48,27.82545,-82.70122,97067.13,12509.70,NORTHSIDE HOSPITAL
7.11,2.30,27.78151,-82.66458,66352.77,10421.79,EDWARD WHITE HOSPITAL
7.59,2.33,30.18657,-85.66513,72002.84,10800.56,GULF COAST MEDICAL CENTER
8.07,2.43,27.93259,-82.28759,77575.52,11884.56,BRANDON REGIONAL HOSPITAL
5.61,2.30,26.63958,-81.94164,48989.50,10403.98,CAPE CORAL HOSPITAL
11.21,2.55,27.43392,-80.34350,114069.38,13364.66,LAWNWOOD REGIONAL MEDICAL CENTER & HEART INSTITUTE
7.77,2.37,27.91458,-82.80382,74054.67,11176.16,LARGO MEDICAL CENTER
4.13,2.26,28.95195,-82.62421,31728.56,9994.43,SEVEN RIVERS REGIONAL MEDICAL CENTER
6.96,2.49,27.25983,-80.82855,64650.97,12604.69,RAULERSON HOSPITAL
6.74,2.62,26.92138,-80.09708,62112.61,14091.55,JUPITER MEDICAL CENTER
7.26,2.44,30.47616,-84.23140,68098.23,12015.36,CAPITAL REGIONAL MEDICAL CENTER
6.56,2.39,28.00237,-82.57309,60013.47,11429.29,TOWN & COUNTRY HOSPITAL
7.64,2.29,28.36128,-82.68883,72596.25,10354.29,REGIONAL MEDICAL CENTER BAYONET POINT
8.48,2.38,26.43709,-80.12728,82292.49,11305.87,DELRAY MEDICAL CENTER
7.66,2.29,27.71350,-82.36512,72797.70,10263.67,SOUTH BAY HOSPITAL
8.29,2.40,27.28861,-80.29431,80111.46,11620.87,ST LUCIE MEDICAL CENTER
9.41,2.33,28.53585,-82.53404,93218.18,10747.14,OAK HILL HOSPITAL
5.30,2.28,28.03957,-82.70875,45389.40,10220.90,MEASE COUNTRYSIDE HOSPITAL
5.39,2.23,30.35772,-87.16046,46433.24,9603.48,GULF BREEZE HOSPITAL
7.73,2.26,26.94996,-82.32651,73592.77,9944.51,ENGLEWOOD COMMUNITY HOSPITAL
7.47,2.44,26.35614,-80.19956,70577.28,12052.43,WEST BOCA MEDICAL CENTER
7.92,2.80,26.68337,-80.25269,75847.04,16200.04,PALMS WEST HOSPITAL
6.02,2.50,26.65230,-80.20504,53668.47,12769.69,WELLINGTON REGIONAL MEDICAL CENTER
6.38,2.50,26.26841,-80.25571,57858.69,12712.96,CORAL SPRINGS MEDICAL CENTER
9.91,2.51,26.01394,-80.30980,98946.19,12805.58,MEMORIAL HOSPITAL WEST
5.98,2.96,25.74731,-80.31765,53207.70,18074.50,WESTCHESTER GENERAL HOSPITAL
7.29,2.56,25.99079,-80.37333,68536.56,13403.06,MEMORIAL HOSPITAL MIRAMAR
6.92,2.41,26.21388,-81.73257,64161.06,11702.24,PHYSICIANS REGIONAL MEDICAL CENTER - PINE RIDGE
6.58,2.41,26.70181,-80.05055,60280.22,11747.75,GOOD SAMARITAN MEDICAL CENTER
4.88,2.37,26.08155,-80.36449,40450.56,11217.41,CLEVELAND CLINIC HOSPITAL
5.33,2.29,28.94952,-81.95843,45702.77,10304.58,VILLAGES REGIONAL HOSPITAL, THE
5.53,2.37,28.10969,-80.67280,48051.61,11228.87,WUESTHOFF MEDICAL CENTER - MELBOURNE
6.34,2.29,30.37837,-86.30696,57495.14,10247.82,SACRED HEART HOSPITAL ON THE EMERALD COAST
13.92,3.46,25.72132,-80.27116,145674.05,23933.10,DOCTORS HOSPITAL INC
5.60,2.25,27.38993,-82.43343,48823.40,9799.65,LAKEWOOD RANCH MEDICAL CENTER
6.30,2.31,28.24311,-81.30279,56972.26,10490.45,ST CLOUD REGIONAL MEDICAL CENTER
5.83,2.33,30.25377,-81.58270,51514.63,10755.63,ST VINCENT'S MEDICAL CENTER SOUTHSIDE
7.08,2.33,25.62869,-80.45576,66013.42,10788.00,WEST KENDALL BAPTIST HOSPITAL
5.44,2.24,28.22965,-80.72978,47004.57,9699.86,VIERA HOSPITAL
7.42,2.54,27.99851,-80.61034,70030.09,13258.55,PALM BAY HOSPITAL
4.74,2.51,34.78963,-84.98398,38828.35,12882.86,HAMILTON MEDICAL CENTER
3.61,2.43,32.88710,-84.33393,25634.30,11932.40,UPSON REGIONAL MEDICAL CENTER
3.90,2.38,31.22516,-82.34898,29076.26,11363.29,SATILLA REGIONAL MEDICAL CENTER
3.38,2.35,34.94766,-85.26296,22947.91,11045.72,HUTCHESON MEDICAL CENTER
6.42,2.45,34.17863,-84.13992,58426.34,12155.58,NORTHSIDE HOSPITAL FORSYTH
4.69,2.39,33.94791,-83.40531,38273.64,11493.44,ST MARY'S HOSPITAL
5.13,2.60,31.59023,-84.15756,43382.29,13937.35,PHOEBE PUTNEY MEMORIAL HOSPITAL
6.15,2.36,34.24569,-84.49068,55234.41,11134.83,NORTHSIDE HOSPITAL CHEROKEE
4.72,2.69,33.79230,-84.32107,38530.92,14934.66,EMORY UNIVERSITY HOSPITAL
4.29,2.39,33.56970,-85.07276,33586.32,11496.24,TANNER MEDICAL CENTER - CARROLLTON
4.06,2.35,33.74445,-84.91753,30940.38,11030.68,TANNER MEDICAL CENTER VILLA RICA
3.47,2.35,33.03204,-85.05781,24017.12,11015.69,WEST GEORGIA MEDICAL CENTER
3.40,2.38,33.60237,-83.84809,23258.98,11346.26,NEWTON MEDICAL CENTER
5.47,2.45,34.51192,-84.92579,47325.29,12105.54,GORDON HOSPITAL
5.83,2.45,32.02825,-81.09977,51487.82,12150.24,CANDLER HOSPITAL
4.80,2.69,31.17425,-81.48459,39565.18,14943.67,SOUTHEAST GEORGIA HEALTH SYSTEM- BRUNSWICK CAMPUS
3.15,2.35,34.11375,-82.87463,20349.17,10969.58,ELBERT MEMORIAL HOSPITAL
2.75,2.37,34.28705,-83.11015,15621.54,11192.62,COBB MEMORIAL HOSPITAL
4.85,2.44,33.47096,-81.98176,40110.76,12083.40,UNIVERSITY HOSPITAL
4.84,2.41,34.30335,-83.81737,40007.09,11735.53,NORTHEAST GEORGIA MEDICAL CENTER, INC
7.02,2.39,34.19990,-84.79378,65349.20,11403.84,CARTERSVILLE MEDICAL CENTER
7.18,2.46,33.23886,-84.26706,67257.22,12320.07,SPALDING REGIONAL MEDICAL CENTER
4.08,2.34,34.59332,-83.34788,31186.59,10895.93,STEPHENS COUNTY HOSPITAL
4.26,2.91,33.47091,-81.98988,33282.04,17527.06,MEDICAL COLLEGE OF GA HOSPITALS AND CLINICS
5.86,2.46,33.96770,-84.55011,51901.75,12306.09,WELLSTAR KENNESTONE HOSPITAL
4.45,2.53,32.03185,-81.09158,35445.88,13102.22,MEMORIAL HEALTH UNIV MED CEN, INC
4.14,2.35,30.82614,-83.97393,31848.71,11012.76,JOHN D ARCHBOLD MEMORIAL HOSPITAL
3.66,2.33,33.46767,-82.01807,26241.82,10791.00,TRINITY HOSPITAL OF AUGUSTA
3.27,2.57,34.21877,-83.46906,21760.76,13500.03,NORTHRIDGE MEDICAL CENTER
2.98,2.35,34.56510,-83.54517,18369.59,11019.05,HABERSHAM COUNTY MEDICAL CTR
4.23,2.38,33.91929,-84.85224,32860.46,11371.46,WELLSTAR PAULDING HOSPITAL
5.46,2.32,31.98515,-81.15475,47192.47,10675.55,ST JOSEPH'S HOSPITAL - SAVANNAH
3.44,2.40,32.06513,-84.25260,23685.18,11535.82,PHOEBE SUMTER MEDICAL CENTER
4.96,2.51,34.00816,-83.70796,41347.87,12893.96,BARROW REGIONAL MEDICAL CENTER
3.62,2.40,33.78334,-83.71709,25783.81,11600.72,WALTON REGIONAL MEDICAL CENTER
3.26,2.22,34.77769,-84.78656,21550.25,9530.85,MURRAY MEDICAL CENTER
2.72,2.27,34.88620,-83.96241,15261.59,10054.44,UNION GENERAL HOSPITAL
5.44,2.57,34.26000,-85.17000,46995.59,13591.67,FLOYD MEDICAL CENTER
2.73,2.13,34.34695,-82.93906,15379.93,8432.36,HART COUNTY HOSPITAL
4.49,2.61,32.46602,-84.98695,35896.46,14049.76,MEDICAL CENTER, THE
4.53,2.45,32.61642,-83.63065,36359.92,12149.61,HOUSTON MEDICAL CENTER
2.96,2.19,31.76996,-82.35014,18150.50,9135.88,APPLING HOSPITAL
3.32,2.21,31.71491,-83.25265,22250.50,9373.82,DORMINY MEDICAL CENTER
4.40,2.40,33.96117,-83.39832,34816.89,11560.42,ATHENS REGIONAL MEDICAL CENTER
4.63,2.45,32.41483,-81.76990,37583.54,12152.53,EAST GEORGIA REGIONAL MEDICAL CENTER
4.36,2.51,33.78956,-84.28077,34412.28,12896.06,DEKALB MEDICAL CENTER
4.58,2.60,33.76810,-84.38616,36958.82,13853.64,EMORY UNIVERSITY HOSPITAL MIDTOWN
5.65,2.92,33.75205,-84.38272,49427.39,17605.55,GRADY MEMORIAL HOSPITAL
5.20,2.37,33.90877,-84.35180,44163.72,11213.97,SAINT JOSEPH'S HOSPITAL OF ATLANTA, INC
5.78,2.39,33.81003,-84.39568,50923.39,11515.56,PIEDMONT HOSPITAL
3.01,2.49,32.99563,-82.80431,18645.27,12667.78,WASHINGTON COUNTY REGIONAL MEDICAL CENTER
4.04,2.44,33.96351,-84.01769,30710.78,12007.32,GWINNETT MEDICAL CENTER
3.68,2.24,31.50971,-82.86341,26533.07,9752.84,COFFEE REGIONAL MEDICAL CENTER
4.49,2.47,33.68072,-84.00200,35866.91,12385.58,ROCKDALE MEDICAL CENTER
2.96,2.45,32.18558,-83.17874,18080.94,12122.72,DODGE COUNTY HOSPITAL
5.08,2.48,31.47069,-83.50473,42825.30,12526.16,TIFT REGIONAL MEDICAL CENTER
3.46,2.31,31.97683,-83.78280,23925.42,10477.56,CRISP REGIONAL HOSPITAL
3.52,2.40,31.17991,-83.78906,24617.96,11553.09,COLQUITT REGIONAL MEDICAL CENTER
5.23,2.59,32.83041,-83.63476,44538.83,13736.80,MEDICAL CENTER OF CENTRAL GEORGIA
2.95,2.31,32.59212,-82.34541,17968.92,10505.00,EMANUEL MEDICAL CENTER
8.19,2.71,33.76372,-84.37315,78948.46,15215.35,ATLANTA MEDICAL CENTER
5.14,2.54,30.86250,-83.28630,43450.87,13256.16,SOUTH GEORGIA MEDICAL CENTER
3.95,2.56,31.60200,-81.89172,29643.65,13456.33,WAYNE MEMORIAL HOSPITAL
6.09,2.52,32.54026,-82.95741,54580.27,12957.51,FAIRVIEW PARK HOSPITAL
4.13,2.26,32.20903,-82.37585,31666.18,9947.32,MEADOWS REGIONAL MEDICAL CENTER
4.25,2.31,32.50679,-84.95933,33164.35,10483.17,ST FRANCIS HOSPITAL, INC
2.83,2.29,32.28377,-83.47212,16561.33,10316.27,TAYLOR REGIONAL HOSPITAL
3.32,2.30,32.16413,-81.90041,22239.63,10396.15,EVANS MEMORIAL HOSPITAL
5.69,2.48,33.85638,-84.60446,49835.40,12521.72,WELLSTAR COBB HOSPITAL
4.98,2.42,33.08014,-83.23210,41641.06,11827.43,OCONEE REGIONAL MEDICAL CENTER
4.59,2.52,32.45961,-83.70967,37101.50,12962.94,PERRY HOSPITAL
6.66,2.47,33.90903,-84.35410,61124.85,12431.00,NORTHSIDE HOSPITAL
6.70,2.49,31.53017,-84.17516,61684.81,12579.81,PHOEBE NORTH
6.24,2.44,32.84705,-83.61823,56273.39,12079.75,COLISEUM MEDICAL CENTER
4.63,2.53,33.57843,-84.38897,37543.68,13060.12,SOUTHERN REGIONAL MEDICAL CENTER
4.67,2.30,34.25704,-85.16467,38020.32,10403.48,REDMOND REGIONAL MEDICAL CENTER
9.54,2.50,33.48259,-82.09038,94704.46,12709.65,DOCTORS HOSPITAL
4.12,2.28,33.85770,-84.51542,31545.00,10196.93,EMORY-ADVENTIST HOSPITAL
5.02,2.32,33.73938,-84.73111,42066.75,10631.64,WELLSTAR DOUGLAS HOSPITAL
6.06,2.55,32.48040,-84.98468,54228.78,13277.60,DOCTORS HOSPITAL
3.48,2.47,34.52316,-83.97542,24168.62,12376.92,CHESTATEE REGIONAL HOSPITAL
4.52,2.47,34.91692,-84.37534,36273.72,12365.67,FANNIN REGIONAL HOSPITAL
4.47,2.37,33.51144,-84.22200,35621.91,11262.94,HENRY MEDICAL CENTER, INC
6.57,2.41,33.87683,-84.02136,60136.43,11647.76,EMORY EASTSIDE MEDICAL CENTER
10.88,2.47,34.06334,-84.31976,110234.48,12423.59,NORTH FULTON REGIONAL HOSPITAL
4.90,2.31,32.86625,-83.69421,40637.08,10577.33,COLISEUM NORTHSIDE HOSPITAL
4.77,2.28,30.89823,-83.33519,39202.50,10174.38,SMITH NORTHVIEW HOSPITAL
4.60,2.32,33.45252,-84.50697,37127.15,10681.07,PIEDMONT FAYETTE HOSPITAL
9.79,2.67,33.68000,-84.42685,97553.87,14769.63,SOUTH FULTON MEDICAL CENTER
4.84,2.41,34.42855,-84.48026,40022.00,11712.16,PIEDMONT MOUNTAINSIDE HOSPITAL INC
3.79,2.38,33.70365,-84.14697,27747.27,11341.16,DEKALB MEDICAL CENTER AT HILLANDALE
4.87,2.41,33.39118,-84.81563,40375.97,11642.56,PIEDMONT NEWNAN HOSPITAL, INC
5.42,2.45,34.06670,-84.17643,46711.18,12177.35,EMORY JOHNS CREEK HOSPITAL
5.40,2.89,21.30780,-157.85505,46466.28,17328.85,THE QUEENS MEDICAL CENTER
6.53,3.72,20.88519,-156.48928,59624.81,26980.39,MAUI MEMORIAL MEDICAL CENTER
3.93,2.87,21.49879,-158.02633,29359.46,17044.76,WAHIAWA GENERAL HOSPITAL
4.34,3.00,19.71761,-155.11327,34108.63,18592.94,HILO MEDICAL CENTER
5.13,2.76,21.38095,-157.75759,43401.95,15753.96,CASTLE MEDICAL CENTER
5.05,2.67,21.32239,-157.85662,42463.30,14696.72,KUAKINI MEDICAL CENTER
4.29,2.73,21.32872,-157.85179,33545.38,15436.14,HAWAII MEDICAL CENTER EAST
4.04,2.96,21.36339,-157.89951,30683.63,18147.05,KAISER FOUNDATION HOSPITAL
4.90,3.16,21.98514,-159.36388,40637.42,20414.03,WILCOX MEMORIAL HOSPITAL
4.76,3.63,19.51963,-155.91744,39092.36,25860.36,KONA COMMUNITY HOSPITAL
6.22,2.79,21.30226,-157.85092,56073.53,16168.51,STRAUB CLINIC AND HOSPITAL
5.07,2.71,21.38328,-157.93828,42669.31,15132.13,PALI MOMI MEDICAL CENTER
4.84,2.74,21.37080,-158.02746,39947.41,15516.97,HAWAII MEDICAL CENTER WEST
3.90,3.09,20.02208,-155.66467,29083.58,19568.00,NORTH HAWAII COMMUNITY HOSPITAL
3.75,2.37,42.59072,-114.49627,27306.19,11254.58,ST LUKES MAGIC VALLEY RMC
4.34,2.59,46.41668,-117.02441,34199.11,13787.28,ST JOSEPH REGIONAL MEDICAL CENTER
4.88,2.64,43.61218,-116.19234,40437.76,14324.93,ST LUKES REGIONAL MEDICAL CENTER
3.91,2.42,43.61359,-116.25484,29112.60,11804.34,ST ALPHONSUS REGIONAL MEDICAL CENTER
3.15,2.32,43.55374,-116.57267,20294.29,10644.51,SAINT ALPHONSUS MEDICAL CENTER - NAMPA
4.20,2.41,43.65510,-116.69360,32498.83,11654.12,WEST VALLEY MEDICAL CENTER
4.84,2.47,43.46987,-111.99208,40008.15,12346.71,EASTERN IDAHO REGIONAL MEDICAL CENTER
3.59,2.68,42.87331,-112.42180,25469.58,14889.92,PORTNEUF MEDICAL CENTER
3.66,2.48,47.69645,-116.79476,26287.32,12525.74,KOOTENAI MEDICAL CENTER
2.89,2.50,40.55329,-90.03912,17226.14,12722.21,GRAHAM HOSPITAL ASSOCIATION
4.86,2.31,38.90068,-90.16026,40189.73,10503.79,ALTON MEMORIAL HOSPITAL
6.83,2.46,41.52896,-88.13550,63183.59,12291.76,PROVENA ST JOSEPH MEDICAL CENTER
8.43,2.58,41.91082,-87.84451,81753.00,13693.35,LOYOLA GOTTLIEB MEMORIAL HOSPITAL
5.28,2.66,42.06550,-87.68428,45120.44,14578.16,EVANSTON HOSPITAL
3.91,2.33,37.80207,-89.02660,29183.85,10767.42,HERRIN HOSPITAL
6.00,2.36,41.84429,-89.48014,53520.40,11104.64,KATHERINE SHAW BETHEA HOSPITAL
3.52,2.34,40.75318,-89.59321,24567.54,10894.73,PROCTOR HOSPITAL
4.90,2.51,39.93563,-91.39833,40716.40,12885.38,BLESSING HOSPITAL
7.37,3.19,41.86011,-87.69571,69377.20,20740.30,MT SINAI HOSPITAL MEDICAL CENTER
3.74,2.43,41.11319,-88.83500,27132.65,11900.35,ST MARYS HOSPITAL
7.11,2.71,41.72930,-88.26976,66404.72,15186.25,COPLEY MEMORIAL HOSPITAL
7.09,2.72,42.07012,-88.33180,66164.25,15333.65,SHERMAN HOSPITAL
3.26,2.29,39.12680,-88.55059,21583.49,10296.31,ST ANTHONYS MEMORIAL HOSPITAL
3.40,2.35,38.52908,-89.11604,23193.02,10971.63,ST MARYS HOSPITAL
5.71,2.41,40.95560,-90.36618,50059.06,11638.49,GALESBURG COTTAGE HOSPITAL
4.19,2.32,41.80160,-89.69714,32394.37,10685.87,CGH MEDICAL CENTER
3.61,2.32,38.32292,-88.91026,25704.25,10702.64,GOOD SAMARITAN REGIONAL HLTH CENTER
5.44,2.61,41.72636,-87.56727,46930.90,13983.72,ADVOCATE TRINITY HOSPITAL
5.78,2.79,41.89141,-87.77618,50869.87,16061.09,WEST SUBURBAN MEDICAL CENTER
5.44,2.53,42.05624,-87.74012,46983.68,13098.32,SKOKIE HOSPITAL
5.04,2.26,38.90787,-90.17207,42335.81,9971.52,SAINT ANTHONY'S HEALTH CENTER
4.85,2.50,39.80726,-89.64496,40037.21,12712.28,ST JOHNS HOSPITAL
5.18,2.62,41.83195,-87.79266,43947.59,14147.10,MACNEAL  HOSPITAL
3.96,2.44,39.74629,-90.25907,29750.71,11989.67,PASSAVANT AREA HOSPITAL
2.53,2.35,39.11040,-90.34312,13073.79,11043.07,JERSEY COMMUNITY HOSPITAL
5.71,2.45,41.66900,-87.81414,50128.94,12152.29,PALOS COMMUNITY HOSPITAL
5.37,2.39,41.87870,-87.80322,46121.54,11468.70,RUSH OAK PARK HOSPITAL
4.95,2.61,40.98818,-90.36374,41266.41,14032.30,ST MARY MEDICAL CENTER
5.91,2.47,41.79660,-87.88627,52396.77,12423.83,ADVENTIST LA GRANGE MEMORIAL HOSPITAL
6.34,2.56,40.70200,-89.59222,57402.72,13489.67,SAINT FRANCIS MEDICAL CENTER
5.63,2.75,41.69322,-87.62436,49202.14,15666.56,ROSELAND COMMUNITY HOSPITAL
3.31,2.64,38.57057,-90.10769,22176.00,14317.00,TOUCHETTE REGIONAL HOSPITAL INC
6.49,2.85,42.02578,-87.68371,59180.16,16782.89,RHC ST FRANCIS HOSPITAL
5.31,2.74,41.96698,-87.64941,45441.27,15538.97,LOUIS A WEISS MEMORIAL HOSPITAL
4.28,2.84,41.87259,-87.76181,33462.08,16738.83,LORETTO HOSPITAL
6.92,2.53,42.37840,-87.83329,64166.55,13034.16,VISTA MEDICAL CENTER EAST
10.60,3.38,41.78829,-87.60485,107070.97,22988.38,THE UNIVERSITY OF CHICAGO MEDICAL CENTER
3.17,2.41,40.44791,-90.66578,20547.92,11686.67,MC DONOUGH DISTRICT HOSPITAL
5.40,2.53,40.11696,-88.21506,46474.25,13049.31,CARLE FOUNDATION HOSPITAL
6.39,2.40,40.13811,-87.64569,58075.15,11547.82,PROVENA UNITED SAMARITANS MEDCTR-LOGAN
6.33,2.76,41.85543,-87.69810,57328.97,15820.97,SAINT ANTHONY HOSPITAL
5.32,2.55,41.36897,-88.42537,45584.19,13379.30,MORRIS HOSPITAL & HEALTHCARE CENTERS
5.08,2.85,41.77813,-87.63330,42777.82,16802.32,ST BERNARD HOSPITAL
3.83,2.48,41.35763,-88.82439,28212.34,12514.07,OTTAWA REGIONAL HOSPITAL & HEALTHCARE CENTER
5.90,2.44,40.11739,-88.22714,52288.37,12055.50,PROVENA COVENANT MEDICAL CENTER- URBANA
7.12,2.72,41.97532,-87.69958,66513.38,15301.87,SWEDISH COVENANT HOSPITAL
4.91,2.75,41.95453,-87.65225,40796.59,15664.65,THOREK MEMORIAL HOSPITAL
5.23,2.39,42.31832,-88.27920,44468.75,11432.68,CENTEGRA HEALTH SYSTEM - MC HENRY HOSPITAL
5.93,2.52,41.98743,-87.81440,52646.11,12963.82,RESURRECTION MEDICAL CENTER
5.32,2.51,41.65880,-87.67729,45559.21,12906.64,METROSOUTH MEDICAL CENTER
6.92,3.10,41.87497,-87.66927,64213.47,19758.95,RUSH UNIVERSITY MEDICAL CENTER
4.06,2.27,40.56211,-89.63314,30904.05,10054.02,PEKIN MEMORIAL HOSPITAL
5.96,2.44,41.80555,-87.92059,52970.42,12031.09,HINSDALE HOSPITAL
3.90,3.47,41.87381,-87.67421,29083.67,24007.33,JOHN H STROGER JR HOSPITAL
10.79,2.53,38.70148,-90.14382,109217.65,13070.52,GATEWAY REGIONAL MEDICAL CENTER
4.13,2.42,40.49639,-88.99106,31764.06,11839.07,BROMENN HEALTHCARE
5.90,2.35,42.25244,-87.86528,52285.88,10967.34,LAKE FOREST HOSPITAL
5.31,2.55,41.76946,-87.69239,45427.18,13330.84,HOLY CROSS HOSPITAL
4.38,2.36,39.86644,-88.96090,34657.10,11105.37,DECATUR MEMORIAL HOSPITAL
2.47,2.45,38.90365,-89.40770,12445.76,12121.16,GREENVILLE REGIONAL HOSPITAL
3.11,2.27,41.32884,-89.19262,19817.57,10092.86,ST MARGARETS HOSPITAL
2.95,2.36,38.62608,-89.52336,18008.93,11090.19,ST JOSEPHS HOSPITAL
3.13,2.39,38.73505,-88.07708,20076.64,11435.43,RICHLAND MEMORIAL HOSPITAL
4.51,2.45,39.80893,-89.65530,36133.59,12133.84,MEMORIAL MEDICAL CENTER
6.86,3.66,41.86927,-87.67052,63469.26,26263.63,UNIVERSITY OF ILLINOIS HOSPITAL
8.34,2.70,41.12049,-87.87187,80682.54,15108.51,PROVENA ST MARYS HOSPITAL
4.23,2.87,41.84639,-87.62345,32837.42,16992.97,MERCY HOSPITAL AND MEDICAL CENTER
5.06,2.39,42.29592,-89.63773,42561.84,11402.84,FHN MEMORIAL HOSPITAL
3.64,2.61,40.87085,-88.67943,25974.45,13964.32,SAINT JAMES HOSPITAL
5.42,2.38,40.48254,-88.95519,46780.18,11311.58,ST JOSEPH MEDICAL CENTER
3.68,2.37,37.72790,-89.22058,26526.52,11273.76,MEMORIAL HOSPITAL OF CARBONDALE
4.18,2.42,39.82659,-88.93119,32269.29,11779.50,ST MARYS HOSPITAL
2.58,2.39,40.76601,-87.73169,13661.63,11493.70,IROQUOIS MEMORIAL HOSPITAL
5.75,2.65,41.52283,-87.71111,50577.91,14519.91,FRANCISCAN ST JAMES HEALTH
7.00,2.53,41.78566,-88.32886,65110.78,13041.57,PROVENA MERCY MEDICAL CENTER
4.77,2.45,42.27597,-88.40019,39216.62,12120.29,CENTEGRA HEALTH SYSTEM - WOODSTOCK HOSPITAL
7.33,2.70,41.75746,-87.58559,68987.53,15042.95,JACKSON PARK HOSPITAL
5.99,2.50,41.72094,-87.69220,53397.26,12769.16,LITTLE COMPANY OF MARY HOSPITAL
6.76,2.89,41.90414,-87.68254,62373.08,17241.19,ST MARY & ELIZABETH MED CTR-DIVISION CAMPUS
4.60,2.64,41.74948,-87.56909,37155.89,14329.11,SOUTH SHORE HOSPITAL
7.33,3.02,41.93641,-87.65295,68934.89,18738.13,ADVOCATE ILLINOIS MASONIC MEDICAL CENTER
7.73,2.52,37.74480,-88.99329,73645.84,13025.75,HEARTLAND REGIONAL MEDICAL CENTER
5.02,2.34,38.55020,-90.02146,42114.10,10916.68,MEMORIAL HOSPITAL
5.16,2.54,41.12572,-87.88526,43723.29,13170.21,RIVERSIDE MEDICAL CENTER
4.02,2.32,38.51081,-89.99014,30428.97,10589.21,ST ELIZABETH HOSPITAL
3.72,2.32,39.48849,-88.27581,26919.78,10591.35,SARAH BUSH LINCOLN HEALTH CENTER
5.19,2.48,41.60726,-87.66060,44019.51,12554.51,INGALLS MEMORIAL HOSPITAL
4.33,2.67,41.97310,-87.67090,34054.75,14720.67,METHODIST HOSPITAL OF CHICAGO
6.87,2.53,41.86362,-87.93567,63569.93,13120.30,ELMHURST MEMORIAL HOSPITAL
7.15,2.47,42.27447,-87.95764,66863.24,12413.05,ADVOCATE CONDELL MEDICAL CENTER
6.28,3.01,41.90078,-87.69925,56703.62,18668.69,NORWEGIAN-AMERICAN HOSPITAL
5.80,2.82,41.72031,-87.73249,51200.67,16454.22,ADVOCATE CHRIST HOSPITAL & MEDICAL CENTER
5.32,2.55,40.70065,-89.59505,45608.02,13372.44,METHODIST MEDICAL CENTER OF ILLINOIS
3.08,2.31,37.73083,-88.52299,19537.41,10561.94,HARRISBURG MEDICAL CENTER
6.37,2.39,41.88566,-88.34311,57775.64,11433.00,DELNOR COMMUNITY HOSPITAL
5.47,2.49,41.54446,-87.98379,47320.49,12600.52,SILVER CROSS HOSPITAL  AND MEDICAL CENTERS
6.73,2.47,42.03576,-88.32575,62009.11,12398.10,PROVENA - SAINT JOSEPH HOSPITAL
5.47,2.75,42.03837,-87.84820,47331.37,15702.14,ADVOCATE LUTHERAN GENERAL HOSPITAL
6.46,2.80,41.93418,-87.63579,58877.88,16222.78,SAINT JOSEPH HOSPITAL
6.63,2.53,42.26584,-89.07428,60864.15,13061.43,SWEDISH AMERICAN HOSPITAL
5.77,2.37,41.76076,-88.15016,50837.01,11237.21,EDWARD HOSPITAL
4.86,2.31,42.26634,-89.00900,40247.94,10481.04,SAINT ANTHONY MEDICAL CENTER
4.96,2.56,42.29844,-89.09897,41401.64,13473.81,ROCKFORD MEMORIAL HOSPITAL
5.68,2.78,41.89166,-87.84838,49803.84,16053.20,WESTLAKE COMMUNITY HOSPITAL
7.30,2.51,41.87269,-88.15684,68621.46,12891.38,CENTRAL DUPAGE HOSPITAL
5.28,2.57,41.56720,-87.69566,45092.22,13507.45,ADVOCATE SOUTH SUBURBAN HOSPITAL
5.39,2.44,41.94560,-87.76897,46350.86,12098.64,OUR LADY OF THE RESURRECTION MED CTR
5.19,2.40,42.06732,-87.99368,44079.34,11576.44,NORTHWEST COMMUNITY HOSPITAL
7.47,2.42,42.00413,-88.01745,70610.43,11862.62,ALEXIAN BROTHERS MEDICAL CENTER
3.51,2.31,41.49581,-90.41871,24537.01,10504.61,GENESIS MEDICAL CENTER ILLINI CAMPUS
4.84,2.87,41.86110,-87.83404,39921.57,17020.66,LOYOLA UNIVERSITY MEDICAL CENTER
3.73,2.33,41.48200,-90.57158,27002.41,10727.45,TRINITY ROCK ISLAND
7.19,2.88,41.89477,-87.62131,67309.89,17207.52,NORTHWESTERN MEMORIAL HOSPITAL
6.11,2.41,41.96185,-88.72130,54801.36,11705.52,KISHWAUKEE COMMUNITY HOSPITAL
5.44,2.37,41.81791,-88.00907,46943.19,11199.65,ADVOCATE GOOD SAMARITAN HOSPITAL
3.70,2.28,38.73818,-89.94728,26718.11,10169.34,ANDERSON HOSPITAL
7.18,2.46,42.05260,-88.14173,67204.85,12239.89,ST ALEXIUS MEDICAL CENTER
4.94,2.49,42.19586,-88.17286,41164.55,12634.25,ADVOCATE GOOD SHEPHERD HOSPITAL
6.08,2.95,41.91465,-88.05724,54459.45,18001.11,ADVENTIST GLENOAKS
4.74,2.47,38.31198,-88.93514,38866.92,12401.15,CROSSROADS COMMUNITY HOSPITAL
5.22,2.41,41.68062,-88.08319,44359.81,11663.73,ADVENTIST BOLINGBROOK HOSPITAL
3.79,2.28,39.48010,-86.07773,27764.28,10193.44,JOHNSON MEMORIAL HOSPITAL
4.54,2.58,41.59920,-87.35764,36534.84,13695.69,METHODIST HOSPITALS INC
4.34,2.33,40.42687,-86.88197,34107.97,10745.47,FRANCISCAN ST ELIZABETH HEALTH - LAFAYETTE CENTRAL
5.36,2.58,41.61514,-87.52413,46068.66,13630.41,FRANCISCAN ST MARGARET HEALTH - HAMMOND
3.59,2.38,39.76255,-86.50165,25394.48,11382.08,HENDRICKS REGIONAL HEALTH
6.29,2.46,41.61055,-86.72511,56883.10,12305.00,INDIANA UNIVERSITY HEALTH LA PORTE HOSPITAL
3.49,2.26,40.44665,-86.12707,24266.54,9993.07,HOWARD REGIONAL HEALTH SYSTEM
3.91,2.52,41.63466,-87.44901,29151.55,12973.13,ST CATHERINE HOSPITAL INC
3.81,2.33,38.28244,-85.74923,27986.38,10808.55,CLARK MEMORIAL HOSPITAL
4.66,2.33,40.48720,-86.15548,37885.96,10753.52,ST JOSEPH HOSPITAL & HEALTH CENTER INC
3.60,2.35,40.56435,-85.66576,25551.28,10940.98,MARION GENERAL HOSPITAL
4.27,2.46,41.70877,-86.17026,33306.00,12267.55,SAINT JOSEPH REGIONAL MEDICAL CENTER
4.85,2.51,41.70639,-86.89936,40116.29,12852.89,FRANCISCAN ST ANTHONY HEALTH - MICHIGAN CITY
5.84,2.49,41.03874,-85.24876,51598.85,12624.90,LUTHERAN HOSPITAL OF INDIANA
4.39,2.36,41.70568,-85.93404,34778.96,11156.33,ELKHART GENERAL HOSPITAL
4.41,2.45,41.04659,-85.10906,34948.22,12175.15,PARKVIEW REGIONAL MEDICAL CENTER
4.45,2.41,39.48518,-87.40893,35455.13,11740.00,UNION HOSPITAL INC
3.54,2.86,39.78091,-86.17629,24792.26,16987.44,WILLIAM N WISHARD MEMORIAL HOSPITAL
4.13,2.29,41.56352,-85.83039,31687.14,10249.43,IU HEALTH GOSHEN HOSPITAL
4.68,2.43,39.94340,-85.36306,38124.11,11913.50,HENRY COUNTY MEMORIAL HOSPITAL
4.62,2.37,39.72432,-86.10055,37399.66,11234.30,FRANCISCAN ST FRANCIS HEALTH - BEECH GROVE
4.22,2.37,41.51266,-87.26125,32783.83,11275.58,ST MARY MEDICAL CENTER INC
5.03,2.41,41.46729,-87.05130,42167.43,11744.73,PORTER VALPARAISO HOSPITAL
3.18,2.21,39.79490,-85.76770,20638.99,9338.47,HANCOCK REGIONAL HOSPITAL
3.92,2.32,39.42628,-86.40515,29248.28,10665.56,INDIANA UNIVERSITY HEALTH MORGAN HOSPITAL INC
3.18,2.25,38.67313,-87.53370,20706.31,9867.67,GOOD SAMARITAN HOSPITAL
4.65,2.31,38.30195,-85.83409,37767.39,10533.03,FLOYD MEMORIAL HOSPITAL AND HEALTH SERVICES
5.63,2.37,39.41951,-87.40898,49222.22,11210.60,TERRE HAUTE REGIONAL HOSPITAL
6.03,2.60,41.07820,-85.14936,53813.51,13908.16,ST JOSEPH HOSPITAL
3.32,2.45,39.86405,-84.88413,22296.84,12129.75,REID HOSPITAL & HEALTH CARE SERVICES
3.72,2.39,39.16006,-86.54038,26930.71,11456.38,INDIANA UNIVERSITY HEALTH BLOOMINGTON HOSPITAL
6.06,2.91,39.79009,-86.16260,54134.64,17526.97,INDIANA UNIVERSITY HEALTH
5.14,2.48,41.68479,-86.25217,43475.03,12501.67,MEMORIAL HOSPITAL OF SOUTH BEND
3.83,2.40,40.04526,-86.02297,28172.27,11547.20,RIVERVIEW HOSPITAL
2.66,2.24,38.65870,-87.16032,14573.53,9758.75,DAVIESS COMMUNITY HOSPITAL
3.66,2.39,39.65626,-85.13265,26259.17,11433.02,FAYETTE REGIONAL HEALTH SYSTEM
3.92,2.42,38.95542,-85.89223,29233.06,11789.76,SCHNECK MEDICAL CENTER
3.81,2.31,38.73589,-85.37996,27988.29,10479.44,KING'S DAUGHTERS' HOSPITAL AND HEALTH SERVICES,THE
3.42,2.60,40.76324,-86.36162,23476.07,13906.14,MEMORIAL HOSPITAL
4.28,2.48,39.78704,-86.07673,33402.14,12534.17,COMMUNITY HOSPITAL EAST
4.64,2.25,40.73751,-85.17118,37629.92,9860.92,BLUFFTON REGIONAL MEDICAL CENTER
3.57,2.46,41.33298,-86.33336,25206.56,12233.15,SAINT JOSEPH'S REGIONAL MEDICAL CENTER - PLYMOUTH
4.78,2.39,37.98293,-87.57072,39290.80,11450.91,DEACONESS HOSPITAL INC
5.35,2.52,39.91001,-86.19660,45947.33,13006.15,ST VINCENT HOSPITAL & HEALTH SERVICES
3.92,2.29,39.11138,-84.88343,29245.14,10247.79,DEARBORN COUNTY HOSPITAL
5.34,2.47,40.09594,-85.68152,45774.45,12448.88,SAINT JOHN'S HEALTH SYSTEM
4.78,2.48,40.19679,-85.41573,39281.03,12555.18,INDIANA UNIVERSITY HEALTH BALL MEMORIAL HOSPITAL
4.61,2.39,41.49222,-87.52429,37245.96,11404.82,FRANCISCAN ST MARGARET HEALTH - DYER
4.16,2.36,39.52494,-85.78113,32111.98,11138.53,MAJOR HOSPITAL
4.40,2.33,37.96320,-87.50292,34871.41,10712.65,ST MARY'S MEDICAL CENTER OF EVANSVILLE INC
4.26,2.39,40.07620,-86.47506,33185.94,11403.75,WITHAM HEALTH SERVICES
5.00,2.38,40.39424,-86.83516,41879.75,11304.48,FRANCISCAN ST ELIZABETH HEALTH - LAFAYETTE EAST
3.61,2.46,39.21585,-85.89683,25614.32,12262.39,COLUMBUS REGIONAL HOSPITAL
4.42,2.52,40.12998,-85.69436,35037.73,13003.06,COMMUNITY HOSPITAL OF ANDERSON AND MADISON COUNTY
2.95,2.23,38.39499,-86.94089,18028.25,9592.72,MEMORIAL HOSPITAL AND HEALTH CARE CENTER
4.64,2.41,41.55065,-87.50619,37681.57,11735.59,COMMUNITY HOSPITAL
4.52,2.36,41.39576,-87.36689,36217.97,11072.63,FRANCISCAN ST ANTHONY HEALTH - CROWN POINT
4.02,2.31,39.63776,-86.13260,30443.53,10498.61,COMMUNITY HOSPITAL SOUTH
6.71,2.95,39.82100,-86.22251,61697.71,17963.93,WESTVIEW HOSPITAL
4.86,2.29,41.24786,-85.82927,40250.93,10325.14,KOSCIUSKO COMMUNITY HOSPITAL
4.95,2.45,41.17488,-85.10943,41231.46,12196.62,DUPONT HOSPITAL LLC
4.65,2.32,39.98275,-86.14343,37824.03,10620.53,ST VINCENT CARMEL HOSPITAL INC
5.25,2.55,39.78047,-86.34084,44738.57,13290.36,IU HEALTH WEST HOSPITAL
5.61,2.43,39.95930,-86.16016,48951.07,11874.33,INDIANA UNIVERSITY HEALTH NORTH HOSPITAL
4.82,2.42,39.64935,-86.07960,39767.62,11765.28,FRANCISCAN ST FRANCIS HEALTH - INDIANAPOLIS
4.01,2.39,39.90060,-86.04218,30282.21,11464.72,COMMUNITY HOSPITAL NORTH
4.98,2.39,40.40296,-86.80885,41613.00,11433.07,INDIANA UNIVERSITY HEALTH ARNETT HOSPITAL
3.19,2.35,42.04855,-92.90625,20723.02,10943.63,MARSHALLTOWN MEDICAL & SURGICAL CENTER
2.55,2.42,40.40766,-91.38808,13375.45,11822.55,KEOKUK AREA HOSPITAL
3.41,2.63,41.43313,-91.05476,23387.76,14224.76,TRINITY MUSCATINE
4.16,2.39,42.49388,-94.18926,32015.89,11504.67,TRINITY REGIONAL MEDICAL CENTER
3.96,2.43,41.60051,-93.61086,29701.88,11947.23,IOWA LUTHERAN HOSPITAL
6.36,2.50,41.26886,-95.83923,57627.10,12707.05,ALEGENT HEALTH MERCY HOSPITAL
4.04,2.32,41.66411,-91.52841,30705.78,10591.34,MERCY HOSPITAL
4.15,2.34,42.03321,-93.61164,31933.47,10857.93,MARY GREELEY MEDICAL CENTER
3.88,2.36,41.54190,-90.55691,28761.93,11153.06,GENESIS MEDICAL CENTER-DAVENPORT
4.74,2.38,41.98570,-91.66093,38813.33,11315.17,ST LUKES HOSPITAL
3.58,2.31,41.26786,-95.83505,25281.17,10544.93,JENNIE EDMUNDSON HOSPITAL
3.85,2.34,40.81009,-91.17356,28490.80,10914.86,GREAT RIVER MEDICAL CENTER
5.85,3.20,41.66092,-91.54800,51750.38,20934.63,UNIVERSITY OF IOWA HOSPITAL & CLINICS
3.71,2.34,43.15063,-93.21718,26875.75,10848.86,MERCY MEDICAL CENTER-NORTH IOWA
3.58,2.36,42.46407,-92.34532,25298.07,11100.76,COVENANT MEDICAL CENTER
3.45,2.22,42.49227,-90.67404,23844.46,9529.53,MERCY MEDICAL CENTER-DUBUQUE
4.05,2.30,41.97864,-91.65507,30750.22,10443.65,MERCY MEDICAL CENTER - CEDAR RAPIDS
3.97,2.41,41.86141,-90.18921,29846.80,11737.08,MERCY MEDICAL CENTER-CLINTON
5.03,2.47,41.58955,-93.63248,42234.43,12354.46,IOWA METHODIST MEDICAL CENTER
5.24,2.45,41.59886,-93.62344,44647.68,12181.69,MERCY MEDICAL CENTER-DES MOINES
3.34,2.31,41.02751,-92.38994,22478.40,10485.46,OTTUMWA REGIONAL HEALTH CENTER
3.46,2.28,41.56571,-90.51968,23904.00,10210.58,TRINITY BETTENDORF
3.83,2.35,42.52665,-92.33957,28262.52,10940.94,ALLEN MEMORIAL HOSPITAL
2.97,2.24,42.49632,-90.68587,18194.83,9709.48,THE FINLEY HOSPITAL
2.72,2.31,40.62419,-91.38232,15310.34,10520.11,FORT MADISON COMMUNITY HOSPITAL
4.10,2.46,42.51846,-96.40581,31359.97,12311.88,ST LUKES REGIONAL MEDICAL CENTER
2.74,2.36,41.74325,-92.73450,15483.95,11120.86,GRINNELL REGIONAL MEDICAL CENTER
3.94,2.30,42.49250,-96.39975,29480.24,10417.40,MERCY MEDICAL CENTER-SIOUX CITY
4.04,2.44,38.41149,-96.19524,30684.00,11985.39,NEWMAN REGIONAL HEALTH
4.11,2.36,37.37991,-94.68739,31440.35,11113.91,VIA CHRISTI HOSPITAL PITTSBURG INC
4.29,2.27,39.28218,-94.90368,33568.94,10069.71,SAINT JOHN HOSPITAL
3.70,2.38,37.22472,-95.71690,26689.64,11287.07,MERCY HOSPITAL OF KANSAS INDEPENDENCE
5.30,2.44,38.83324,-97.61028,45317.86,12034.19,SALINA REGIONAL HEALTH CENTER
6.31,2.60,38.87847,-99.29923,57070.30,13918.00,HAYS MEDICAL CENTER
4.00,2.35,38.59724,-95.26874,30177.08,11003.23,RANSOM MEMORIAL HOSPITAL
3.71,2.30,39.05660,-95.69599,26795.53,10455.79,ST FRANCIS HEALTH CENTER INC
4.70,2.52,38.07731,-97.89183,38329.82,12965.12,HUTCHINSON REGIONAL MEDICAL CENTER INC
4.56,2.81,37.97004,-100.86878,36694.23,16321.77,ST CATHERINE HOSPITAL
7.23,2.71,39.05583,-94.60912,67776.47,15240.99,UNIVERSITY OF KANSAS HOSPITAL
4.57,2.28,38.85279,-94.82413,36803.53,10206.60,OLATHE MEDICAL CENTER
5.66,2.47,39.05128,-95.69572,49563.38,12344.24,STORMONT-VAIL HEALTHCARE
3.80,2.26,38.02419,-97.33117,27865.95,9962.31,NEWTON MEDICAL CENTER
5.60,2.28,38.99549,-94.69061,48801.65,10237.67,SHAWNEE MISSION MEDICAL CENTER
3.44,2.37,37.32093,-95.26537,23674.76,11190.43,LABETTE HEALTH
5.86,2.50,37.70405,-97.31386,51856.64,12720.82,VIA CHRISTI HOSPITALS WICHITA INC
7.90,2.68,37.69556,-97.29785,75582.19,14782.61,WESLEY MEDICAL CENTER
3.17,2.32,38.97848,-95.24771,20514.42,10665.03,LAWRENCE MEMORIAL HOSPITAL
3.85,2.25,39.20164,-96.60003,28467.40,9809.36,MERCY REGIONAL HEALTH CENTER
2.87,2.22,37.04095,-95.63956,17023.73,9498.98,COFFEYVILLE REGIONAL MEDICAL CENTER
5.47,2.37,39.12677,-94.78643,47310.19,11249.59,PROVIDENCE MEDICAL CENTER
2.39,2.39,37.13278,-97.03849,11487.79,11483.79,SOUTH CENTRAL KS  MED CENTER
4.74,2.51,37.78537,-100.01492,38871.00,12824.96,WESTERN PLAINS MEDICAL COMPLEX
8.21,2.36,38.93763,-94.72630,79205.93,11163.40,OVERLAND PARK REG MED CTR
7.17,2.31,38.91047,-94.65205,67136.97,10566.82,MENORAH MEDICAL CENTER
5.94,2.31,38.90355,-94.66966,52755.67,10561.60,SAINT LUKE'S SOUTH HOSPITAL
3.16,2.26,37.73142,-97.26078,20464.40,9989.02,GALICHIA HEART HOSPITAL LLC
3.39,2.25,37.72341,-97.14628,23106.42,9861.00,KANSAS MEDICAL CENTER LLC
5.33,2.17,37.66639,-97.49224,45706.33,8886.00,VIA CHRISTI HOSPITAL WICHITA ST TERESA INC
4.41,2.37,39.07816,-84.46695,34978.30,11220.15,ST ELIZABETH FT THOMAS
4.16,2.24,37.11520,-82.81022,32086.38,9696.57,WHITESBURG ARH HOSPITAL
3.34,2.30,37.19610,-87.18933,22502.89,10459.89,MUHLENBERG COMMUNITY HOSPITAL
3.54,2.41,37.72943,-82.76716,24833.26,11698.54,HIGHLANDS REGIONAL MEDICAL CENTER
4.16,2.41,38.47021,-82.63498,32087.60,11726.21,KING'S DAUGHTERS' MEDICAL CENTER
3.96,2.34,38.03140,-84.52194,29684.22,10888.54,SAINT JOSEPH HOSPITAL
4.35,2.42,37.11784,-84.10910,34232.96,11846.74,SAINT JOSEPH HOSPITAL LONDON
3.02,2.28,37.71183,-85.87623,18849.21,10175.67,HARDIN MEMORIAL HOSPITAL
4.33,2.39,36.99641,-86.43006,34058.41,11417.57,THE MEDICAL CENTER AT BOWLING GREEN
3.72,2.25,38.20960,-85.23598,26892.33,9798.00,JEWISH HOSPITAL - SHELBYVILLE
3.09,2.39,37.01079,-85.90342,19603.17,11403.32,T J SAMSON COMMUNITY HOSPITAL
3.83,2.48,38.18397,-83.43268,28214.91,12466.98,ST CLAIRE REGIONAL MEDICAL CENTER
3.34,2.30,37.86188,-85.52322,22519.53,10361.04,FLAGET MEMORIAL HOSPITAL (MEMBER OF SAINT JOSEPH H
4.21,2.37,36.60798,-88.30957,32677.74,11219.11,MURRAY-CALLOWAY COUNTY HOSPITAL
5.59,2.42,37.27729,-83.22802,48668.54,11784.68,HAZARD ARH REGIONAL MEDICAL CENTER
4.86,2.53,39.06704,-84.49946,40185.68,13101.08,ST ELIZABETH MEDICAL CENTER NORTH
4.08,2.37,38.50697,-82.69222,31134.26,11202.31,OUR LADY OF BELLEFONTE HOSPITAL
3.93,2.57,37.76518,-87.10197,29418.53,13500.13,OWENSBORO MEDICAL HEALTH SYSTEM
4.81,2.52,38.24927,-85.75081,39607.10,12975.59,JEWISH HOSPITAL & ST MARY'S HEALTHCARE
4.88,2.49,37.16218,-83.76137,40458.68,12615.97,MEMORIAL HOSPITAL
7.05,2.66,37.47264,-82.52605,65666.34,14591.88,PIKEVILLE MEDICAL CENTER
4.67,2.45,39.01660,-84.63078,37984.39,12147.40,ST ELIZABETH FLORENCE
2.95,2.20,38.22249,-84.23816,17979.73,9291.93,BOURBON COMMUNITY HOSPITAL
3.33,2.37,37.64378,-84.77272,22386.59,11193.96,EPHRAIM MCDOWELL REGIONAL MEDICAL CENTER
2.99,2.47,37.73107,-84.29238,18452.12,12337.31,PATTIE A CLAY REGIONAL MEDICAL CENTER
3.47,2.36,36.80963,-83.31313,24082.62,11126.31,HARLAN APPALACHIAN REGIONAL HEALTHCARE HOSPITAL
3.48,2.27,36.86034,-87.49528,24093.80,10006.43,JENNIE STUART MEDICAL CENTER
3.99,2.47,37.85504,-87.58345,30062.61,12362.91,METHODIST HOSPITAL
3.02,2.37,38.07683,-83.94761,18842.79,11273.12,SAINT JOSEPH MOUNT STERLING
3.53,2.28,36.81465,-86.88220,24775.25,10147.67,LOGAN MEMORIAL HOSPITAL
5.82,2.93,38.03282,-84.50674,51423.10,17712.49,UNIVERSITY OF KENTUCKY HOSPITAL
3.21,2.35,37.67604,-82.29731,21027.57,11025.26,WILLIAMSON ARH HOSPITAL
3.78,2.38,37.47273,-86.28820,27629.61,11316.14,TWIN LAKES REGIONAL MEDICAL CENTER
9.30,2.28,37.81455,-82.81102,91852.22,10180.33,PAUL B HALL REGIONAL MEDICAL CENTER
4.05,2.35,36.92128,-84.11838,30831.26,11024.78,BAPTIST REGIONAL MEDICAL CENTER
3.78,2.38,37.36583,-85.33917,27586.74,11361.55,TAYLOR REGIONAL HOSPITAL
4.98,2.49,38.24806,-85.75125,41553.94,12646.16,NORTON HOSPITALS, INC
2.92,2.35,38.00003,-84.19667,17673.41,11021.24,CLARK REGIONAL MEDICAL CENTER
3.90,2.41,37.33959,-87.48988,29067.78,11700.20,REGIONAL MEDICAL CENTER OF HOPKINS COUNTY
2.57,2.28,37.32930,-88.08884,13543.62,10196.05,CRITTENDEN HEALTH SYSTEM
4.30,2.25,38.18660,-84.56120,33732.23,9811.77,GEORGETOWN COMMUNITY HOSPITAL
3.63,2.25,37.06431,-88.67523,25864.38,9868.95,LOURDES HOSPITAL
5.07,2.49,38.01849,-84.51236,42621.22,12591.21,CENTRAL BAPTIST HOSPITAL
3.40,2.28,37.07404,-88.62685,23204.72,10133.58,WESTERN BAPTIST HOSPITAL
3.89,2.33,36.75751,-88.65129,28917.83,10733.92,JACKSON PURCHASE MEDICAL CENTER
3.47,2.28,36.51878,-88.89564,24012.27,10193.82,PARKWAY REGIONAL HOSPITAL
5.73,2.48,36.96603,-86.43639,50356.75,12452.96,GREENVIEW REGIONAL HOSPITAL
4.84,2.38,38.16020,-84.90519,40017.50,11316.82,FRANKFORT REGIONAL MEDICAL CENTER
4.80,2.23,38.11425,-82.60321,39503.82,9557.18,THREE RIVERS MEDICAL CENTER
3.52,2.26,38.23898,-85.63941,24559.28,9905.64,BAPTIST HOSPITAL EAST
5.63,2.49,37.08724,-84.61828,49124.86,12592.12,LAKE CUMBERLAND REGIONAL HOSPITAL
3.26,2.27,38.39635,-85.37324,21557.12,10058.21,BAPTIST HOSPITAL NORTHEAST
4.92,2.10,37.56166,-83.37202,40947.33,8032.88,KENTUCKY RIVER MEDICAL CENTER
7.75,2.76,38.24802,-85.74464,73843.10,15795.25,UNIVERSITY OF LOUISVILLE HOSPITAL
3.69,2.42,37.99944,-84.43941,26635.78,11781.61,SAINT JOSEPH EAST
3.29,2.44,37.09412,-85.29359,21893.00,12035.89,WESTLAKE REGIONAL HOSPITAL
3.85,2.36,30.77914,-89.86795,28407.14,11145.95,WASHINGTON ST TAMMANY  REGIONAL MEDICAL CENTER
5.04,2.41,30.20227,-92.01906,42263.99,11679.22,LAFAYETTE GENERAL MEDICAL CENTER
5.76,2.56,30.00890,-91.79475,50714.80,13424.02,DAUTERIVE HOSPITAL
4.59,2.25,29.77956,-90.80568,37018.52,9872.41,THIBODAUX REGIONAL MEDICAL CENTER
3.92,3.00,29.95958,-90.07701,29220.33,18557.40,CHARITY HOSPITAL & MEDICAL CENTER OF LOUI AT NO
3.64,2.37,31.75235,-93.07788,25984.17,11246.72,NATCHITOCHES REGIONAL MEDICAL CENTER
4.64,2.38,29.59851,-90.71397,37651.14,11321.13,TERREBONNE GENERAL MEDICAL CENTER
3.91,2.25,30.22981,-93.36867,29113.87,9847.38,WEST CALCASIEU CAMERON HOSPITAL
4.56,2.49,29.69402,-91.20867,36705.23,12573.13,TECHE REGIONAL MEDICAL CENTER
11.24,2.56,30.46813,-90.45814,114494.94,13484.83,NORTH OAKS MEDICAL CENTER, LLC
3.70,2.46,30.54354,-92.07608,26710.95,12250.75,OPELOUSAS GENERAL HEALTH SYSTEM
5.54,2.35,31.28258,-92.46060,48119.62,11007.11,CHRISTUS ST FRANCES CABRINI HOSPITAL
5.29,2.34,30.65001,-91.13821,45242.41,10829.47,LANE REGIONAL MEDICAL CENTER
5.78,2.29,30.64108,-92.41842,50881.75,10288.00,SAVOY MEDICAL CENTER
7.08,2.47,31.31451,-92.44997,66018.31,12373.71,RAPIDES REGIONAL MEDICAL CENTER
6.23,2.37,30.21521,-93.22682,56144.30,11228.37,CHRISTUS ST PATRICK HOSPITAL
4.58,2.57,30.01875,-90.19452,36977.90,13503.18,OCHSNER FOUNDATION HOSPITAL
4.65,2.41,29.89089,-90.09395,37737.15,11657.96,WEST JEFFERSON MEDICAL CENTER
5.76,2.33,30.28456,-89.77038,50663.69,10749.15,SLIDELL MEMORIAL HOSPITAL AND MEDICAL CENTER
5.53,2.43,32.49443,-93.75011,48019.55,11882.67,CHRISTUS SCHUMPERT HEALTH SYSTEM
2.34,2.30,30.22762,-92.36253,10886.11,10414.73,AMERICAN LEGION HOSPITAL
7.77,2.43,30.46834,-90.11383,74033.71,11870.70,ST TAMMANY PARISH HOSPITAL
7.94,2.63,29.92596,-90.09191,76096.64,14282.53,TOURO INFIRMARY
5.69,2.34,30.84189,-93.28906,49826.93,10859.46,BEAUREGARD MEMORIAL HOSPITAL
3.82,2.28,30.23913,-92.66205,28147.39,10229.80,JENNINGS AMERICAN LEGION HOSPITAL
5.17,2.25,29.98815,-91.78471,43783.14,9842.17,IBERIA GENERAL HOSPITAL AND MEDICAL CENTER
5.67,2.44,30.20458,-93.19774,49603.18,12033.19,LAKE CHARLES MEMORIAL HOSPITAL
3.77,2.43,30.40118,-91.11160,27521.50,11887.03,OUR LADY OF THE LAKE REGIONAL MEDICAL CENTER
3.17,2.49,30.45015,-91.15273,20541.32,12622.24,BATON ROUGE GENERAL MEDICAL CENTER
4.80,2.37,32.51544,-92.63343,39555.19,11205.85,NORTHERN LOUISIANA MEDICAL CENTER
3.19,2.83,32.48177,-93.76264,20811.86,16528.73,LSU HEALTH SCIENCES CENTER - SHREVEPORT
4.85,2.34,31.14344,-92.06453,40079.38,10885.83,AVOYELLES HOSPITAL
3.88,2.33,30.15052,-92.03698,28815.33,10784.18,OUR LADY OF LOURDES REGIONAL MEDICAL CENTER, INC
4.66,2.65,30.81615,-92.64383,37941.03,14500.23,OAKDALE COMMUNITY HOSPITAL
5.32,2.39,32.48393,-93.77884,45545.07,11511.37,WILLIS KNIGHTON MEDICAL CENTER
3.71,2.41,32.79391,-93.06245,26856.16,11651.04,HOMER MEMORIAL HOSPITAL
4.28,2.37,32.49997,-92.11359,33479.80,11256.35,ST FRANCIS MEDICAL CENTER
4.68,2.28,29.93718,-90.10329,38120.67,10205.89,OCHSNER BAPTIST MEDICAL CENTER LLC
4.06,2.46,32.61700,-93.28566,30929.03,12244.15,MINDEN MEDICAL CENTER
4.41,2.31,30.01438,-90.18155,35006.31,10534.65,EAST JEFFERSON GENERAL HOSPITAL
5.55,2.35,32.51315,-92.15713,48194.00,10950.58,GLENWOOD REGIONAL MEDICAL CENTER
7.37,2.34,31.13861,-93.26892,69377.96,10926.54,BYRD REGIONAL HOSPITAL
4.43,2.46,30.68494,-92.26601,35211.24,12316.82,MERCY REGIONAL MEDICAL CENTER
5.29,2.60,30.07331,-90.51602,45264.37,13906.58,RIVER PARISHES HOSPITAL
8.72,2.83,29.95570,-90.07587,85151.13,16595.77,TULANE MEDICAL CENTER
6.74,2.34,30.47547,-90.10091,62087.30,10840.14,LAKEVIEW REGIONAL MEDICAL CENTER
2.86,2.58,29.57147,-90.68974,16902.09,13707.18,LEONARD J CHABERT MEDICAL CENTER
3.67,2.34,30.43973,-91.00727,26326.73,10830.90,OCHSNER MEDICAL CENTER-BATON ROUGE
9.63,2.43,30.28681,-89.74295,95775.32,11934.02,OCHSNER MEDICAL CENTER - NORTHSHORE, LLC
8.21,2.69,30.19775,-92.07724,79200.29,14970.38,THE REGIONAL MEDICAL CENTER OF ACADIANA
5.30,2.26,32.55761,-93.71874,45375.68,9960.31,WILLIS KNIGHTON BOSSIER HEALTH CENTER
3.33,2.37,30.20918,-90.93215,22446.26,11184.61,ST ELIZABETH HOSPITAL
5.31,2.31,30.35437,-89.91917,45465.43,10506.00,LOUISIANA MEDICAL CENTER AND HEART HOSPITAL, LLC
7.40,2.57,29.99409,-90.24174,69720.00,13605.00,OCHSNER MEDICAL CENTER-KENNER LLC
3.59,2.40,44.81469,-68.77153,25463.18,11549.62,ST JOSEPH HOSPITAL
3.98,2.90,44.02611,-69.52811,30000.28,17401.81,MILES MEMORIAL HOSPITAL (LINCOLN COUNTY HEALTHCARE
3.32,2.40,43.65159,-70.26482,22291.48,11548.16,MERCY HOSPITAL
4.51,2.75,43.65325,-70.27533,36085.92,15593.34,MAINE MEDICAL CENTER
3.85,2.60,46.67663,-67.99905,28479.17,13954.40,AROOSTOOK MEDICAL CENTER,THE
3.86,2.47,43.47840,-70.49221,28514.94,12375.50,SOUTHERN MAINE MEDICAL CENTER
4.42,2.31,53.96230,-1.08188,35057.33,10480.70,YORK HOSPITAL
3.82,2.37,43.90901,-69.89611,28058.79,11248.73,MID COAST HOSPITAL
3.72,2.46,44.10107,-70.21432,26950.57,12295.16,CENTRAL MAINE MEDICAL CENTER
6.22,2.94,43.91137,-69.81471,56028.08,17834.17,PARKVIEW ADVENTIST MEDICAL CENTER
3.13,2.43,35.79154,-78.78112,20129.94,11870.26,CARY MEDICAL CENTER
4.52,2.62,44.80988,-68.74929,36262.32,14133.43,EASTERN MAINE MEDICAL CENTER
4.26,2.54,44.10276,-70.20093,33245.35,13196.53,ST MARYS REGIONAL MEDICAL CENTER
3.70,2.63,44.62294,-70.16307,26751.85,14286.56,FRANKLIN MEMORIAL HOSPITAL
4.58,2.57,45.25378,-69.44547,36953.73,13564.59,MAINE GENERAL MEDICAL CENTER
3.14,2.29,43.44850,-70.76743,20149.70,10283.19,HENRIETTA D GOODALL HOSPITAL
3.75,2.38,44.54695,-68.41654,27253.62,11294.31,MAINE COAST MEMORIAL HOSPITAL
3.36,2.87,47.26827,-68.59140,22760.08,17069.25,NORTHERN MAINE MEDICAL CENTER
3.75,2.59,44.14436,-69.08577,27294.50,13809.10,PENOBSCOT BAY MEDICAL CENTER
2.88,2.79,39.62183,-77.68219,17107.49,16106.03,MERITUS MEDICAL CENTER
4.19,4.04,39.28817,-76.62438,32469.02,30663.74,UNIVERSITY OF MARYLAND MEDICAL CENTER
3.61,3.48,38.93090,-76.92161,25674.41,24133.93,PRINCE GEORGES HOSPITAL CENTER
2.95,2.86,39.01578,-77.03591,18025.43,16967.71,HOLY CROSS HOSPITAL
2.78,2.70,39.42366,-77.41386,15972.29,15044.86,FREDERICK MEMORIAL HOSPITAL
2.59,2.52,39.54345,-76.09153,13737.65,12927.85,HARFORD MEMORIAL HOSPITAL
2.71,2.63,39.38813,-76.61068,15156.74,14243.49,SAINT JOSEPH MEDICAL CENTER
3.93,3.78,39.29297,-76.61314,29389.84,27626.63,MERCY MEDICAL CENTER INC
5.42,5.19,39.29688,-76.59242,46747.09,44003.91,JOHNS HOPKINS HOSPITAL, THE
3.28,3.17,39.27352,-76.67219,21792.53,20496.48,SAINT AGNES HOSPITAL
3.05,2.95,39.35262,-76.66196,19089.49,17960.26,SINAI HOSPITAL OF BALTIMORE
3.38,3.26,39.28833,-76.64912,22963.95,21586.16,BON SECOURS HOSPITAL
3.11,3.06,39.35169,-76.47919,19834.32,19222.93,FRANKLIN SQUARE HOSPITAL CENTER
3.82,3.68,38.98482,-77.00139,28106.91,26420.49,WASHINGTON ADVENTIST HOSPITAL
2.59,2.52,39.41339,-79.40103,13753.76,12955.34,GARRETT COUNTY MEMORIAL HOSPITAL
3.02,2.92,39.15402,-77.05431,18790.77,17669.66,MONTGOMERY GENERAL HOSPITAL INC
3.11,3.01,38.36248,-75.59799,19880.63,18708.94,PENINSULA REGIONAL MEDICAL CENTER
2.97,2.88,38.99743,-77.11048,18236.48,17142.28,SUBURBAN HOSPITAL
2.77,2.69,38.99014,-76.53398,15905.69,14975.77,ANNE ARUNDEL MEDICAL CENTER
2.77,2.69,39.32930,-76.61432,15830.64,14897.49,UNION MEMORIAL HOSPITAL
2.75,2.67,39.64928,-78.73206,15657.72,14718.23,WESTERN MARYLAND REGIONAL MEDICAL CENTER
2.99,2.90,38.29124,-76.63579,18491.23,17381.71,SAINT MARY'S HOSPITAL
3.54,3.41,39.29100,-76.54623,24812.70,23357.95,JOHNS HOPKINS BAYVIEW MEDICAL CENTER
2.87,2.78,39.21770,-76.06494,17012.62,15991.88,CHESTER RIVER HOSPITAL CENTER
2.67,2.60,39.60859,-75.83201,14736.98,13864.36,UNION HOSPITAL OF CECIL COUNTY
2.80,2.73,39.55808,-76.99107,16223.80,15381.11,CARROLL HOSPITAL CENTER
3.26,3.15,39.25189,-76.61399,21598.64,20311.98,HARBOR HOSPITAL
2.72,2.65,38.52905,-76.97068,15342.84,14431.68,CIVISTA MEDICAL CENTER
2.91,2.82,38.76970,-76.07697,17474.33,16425.86,MEMORIAL HOSPITAL AT EASTON
3.65,3.52,39.29994,-76.62138,26144.79,24576.06,MARYLAND GENERAL  HOSPITAL
2.70,2.63,38.55963,-76.59455,15067.70,14235.78,CALVERT MEMORIAL HOSPITAL
2.85,2.77,39.35852,-76.78208,16846.45,15844.11,NORTHWEST HOSPITAL CENTER
2.87,2.79,39.13732,-76.62228,17068.32,16066.00,BALTIMORE WASHINGTON  MEDICAL CENTER
2.97,2.87,39.39017,-76.62216,18156.94,17083.92,GREATER BALTIMORE MEDICAL CENTER
3.00,2.90,37.99754,-75.85256,18514.73,17403.73,EDWARD MCCREADY MEMORIAL HOSPITAL
2.71,2.63,39.21273,-76.88526,15129.97,14246.18,HOWARD COUNTY GENERAL HOSPITAL
2.49,2.43,39.51870,-76.34688,12656.32,11913.68,UPPER CHESAPEAKE MEDICAL CENTER
3.14,3.04,38.96851,-76.86203,20225.29,19030.45,DOCTORS'  COMMUNITY HOSPITAL
3.07,2.97,38.74827,-76.87590,19372.18,18216.74,SOUTHERN MARYLAND HOSPITAL CENTER
3.00,2.91,39.08690,-76.88163,18593.78,17489.28,LAUREL REGIONAL MEDICAL CENTER
2.90,2.81,39.35962,-76.58851,17378.28,16345.77,GOOD SAMARITAN HOSPITAL
3.39,3.27,39.09796,-77.19799,23090.89,21727.40,SHADY GROVE ADVENTIST HOSPITAL
2.40,2.34,38.72818,-76.99214,11591.44,10895.88,FORT WASHINGTON HOSPITAL
2.64,2.57,38.33876,-75.21128,14349.92,13509.71,ATLANTIC GENERAL HOSPITAL
4.37,2.67,42.54113,-71.76120,34515.84,14728.31,HEALTHALLIANCE HOSPITALS, INC
3.56,2.66,42.37441,-71.13378,25072.55,14558.29,MOUNT AUBURN HOSPITAL
3.12,2.45,41.94236,-71.27364,19960.27,12102.02,STURDY MEMORIAL HOSPITAL
3.82,2.73,42.70912,-71.14877,28064.64,15388.92,LAWRENCE GENERAL HOSPITAL
3.48,2.94,42.37451,-71.10418,24205.07,17914.46,CAMBRIDGE HEALTH ALLIANCE
2.79,2.68,41.65298,-70.27484,16141.23,14805.55,CAPE COD HOSPITAL
3.40,2.34,42.33185,-72.65422,23208.86,10917.81,COOLEY DICKINSON HOSPITAL INC,THE
3.24,2.40,42.59584,-72.59255,21336.15,11610.41,BAYSTATE FRANKLIN MEDICAL CENTER
2.82,2.87,42.27872,-71.06625,16476.12,17036.17,CARNEY HOSPITAL
3.07,2.53,42.07708,-72.04298,19357.75,13138.44,HARRINGTON MEMORIAL HOSPITAL
3.52,2.55,41.69217,-71.16474,24567.26,13380.44,SAINT ANNE'S HOSPITAL
2.92,2.50,42.20038,-72.62762,17669.14,12722.07,HOLYOKE MEDICAL CENTER
3.04,2.43,42.81476,-70.89068,18972.45,11982.87,ANNA JAQUES HOSPITAL
3.83,2.37,42.16849,-72.34130,28229.07,11187.41,WING MEMORIAL HOSPITAL AND MEDICAL CENTER
4.26,3.35,42.35843,-71.05977,33284.90,22593.26,BOSTON MEDICAL CENTER CORPORATION
3.17,2.55,42.56407,-70.87543,20499.38,13316.24,BEVERLY HOSPITAL CORPORATION
5.03,2.59,42.51078,-70.90712,42156.18,13801.03,NORTH SHORE MEDICAL CENTER
3.61,3.03,42.34896,-71.14768,25716.08,18949.28,ST ELIZABETH'S MEDICAL CENTER
3.50,2.69,51.46599,-1.28140,24425.09,14977.41,BERKSHIRE MEDICAL CENTER INC
3.53,2.38,42.35375,-71.55485,24700.69,11326.14,MARLBOROUGH HOSPITAL
2.71,2.31,42.25388,-72.24267,15221.86,10528.50,BAYSTATE MARY LANE HOSPITAL
2.94,2.38,42.70589,-73.10840,17829.71,11392.14,NORTH ADAMS REGIONAL HOSPITAL
3.73,2.67,42.03597,-71.09792,27047.38,14729.74,SIGNATURE HEALTHCARE BROCKTON HOSPITAL
3.10,2.49,41.94445,-70.64511,19692.11,12576.38,JORDAN HOSPITAL INC
3.65,2.63,42.64636,-71.34118,26181.97,14276.06,LOWELL GENERAL HOSPITAL
3.28,2.32,42.11807,-72.75921,21829.94,10654.39,NOBLE HOSPITAL
4.27,2.56,42.11449,-72.59502,33400.66,13438.42,MERCY MEDICAL CENTER
2.90,2.46,42.25105,-71.01411,17346.02,12220.78,QUINCY MEDICAL CENTER
2.91,2.53,42.46049,-71.06203,17501.22,13037.20,HALLMARK HEALTH SYSTEM
7.61,3.08,42.36227,-71.06941,72245.80,19547.20,MASSACHUSETTS GENERAL HOSPITAL
2.53,2.47,41.90456,-71.09562,13121.07,12435.16,MORTON HOSPITAL
3.51,2.54,41.70928,-71.14519,24497.75,13255.31,SOUTHCOAST HOSPITAL GROUP, INC
3.91,2.79,42.12077,-72.60525,29174.64,16143.30,BAYSTATE MEDICAL CENTER
3.65,2.55,42.72846,-71.16830,26120.17,13363.56,HOLY FAMILY HOSPITAL
3.14,2.51,42.64529,-71.30052,20206.07,12814.96,SAINTS  MEDICAL CENTER INC
2.65,2.36,42.27743,-71.23690,14505.05,11097.76,BETH ISRAEL DEACONESS HOSPITAL - NEEDHAM
3.39,2.39,42.43082,-71.37554,23108.16,11461.28,EMERSON HOSPITAL
4.71,3.11,42.33719,-71.10939,38445.76,19856.15,BETH ISRAEL DEACONESS MEDICAL CENTER
3.50,2.52,42.13234,-71.52825,24380.29,12955.76,MILFORD REGIONAL MEDICAL CENTER
2.94,2.56,42.58660,-71.98678,17847.80,13392.69,HEYWOOD HOSPITAL
3.30,2.48,42.17644,-70.95398,21999.24,12488.00,SOUTH SHORE HOSPITAL
4.23,2.48,42.33149,-71.24568,32868.98,12559.00,NEWTON-WELLESLEY HOSPITAL
2.71,2.44,42.46581,-71.12210,15183.12,12014.86,WINCHESTER HOSPITAL
2.82,2.41,42.25232,-71.07515,16455.62,11719.65,MILTON HOSPITAL INC
7.82,3.08,42.33600,-71.10704,74691.19,19548.52,BRIGHAM AND WOMEN'S HOSPITAL
2.67,2.61,42.09864,-71.06607,14677.28,14064.68,GOOD SAMARITAN MEDICAL CENTER
5.78,3.18,42.34951,-71.06331,50888.41,20702.56,TUFTS MEDICAL CENTER
5.46,2.72,42.30049,-71.12771,47193.57,15281.81,FAULKNER HOSPITAL
2.57,2.45,42.18869,-71.20197,13585.98,12117.17,NORWOOD HOSPITAL
2.75,2.50,41.56412,-70.62200,15676.60,12728.58,FALMOUTH HOSPITAL
6.10,3.12,42.27720,-71.75922,54635.01,19955.93,UMASS MEMORIAL MEDICAL CENTER INC
3.40,2.70,42.48585,-71.20686,23183.04,15107.50,LAHEY CLINIC HOSPITAL
2.93,2.40,42.76256,-71.04507,17762.70,11630.59,MERRIMACK VALLEY HOSPITAL
3.16,2.57,42.28385,-71.41896,20425.12,13552.13,METROWEST MEDICAL CENTER
2.92,2.63,42.26633,-71.79760,17591.54,14247.18,ST VINCENT HOSPITAL
3.45,2.35,42.39466,-83.40537,23808.00,10955.77,ST MARY MERCY HOSPITAL
3.57,2.28,42.82157,-85.98743,25149.77,10168.47,SPECTRUM HEALTH ZEELAND COMMUNITY HOSPITAL
2.88,2.40,43.20588,-86.20839,17142.09,11526.90,MERCY HEALTH PARTNERS, MERCY CAMPUS
3.88,2.31,41.91313,-84.04966,28856.68,10506.36,EMMA L BIXBY MEDICAL CENTER
4.02,2.64,42.28551,-85.58042,30396.15,14323.39,BRONSON METHODIST HOSPITAL
4.40,2.62,42.45741,-83.20513,34891.18,14174.60,PROVIDENCE HOSPITAL AND MEDICAL CENTERS
4.52,2.58,42.29077,-83.21504,36220.93,13719.00,OAKWOOD HOSPITAL AND MEDICAL CENTER
3.26,2.41,42.08955,-86.47781,21636.23,11645.35,LAKELAND HOSPITAL, ST JOSEPH
3.50,2.41,41.93815,-84.98935,24434.35,11697.93,COMMUNITY HEALTH CENTER OF BRANCH COUNTY
3.99,2.85,42.41911,-83.18228,30138.29,16830.46,SINAI-GRACE HOSPITAL
3.62,2.65,42.61425,-83.27602,25765.12,14534.01,ST JOSEPH MERCY OAKLAND
3.46,2.66,43.39166,-84.66140,23933.32,14554.20,MIDMICHIGAN MEDICAL CENTER-GRATIOT
3.37,2.31,42.95582,-82.43222,22863.58,10497.01,ST JOSEPH MERCY PORT HURON
3.13,2.37,43.17554,-85.26879,20121.37,11227.76,SPECTRUM HEALTH UNITED MEMORIAL - UNITED CAMPUS
3.92,2.53,45.07773,-83.45146,29281.09,13128.57,ALPENA REGIONAL MEDICAL CENTER
3.59,2.42,41.91180,-84.63294,25475.09,11793.02,HILLSDALE COMMUNITY HEALTH CENTER
3.46,2.62,42.96881,-85.66649,23897.46,14171.46,SPECTRUM HEALTH - BUTTERWORTH CAMPUS
3.78,2.40,42.64303,-85.30706,27623.77,11541.23,PENNOCK HOSPITAL
4.03,2.34,43.58941,-83.86908,30596.66,10847.18,MCLAREN BAY REGION
5.91,3.19,42.28388,-83.72960,52489.24,20770.54,UNIVERSITY OF MICHIGAN HEALTH SYSTEM
3.35,2.42,42.61490,-82.96060,22662.25,11822.31,HENRY FORD MACOMB HOSPITAL
5.02,2.97,42.36762,-83.08461,42105.60,18180.63,HENRY FORD HOSPITAL
3.34,2.56,46.54758,-87.39560,22537.98,13469.78,MARQUETTE GENERAL HOSPITAL
3.39,2.32,45.80941,-88.04422,23057.96,10661.80,DICKINSON COUNTY MEMORIAL HOSPITAL
3.12,2.33,44.66805,-84.70733,19945.42,10741.48,MERCY HOSPITAL - GRAYLING
3.32,2.59,42.95817,-85.66253,22330.74,13730.77,SAINT MARY'S HEALTH CARE
2.88,2.42,43.22169,-86.24283,17138.29,11857.17,MERCY HEALTH PARTNERS, HACKLEY CAMPUS
3.67,2.42,42.61504,-83.93929,26392.62,11781.66,SAINT JOSEPH MERCY LIVINGSTON HOSPITAL
4.75,2.47,43.42857,-83.95556,38880.79,12345.29,COVENANT MEDICAL CENTER, INC
3.39,2.35,42.77487,-86.11378,23126.47,11051.42,HOLLAND COMMUNITY HOSPITAL
3.22,2.38,42.33111,-85.17817,21172.68,11390.85,BRONSON BATTLE CREEK HOSPITAL
4.84,2.48,43.42612,-83.94185,39974.23,12451.69,ST MARY'S OF MICHIGAN MEDICAL CENTER
3.54,2.27,43.59935,-84.76097,24790.56,10022.25,CENTRAL MICHIGAN COMMUNITY HOSPITAL
2.96,2.25,44.24532,-85.38950,18087.40,9870.75,MERCY HOSPITAL - CADILLAC
2.49,2.49,42.39046,-86.26408,12682.13,12632.80,SOUTH HAVEN COMMUNITY HOSPITAL
3.54,2.39,42.38392,-82.91480,24872.36,11512.72,BEAUMONT HOSPITAL, GROSSE POINTE
4.66,2.38,42.25117,-84.39240,37913.45,11348.87,ALLEGIANCE HEALTH
2.25,2.32,43.69399,-85.47533,9866.26,10702.19,MECOSTA COUNTY MEDICAL CENTER
2.58,2.37,44.26333,-84.24625,13681.53,11284.11,WEST BRANCH REGIONAL MEDICAL CENTER
4.37,2.56,44.76156,-85.64143,34545.12,13455.72,MUNSON MEDICAL CENTER
4.14,2.39,41.91643,-83.39771,31832.00,11420.46,MERCY MEMORIAL HOSPITAL SYSTEM
2.37,2.30,44.27548,-83.51170,11268.23,10407.32,TAWAS ST JOSEPH HOSPITAL
3.78,2.49,45.74575,-87.10106,27589.62,12596.67,ST FRANCIS HOSPITAL
4.65,3.18,42.35230,-83.05676,37795.12,20692.51,HARPER UNIVERSITY HOSPITAL
3.98,2.49,45.37209,-84.97065,29920.27,12617.80,NORTHERN MICHIGAN REGIONAL HOSPITAL
3.26,2.40,43.46517,-85.95072,21615.15,11524.85,SPECTRUM HEALTH GERBER MEMORIAL
2.90,2.56,47.14130,-88.58580,17360.40,13456.20,PORTAGE HEALTH HOSPITAL
3.98,2.46,43.95934,-86.42921,29993.48,12312.35,MEMORIAL MEDICAL CENTER OF WEST MICHIGAN
4.65,2.56,42.30489,-85.56152,37748.75,13386.64,BORGESS MEDICAL CENTER
2.32,2.38,43.79961,-83.04527,10604.56,11371.10,HURON MEDICAL CENTER
4.04,2.40,43.00546,-84.18145,30614.62,11528.91,MEMORIAL HEALTHCARE
5.02,2.68,42.51418,-83.19259,42114.84,14830.06,WILLIAM BEAUMONT HOSPITAL
5.69,3.01,43.02135,-83.70308,49833.75,18694.11,HURLEY MEDICAL CENTER
2.78,2.46,45.03551,-84.67540,16002.69,12274.08,OTSEGO MEMORIAL HOSPITAL
4.00,2.57,43.01399,-83.73250,30250.01,13606.70,MCLAREN FLINT
3.99,2.45,42.27424,-83.36580,30085.68,12140.09,OAKWOOD ANNAPOLIS HOSPITAL
3.92,2.43,42.21065,-83.14861,29304.33,11922.25,HENRY FORD WYANDOTTE HOSPITAL
3.51,2.71,42.46176,-83.37629,24479.57,15138.53,BOTSFORD HOSPITAL
4.43,2.48,42.26181,-83.66003,35174.20,12520.82,ST JOSEPH MERCY HOSPITAL
3.82,2.66,42.41975,-82.91442,28101.46,14632.80,ST JOHN HOSPITAL AND MEDICAL CENTER
5.18,2.56,42.70417,-84.55488,43936.68,13437.42,MCLAREN - GREATER LANSING
3.17,2.39,43.05082,-86.22893,20495.35,11452.89,NORTH OTTAWA COMMUNITY HOSPITAL
4.41,2.52,42.11695,-83.21365,34979.60,12963.74,OAKWOOD SOUTHSHORE MEDICAL CENTER
3.00,2.29,43.82092,-84.76857,18546.41,10331.52,MIDMICHIGAN MEDICAL CENTER-CLARE
4.52,2.37,43.06290,-83.32082,36291.44,11274.14,LAPEER REGIONAL MEDICAL CENTER
4.14,2.49,42.50514,-83.00422,31823.41,12572.23,ST JOHN MACOMB-OAKLAND HOSPITAL-MACOMB CENTER
4.56,2.68,42.89254,-83.63621,36698.33,14864.95,GENESYS REGIONAL MEDICAL CENTER - HEALTH PARK
4.26,2.92,42.63849,-83.29062,33185.72,17618.93,MCLAREN OAKLAND
2.41,2.51,43.17597,-84.84268,11644.14,12841.62,CARSON CITY HOSPITAL
4.21,2.38,42.98625,-82.42802,32662.23,11322.45,PORT HURON HOSPITAL
4.04,2.37,42.27302,-84.95775,30608.58,11176.05,OAKLAWN HOSPITAL
4.06,2.54,43.63618,-84.26187,30912.28,13190.97,MIDMICHIGAN MEDICAL CENTER-MIDLAND
3.32,2.47,42.58900,-82.89799,22282.54,12378.14,MOUNT CLEMENS REGIONAL MEDICAL CENTER
5.13,2.63,42.73767,-84.51698,43332.47,14235.40,EDWARD W SPARROW HOSPITAL
3.42,2.57,42.85736,-85.71774,23452.54,13575.84,METRO HEALTH HOSPITAL
3.50,2.64,46.43131,-84.28107,24369.49,14350.56,CHIPPEWA COUNTY WAR MEMORIAL HOSPITAL
3.08,2.31,42.78564,-82.48337,19482.00,10547.70,ST JOHN RIVER DISTRICT HOSPITAL
3.31,2.57,42.33215,-83.31195,22173.91,13551.41,GARDEN CITY HOSPITAL
5.07,2.42,42.67850,-83.14771,42653.01,11789.00,CRITTENTON HOSPITAL MEDICAL CENTER
2.98,2.36,42.31028,-84.01594,18338.29,11117.16,CHELSEA COMMUNITY HOSPITAL
4.73,2.43,42.61826,-83.09239,38733.85,11901.56,WILLIAM BEAUMONT HOSPITAL-TROY
3.87,2.40,42.23506,-83.27602,28654.31,11584.36,OAKWOOD HERITAGE HOSPITAL
5.38,3.02,42.35295,-83.05447,46207.46,18742.11,DETROIT RECEIVING HOSPITAL & UNIV HEALTH CENTER
4.42,2.49,42.59290,-83.49920,35047.47,12615.02,HURON VALLEY-SINAI HOSPITAL
4.62,2.50,42.53914,-83.40777,37455.78,12722.03,HENRY FORD WEST BLOOMFIELD HOSPITAL
6.10,2.48,45.01403,-93.32177,54683.80,12497.04,NORTH MEMORIAL MEDICAL CENTER
4.33,2.52,46.79380,-92.09573,34076.93,12927.64,ESSENTIA HEALTH ST MARY'S MEDICAL CENTER
5.51,3.35,44.97210,-93.26240,47748.43,22578.68,HENNEPIN COUNTY MEDICAL CENTER
5.01,2.86,44.02052,-92.48292,41963.16,16931.60,MAYO CLINIC - SAINT MARYS HOSPITAL
4.35,2.91,46.79308,-92.09379,34277.67,17567.87,ESSENTIA HEALTH DULUTH
4.19,2.34,45.56696,-93.23046,32419.57,10834.46,CAMBRIDGE MEDICAL CENTER
3.27,2.42,45.87327,-95.37599,21689.20,11773.43,DOUGLAS COUNTY HOSPITAL
5.23,2.72,45.57390,-94.16942,44500.41,15243.90,ST CLOUD HOSPITAL
6.03,2.56,44.94214,-93.10858,53876.51,13435.01,UNITED HOSPITAL
3.76,2.54,47.41117,-92.93183,27392.75,13168.68,UNIVERSITY MEDICAL CENTER-MESABI/ MESABA CLINICS
3.22,2.36,43.65162,-93.37263,21170.33,11074.14,MAYO CLINIC HEALTH SYSTEM - ALBERT LEA
3.22,2.52,44.03521,-91.62181,21126.39,13030.04,WINONA HEALTH SERVICES
3.49,2.47,46.79634,-92.08793,24322.28,12345.48,ST LUKES HOSPITAL
3.56,2.43,45.33639,-92.99722,25037.84,11907.76,FAIRVIEW LAKES  HEALTH SERVICES
3.38,2.32,46.27712,-96.07244,22959.48,10596.37,LAKE REGION HEALTHCARE CORPORATION
3.33,2.45,44.93031,-93.36276,22447.62,12119.80,PARK NICOLLET METHODIST HOSPITAL
4.13,2.42,44.84294,-93.79336,31669.41,11827.41,RIDGEVIEW MEDICAL CENTER
6.69,2.69,44.95248,-93.26196,61477.59,15009.55,ABBOTT NORTHWESTERN HOSPITAL
3.81,2.40,44.74684,-92.87286,28046.00,11613.33,REGINA MEDICAL CENTER
5.41,3.13,44.02354,-92.46588,46582.41,20095.48,MAYO CLINIC METHODIST HOSPITAL
4.68,2.50,44.94898,-93.10016,38133.49,12729.25,ST JOSEPH'S HOSPITAL
2.84,2.38,47.22110,-93.55229,16684.91,11390.11,GRAND ITASCA CLINIC AND HOSPITAL
3.40,2.24,45.04805,-92.81903,23159.52,9684.31,LAKEVIEW MEMORIAL HOSPITAL
3.73,2.45,44.11113,-93.25076,27077.29,12150.41,OWATONNA HOSPITAL
2.52,2.54,44.28857,-93.25773,12977.16,13224.74,DISTRICT ONE HOSPITAL
3.75,2.45,46.36166,-94.20573,27310.20,12212.98,ESSENTIA HEALTH ST JOSEPH'S MEDICAL CENTER
3.60,2.40,45.19325,-93.87136,25511.81,11605.25,BUFFALO HOSPITAL
4.44,2.42,44.88645,-93.32693,35361.20,11843.55,FAIRVIEW SOUTHDALE HOSPITAL
6.90,3.15,44.96766,-93.23640,64001.04,20266.01,UNIVERSITY OF MINNESOTA  MEDICAL CENTER, FAIRVIEW
2.64,2.36,47.53102,-92.55580,14376.88,11059.18,VIRGINIA REGIONAL MEDICAL CENTER
3.80,2.58,45.11989,-95.04525,27915.70,13690.90,RICE MEMORIAL HOSPITAL
3.96,2.53,44.16396,-94.00412,29744.56,13062.83,MAYO CLINIC HEALTH SYSTEM - MANKATO
3.33,2.34,47.50390,-94.89776,22403.73,10866.50,SANFORD BEMIDJI MEDICAL CENTER
3.39,2.73,46.81480,-95.84535,23044.09,15374.55,ESSENTIA HEALTH ST MARYS
4.53,2.55,44.77252,-93.50323,36365.78,13266.26,ST FRANCIS REGIONAL MEDICAL CENTER
4.97,2.80,44.95570,-93.09429,41486.35,16246.71,REGIONS HOSPITAL
5.74,2.60,45.18355,-93.36789,50457.02,13892.02,MERCY HOSPITAL
3.24,2.34,43.67462,-92.97732,21380.90,10901.41,MAYO CLINIC HEALTH SYSTEM - AUSTIN
5.32,2.42,45.10789,-93.25685,45545.90,11751.60,UNITY HOSPITAL
4.37,2.58,45.55758,-93.58615,34552.75,13614.83,FAIRVIEW NORTHLAND REGIONAL HOSPITAL
3.12,2.61,43.63765,-94.44962,19910.81,14010.38,MAYO CLINIC HEALTH SYSTEM - FAIRMONT
3.03,2.49,44.87576,-94.37391,18911.72,12584.84,HUTCHINSON AREA HEALTH CARE
4.14,2.42,44.74846,-93.27289,31854.60,11758.35,FAIRVIEW RIDGES HOSPITAL
5.05,2.47,45.02892,-93.03418,42453.21,12346.19,HEALTHEAST ST JOHN'S HOSPITAL
4.63,2.52,44.91542,-92.94757,37556.42,12942.62,HEALTHEAST WOODWINDS HOSPITAL
4.47,2.39,45.13294,-93.47922,35621.88,11436.53,MAPLE GROVE HOSPITAL
5.09,2.80,32.33069,-90.17030,42854.97,16227.33,UNIVERSITY OF MISSISSIPPI MED CENTER
3.04,2.31,34.80355,-88.20905,19038.06,10585.13,TISHOMINGO HEALTH SERVICES INC
4.14,2.41,34.24336,-88.71753,31827.26,11745.01,NORTH MISSISSIPPI MEDICAL CENTER
4.58,2.39,34.49648,-89.03326,36901.33,11508.52,BAPTIST MEMORIAL HOSPITAL UNION COUNTY
10.90,2.65,30.39599,-88.89061,110490.92,14432.62,BILOXI REGIONAL MEDICAL CENTER
5.38,2.34,34.93596,-88.55955,46260.44,10850.65,MAGNOLIA REGIONAL HEALTH CENTER
2.24,2.42,34.72982,-88.95062,9751.53,11823.68,TIPPAH COUNTY HOSPITAL
3.10,2.54,34.78720,-89.41707,19752.50,13169.70,ALLIANCE HEALTHCARE SYSTEM
3.40,2.26,33.76246,-89.81743,23167.25,9970.98,GRENADA LAKE MEDICAL CENTER
3.18,2.39,33.89232,-88.98141,20711.31,11433.08,TRACE REGIONAL HOSP AND SWING BED
8.52,2.53,30.36674,-89.11535,82834.86,13061.22,MEMORIAL HOSPITAL AT GULFPORT
3.56,2.38,33.54068,-89.26701,25056.57,11297.07,WEBSTER GENERAL HOSPITAL/SWING BED
4.52,2.27,33.97458,-88.47761,36290.11,10022.11,GILMORE MEMORIAL HOSPITAL
7.12,2.48,32.35265,-90.87788,66490.75,12484.67,RIVER REGION HEALTH SYSTEM
4.37,2.39,34.34899,-89.52062,34550.35,11438.08,BAPTIST MEMORIAL HOSPITAL NORTH MS
2.74,2.33,30.92176,-88.59286,15529.88,10765.29,GEORGE COUNTY HOSPITAL
6.89,2.48,30.37516,-88.53226,63785.88,12451.93,SINGING RIVER HOSPITAL
6.82,2.59,34.19610,-90.55208,62991.62,13829.76,NORTHWEST MISSISSIPPI REGIONAL MEDICAL CENTER
2.70,2.41,32.75331,-89.10091,15015.55,11664.45,NESHOBA COUNTY GENERAL HOSPITAL
3.58,2.44,34.65637,-88.56564,25343.78,12007.61,BAPTIST MEMORIAL HOSPITAL BOONEVILLE
4.95,2.40,32.33616,-90.15652,41210.84,11600.51,ST DOMINIC-JACKSON MEMORIAL HOSPITAL
3.27,2.33,33.47600,-88.82100,21676.32,10740.89,OCH REGIONAL MEDICAL CENTER
3.64,2.32,31.57544,-90.45670,26060.38,10641.47,KING'S DAUGHTERS MEDICAL CENTER-BROOKHAVEN
3.63,2.36,31.69405,-89.13061,25861.00,11139.42,SOUTH CENTRAL REG MED CTR
2.88,2.38,33.61860,-88.66204,17195.92,11321.00,CLAY COUNTY MEDICAL CENTER
3.62,2.35,32.36983,-88.69702,25831.12,11044.33,RUSH FOUNDATION HOSPITAL
8.39,2.45,32.28805,-90.25566,81284.64,12107.95,CENTRAL MISSISSIPPI MEDICAL CENTER
4.03,2.41,31.31872,-89.32955,30550.69,11699.84,FORREST GENERAL HOSPITAL
7.30,2.41,32.36736,-88.69896,68558.83,11699.22,ANDERSON REGIONAL MEDICAL CENTER SOUTH CAMPUS
4.34,2.46,33.41099,-91.03479,34142.15,12231.84,DELTA REGIONAL MEDICAL CENTER
5.19,2.26,33.74750,-90.71908,44060.94,9954.48,BOLIVAR MEDICAL CENTER
7.44,2.44,31.32573,-89.36670,70250.56,12018.18,WESLEY MEDICAL CENTER
2.51,2.36,33.45723,-90.65012,12907.95,11159.62,SOUTH SUNFLOWER COUNTY HOSPITAL
10.89,2.38,32.28618,-90.03434,110453.33,11340.07,CROSSGATES RIVER OAKS HOSPITAL
3.33,2.42,31.24000,-90.45000,22379.47,11767.60,SOUTHWEST MS REGIONAL MEDICAL CENTER
4.37,2.47,33.51824,-90.19832,34544.41,12398.75,GREENWOOD LEFLORE HOSPITAL
4.33,2.39,33.52568,-88.42742,34083.08,11433.08,BAPTIST MEM HOSP/GOLDEN TRIANGLE INC
5.76,2.36,32.31643,-90.17922,50736.61,11084.01,MISSISSIPPI BAPTIST MEDICAL CENTER
4.24,2.33,32.37280,-88.69954,32967.89,10793.65,ANDERSON REGIONAL MEDICAL CENTER
