size,lat,lon,price,name
2.59,35.83746,-90.70386,19585.66,ST BERNARDS MEDICAL CTR
3.47,34.46784,-93.06667,37535.52,ST JOSEPHS MERCY HEALTH CENTER INC
2.51,36.34295,-92.39442,17975.68,BAXTER REGIONAL MEDICAL CENTER
3.35,35.28275,-93.14901,35100.08,ST MARYS REGIONAL MEDICAL CENTER
2.98,35.37445,-94.41868,27683.33,SPARKS REGIONAL MEDICAL CENTER
2.53,35.94320,-89.91713,18338.83,GREAT RIVER MEDICAL CENTER
4.08,34.18894,-92.01886,50073.20,JEFFERSON REGIONAL MEDICAL CENTER
2.21,34.51764,-91.55932,11874.65,BAPTIST HEALTH MEDICAL CENTER-STUTTGART
6.64,34.48600,-93.03521,102473.93,NATIONAL PARK MEDICAL CENTER
4.35,35.60836,-91.26499,55562.38,HARRIS HOSPITAL
3.36,34.51022,-90.62718,35342.69,HELENA REGIONAL MEDICAL CENTER
2.59,33.64905,-93.58704,19661.63,MEDICAL PARK HOSPITAL
3.44,34.74866,-92.35422,36982.15,BAPTIST HEALTH MEDICAL CENTER-LITTLE ROCK
3.33,35.80838,-90.66658,34867.76,NEA BAPTIST MEMORIAL HOSPITAL
3.59,35.76927,-91.63408,40176.83,WHITE RIVER MEDICAL CENTER
3.13,34.73868,-92.39307,30628.82,ARKANSAS HEART HOSPITAL
3.18,34.81290,-92.20814,31770.60,ST VINCENT MEDICAL CENTER/NORTH
8.52,37.63362,-122.08802,140989.80,ST ROSE HOSPITAL
4.55,40.78366,-124.14246,59645.69,ST JOSEPH HOSPITAL
6.06,37.76862,-122.43525,90500.96,CALIFORNIA PACIFIC MEDICAL CTR-DAVIES CAMPUS HOSP
5.84,38.32472,-122.29671,86105.75,QUEEN OF THE VALLEY MEDICAL CENTER
5.30,38.54384,-122.47401,75024.98,ST HELENA HOSPITAL
4.51,35.11346,-120.59054,58872.83,ARROYO GRANDE COMMUNITY HOSPITAL
5.45,38.57053,-121.45216,78183.76,MERCY GENERAL HOSPITAL
3.54,40.89631,-124.09145,39090.75,MAD RIVER COMMUNITY HOSPITAL
4.76,39.50528,-121.54100,64088.58,OROVILLE HOSPITAL
6.30,35.38736,-119.01690,95605.88,BAKERSFIELD MEMORIAL HOSPITAL
5.05,37.31288,-121.93329,69843.91,SANTA CLARA VALLEY MEDICAL CENTER
4.28,40.14813,-122.21934,54176.38,ST ELIZABETH COMMUNITY HOSPITAL
6.55,37.79100,-122.43125,100561.63,CALIFORNIA PACIFIC MEDICAL CTR-PACIFIC CAMPUS HOSP
5.78,37.74717,-122.42088,84896.22,CALIFORNIA PACIFIC MEDICAL CTR - ST. LUKE'S CAMPUS
4.40,34.67486,-118.15771,56615.57,ANTELOPE VALLEY HOSPITAL MED CENTER
4.85,36.32737,-119.29548,65821.17,KAWEAH DELTA MEDICAL CENTER
6.96,34.12834,-118.25777,109070.07,GLENDALE MEM HOSPITAL & HLTH CENTER
3.53,37.75708,-120.86109,38847.36,OAK VALLEY DISTRICT HOSPITAL
5.64,33.78036,-117.86495,82000.83,ST JOSEPH HOSPITAL
3.71,37.65915,-122.43932,42491.87,KAISER FOUNDATION HOSPITAL - SOUTH SAN FRANCISCO
4.34,37.33569,-121.99595,55366.23,KAISER FOUNDATION HOSPITAL-SANTA CLARA
4.13,37.82448,-122.25759,51097.40,KAISER FOUNDATION HOSPITAL OAKLAND/RICHMOND
4.75,37.78248,-122.44290,63734.04,KAISER FOUNDATION HOSPITAL - SAN FRANCISCO
6.82,33.73798,-118.30525,106184.85,PROVIDENCE LITTLE CO OF MARY MED CTR SAN PEDRO
7.42,37.95337,-122.33672,118468.98,DOCTORS MEDICAL CENTER-SAN PABLO
6.53,37.96987,-121.28873,100107.62,ST JOSEPHS MED CENTER OF STOCKTON
3.90,38.28820,-122.46533,46512.22,SONOMA VALLEY HOSPITAL
4.89,33.98932,-118.22426,66573.30,COMMUNITY AND MISSION  HOSPITAL OF HUNTINGTON PARK
4.62,36.83532,-119.76562,61243.49,SAINT AGNES MEDICAL CENTER
4.58,34.10130,-117.63651,60247.73,SAN ANTONIO COMMUNITY HOSPITAL
4.99,32.79949,-117.15394,68631.49,SHARP MEMORIAL HOSPITAL
6.47,38.13118,-122.23732,98971.51,SUTTER SOLANO MEDICAL CENTER
5.61,33.92798,-117.43847,81311.10,PARKVIEW COMMUNITY HOSPITAL MEDICAL CENTER
7.41,34.04932,-118.21746,118173.74,WHITE MEMORIAL MEDICAL CENTER
4.69,34.95099,-120.41322,62579.74,MARIAN MEDICAL CENTER
6.41,38.57155,-121.46874,97796.87,SUTTER GENERAL HOSPITAL
2.66,34.64075,-120.43958,21025.21,LOMPOC VALLEY MEDICAL CENTER
4.90,34.07558,-118.28424,66865.57,TEMPLE COMMUNITY HOSPITAL
6.44,34.02685,-118.48651,98405.27,SANTA MONICA - UCLA MED CTR & ORTHOPAEDIC HOSPITAL
4.77,36.32362,-119.66726,64153.92,ADVENTIST MEDICAL CENTER
9.43,37.36257,-121.84974,159581.17,REGIONAL MEDICAL CENTER OF SAN JOSE
5.10,34.19494,-118.46319,71001.20,VALLEY PRESBYTERIAN HOSPITAL
4.98,38.66404,-121.79212,68518.59,WOODLAND MEMORIAL HOSPITAL
4.56,33.18402,-117.29661,60014.98,TRI-CITY MEDICAL CENTER
5.64,38.09906,-122.56011,81927.20,NOVATO COMMUNITY HOSPITAL
5.80,39.13822,-121.59436,85206.57,RIDEOUT MEMORIAL HOSPITAL
5.74,38.25455,-122.63177,83965.92,PETALUMA VALLEY HOSPITAL
3.11,34.22143,-118.43018,30260.12,KAISER FOUNDATION HOSPITAL - PANORAMA CITY
3.75,34.09816,-118.29541,43262.04,KAISER FOUNDATION HOSPITAL - LOS ANGELES
2.86,33.91909,-118.12873,25242.60,KAISER FOUNDATION HOSPITAL - DOWNEY
3.35,34.07225,-117.43197,35209.10,KAISER FOUNDATION HOSPITAL FONTANA
4.71,34.03705,-118.26575,62939.08,CALIFORNIA HOSPITAL MEDICAL CENTER LA
4.21,39.22809,-121.04721,52795.77,SIERRA NEVADA MEMORIAL HOSPITAL
6.77,37.32710,-121.93863,105106.79,O'CONNOR HOSPITAL
5.05,34.15804,-118.48755,69966.56,ENCINO HOSPITAL MEDICAL CENTER
4.94,34.28029,-119.25410,67631.29,VENTURA COUNTY MEDICAL CENTER
5.15,37.88664,-121.28308,72084.73,SAN JOAQUIN GENERAL HOSPITAL
7.17,33.96860,-118.04831,113338.21,PRESBYTERIAN INTERCOMMUNITY HOSPITAL
6.03,38.44369,-122.70138,89885.26,SANTA ROSA MEMORIAL HOSPITAL
10.84,37.55717,-121.98126,188365.91,WASHINGTON HOSPITAL
8.91,37.48000,-122.25441,148954.31,SEQUOIA HOSPITAL
5.31,34.58305,-118.14490,75243.77,PALMDALE REGIONAL MEDICAL CENTER
5.33,34.12865,-117.86501,75709.61,EAST VALLEY HOSPITAL MEDICAL CENTER
4.62,37.76288,-122.25412,61084.73,ALAMEDA HOSPITAL
4.14,33.91255,-118.09846,51389.80,COAST PLAZA HOSPITAL
6.83,32.61972,-117.02278,106270.52,SHARP CHULA VISTA MEDICAL CENTER
4.23,33.62229,-117.92995,53171.20,HOAG MEMORIAL HOSPITAL PRESBYTERIAN
6.49,33.84780,-117.93661,99471.30,AHMC ANAHEIM REGIONAL MEDICAL CENTER
5.12,33.77483,-117.91329,71444.43,GARDEN GROVE HOSPITAL & MEDICAL CENTER
4.96,35.27882,-120.65047,68140.31,FRENCH HOSPITAL MEDICAL CENTER
8.20,34.15601,-118.32834,134309.76,PROVIDENCE SAINT JOSEPH MEDICAL CTR
6.41,34.28920,-118.74484,97844.35,SIMI VALLEY HOSPITAL & HEALTH CARE SERVICES
8.13,33.83862,-116.54557,132919.82,DESERT REGIONAL MEDICAL CENTER
6.48,38.72562,-120.79096,99121.29,MARSHALL MEDICAL CENTER (1-RH)
4.86,36.06956,-119.02748,66127.89,SIERRA VIEW DISTRICT HOSPITAL
5.89,34.06675,-118.44613,87210.77,RONALD REAGAN UCLA MEDICAL CENTER
5.20,34.03721,-117.20474,72940.25,REDLANDS COMMUNITY HOSPITAL
5.61,38.00655,-122.13312,81323.09,CONTRA COSTA REGIONAL MEDICAL CENTER
6.51,33.80733,-118.19305,99793.25,PACIFIC HOSPITAL OF LONG BEACH
3.89,34.13075,-116.27502,46148.49,HI-DESERT MEDICAL CENTER
4.69,40.58654,-122.39168,62534.05,MERCY MEDICAL CENTER REDDING
6.08,34.09049,-118.14410,91093.54,ALHAMBRA HOSPITAL MEDICAL CENTER
7.17,37.69502,-121.88095,113386.76,VALLEYCARE MEDICAL CENTER
4.64,34.03009,-118.47833,61470.38,SAINT JOHN'S HEALTH CENTER
6.14,38.46964,-122.70746,92295.87,SUTTER MEDICAL CENTER OF SANTA ROSA
4.16,36.83491,-121.38651,51648.68,HAZEL HAWKINS MEMORIAL HOSPITAL
5.69,34.89341,-117.01930,83007.73,BARSTOW COMMUNITY HOSPITAL
5.13,34.50107,-117.17285,71579.89,ST MARY MEDICAL CENTER
6.67,37.85593,-122.25730,103149.42,ALTA BATES SUMMIT MEDICAL CENTER - ALTA BATES CAMP
5.97,37.36934,-122.08047,88761.14,EL CAMINO HOSPITAL
4.78,38.76514,-121.24979,64476.10,SUTTER ROSEVILLE MEDICAL CENTER
5.53,37.74409,-121.43469,79832.69,SUTTER TRACY COMMUNITY HOSPITAL
5.29,32.88461,-117.22244,74848.98,SCRIPPS MEMORIAL HOSPITAL LA JOLLA
5.91,34.05076,-117.26395,87515.16,LOMA LINDA UNIVERSITY MEDICAL CENTER
4.43,33.87236,-117.56809,57333.29,CORONA REGIONAL MEDICAL CENTER
5.59,37.97780,-120.37150,80987.78,SONORA REGIONAL MEDICAL CENTER
8.56,38.12186,-121.28665,141759.51,LODI MEMORIAL HOSPITAL
4.65,32.95813,-115.55388,61727.59,PIONEERS MEMORIAL HEALTHCARE DISTRICT
3.67,34.01501,-118.10064,41668.02,BEVERLY HOSPITAL
3.89,34.43343,-119.81039,46144.23,GOLETA VALLEY COTTAGE HOSPITAL
3.77,36.22008,-119.33764,43832.65,TULARE REGIONAL MEDICAL CENTER
8.16,37.94748,-122.53677,133491.13,MARIN GENERAL HOSPITAL
11.55,38.26174,-122.04662,202964.24,NORTHBAY MEDICAL CENTER
7.95,34.06034,-118.21014,129322.28,LAC+USC MEDICAL CENTER
4.11,33.83043,-118.29402,50715.59,LAC/HARBOR-UCLA MED CENTER
3.06,34.24018,-118.39632,29270.73,PACIFICA HOSPITAL OF THE VALLEY
6.82,37.25153,-121.94684,106106.02,GOOD SAMARITAN HOSPITAL
3.29,38.39711,-122.81924,34021.33,PALM DRIVE HOSPITAL
3.95,33.75117,-116.96028,47447.51,HEMET VALLEY MEDICAL CENTER
6.72,33.93530,-118.13030,104175.27,DOWNEY REGIONAL MEDICAL CENTER
3.44,33.78899,-118.29401,37105.17,KAISER FOUNDATION HOSPITAL - SOUTH BAY
4.00,41.77451,-124.19400,48555.40,SUTTER COAST HOSPITAL
4.47,32.89810,-117.24217,57999.90,SCRIPPS GREEN HOSPITAL
4.39,33.82557,-117.99493,56461.16,WEST ANAHEIM MEDICAL CENTER
6.64,34.13364,-118.15275,102372.57,HUNTINGTON MEMORIAL HOSPITAL
10.66,37.43436,-122.18013,184766.06,STANFORD HOSPITAL
4.38,35.64086,-117.67119,56316.23,RIDGECREST REGIONAL HOSPITAL
8.12,37.76421,-122.45716,132795.15,UCSF MEDICAL CENTER
5.51,35.38338,-119.01969,79448.81,SAN JOAQUIN COMMUNITY HOSPITAL
11.71,37.66540,-120.99743,206138.32,DOCTORS MEDICAL CENTER
4.17,33.89307,-118.29506,51907.98,MEMORIAL HOSPITAL OF GARDENA
6.71,34.05336,-118.26558,103848.67,GOOD SAMARITAN HOSPITAL
8.28,34.20285,-118.62962,135949.96,WEST HILLS HOSPITAL & MEDICAL CENTER
5.58,37.69824,-122.08730,80723.14,EDEN MEDICAL CENTER
6.20,34.06389,-118.27347,93552.49,SAINT VINCENT MEDICAL CENTER
7.95,35.29188,-120.66635,129181.45,SIERRA VISTA REGIONAL MEDICAL CENTER
3.01,38.00584,-122.55492,28275.75,KAISER FOUNDATION HOSPITAL
4.57,34.52856,-117.29305,60168.89,VICTOR VALLEY COMMUNITY HOSPITAL
4.87,33.87472,-118.14862,66227.08,BELLFLOWER MEDICAL CENTER
3.87,38.56276,-121.77207,45862.38,SUTTER DAVIS HOSPITAL
3.38,37.48897,-122.22322,35876.96,KAISER FOUNDATION HOSPITAL - REDWOOD CITY
7.85,34.20777,-118.88305,127260.00,LOS ROBLES HOSPITAL & MEDICAL CENTER
8.35,33.80441,-118.06665,137516.84,LOS ALAMITOS MEDICAL CENTER
3.35,34.03868,-118.37516,35199.11,KAISER FOUNDATION HOSPITAL - WEST LA
7.12,33.71466,-117.93322,112292.75,FOUNTAIN VALLEY REGIONAL HOSPITAL & MEDICAL CENTER
4.62,33.84753,-118.03841,61233.80,LA PALMA INTERCOMMUNITY HOSPITAL
3.44,34.02561,-117.68583,37062.97,CHINO VALLEY MEDICAL CENTER
5.76,38.46387,-121.41645,84506.59,METHODIST HOSPITAL OF SACRAMENTO
4.04,34.13289,-117.87121,49265.36,FOOTHILL PRESBYTERIAN HOSPITAL
7.55,38.55484,-121.45628,121087.36,UNIVERSITY OF CALIFORNIA DAVIS MEDICAL CENTER
5.22,33.60883,-117.70881,73445.11,SADDLEBACK MEMORIAL MEDICAL CENTER
6.09,34.24359,-119.01992,91170.47,ST JOHNS PLEASANT VALLEY HOSPITAL
9.93,34.07664,-118.37955,169799.70,CEDARS-SINAI MEDICAL CENTER
4.95,34.02391,-118.18386,67962.20,EAST LOS ANGELES DOCTORS HOSPITAL
5.46,34.03556,-118.30962,78270.04,LOS ANGELES METROPOLITAN MEDICAL CTR
3.51,38.46958,-121.41947,38538.16,KAISER FOUNDATION HOSP SO SACRAMENTO
3.55,34.17099,-118.58974,39274.60,KAISER FOUNDATION HOSPITAL - WOODLAND HILLS
5.97,33.70167,-117.95566,88842.82,ORANGE COAST MEMORIAL MEDICAL CENTER
11.53,38.35586,-121.95196,202368.43,NORTHBAY VACAVALLEY HOSPITAL
4.66,33.71818,-117.16690,61987.87,MENIFEE VALLEY MEDICAL CENTER
2.79,33.90752,-117.46879,23793.52,KAISER FOUNDATION HOSPITAL, RIVERSIDE
6.85,37.03560,-121.57109,106817.20,SAINT LOUISE REGIONAL HOSPITAL
3.43,34.22139,-118.45660,36760.79,MISSION COMMUNITY HOSPITAL - PANORAMA
4.13,34.47174,-117.29791,51065.71,DESERT VALLEY HOSPITAL
2.81,34.06538,-117.98588,24175.75,KAISER FOUNDATION HOSPITAL - BALDWIN PARK
4.82,35.38506,-119.03992,65333.49,BAKERSFIELD HEART HOSPITAL
6.20,33.78824,-118.14563,93358.17,COMMUNITY HOSPITAL OF LONG BEACH
10.54,34.06760,-118.12291,182286.87,GARFIELD MEDICAL CENTER
6.12,34.04777,-118.04344,91859.88,GREATER EL MONTE COMMUNITY HOSPITAL
6.38,33.95076,-118.34828,97071.34,CENTINELA HOSPITAL MEDICAL CENTER
8.58,34.05723,-118.36025,142032.25,OLYMPIA MEDICAL CENTER
5.15,33.81982,-117.90902,71925.39,WESTERN MEDICAL CENTER HOSP ANAHEIM
4.86,33.78873,-117.82639,66101.05,CHAPMAN MEDICAL CENTER
5.98,33.71025,-117.88493,88983.48,COASTAL COMMUNITIES HOSPITAL
4.71,34.16028,-118.44948,63076.44,SHERMAN OAKS HOSPITAL
4.39,32.77629,-117.05730,56532.82,ALVARADO HOSPITAL MEDICAL CENTER
4.01,37.95186,-121.77704,48669.58,KAISER FOUNDATION HOSPITAL - ANTIOCH
8.09,34.17067,-118.53200,132047.24,PROVIDENCE TARZANA MEDICAL CENTER
5.23,40.58532,-122.38702,73606.63,SHASTA REGIONAL MEDICAL CENTER
3.67,33.89740,-117.18603,41619.06,KAISER FOUNDATION HOSPITAL-MORENO VALLEY
3.69,33.81559,-118.00704,42052.18,ANAHEIM GENERAL HOSPITAL
5.61,40.18134,-105.12769,81478.16,LONGMONT UNITED HOSPITAL
3.30,39.96455,-104.76855,34167.00,PLATTE VALLEY MEDICAL CENTER
2.79,37.47150,-105.88350,23761.93,SAN LUIS VALLEY REGIONAL MEDICAL CENTER
4.09,40.57315,-105.05741,50275.39,POUDRE VALLEY HOSPITAL
4.23,38.23421,-104.62292,53115.00,CENTURA HEALTH-ST MARY CORWIN MEDICAL CENTER
3.33,37.23629,-107.82578,34856.42,MERCY REGIONAL MEDICAL CENTER
6.26,39.74615,-104.96682,94689.84,PRESBYTERIAN/ST LUKE'S MEDICAL CENTER
4.78,39.71712,-105.12874,64445.41,CENTURA HEALTH-ST ANTHONY HOSPITAL
3.93,38.28184,-104.61256,47036.70,PARKVIEW MEDICAL CENTER INC
4.60,39.74234,-104.84156,60651.29,UNIVERSITY OF COLORADO HOSPITAL ANSCHUTZ INPATIENT
3.89,40.02615,-105.28391,46221.25,BOULDER COMMUNITY HOSPITAL
3.77,39.74601,-104.96909,43864.16,EXEMPLA SAINT JOSEPH HOSPITAL
3.15,40.41320,-105.05139,31178.69,MCKEE MEDICAL CENTER
3.89,38.86559,-104.82182,46154.66,CENTURA HEALTH-PENROSE ST FRANCIS HEALTH SERVICES
5.44,39.73231,-104.93396,77870.14,ROSE MEDICAL CENTER
6.59,39.65399,-104.98116,101432.52,SWEDISH MEDICAL CENTER
4.26,39.67005,-104.97490,53799.22,CENTURA HEALTH-PORTER ADVENTIST HOSPITAL
3.67,39.53243,-107.32158,41691.74,VALLEY VIEW HOSPITAL ASSOCIATION
4.16,39.84960,-105.01825,51835.76,CENTURA HEALTH-ST ANTHONY NORTH HOSPITAL
4.97,39.52910,-104.87121,68316.44,SKY RIDGE MEDICAL CENTER
4.14,41.77507,-72.69941,51323.62,ST FRANCIS HOSPITAL & MEDICAL CENTER
3.84,41.55959,-73.05941,45293.78,WATERBURY HOSPITAL
4.55,41.05562,-73.55390,59626.75,STAMFORD HOSPITAL
2.75,41.33722,-72.10380,22974.69,LAWRENCE & MEMORIAL HOSPITAL
2.83,41.97762,-72.39127,24549.82,JOHNSON MEMORIAL HOSPITAL
4.55,41.18881,-73.16645,59648.78,BRIDGEPORT HOSPITAL
2.49,41.79153,-73.13382,17646.69,CHARLOTTE HUNGERFORD HOSPITAL
2.78,41.86708,-72.45056,23602.80,ROCKVILLE GENERAL HOSPITAL
2.60,41.55241,-73.03554,19839.11,SAINT MARYS HOSPITAL
3.18,41.54874,-72.80148,31764.10,MIDSTATE MEDICAL CENTER
3.70,41.03431,-73.63020,42358.84,GREENWICH HOSPITAL ASSOCIATION
3.03,41.21646,-73.06525,28660.11,MILFORD HOSPITAL, INC
2.64,41.71622,-72.22399,20702.10,WINDHAM COMM MEM HOSP & HATCH HOSP
3.18,41.54301,-72.08799,31667.19,WILLIAM W BACKUS HOSPITAL
3.75,41.75412,-72.67927,43375.63,HARTFORD HOSPITAL
2.91,41.78185,-72.52591,26114.37,MANCHESTER MEMORIAL HOSPITAL
4.00,41.20049,-73.20281,48522.52,ST VINCENT'S MEDICAL CENTER
3.42,41.40474,-73.44739,36607.17,DANBURY HOSPITAL
3.30,41.66107,-72.78671,34115.28,HOSPITAL OF CENTRAL CONNECTICUT, THE
3.01,41.73545,-72.79489,28307.85,JOHN DEMPSEY HOSPITAL
3.10,39.74954,-75.56662,30164.98,ST FRANCIS HOSPITAL
3.31,39.15135,-75.52309,34316.21,BAYHEALTH - KENT GENERAL HOSPITAL
2.83,38.64231,-75.60660,24620.62,NANTICOKE MEMORIAL HOSPITAL
3.79,38.77159,-75.14210,44072.70,BEEBE MEDICAL CENTER
5.34,38.90106,-77.05079,75879.03,GEORGE WASHINGTON UNIV HOSPITAL
5.25,38.91770,-77.02193,74035.38,HOWARD UNIVERSITY HOSPITAL
5.12,38.91221,-77.07588,71339.76,GEORGETOWN UNIVERSITY HOSPITAL
3.40,38.93576,-77.10909,36132.14,SIBLEY MEMORIAL HOSPITAL
3.59,38.94397,-76.99040,40067.94,PROVIDENCE HOSPITAL
4.43,38.83504,-76.98388,57351.31,UNITED MEDICAL CENTER
4.19,38.92944,-77.01473,52317.46,WASHINGTON HOSPITAL CENTER
4.36,30.34913,-81.66391,55847.92,SHANDS JACKSONVILLE MEDICAL CENTER
5.29,26.50479,-80.06979,74782.62,BETHESDA MEMORIAL HOSPITAL
5.37,28.52517,-81.37729,76485.85,ORLANDO HEALTH
6.72,25.68309,-80.34038,104015.20,BAPTIST HOSPITAL OF MIAMI INC
5.77,25.78846,-80.21644,84709.00,UNIVERSITY OF MIAMI HOSPITAL
3.35,29.20117,-81.05828,35176.84,HALIFAX HEALTH MEDICAL CENTER
3.61,26.15053,-81.79919,40514.83,NAPLES COMMUNITY HOSPITAL
4.54,25.79143,-80.21250,59477.39,JACKSON MEMORIAL HOSPITAL
3.44,28.83363,-82.33561,37013.52,CITRUS MEMORIAL HOSPITAL
3.06,30.47650,-87.21219,29255.36,SACRED HEART HOSPITAL
3.33,30.15963,-85.64818,34666.06,BAY MEDICAL CENTER
6.27,25.86166,-80.21398,94935.94,NORTH SHORE MEDICAL CENTER
5.63,25.81317,-80.13996,81849.34,MOUNT SINAI MEDICAL CENTER
5.91,26.01867,-80.17981,87437.14,MEMORIAL REGIONAL HOSPITAL
3.76,30.30835,-81.68919,43654.57,ST VINCENT'S MEDICAL CENTER
4.94,27.19837,-80.24306,67612.36,MARTIN MEMORIAL MEDICAL CENTER
3.41,29.04263,-81.31635,36458.04,FLORIDA HOSPITAL DELAND
4.74,28.26092,-82.18802,63592.05,FLORIDA HOSPITAL ZEPHYRHILLS
5.48,26.94042,-82.04094,78831.52,CHARLOTTE REGIONAL MEDICAL CENTER
3.21,30.95015,-87.15095,32376.53,JAY HOSPITAL
5.90,28.55140,-81.72120,87269.38,SOUTH LAKE HOSPITAL
6.05,30.53493,-86.49628,90366.06,TWIN CITIES HOSPITAL
3.78,28.13321,-82.75839,44000.49,HELEN ELLIS MEMORIAL HOSPITAL
3.59,29.17594,-82.13898,40165.69,MUNROE REGIONAL MEDICAL CENTER
3.96,28.25431,-82.71447,47592.80,MORTON PLANT NORTH BAY HOSPITAL
4.50,27.78088,-82.65126,58631.52,ST ANTHONY'S HOSPITAL
3.30,29.24333,-81.10760,34144.50,FLORIDA HOSPITAL MEMORIAL MEDICAL CENTER
3.80,27.09043,-82.44499,44381.84,VENICE REGIONAL MEDICAL CENTER
6.82,28.53906,-82.44193,106185.89,BROOKSVILLE REGIONAL HOSPITAL
4.35,26.18711,-80.11941,55682.91,HOLY CROSS HOSPITAL INC
4.75,26.98905,-82.09559,63878.68,PEACE RIVER REGIONAL MEDICAL CENTER
5.10,26.59805,-80.09271,70863.75,JFK MEDICAL CENTER
3.63,28.80659,-81.86906,40860.32,LEESBURG REGIONAL MEDICAL CENTER
4.05,26.27623,-80.12220,49474.02,BROWARD HEALTH NORTH BROWARD MEDICAL CENTER
4.63,30.31525,-81.66398,61388.76,BAPTIST MEDICAL CENTER
3.82,28.33522,-80.72319,44839.21,WUESTHOFF MEDICAL CENTER  ROCKLEDGE
3.73,30.43066,-87.23191,42870.96,BAPTIST HOSPITAL
3.55,30.19345,-82.63268,39164.04,SHANDS LAKE SHORE REGIONAL MEDICAL CENTER
2.78,27.65832,-80.39307,23593.52,INDIAN RIVER MEDICAL CENTER
2.61,30.12015,-83.59309,20096.67,DOCTOR'S MEMORIAL HOSPITAL INC
4.66,26.61563,-81.65945,61889.14,LEHIGH REGIONAL MEDICAL CENTER
3.85,29.64155,-82.34844,45451.45,SHANDS HOSPITAL AT THE UNIVERSITY OF FLORIDA
3.93,30.27449,-81.40071,47093.14,BAPTIST MEDICAL CENTER  BEACHES
4.15,27.91798,-81.84402,51631.05,BARTOW REGIONAL MEDICAL CENTER
4.21,27.75214,-82.73951,52858.38,PALMS OF PASADENA HOSPITAL
3.81,28.01563,-82.13900,44623.91,SOUTH FLORIDA BAPTIST HOSPITAL
2.71,30.65118,-81.44923,22088.18,BAPTIST MEDICAL CENTER - NASSAU
2.75,30.78675,-85.24189,22906.10,JACKSON HOSPITAL
4.47,24.58076,-81.74233,58026.60,LOWER KEYS MEDICAL CENTER
3.49,30.26389,-81.44283,38034.37,MAYO CLINIC
6.31,25.70328,-80.29391,95646.78,SOUTH MIAMI HOSPITAL, INC
4.36,28.06172,-81.95304,55787.12,LAKELAND REGIONAL MEDICAL CENTER
4.06,28.81611,-81.28351,49737.94,CENTRAL FLORIDA REGIONAL HOSPITAL
5.28,27.30187,-82.45428,74685.36,DOCTORS HOSPITAL OF SARASOTA
3.33,27.22739,-81.85108,34745.54,DESOTO MEMORIAL HOSPITAL
3.36,28.36005,-80.62309,35425.15,CAPE CANAVERAL HOSPITAL
7.30,27.80541,-82.72694,116055.71,ST PETERSBURG GENERAL HOSPITAL
4.81,25.70558,-80.29311,65007.86,LARKIN COMMUNITY HOSPITAL
5.40,26.26259,-80.20292,77177.55,NORTHWEST MEDICAL CENTER
4.04,27.93758,-82.48933,49243.43,MEMORIAL HOSPITAL OF TAMPA
5.46,25.73195,-80.38580,78331.08,KENDALL REGIONAL MEDICAL CENTER
4.13,28.34805,-82.19963,51104.06,PASCO REGIONAL MEDICAL CENTER
4.93,27.48213,-82.62126,67483.12,BLAKE MEDICAL CENTER
6.06,26.12354,-80.25951,90623.41,WESTSIDE REGIONAL MEDICAL CENTER
3.38,29.64481,-81.69431,35831.53,PUTNAM COMMUNITY MEDICAL CENTER
5.42,27.93259,-82.28759,77575.52,BRANDON REGIONAL HOSPITAL
7.21,27.43392,-80.34350,114069.38,LAWNWOOD REGIONAL MEDICAL CENTER & HEART INSTITUTE
4.79,27.25983,-80.82855,64650.97,RAULERSON HOSPITAL
4.67,26.92138,-80.09708,62112.61,JUPITER MEDICAL CENTER
4.56,28.00237,-82.57309,60013.47,TOWN & COUNTRY HOSPITAL
5.18,28.36128,-82.68883,72596.25,REGIONAL MEDICAL CENTER BAYONET POINT
5.65,26.43709,-80.12728,82292.49,DELRAY MEDICAL CENTER
5.19,27.71350,-82.36512,72797.70,SOUTH BAY HOSPITAL
5.55,27.28861,-80.29431,80111.46,ST LUCIE MEDICAL CENTER
6.19,28.53585,-82.53404,93218.18,OAK HILL HOSPITAL
3.85,28.03957,-82.70875,45389.40,MEASE COUNTRYSIDE HOSPITAL
5.23,26.94996,-82.32651,73592.77,ENGLEWOOD COMMUNITY HOSPITAL
5.08,26.35614,-80.19956,70577.28,WEST BOCA MEDICAL CENTER
5.34,26.68337,-80.25269,75847.04,PALMS WEST HOSPITAL
6.47,26.01394,-80.30980,98946.19,MEMORIAL HOSPITAL WEST
4.98,25.99079,-80.37333,68536.56,MEMORIAL HOSPITAL MIRAMAR
4.77,26.21388,-81.73257,64161.06,PHYSICIANS REGIONAL MEDICAL CENTER - PINE RIDGE
4.58,26.70181,-80.05055,60280.22,GOOD SAMARITAN MEDICAL CENTER
3.61,26.08155,-80.36449,40450.56,CLEVELAND CLINIC HOSPITAL
4.44,30.37837,-86.30696,57495.14,SACRED HEART HOSPITAL ON THE EMERALD COAST
4.02,27.38993,-82.43343,48823.40,LAKEWOOD RANCH MEDICAL CENTER
3.93,28.22965,-80.72978,47004.57,VIERA HOSPITAL
5.05,27.99851,-80.61034,70030.09,PALM BAY HOSPITAL
3.53,34.78963,-84.98398,38828.35,HAMILTON MEDICAL CENTER
2.88,32.88710,-84.33393,25634.30,UPSON REGIONAL MEDICAL CENTER
3.05,31.22516,-82.34898,29076.26,SATILLA REGIONAL MEDICAL CENTER
2.75,34.94766,-85.26296,22947.91,HUTCHESON MEDICAL CENTER
3.75,31.59023,-84.15756,43382.29,PHOEBE PUTNEY MEMORIAL HOSPITAL
4.33,34.24569,-84.49068,55234.41,NORTHSIDE HOSPITAL CHEROKEE
3.51,33.79230,-84.32107,38530.92,EMORY UNIVERSITY HOSPITAL
3.14,33.74445,-84.91753,30940.38,TANNER MEDICAL CENTER VILLA RICA
2.80,33.03204,-85.05781,24017.12,WEST GEORGIA MEDICAL CENTER
2.77,33.60237,-83.84809,23258.98,NEWTON MEDICAL CENTER
3.94,34.51192,-84.92579,47325.29,GORDON HOSPITAL
4.15,32.02825,-81.09977,51487.82,CANDLER HOSPITAL
3.59,33.47096,-81.98176,40110.76,UNIVERSITY HOSPITAL
3.59,34.30335,-83.81737,40007.09,NORTHEAST GEORGIA MEDICAL CENTER, INC
4.83,34.19990,-84.79378,65349.20,CARTERSVILLE MEDICAL CENTER
3.26,33.47091,-81.98988,33282.04,MEDICAL COLLEGE OF GA HOSPITALS AND CLINICS
4.17,33.96770,-84.55011,51901.75,WELLSTAR KENNESTONE HOSPITAL
2.91,33.46767,-82.01807,26241.82,TRINITY HOSPITAL OF AUGUSTA
2.69,34.21877,-83.46906,21760.76,NORTHRIDGE MEDICAL CENTER
3.24,33.91929,-84.85224,32860.46,WELLSTAR PAULDING HOSPITAL
3.94,31.98515,-81.15475,47192.47,ST JOSEPH'S HOSPITAL - SAVANNAH
2.79,32.06513,-84.25260,23685.18,PHOEBE SUMTER MEDICAL CENTER
3.93,34.26000,-85.17000,46995.59,FLOYD MEDICAL CENTER
3.41,32.61642,-83.63065,36359.92,HOUSTON MEDICAL CENTER
2.72,31.71491,-83.25265,22250.50,DORMINY MEDICAL CENTER
3.33,33.96117,-83.39832,34816.89,ATHENS REGIONAL MEDICAL CENTER
3.31,33.78956,-84.28077,34412.28,DEKALB MEDICAL CENTER
3.44,33.76810,-84.38616,36958.82,EMORY UNIVERSITY HOSPITAL MIDTOWN
4.05,33.75205,-84.38272,49427.39,GRADY MEMORIAL HOSPITAL
3.79,33.90877,-84.35180,44163.72,SAINT JOSEPH'S HOSPITAL OF ATLANTA, INC
3.38,33.68072,-84.00200,35866.91,ROCKDALE MEDICAL CENTER
2.51,32.18558,-83.17874,18080.94,DODGE COUNTY HOSPITAL
3.72,31.47069,-83.50473,42825.30,TIFT REGIONAL MEDICAL CENTER
2.80,31.97683,-83.78280,23925.42,CRISP REGIONAL HOSPITAL
3.81,32.83041,-83.63476,44538.83,MEDICAL CENTER OF CENTRAL GEORGIA
2.51,32.59212,-82.34541,17968.92,EMANUEL MEDICAL CENTER
5.49,33.76372,-84.37315,78948.46,ATLANTA MEDICAL CENTER
3.75,30.86250,-83.28630,43450.87,SOUTH GEORGIA MEDICAL CENTER
3.08,31.60200,-81.89172,29643.65,WAYNE MEMORIAL HOSPITAL
3.18,32.20903,-82.37585,31666.18,MEADOWS REGIONAL MEDICAL CENTER
2.44,32.28377,-83.47212,16561.33,TAYLOR REGIONAL HOSPITAL
2.72,32.16413,-81.90041,22239.63,EVANS MEMORIAL HOSPITAL
4.07,33.85638,-84.60446,49835.40,WELLSTAR COBB HOSPITAL
3.67,33.08014,-83.23210,41641.06,OCONEE REGIONAL MEDICAL CENTER
3.44,32.45961,-83.70967,37101.50,PERRY HOSPITAL
4.62,33.90903,-84.35410,61124.85,NORTHSIDE HOSPITAL
4.38,32.84705,-83.61823,56273.39,COLISEUM MEDICAL CENTER
3.47,33.57843,-84.38897,37543.68,SOUTHERN REGIONAL MEDICAL CENTER
6.26,33.48259,-82.09038,94704.46,DOCTORS HOSPITAL
3.17,33.85770,-84.51542,31545.00,EMORY-ADVENTIST HOSPITAL
3.37,33.51144,-84.22200,35621.91,HENRY MEDICAL CENTER, INC
7.02,34.06334,-84.31976,110234.48,NORTH FULTON REGIONAL HOSPITAL
3.62,32.86625,-83.69421,40637.08,COLISEUM NORTHSIDE HOSPITAL
3.45,33.45252,-84.50697,37127.15,PIEDMONT FAYETTE HOSPITAL
6.40,33.68000,-84.42685,97553.87,SOUTH FULTON MEDICAL CENTER
2.99,33.70365,-84.14697,27747.27,DEKALB MEDICAL CENTER AT HILLANDALE
3.91,34.06670,-84.17643,46711.18,EMORY JOHNS CREEK HOSPITAL
3.90,21.30780,-157.85505,46466.28,THE QUEENS MEDICAL CENTER
3.30,19.71761,-155.11327,34108.63,HILO MEDICAL CENTER
3.75,21.38095,-157.75759,43401.95,CASTLE MEDICAL CENTER
3.71,21.32239,-157.85662,42463.30,KUAKINI MEDICAL CENTER
3.27,21.32872,-157.85179,33545.38,HAWAII MEDICAL CENTER EAST
3.13,21.36339,-157.89951,30683.63,KAISER FOUNDATION HOSPITAL
3.62,21.98514,-159.36388,40637.42,WILCOX MEMORIAL HOSPITAL
3.54,19.51963,-155.91744,39092.36,KONA COMMUNITY HOSPITAL
4.37,21.30226,-157.85092,56073.53,STRAUB CLINIC AND HOSPITAL
3.58,21.37080,-158.02746,39947.41,HAWAII MEDICAL CENTER WEST
3.61,43.61218,-116.19234,40437.76,ST LUKES REGIONAL MEDICAL CENTER
2.62,43.55374,-116.57267,20294.29,SAINT ALPHONSUS MEDICAL CENTER - NAMPA
3.22,43.65510,-116.69360,32498.83,WEST VALLEY MEDICAL CENTER
3.59,43.46987,-111.99208,40008.15,EASTERN IDAHO REGIONAL MEDICAL CENTER
3.84,42.06550,-87.68428,45120.44,EVANSTON HOSPITAL
2.83,40.75318,-89.59321,24567.54,PROCTOR HOSPITAL
3.62,39.93563,-91.39833,40716.40,BLESSING HOSPITAL
5.02,41.86011,-87.69571,69377.20,MT SINAI HOSPITAL MEDICAL CENTER
4.88,41.72930,-88.26976,66404.72,COPLEY MEMORIAL HOSPITAL
2.69,39.12680,-88.55059,21583.49,ST ANTHONYS MEMORIAL HOSPITAL
2.76,38.52908,-89.11604,23193.02,ST MARYS HOSPITAL
4.08,40.95560,-90.36618,50059.06,GALESBURG COTTAGE HOSPITAL
3.21,41.80160,-89.69714,32394.37,CGH MEDICAL CENTER
2.89,38.32292,-88.91026,25704.25,GOOD SAMARITAN REGIONAL HLTH CENTER
3.92,41.72636,-87.56727,46930.90,ADVOCATE TRINITY HOSPITAL
4.12,41.89141,-87.77618,50869.87,WEST SUBURBAN MEDICAL CENTER
3.93,42.05624,-87.74012,46983.68,SKOKIE HOSPITAL
3.70,38.90787,-90.17207,42335.81,SAINT ANTHONY'S HEALTH CENTER
3.59,39.80726,-89.64496,40037.21,ST JOHNS HOSPITAL
3.78,41.83195,-87.79266,43947.59,MACNEAL  HOSPITAL
4.08,41.66900,-87.81414,50128.94,PALOS COMMUNITY HOSPITAL
3.65,40.98818,-90.36374,41266.41,ST MARY MEDICAL CENTER
4.44,40.70200,-89.59222,57402.72,SAINT FRANCIS MEDICAL CENTER
4.04,41.69322,-87.62436,49202.14,ROSELAND COMMUNITY HOSPITAL
3.27,41.87259,-87.76181,33462.08,LORETTO HOSPITAL
4.77,42.37840,-87.83329,64166.55,VISTA MEDICAL CENTER EAST
6.87,41.78829,-87.60485,107070.97,THE UNIVERSITY OF CHICAGO MEDICAL CENTER
2.63,40.44791,-90.66578,20547.92,MC DONOUGH DISTRICT HOSPITAL
4.47,40.13811,-87.64569,58075.15,PROVENA UNITED SAMARITANS MEDCTR-LOGAN
3.86,41.36897,-88.42537,45584.19,MORRIS HOSPITAL & HEALTHCARE CENTERS
3.72,41.77813,-87.63330,42777.82,ST BERNARD HOSPITAL
4.19,40.11739,-88.22714,52288.37,PROVENA COVENANT MEDICAL CENTER- URBANA
4.88,41.97532,-87.69958,66513.38,SWEDISH COVENANT HOSPITAL
3.62,41.95453,-87.65225,40796.59,THOREK MEMORIAL HOSPITAL
3.80,42.31832,-88.27920,44468.75,CENTEGRA HEALTH SYSTEM - MC HENRY HOSPITAL
4.22,41.80555,-87.92059,52970.42,HINSDALE HOSPITAL
3.05,41.87381,-87.67421,29083.67,JOHN H STROGER JR HOSPITAL
6.97,38.70148,-90.14382,109217.65,GATEWAY REGIONAL MEDICAL CENTER
3.18,40.49639,-88.99106,31764.06,BROMENN HEALTHCARE
3.85,41.76946,-87.69239,45427.18,HOLY CROSS HOSPITAL
2.61,38.73505,-88.07708,20076.64,RICHLAND MEMORIAL HOSPITAL
4.73,41.86927,-87.67052,63469.26,UNIVERSITY OF ILLINOIS HOSPITAL
5.58,41.12049,-87.87187,80682.54,PROVENA ST MARYS HOSPITAL
3.24,41.84639,-87.62345,32837.42,MERCY HOSPITAL AND MEDICAL CENTER
3.71,42.29592,-89.63773,42561.84,FHN MEMORIAL HOSPITAL
2.93,37.72790,-89.22058,26526.52,MEMORIAL HOSPITAL OF CARBONDALE
3.21,39.82659,-88.93119,32269.29,ST MARYS HOSPITAL
4.81,41.78566,-88.32886,65110.78,PROVENA MERCY MEDICAL CENTER
3.55,42.27597,-88.40019,39216.62,CENTEGRA HEALTH SYSTEM - WOODSTOCK HOSPITAL
4.24,41.72094,-87.69220,53397.26,LITTLE COMPANY OF MARY HOSPITAL
4.68,41.90414,-87.68254,62373.08,ST MARY & ELIZABETH MED CTR-DIVISION CAMPUS
3.77,41.12572,-87.88526,43723.29,RIVERSIDE MEDICAL CENTER
3.12,38.51081,-89.99014,30428.97,ST ELIZABETH HOSPITAL
2.95,39.48849,-88.27581,26919.78,SARAH BUSH LINCOLN HEALTH CENTER
4.74,41.86362,-87.93567,63569.93,ELMHURST MEMORIAL HOSPITAL
4.90,42.27447,-87.95764,66863.24,ADVOCATE CONDELL MEDICAL CENTER
4.13,41.72031,-87.73249,51200.67,ADVOCATE CHRIST HOSPITAL & MEDICAL CENTER
4.46,41.88566,-88.34311,57775.64,DELNOR COMMUNITY HOSPITAL
4.66,42.03576,-88.32575,62009.11,PROVENA - SAINT JOSEPH HOSPITAL
3.94,42.03837,-87.84820,47331.37,ADVOCATE LUTHERAN GENERAL HOSPITAL
4.51,41.93418,-87.63579,58877.88,SAINT JOSEPH HOSPITAL
4.61,42.26584,-89.07428,60864.15,SWEDISH AMERICAN HOSPITAL
3.60,42.26634,-89.00900,40247.94,SAINT ANTHONY MEDICAL CENTER
3.65,42.29844,-89.09897,41401.64,ROCKFORD MEMORIAL HOSPITAL
4.07,41.89166,-87.84838,49803.84,WESTLAKE COMMUNITY HOSPITAL
3.83,41.56720,-87.69566,45092.22,ADVOCATE SOUTH SUBURBAN HOSPITAL
3.90,41.94560,-87.76897,46350.86,OUR LADY OF THE RESURRECTION MED CTR
2.83,41.49581,-90.41871,24537.01,GENESIS MEDICAL CENTER ILLINI CAMPUS
2.95,41.48200,-90.57158,27002.41,TRINITY ROCK ISLAND
4.31,41.96185,-88.72130,54801.36,KISHWAUKEE COMMUNITY HOSPITAL
3.93,41.81791,-88.00907,46943.19,ADVOCATE GOOD SAMARITAN HOSPITAL
2.94,38.73818,-89.94728,26718.11,ANDERSON HOSPITAL
4.29,41.91465,-88.05724,54459.45,ADVENTIST GLENOAKS
3.53,38.31198,-88.93514,38866.92,CROSSROADS COMMUNITY HOSPITAL
2.87,39.76255,-86.50165,25394.48,HENDRICKS REGIONAL HEALTH
4.41,41.61055,-86.72511,56883.10,INDIANA UNIVERSITY HEALTH LA PORTE HOSPITAL
2.82,40.44665,-86.12707,24266.54,HOWARD REGIONAL HEALTH SYSTEM
3.06,41.63466,-87.44901,29151.55,ST CATHERINE HOSPITAL INC
3.48,40.48720,-86.15548,37885.96,ST JOSEPH HOSPITAL & HEALTH CENTER INC
2.88,40.56435,-85.66576,25551.28,MARION GENERAL HOSPITAL
3.59,41.70639,-86.89936,40116.29,FRANCISCAN ST ANTHONY HEALTH - MICHIGAN CITY
3.33,41.70568,-85.93404,34778.96,ELKHART GENERAL HOSPITAL
3.49,39.94340,-85.36306,38124.11,HENRY COUNTY MEMORIAL HOSPITAL
3.23,41.51266,-87.26125,32783.83,ST MARY MEDICAL CENTER INC
3.69,41.46729,-87.05130,42167.43,PORTER VALPARAISO HOSPITAL
3.06,39.42628,-86.40515,29248.28,INDIANA UNIVERSITY HEALTH MORGAN HOSPITAL INC
4.28,39.79009,-86.16260,54134.64,INDIANA UNIVERSITY HEALTH
3.01,40.04526,-86.02297,28172.27,RIVERVIEW HOSPITAL
2.34,38.65870,-87.16032,14573.53,DAVIESS COMMUNITY HOSPITAL
2.91,39.65626,-85.13265,26259.17,FAYETTE REGIONAL HEALTH SYSTEM
3.06,38.95542,-85.89223,29233.06,SCHNECK MEDICAL CENTER
3.26,39.78704,-86.07673,33402.14,COMMUNITY HOSPITAL EAST
3.55,37.98293,-87.57072,39290.80,DEACONESS HOSPITAL INC
3.88,39.91001,-86.19660,45947.33,ST VINCENT HOSPITAL & HEALTH SERVICES
3.06,39.11138,-84.88343,29245.14,DEARBORN COUNTY HOSPITAL
3.87,40.09594,-85.68152,45774.45,SAINT JOHN'S HEALTH SYSTEM
3.55,40.19679,-85.41573,39281.03,INDIANA UNIVERSITY HEALTH BALL MEMORIAL HOSPITAL
3.20,39.52494,-85.78113,32111.98,MAJOR HOSPITAL
3.34,37.96320,-87.50292,34871.41,ST MARY'S MEDICAL CENTER OF EVANSVILLE INC
3.25,40.07620,-86.47506,33185.94,WITHAM HEALTH SERVICES
2.88,39.21585,-85.89683,25614.32,COLUMBUS REGIONAL HOSPITAL
2.51,38.39499,-86.94089,18028.25,MEMORIAL HOSPITAL AND HEALTH CARE CENTER
3.60,41.24786,-85.82927,40250.93,KOSCIUSKO COMMUNITY HOSPITAL
3.48,39.98275,-86.14343,37824.03,ST VINCENT CARMEL HOSPITAL INC
4.02,39.95930,-86.16016,48951.07,INDIANA UNIVERSITY HEALTH NORTH HOSPITAL
3.57,39.64935,-86.07960,39767.62,FRANCISCAN ST FRANCIS HEALTH - INDIANAPOLIS
3.11,39.90060,-86.04218,30282.21,COMMUNITY HOSPITAL NORTH
3.66,40.40296,-86.80885,41613.00,INDIANA UNIVERSITY HEALTH ARNETT HOSPITAL
2.64,42.04855,-92.90625,20723.02,MARSHALLTOWN MEDICAL & SURGICAL CENTER
3.20,42.49388,-94.18926,32015.89,TRINITY REGIONAL MEDICAL CENTER
4.45,41.26886,-95.83923,57627.10,ALEGENT HEALTH MERCY HOSPITAL
3.13,41.66411,-91.52841,30705.78,MERCY HOSPITAL
3.04,41.54190,-90.55691,28761.93,GENESIS MEDICAL CENTER-DAVENPORT
3.53,41.98570,-91.66093,38813.33,ST LUKES HOSPITAL
2.87,41.26786,-95.83505,25281.17,JENNIE EDMUNDSON HOSPITAL
4.16,41.66092,-91.54800,51750.38,UNIVERSITY OF IOWA HOSPITAL & CLINICS
2.94,43.15063,-93.21718,26875.75,MERCY MEDICAL CENTER-NORTH IOWA
3.13,41.97864,-91.65507,30750.22,MERCY MEDICAL CENTER - CEDAR RAPIDS
3.09,41.86141,-90.18921,29846.80,MERCY MEDICAL CENTER-CLINTON
3.81,41.59886,-93.62344,44647.68,MERCY MEDICAL CENTER-DES MOINES
2.73,41.02751,-92.38994,22478.40,OTTUMWA REGIONAL HEALTH CENTER
2.52,42.49632,-90.68587,18194.83,THE FINLEY HOSPITAL
2.38,40.62419,-91.38232,15310.34,FORT MADISON COMMUNITY HOSPITAL
3.16,42.51846,-96.40581,31359.97,ST LUKES REGIONAL MEDICAL CENTER
2.39,41.74325,-92.73450,15483.95,GRINNELL REGIONAL MEDICAL CENTER
3.07,42.49250,-96.39975,29480.24,MERCY MEDICAL CENTER-SIOUX CITY
3.13,38.41149,-96.19524,30684.00,NEWMAN REGIONAL HEALTH
3.17,37.37991,-94.68739,31440.35,VIA CHRISTI HOSPITAL PITTSBURG INC
3.27,39.28218,-94.90368,33568.94,SAINT JOHN HOSPITAL
3.85,38.83324,-97.61028,45317.86,SALINA REGIONAL HEALTH CENTER
4.42,38.87847,-99.29923,57070.30,HAYS MEDICAL CENTER
3.11,38.59724,-95.26874,30177.08,RANSOM MEMORIAL HOSPITAL
2.94,39.05660,-95.69599,26795.53,ST FRANCIS HEALTH CENTER INC
3.43,38.85279,-94.82413,36803.53,OLATHE MEDICAL CENTER
2.99,38.02419,-97.33117,27865.95,NEWTON MEDICAL CENTER
5.33,37.69556,-97.29785,75582.19,WESLEY MEDICAL CENTER
2.63,38.97848,-95.24771,20514.42,LAWRENCE MEMORIAL HOSPITAL
3.94,39.12677,-94.78643,47310.19,PROVIDENCE MEDICAL CENTER
3.53,37.78537,-100.01492,38871.00,WESTERN PLAINS MEDICAL COMPLEX
5.50,38.93763,-94.72630,79205.93,OVERLAND PARK REG MED CTR
4.91,38.91047,-94.65205,67136.97,MENORAH MEDICAL CENTER
4.21,38.90355,-94.66966,52755.67,SAINT LUKE'S SOUTH HOSPITAL
2.63,37.73142,-97.26078,20464.40,GALICHIA HEART HOSPITAL LLC
3.34,39.07816,-84.46695,34978.30,ST ELIZABETH FT THOMAS
3.20,38.47021,-82.63498,32087.60,KING'S DAUGHTERS' MEDICAL CENTER
3.30,37.11784,-84.10910,34232.96,SAINT JOSEPH HOSPITAL LONDON
2.94,38.20960,-85.23598,26892.33,JEWISH HOSPITAL - SHELBYVILLE
2.59,37.01079,-85.90342,19603.17,T J SAMSON COMMUNITY HOSPITAL
3.01,38.18397,-83.43268,28214.91,ST CLAIRE REGIONAL MEDICAL CENTER
2.73,37.86188,-85.52322,22519.53,FLAGET MEMORIAL HOSPITAL (MEMBER OF SAINT JOSEPH H
3.23,36.60798,-88.30957,32677.74,MURRAY-CALLOWAY COUNTY HOSPITAL
4.01,37.27729,-83.22802,48668.54,HAZARD ARH REGIONAL MEDICAL CENTER
3.59,39.06704,-84.49946,40185.68,ST ELIZABETH MEDICAL CENTER NORTH
3.07,37.76518,-87.10197,29418.53,OWENSBORO MEDICAL HEALTH SYSTEM
3.61,37.16218,-83.76137,40458.68,MEMORIAL HOSPITAL
4.84,37.47264,-82.52605,65666.34,PIKEVILLE MEDICAL CENTER
2.51,38.22249,-84.23816,17979.73,BOURBON COMMUNITY HOSPITAL
2.55,38.07683,-83.94761,18842.79,SAINT JOSEPH MOUNT STERLING
2.84,36.81465,-86.88220,24775.25,LOGAN MEMORIAL HOSPITAL
6.12,37.81455,-82.81102,91852.22,PAUL B HALL REGIONAL MEDICAL CENTER
2.98,37.36583,-85.33917,27586.74,TAYLOR REGIONAL HOSPITAL
2.49,38.00003,-84.19667,17673.41,CLARK REGIONAL MEDICAL CENTER
3.05,37.33959,-87.48988,29067.78,REGIONAL MEDICAL CENTER OF HOPKINS COUNTY
3.71,38.01849,-84.51236,42621.22,CENTRAL BAPTIST HOSPITAL
3.59,38.16020,-84.90519,40017.50,FRANKFORT REGIONAL MEDICAL CENTER
4.03,37.08724,-84.61828,49124.86,LAKE CUMBERLAND REGIONAL HOSPITAL
2.68,38.39635,-85.37324,21557.12,BAPTIST HOSPITAL NORTHEAST
3.63,37.56166,-83.37202,40947.33,KENTUCKY RIVER MEDICAL CENTER
2.70,37.09412,-85.29359,21893.00,WESTLAKE REGIONAL HOSPITAL
3.70,30.20227,-92.01906,42263.99,LAFAYETTE GENERAL MEDICAL CENTER
4.11,30.00890,-91.79475,50714.80,DAUTERIVE HOSPITAL
3.47,29.59851,-90.71397,37651.14,TERREBONNE GENERAL MEDICAL CENTER
3.05,30.22981,-93.36867,29113.87,WEST CALCASIEU CAMERON HOSPITAL
7.23,30.46813,-90.45814,114494.94,NORTH OAKS MEDICAL CENTER, LLC
2.94,30.54354,-92.07608,26710.95,OPELOUSAS GENERAL HEALTH SYSTEM
3.98,31.28258,-92.46060,48119.62,CHRISTUS ST FRANCES CABRINI HOSPITAL
3.84,30.65001,-91.13821,45242.41,LANE REGIONAL MEDICAL CENTER
4.12,30.64108,-92.41842,50881.75,SAVOY MEDICAL CENTER
4.86,31.31451,-92.44997,66018.31,RAPIDES REGIONAL MEDICAL CENTER
4.11,30.28456,-89.77038,50663.69,SLIDELL MEMORIAL HOSPITAL AND MEDICAL CENTER
2.16,30.22762,-92.36253,10886.11,AMERICAN LEGION HOSPITAL
4.07,30.84189,-93.28906,49826.93,BEAUREGARD MEMORIAL HOSPITAL
4.06,30.20458,-93.19774,49603.18,LAKE CHARLES MEMORIAL HOSPITAL
2.98,30.40118,-91.11160,27521.50,OUR LADY OF THE LAKE REGIONAL MEDICAL CENTER
2.63,30.45015,-91.15273,20541.32,BATON ROUGE GENERAL MEDICAL CENTER
3.56,32.51544,-92.63343,39555.19,NORTHERN LOUISIANA MEDICAL CENTER
2.65,32.48177,-93.76264,20811.86,LSU HEALTH SCIENCES CENTER - SHREVEPORT
3.59,31.14344,-92.06453,40079.38,AVOYELLES HOSPITAL
3.86,32.48393,-93.77884,45545.07,WILLIS KNIGHTON MEDICAL CENTER
2.94,32.79391,-93.06245,26856.16,HOMER MEMORIAL HOSPITAL
3.49,29.93718,-90.10329,38120.67,OCHSNER BAPTIST MEDICAL CENTER LLC
3.14,32.61700,-93.28566,30929.03,MINDEN MEDICAL CENTER
3.34,30.01438,-90.18155,35006.31,EAST JEFFERSON GENERAL HOSPITAL
5.02,31.13861,-93.26892,69377.96,BYRD REGIONAL HOSPITAL
3.35,30.68494,-92.26601,35211.24,MERCY REGIONAL MEDICAL CENTER
3.84,30.07331,-90.51602,45264.37,RIVER PARISHES HOSPITAL
5.79,29.95570,-90.07587,85151.13,TULANE MEDICAL CENTER
2.92,30.43973,-91.00727,26326.73,OCHSNER MEDICAL CENTER-BATON ROUGE
6.31,30.28681,-89.74295,95775.32,OCHSNER MEDICAL CENTER - NORTHSHORE, LLC
2.73,30.20918,-90.93215,22446.26,ST ELIZABETH HOSPITAL
3.85,30.35437,-89.91917,45465.43,LOUISIANA MEDICAL CENTER AND HEART HOSPITAL, LLC
3.10,44.02611,-69.52811,30000.28,MILES MEMORIAL HOSPITAL (LINCOLN COUNTY HEALTHCARE
2.72,43.65159,-70.26482,22291.48,MERCY HOSPITAL
3.39,43.65325,-70.27533,36085.92,MAINE MEDICAL CENTER
3.02,43.47840,-70.49221,28514.94,SOUTHERN MAINE MEDICAL CENTER
2.95,44.10107,-70.21432,26950.57,CENTRAL MAINE MEDICAL CENTER
4.37,43.91137,-69.81471,56028.08,PARKVIEW ADVENTIST MEDICAL CENTER
3.26,44.10276,-70.20093,33245.35,ST MARYS REGIONAL MEDICAL CENTER
2.94,44.62294,-70.16307,26751.85,FRANKLIN MEMORIAL HOSPITAL
2.74,47.26827,-68.59140,22760.08,NORTHERN MAINE MEDICAL CENTER
2.96,44.14436,-69.08577,27294.50,PENOBSCOT BAY MEDICAL CENTER
2.47,39.62183,-77.68219,17107.49,MERITUS MEDICAL CENTER
3.22,39.28817,-76.62438,32469.02,UNIVERSITY OF MARYLAND MEDICAL CENTER
2.89,38.93090,-76.92161,25674.41,PRINCE GEORGES HOSPITAL CENTER
2.51,39.01578,-77.03591,18025.43,HOLY CROSS HOSPITAL
2.41,39.42366,-77.41386,15972.29,FREDERICK MEMORIAL HOSPITAL
2.30,39.54345,-76.09153,13737.65,HARFORD MEMORIAL HOSPITAL
2.37,39.38813,-76.61068,15156.74,SAINT JOSEPH MEDICAL CENTER
3.92,39.29688,-76.59242,46747.09,JOHNS HOPKINS HOSPITAL, THE
2.70,39.27352,-76.67219,21792.53,SAINT AGNES HOSPITAL
2.56,39.35262,-76.66196,19089.49,SINAI HOSPITAL OF BALTIMORE
2.60,39.35169,-76.47919,19834.32,FRANKLIN SQUARE HOSPITAL CENTER
2.30,39.41339,-79.40103,13753.76,GARRETT COUNTY MEMORIAL HOSPITAL
2.55,39.15402,-77.05431,18790.77,MONTGOMERY GENERAL HOSPITAL INC
2.60,38.36248,-75.59799,19880.63,PENINSULA REGIONAL MEDICAL CENTER
2.41,38.99014,-76.53398,15905.69,ANNE ARUNDEL MEDICAL CENTER
2.40,39.32930,-76.61432,15830.64,UNION MEMORIAL HOSPITAL
2.53,38.29124,-76.63579,18491.23,SAINT MARY'S HOSPITAL
2.35,39.60859,-75.83201,14736.98,UNION HOSPITAL OF CECIL COUNTY
2.42,39.55808,-76.99107,16223.80,CARROLL HOSPITAL CENTER
2.38,38.52905,-76.97068,15342.84,CIVISTA MEDICAL CENTER
2.48,38.76970,-76.07697,17474.33,MEMORIAL HOSPITAL AT EASTON
2.91,39.29994,-76.62138,26144.79,MARYLAND GENERAL  HOSPITAL
2.37,38.55963,-76.59455,15067.70,CALVERT MEMORIAL HOSPITAL
2.45,39.35852,-76.78208,16846.45,NORTHWEST HOSPITAL CENTER
2.46,39.13732,-76.62228,17068.32,BALTIMORE WASHINGTON  MEDICAL CENTER
2.37,39.21273,-76.88526,15129.97,HOWARD COUNTY GENERAL HOSPITAL
2.25,39.51870,-76.34688,12656.32,UPPER CHESAPEAKE MEDICAL CENTER
2.58,38.74827,-76.87590,19372.18,SOUTHERN MARYLAND HOSPITAL CENTER
2.48,39.35962,-76.58851,17378.28,GOOD SAMARITAN HOSPITAL
2.76,39.09796,-77.19799,23090.89,SHADY GROVE ADVENTIST HOSPITAL
2.20,38.72818,-76.99214,11591.44,FORT WASHINGTON HOSPITAL
2.33,38.33876,-75.21128,14349.92,ATLANTIC GENERAL HOSPITAL
2.86,42.37441,-71.13378,25072.55,MOUNT AUBURN HOSPITAL
3.00,42.70912,-71.14877,28064.64,LAWRENCE GENERAL HOSPITAL
2.67,42.59584,-72.59255,21336.15,BAYSTATE FRANKLIN MEDICAL CENTER
2.44,42.27872,-71.06625,16476.12,CARNEY HOSPITAL
2.58,42.07708,-72.04298,19357.75,HARRINGTON MEMORIAL HOSPITAL
2.83,41.69217,-71.16474,24567.26,SAINT ANNE'S HOSPITAL
2.49,42.20038,-72.62762,17669.14,HOLYOKE MEDICAL CENTER
2.56,42.81476,-70.89068,18972.45,ANNA JAQUES HOSPITAL
3.01,42.16849,-72.34130,28229.07,WING MEMORIAL HOSPITAL AND MEDICAL CENTER
2.63,42.56407,-70.87543,20499.38,BEVERLY HOSPITAL CORPORATION
3.69,42.51078,-70.90712,42156.18,NORTH SHORE MEDICAL CENTER
2.89,42.34896,-71.14768,25716.08,ST ELIZABETH'S MEDICAL CENTER
2.84,42.35375,-71.55485,24700.69,MARLBOROUGH HOSPITAL
2.50,42.70589,-73.10840,17829.71,NORTH ADAMS REGIONAL HOSPITAL
2.95,42.03597,-71.09792,27047.38,SIGNATURE HEALTHCARE BROCKTON HOSPITAL
2.59,41.94445,-70.64511,19692.11,JORDAN HOSPITAL INC
2.91,42.64636,-71.34118,26181.97,LOWELL GENERAL HOSPITAL
2.49,42.46049,-71.06203,17501.22,HALLMARK HEALTH SYSTEM
5.16,42.36227,-71.06941,72245.80,MASSACHUSETTS GENERAL HOSPITAL
2.27,41.90456,-71.09562,13121.07,MORTON HOSPITAL
2.83,41.70928,-71.14519,24497.75,SOUTHCOAST HOSPITAL GROUP, INC
3.06,42.12077,-72.60525,29174.64,BAYSTATE MEDICAL CENTER
2.91,42.72846,-71.16830,26120.17,HOLY FAMILY HOSPITAL
2.62,42.64529,-71.30052,20206.07,SAINTS  MEDICAL CENTER INC
2.76,42.43082,-71.37554,23108.16,EMERSON HOSPITAL
2.50,42.58660,-71.98678,17847.80,HEYWOOD HOSPITAL
2.71,42.17644,-70.95398,21999.24,SOUTH SHORE HOSPITAL
2.43,42.25232,-71.07515,16455.62,MILTON HOSPITAL INC
5.28,42.33600,-71.10704,74691.19,BRIGHAM AND WOMEN'S HOSPITAL
2.35,42.09864,-71.06607,14677.28,GOOD SAMARITAN MEDICAL CENTER
4.12,42.34951,-71.06331,50888.41,TUFTS MEDICAL CENTER
2.29,42.18869,-71.20197,13585.98,NORWOOD HOSPITAL
2.40,41.56412,-70.62200,15676.60,FALMOUTH HOSPITAL
2.50,42.76256,-71.04507,17762.70,MERRIMACK VALLEY HOSPITAL
2.63,42.28385,-71.41896,20425.12,METROWEST MEDICAL CENTER
2.86,42.82157,-85.98743,25149.77,SPECTRUM HEALTH ZEELAND COMMUNITY HOSPITAL
2.47,43.20588,-86.20839,17142.09,MERCY HEALTH PARTNERS, MERCY CAMPUS
3.34,42.45741,-83.20513,34891.18,PROVIDENCE HOSPITAL AND MEDICAL CENTERS
3.40,42.29077,-83.21504,36220.93,OAKWOOD HOSPITAL AND MEDICAL CENTER
2.82,41.93815,-84.98935,24434.35,COMMUNITY HEALTH CENTER OF BRANCH COUNTY
2.89,42.61425,-83.27602,25765.12,ST JOSEPH MERCY OAKLAND
2.61,43.17554,-85.26879,20121.37,SPECTRUM HEALTH UNITED MEMORIAL - UNITED CAMPUS
2.80,42.96881,-85.66649,23897.46,SPECTRUM HEALTH - BUTTERWORTH CAMPUS
2.98,42.64303,-85.30706,27623.77,PENNOCK HOSPITAL
3.13,43.58941,-83.86908,30596.66,MCLAREN BAY REGION
2.74,42.61490,-82.96060,22662.25,HENRY FORD MACOMB HOSPITAL
3.69,42.36762,-83.08461,42105.60,HENRY FORD HOSPITAL
2.47,43.22169,-86.24283,17138.29,MERCY HEALTH PARTNERS, HACKLEY CAMPUS
3.53,43.42857,-83.95556,38880.79,COVENANT MEDICAL CENTER, INC
2.76,42.77487,-86.11378,23126.47,HOLLAND COMMUNITY HOSPITAL
2.67,42.33111,-85.17817,21172.68,BRONSON BATTLE CREEK HOSPITAL
3.58,43.42612,-83.94185,39974.23,ST MARY'S OF MICHIGAN MEDICAL CENTER
2.84,43.59935,-84.76097,24790.56,CENTRAL MICHIGAN COMMUNITY HOSPITAL
2.25,42.39046,-86.26408,12682.13,SOUTH HAVEN COMMUNITY HOSPITAL
3.48,42.25117,-84.39240,37913.45,ALLEGIANCE HEALTH
2.11,43.69399,-85.47533,9866.26,MECOSTA COUNTY MEDICAL CENTER
2.30,44.26333,-84.24625,13681.53,WEST BRANCH REGIONAL MEDICAL CENTER
2.18,44.27548,-83.51170,11268.23,TAWAS ST JOSEPH HOSPITAL
2.98,45.74575,-87.10106,27589.62,ST FRANCIS HOSPITAL
2.69,43.46517,-85.95072,21615.15,SPECTRUM HEALTH GERBER MEMORIAL
2.48,47.14130,-88.58580,17360.40,PORTAGE HEALTH HOSPITAL
3.10,43.95934,-86.42921,29993.48,MEMORIAL MEDICAL CENTER OF WEST MICHIGAN
2.15,43.79961,-83.04527,10604.56,HURON MEDICAL CENTER
3.13,43.00546,-84.18145,30614.62,MEMORIAL HEALTHCARE
4.07,43.02135,-83.70308,49833.75,HURLEY MEDICAL CENTER
3.06,42.21065,-83.14861,29304.33,HENRY FORD WYANDOTTE HOSPITAL
3.78,42.70417,-84.55488,43936.68,MCLAREN - GREATER LANSING
2.63,43.05082,-86.22893,20495.35,NORTH OTTAWA COMMUNITY HOSPITAL
3.34,42.11695,-83.21365,34979.60,OAKWOOD SOUTHSHORE MEDICAL CENTER
3.42,42.89254,-83.63621,36698.33,GENESYS REGIONAL MEDICAL CENTER - HEALTH PARK
3.25,42.63849,-83.29062,33185.72,MCLAREN OAKLAND
2.20,43.17597,-84.84268,11644.14,CARSON CITY HOSPITAL
3.23,42.98625,-82.42802,32662.23,PORT HURON HOSPITAL
3.13,42.27302,-84.95775,30608.58,OAKLAWN HOSPITAL
2.82,46.43131,-84.28107,24369.49,CHIPPEWA COUNTY WAR MEMORIAL HOSPITAL
2.71,42.33215,-83.31195,22173.91,GARDEN CITY HOSPITAL
3.72,42.67850,-83.14771,42653.01,CRITTENTON HOSPITAL MEDICAL CENTER
2.53,42.31028,-84.01594,18338.29,CHELSEA COMMUNITY HOSPITAL
3.52,42.61826,-83.09239,38733.85,WILLIAM BEAUMONT HOSPITAL-TROY
3.89,42.35295,-83.05447,46207.46,DETROIT RECEIVING HOSPITAL & UNIV HEALTH CENTER
3.34,42.59290,-83.49920,35047.47,HURON VALLEY-SINAI HOSPITAL
3.46,42.53914,-83.40777,37455.78,HENRY FORD WEST BLOOMFIELD HOSPITAL
3.30,46.79380,-92.09573,34076.93,ESSENTIA HEALTH ST MARY'S MEDICAL CENTER
3.96,44.97210,-93.26240,47748.43,HENNEPIN COUNTY MEDICAL CENTER
3.81,45.57390,-94.16942,44500.41,ST CLOUD HOSPITAL
2.97,47.41117,-92.93183,27392.75,UNIVERSITY MEDICAL CENTER-MESABI/ MESABA CLINICS
2.66,44.03521,-91.62181,21126.39,WINONA HEALTH SERVICES
2.82,46.79634,-92.08793,24322.28,ST LUKES HOSPITAL
2.75,46.27712,-96.07244,22959.48,LAKE REGION HEALTHCARE CORPORATION
4.64,44.95248,-93.26196,61477.59,ABBOTT NORTHWESTERN HOSPITAL
3.00,44.74684,-92.87286,28046.00,REGINA MEDICAL CENTER
3.91,44.02354,-92.46588,46582.41,MAYO CLINIC METHODIST HOSPITAL
2.95,44.11113,-93.25076,27077.29,OWATONNA HOSPITAL
2.97,46.36166,-94.20573,27310.20,ESSENTIA HEALTH ST JOSEPH'S MEDICAL CENTER
2.88,45.19325,-93.87136,25511.81,BUFFALO HOSPITAL
3.36,44.88645,-93.32693,35361.20,FAIRVIEW SOUTHDALE HOSPITAL
2.33,47.53102,-92.55580,14376.88,VIRGINIA REGIONAL MEDICAL CENTER
3.41,44.77252,-93.50323,36365.78,ST FRANCIS REGIONAL MEDICAL CENTER
3.66,44.95570,-93.09429,41486.35,REGIONS HOSPITAL
4.10,45.18355,-93.36789,50457.02,MERCY HOSPITAL
3.86,45.10789,-93.25685,45545.90,UNITY HOSPITAL
3.32,45.55758,-93.58615,34552.75,FAIRVIEW NORTHLAND REGIONAL HOSPITAL
2.60,43.63765,-94.44962,19910.81,MAYO CLINIC HEALTH SYSTEM - FAIRMONT
3.19,44.74846,-93.27289,31854.60,FAIRVIEW RIDGES HOSPITAL
3.37,45.13294,-93.47922,35621.88,MAPLE GROVE HOSPITAL
2.56,34.80355,-88.20905,19038.06,TISHOMINGO HEALTH SERVICES INC
3.19,34.24336,-88.71753,31827.26,NORTH MISSISSIPPI MEDICAL CENTER
3.43,34.49648,-89.03326,36901.33,BAPTIST MEMORIAL HOSPITAL UNION COUNTY
2.64,33.89232,-88.98141,20711.31,TRACE REGIONAL HOSP AND SWING BED
2.86,33.54068,-89.26701,25056.57,WEBSTER GENERAL HOSPITAL/SWING BED
3.40,33.97458,-88.47761,36290.11,GILMORE MEMORIAL HOSPITAL
3.32,34.34899,-89.52062,34550.35,BAPTIST MEMORIAL HOSPITAL NORTH MS
2.39,30.92176,-88.59286,15529.88,GEORGE COUNTY HOSPITAL
2.87,34.65637,-88.56564,25343.78,BAPTIST MEMORIAL HOSPITAL BOONEVILLE
2.69,33.47600,-88.82100,21676.32,OCH REGIONAL MEDICAL CENTER
2.90,31.57544,-90.45670,26060.38,KING'S DAUGHTERS MEDICAL CENTER-BROOKHAVEN
2.47,33.61860,-88.66204,17195.92,CLAY COUNTY MEDICAL CENTER
5.60,32.28805,-90.25566,81284.64,CENTRAL MISSISSIPPI MEDICAL CENTER
3.78,33.74750,-90.71908,44060.94,BOLIVAR MEDICAL CENTER
2.26,33.45723,-90.65012,12907.95,SOUTH SUNFLOWER COUNTY HOSPITAL
2.72,31.24000,-90.45000,22379.47,SOUTHWEST MS REGIONAL MEDICAL CENTER
3.32,33.51824,-90.19832,34544.41,GREENWOOD LEFLORE HOSPITAL
3.30,33.52568,-88.42742,34083.08,BAPTIST MEM HOSP/GOLDEN TRIANGLE INC
4.11,32.31643,-90.17922,50736.61,MISSISSIPPI BAPTIST MEDICAL CENTER
3.24,32.37280,-88.69954,32967.89,ANDERSON REGIONAL MEDICAL CENTER
2.89,30.52996,-89.68782,25674.54,HIGHLAND COMMUNITY  HOSPITAL
5.03,31.56044,-91.40317,69627.87,NATCHEZ COMMUNITY HOSPITAL/SWING BED
4.58,30.44411,-89.09321,60231.59,GARDEN PARK MEDICAL CENTER
3.92,37.06032,-94.52747,46803.02,ST JOHN'S REGIONAL MEDICAL CENTER
3.98,36.23658,-90.04315,47984.15,TWIN RIVERS REGIONAL MEDICAL CENTER
3.32,37.95144,-91.75940,34523.43,PHELPS COUNTY REGIONAL MEDICAL CENTER
4.07,40.19296,-92.59085,49889.84,NORTHEAST REGIONAL MEDICAL CENTER
2.81,38.16498,-90.38082,24060.13,JEFFERSON REGIONAL MEDICAL CENTER
3.18,39.71116,-91.45071,31630.43,HANNIBAL REGIONAL HOSPITAL
5.87,39.00717,-94.55925,86792.30,RESEARCH MEDICAL CENTER
4.10,38.63524,-90.26508,50500.24,BARNES JEWISH HOSPITAL
2.92,39.08401,-94.57591,26399.12,TRUMAN MEDICAL CENTER HOSPITAL HILL
2.72,37.68142,-92.63587,22381.08,ST JOHNS HOSPITAL-LEBANON
2.62,37.83050,-94.35973,20250.63,NEVADA REGIONAL MEDICAL CENTER
2.54,39.17288,-91.87692,18577.37,AUDRAIN MEDICAL CENTER
3.47,37.17999,-93.27409,37565.66,ST JOHN'S REGIONAL HEALTH CENTER
3.54,38.94903,-92.31563,39035.08,BOONE HOSPITAL CENTER
3.64,39.42385,-92.41354,41080.87,MOBERLY REGIONAL MEDICAL CENTER
3.26,38.50661,-90.38025,33338.16,ST ANTHONY'S MEDICAL CENTER
2.67,36.73801,-91.87553,21259.69,OZARKS MEDICAL CENTER
3.53,38.63268,-90.31089,38789.45,SSM ST MARYS HEALTH CENTER
3.43,36.64970,-93.22138,36724.29,SKAGGS REGIONAL MEDICAL CENTER
4.96,39.04749,-94.34105,68133.28,CENTERPOINT MEDICAL CENTER OF INDEPENDENCE, LLC
3.84,38.75097,-90.43255,45215.84,SSM DEPAUL HEALTH CENTER
5.62,38.62280,-90.24049,81560.83,ST LOUIS UNIVERSITY HOSPITAL
3.75,37.31072,-89.53990,43396.20,SOUTHEAST MISSOURI HOSPITAL
2.48,38.19579,-91.16917,17305.33,MISSOURI BAPTIST HOSPITAL SULLIVAN
3.30,37.79962,-90.44045,34164.20,MINERAL AREA REGIONAL MEDICAL CENTER
4.43,36.78510,-90.42779,57248.54,POPLAR BLUFF REGIONAL MEDICAL CENTER
3.84,37.05238,-94.52777,45196.26,FREEMAN HEALTH SYSTEM - FREEMAN WEST
5.31,39.04761,-94.59037,75263.77,ST LUKES HOSPITAL OF KANSAS CITY
3.36,38.95171,-92.33407,35405.23,UNIVERSITY OF MISSOURI HEALTH CARE
2.42,39.10290,-93.21343,16241.25,FITZGIBBON MEMORIAL HOSPITAL
2.36,37.78031,-90.43967,14975.54,PARKLAND HEALTH CENTER
2.48,38.38829,-93.77115,17336.87,GOLDEN VALLEY MEMORIAL HOSPITAL
3.13,39.27591,-94.42572,30768.83,LIBERTY HOSPITAL
4.01,38.77576,-90.23906,48659.81,CHRISTIAN HOSPITAL NORTHEAST
3.71,38.12027,-92.68146,42467.28,LAKE REGIONAL HEALTH SYSTEM
4.48,38.90359,-94.33308,58320.52,LEE'S SUMMIT MEDICAL CENTER
2.98,38.79427,-90.58049,27622.23,BARNES-JEWISH ST PETERS HOSPITAL
2.78,37.60022,-93.42237,23483.60,CITIZENS MEMORIAL HOSPITAL
2.53,37.24869,-93.27349,18381.18,OZARKS COMMUNITY HOSPITAL
5.13,38.94062,-94.37842,71645.80,SAINT LUKE'S EAST LEE'S SUMMIT HOSPITAL
2.56,38.71535,-90.69847,18923.20,PROGRESS WEST HEALTHCARE CENTER
2.61,46.58297,-111.99684,20079.87,ST PETER'S HOSPITAL
3.28,46.00924,-112.54613,33748.21,ST JAMES HEALTHCARE
3.53,40.70646,-99.08136,38760.66,GOOD SAMARITAN HOSPITAL
4.03,41.25522,-95.97892,49162.19,THE NEBRASKA MEDICAL CENTER
3.71,40.80816,-96.62689,42552.43,SAINT ELIZABETH REGIONAL MEDICAL CENTER
3.36,40.92425,-98.37053,35294.59,ST FRANCIS MEDICAL CENTER
7.44,41.26509,-95.95494,118893.44,CREIGHTON UNIVERSITY MEDICAL CENTER - SAINT JOSEPH
2.74,40.59160,-98.38755,22748.83,MARY LANNING MEMORIAL HOSPITAL
3.95,41.25797,-96.04164,47439.67,THE NEBRASKA METHODIST HOSPITAL
3.29,41.88690,-103.66400,34041.17,REGIONAL WEST MEDICAL CENTER
3.01,41.12081,-100.77062,28271.92,GREAT PLAINS REGIONAL MEDICAL CENTER
3.59,41.45152,-96.49184,40109.48,FREMONT AREA MEDICAL CENTER
3.42,41.13585,-96.04011,36560.87,ALEGENT HEALTH MIDLANDS HOSPITAL
2.78,41.45328,-97.38382,23619.78,COLUMBUS COMMUNITY HOSPITAL
3.15,42.03257,-97.45100,31007.89,FAITH REGIONAL HEALTH SERVICES
4.02,41.23771,-96.18052,48881.79,ALEGENT HEALTH LAKESIDE HOSPITAL
6.97,36.13459,-115.13576,109123.79,SUNRISE HOSPITAL AND MEDICAL CENTER
7.62,36.19568,-115.12284,122423.82,NORTH VISTA HOSPITAL
3.52,40.82334,-115.73159,38632.21,NORTHEASTERN NEVADA REGIONAL HOSPITAL
3.59,39.53066,-119.82067,40048.07,SAINT MARY'S REGIONAL MEDICAL CENTER
5.87,36.03931,-114.98259,86782.06,SAINT ROSE DOMINICAN HOSPITAL - DE LIMA
3.69,39.20247,-119.78446,42191.69,CARSON TAHOE REGIONAL MEDICAL CENTER
7.27,36.16380,-115.16574,115302.58,VALLEY HOSPITAL MEDICAL CENTER
4.48,39.54241,-119.69736,58270.31,NORTHERN NEVADA MEDICAL CENTER
7.11,36.21599,-115.25095,112040.03,MOUNTAINVIEW HOSPITAL
6.72,36.16586,-115.32436,104039.55,SUMMERLIN HOSPITAL MEDICAL CENTER
5.80,36.00527,-115.11618,85235.68,SAINT ROSE DOMINICAN HOSPITAL - SIENA CAMPUS
3.43,39.43625,-119.75999,36851.31,RENOWN SOUTH MEADOWS MEDICAL CENTER
6.25,36.28588,-115.28772,94396.06,CENTENNIAL HILLS HOSPITAL MEDICAL CENTER
3.04,43.19846,-71.56230,28872.20,CONCORD HOSPITAL
3.44,43.67286,-72.27232,37090.18,MARY HITCHCOCK MEMORIAL HOSPITAL
3.22,43.52835,-71.46291,32517.52,LAKES REGION GENERAL HOSPITAL
2.82,42.75004,-71.48100,24334.83,ST JOSEPH HOSPITAL
3.00,43.00792,-71.46807,28086.55,ELLIOT HOSPITAL
3.39,43.21231,-70.87499,35984.49,WENTWORTH-DOUGLASS HOSPITAL
2.87,42.94925,-72.28978,25428.64,CHESHIRE MEDICAL CENTER
2.80,42.75623,-71.46059,24011.59,SOUTHERN NH MEDICAL CENTER
3.27,42.98369,-70.93511,33519.07,EXETER HOSPITAL INC
3.44,43.06469,-70.78916,37054.06,PORTSMOUTH REGIONAL HOSPITAL
6.82,40.88346,-74.05564,106157.57,HACKENSACK UNIVERSITY MEDICAL CENTER
6.85,40.71011,-74.21368,106738.32,NEWARK BETH ISRAEL MEDICAL CENTER
5.79,40.79576,-73.99575,85161.70,PALISADES MEDICAL CTR-NY PRESBYTERIAN HEALTHCARE S
4.30,40.53142,-74.86080,54536.16,HUNTERDON MEDICAL CENTER
4.80,40.88275,-74.01021,64919.80,HOLY NAME MEDICAL CENTER
5.02,40.35684,-74.66166,69357.61,UNIVERSITY MEDICAL CENTER AT PRINCETON
3.58,39.08752,-74.81657,39952.22,CAPE REGIONAL MEDICAL CENTER INC
4.49,40.98359,-74.10047,58512.69,VALLEY HOSPITAL
7.09,39.94152,-75.11680,111746.97,COOPER UNIVERSITY HOSPITAL
5.19,40.78883,-74.46620,72767.11,MORRISTOWN MEMORIAL HOSPITAL
8.71,40.73417,-74.04977,144700.23,CHRIST HOSPITAL
8.91,40.21634,-74.74143,148961.81,ST FRANCIS MEDICAL CENTER
6.34,39.78261,-74.91670,96391.63,VIRTUA WEST JERSEY HOSPITALS BERLIN
6.46,40.61288,-74.29092,98698.47,ROBERT WOOD JOHNSON UNIVERSITY HOSPITAL AT RAHWAY
10.30,40.66805,-74.11334,177205.81,BAYONNE HOSPITAL CENTER
5.74,39.44743,-75.05838,84009.97,SOUTH JERSEY HEALTHCARE REGIONAL MEDICAL CENTER
6.87,40.35309,-74.06484,107213.76,RIVERVIEW MEDICAL CENTER
6.64,40.51891,-74.28183,102430.11,RARITAN BAY MEDICAL CENTER
6.72,40.29209,-74.80327,104046.74,CAPITAL HEALTH MEDICAL CENTER - HOPEWELL
5.67,40.90400,-73.96847,82608.89,ENGLEWOOD HOSPITAL AND MEDICAL CENTER
5.57,40.89538,-74.46479,80493.75,SAINT CLARE'S HOSPITAL
4.63,40.71264,-74.35460,61411.79,OVERLOOK HOSPITAL
5.74,40.07832,-74.13009,83980.99,OCEAN MEDICAL CENTER
5.02,40.81058,-74.20459,69358.44,MOUNTAINSIDE HOSPITAL
4.92,40.95698,-74.06295,67347.03,BERGEN REGIONAL MEDICAL CENTER
6.96,40.04632,-74.88059,108917.35,LOURDES MEDICAL CENTER OF BURLINGTON COUNTY
6.55,39.35775,-74.43449,100593.90,ATLANTICARE REGIONAL MEDICAL CENTER - CITY DIV
6.86,40.76190,-74.30335,107019.04,SAINT BARNABAS MEDICAL CENTER
6.00,40.75402,-74.21335,89395.94,EAST ORANGE GENERAL HOSPITAL
5.53,40.07503,-74.21832,79677.12,KIMBALL MEDICAL CENTER
8.35,40.23629,-74.75256,137353.73,CAPITAL HEALTH SYSTEM-FULD CAMPUS
4.96,40.55784,-74.34970,68051.09,JFK MEDICAL CTR - ANTHONY M. YELENCSICS COMMUNITY
6.29,40.21575,-74.67273,95252.27,ROBERT WOOD JOHNSON UNIVERSITY HOSPITAL HAMILTON
9.32,40.78621,-74.07568,157167.64,MEADOWLANDS HOSPITAL MEDICAL CENTER
5.52,41.20714,-74.60348,79581.83,SAINT CLARE'S HOSPITAL/SUSSEX
3.41,35.65960,-105.94578,36405.10,ST VINCENT HOSPITAL
3.63,36.72387,-108.21749,40828.89,SAN JUAN REGIONAL MEDICAL CENTER
5.85,33.42340,-104.52748,86264.45,EASTERN NEW MEXICO MEDICAL CENTER
2.95,36.37076,-105.57950,26925.23,HOLY CROSS HOSPITAL A DIV OF TAOS HEALTH SYSTEMS
3.18,32.26331,-107.74805,31749.36,MIMBRES MEMORIAL HOSPITAL
3.17,34.41937,-103.23173,31500.00,PLAINS REGIONAL MEDICAL CENTER  CLOVIS
4.05,32.76065,-103.18088,49461.67,LEA REGIONAL MEDICAL CENTER
3.51,32.32310,-106.72900,38534.86,MOUNTAIN VIEW REGIONAL MEDICAL CENTER
3.84,41.92720,-73.99535,45238.50,KINGSTON HOSPITAL
3.01,42.87482,-78.84942,28255.15,KALEIDA HEALTH
2.56,40.92963,-73.89840,18922.86,ST JOSEPH'S MEDICAL CENTER
2.64,42.09299,-75.93704,20687.84,OUR LADY OF LOURDES MEMORIAL HOSPITAL, INC
4.08,42.65345,-73.77543,50119.13,ALBANY MEDICAL CENTER HOSPITAL
2.88,40.70141,-73.81630,25462.93,JAMAICA HOSPITAL MEDICAL CENTER
4.35,41.69441,-73.93432,55661.34,VASSAR BROTHERS MEDICAL CENTER
3.73,40.79041,-73.95386,42960.93,MOUNT SINAI HOSPITAL
3.28,40.72548,-73.55287,33667.38,NASSAU UNIVERSITY MEDICAL CENTER
3.92,40.63588,-74.10556,46893.94,RICHMOND UNIVERSITY MEDICAL CENTER
2.94,43.06066,-77.10072,26852.00,NEWARK-WAYNE COMMUNITY HOSPITAL
3.15,43.22058,-77.94467,31067.62,LAKESIDE MEMORIAL HOSPITAL
3.23,43.09840,-75.27819,32679.16,FAXTON-ST LUKE'S HEALTHCARE
4.59,40.80556,-73.96131,60445.05,ST LUKE'S ROOSEVELT HOSPITAL
2.66,42.95425,-74.21527,20975.40,ST MARY'S HOSPITAL AT AMSTERDAM
2.09,43.22352,-78.39720,9475.71,MEDINA MEMORIAL HOSPITAL
3.93,40.74722,-73.82521,47135.57,NEW YORK HOSPITAL MEDICAL CENTER OF QUEENS
3.50,40.68983,-73.97794,38158.40,BROOKLYN HOSPITAL CENTER AT DOWNTOWN CAMPUS
3.46,42.65583,-73.80372,37337.46,ST PETER'S HOSPITAL
2.60,43.09378,-79.05038,19763.57,NIAGARA FALLS MEMORIAL MEDICAL CENTER
4.23,41.71846,-73.92710,53114.97,ST FRANCIS HOSPITAL
2.56,43.00584,-78.17670,18954.09,UNITED MEMORIAL MEDICAL CENTER
2.40,42.87616,-77.28907,15830.04,F F THOMPSON HOSPITAL
2.60,40.81770,-73.92401,19805.69,LINCOLN MEDICAL & MENTAL HEALTH CENTER
2.20,44.85685,-74.29199,11748.54,ALICE HYDE MEDICAL CENTER
2.43,42.45748,-75.05244,16457.65,AURELIA OSBORN FOX MEMORIAL HOSPITAL
3.14,40.91304,-73.84024,30974.30,MOUNT VERNON HOSPITAL
3.80,41.11039,-72.36128,44435.53,EASTERN LONG ISLAND HOSPITAL
3.23,42.10076,-76.82800,32761.61,ARNOT OGDEN MEDICAL CENTER
2.35,42.24595,-73.77855,14627.14,COLUMBIA MEMORIAL HOSPITAL
2.23,42.12242,-77.95056,12341.14,JONES MEMORIAL HOSPITAL
2.43,42.09049,-78.42780,16379.69,OLEAN GENERAL HOSPITAL
4.99,41.09642,-73.92501,68677.02,NYACK HOSPITAL
5.04,40.77686,-73.70212,69651.58,NORTH SHORE UNIVERSITY HOSPITAL
4.54,40.93376,-72.67383,59431.00,PECONIC BAY MEDICAL CENTER
2.93,42.09221,-76.79733,26568.87,ST JOSEPH'S HOSPITAL, INC
2.73,43.19244,-77.58590,22554.33,ROCHESTER GENERAL HOSPITAL
4.56,41.44138,-74.36821,59973.60,ORANGE REGIONAL MEDICAL CENTER
2.27,42.46420,-78.94334,13112.64,TLC HEALTH NETWORK
4.55,41.36763,-74.68150,59637.03,BON SECOURS COMMUNITY HOSPITAL
3.18,43.05571,-76.14981,31644.22,ST JOSEPH'S HOSPITAL HEALTH CENTER
5.30,40.78000,-72.97763,75089.59,BROOKHAVEN MEMORIAL HOSPITAL MEDICAL CENTER
2.16,42.31394,-77.66076,10904.70,ST JAMES MERCY HOSPITAL
3.45,42.81963,-73.91653,37296.12,ELLIS HOSPITAL
3.36,41.19677,-73.72572,35444.49,NORTHERN WESTCHESTER HOSPITAL
2.51,43.17738,-78.67123,18000.63,EASTERN NIAGARA HOSPITAL
2.30,43.13562,-77.60602,13700.28,HIGHLAND HOSPITAL
5.29,40.73265,-73.98162,74948.72,BETH ISRAEL MEDICAL CENTER
2.58,42.60884,-76.18764,19368.65,CORTLAND REGIONAL MEDICAL CENTER, INC
2.87,42.73354,-73.67249,25379.43,SAMARITAN HOSPITAL
4.89,40.80462,-73.67023,66631.73,ST FRANCIS HOSPITAL, ROSLYN
3.35,40.91276,-73.78720,35245.46,SOUND SHORE MEDICAL CENTER OF WESTSCHESTER
3.10,43.30652,-73.64663,30007.25,GLENS FALLS HOSPITAL
3.23,40.75543,-73.81532,32818.30,FLUSHING HOSPITAL MEDICAL CENTER
4.79,40.75332,-73.70899,64687.37,LONG ISLAND JEWISH MEDICAL CENTER
2.39,44.67677,-74.98237,15609.43,CANTON-POTSDAM HOSPITAL
4.13,40.65189,-73.63096,51112.15,SOUTH NASSAU COMMUNITIES HOSPITAL
4.63,40.65957,-73.93378,61337.54,KINGSBROOK JEWISH MEDICAL CENTER
3.92,40.96967,-73.88447,46840.98,ST JOHN'S RIVERSIDE HOSPITAL
2.30,43.79534,-75.49925,13660.50,LEWIS COUNTY GENERAL HOSPITAL
6.12,40.74335,-73.97408,91776.62,NYU HOSPITALS CENTER
3.10,43.22952,-75.44361,30102.30,ROME MEMORIAL HOSPITAL, INC
2.58,43.45491,-76.51645,19451.23,OSWEGO HOSPITAL
3.09,42.92531,-78.83111,29951.05,ERIE COUNTY MEDICAL CENTER
3.56,40.70419,-73.91754,39551.39,WYCKOFF HEIGHTS MEDICAL CENTER
3.57,43.08561,-73.79712,39664.26,SARATOGA HOSPITAL
2.38,44.93579,-74.90736,15321.75,MASSENA MEMORIAL HOSPITAL
4.11,40.59411,-73.65106,50678.90,LONG BEACH MEDICAL CENTER
2.67,43.19054,-77.70177,21258.20,UNITY HOSPITAL OF ROCHESTER
2.76,40.71730,-73.80353,23169.97,QUEENS HOSPITAL CENTER
3.42,42.74285,-73.67673,36505.69,SETON HEALTH SYSTEM-ST MARY'S CAMPUS
3.27,40.65533,-73.91221,33475.77,BROOKDALE HOSPITAL MEDICAL CENTER
8.18,41.08773,-73.80395,133997.27,WESTCHESTER MEDICAL CENTER
2.89,42.94136,-76.56474,25800.36,AUBURN COMMUNITY HOSPITAL
3.63,40.66762,-73.97850,40892.29,NEW YORK METHODIST HOSPITAL
2.70,42.08997,-79.23058,21964.44,WOMAN'S CHRISTIAN ASSOCIATION
2.90,40.81477,-73.94027,25932.83,HARLEM HOSPITAL CENTER
3.79,43.04269,-76.14043,44152.53,UNIVERSITY HOSPITAL S U N Y HEALTH SCIENCE CENTER
5.65,40.94779,-73.06033,82131.26,ST CHARLES HOSPITAL
2.46,42.81327,-75.54316,16927.67,COMMUNITY MEMORIAL HOSPITAL, INC
4.07,41.10880,-73.86355,49823.40,PHELPS MEMORIAL HOSPITAL ASSN
4.49,41.50307,-74.01517,58427.81,ST LUKE'S CORNWALL HOSPITAL
4.36,41.38421,-73.66323,55925.62,PUTNAM HOSPITAL CENTER
3.27,43.06952,-74.33001,33571.38,NATHAN LITTAUER HOSPITAL
2.79,42.84782,-78.81264,23749.57,MERCY HOSPITAL
5.04,40.69327,-73.29412,69748.29,GOOD SAMARITAN HOSPITAL MEDICAL CENTER
3.06,40.64666,-74.02049,29160.10,LUTHERAN MEDICAL CENTER
2.45,42.47286,-76.53849,16747.26,CAYUGA MEDICAL CENTER AT ITHACA
3.52,40.83778,-73.85417,38550.69,NEW YORK WESTCHESTER SQUARE MEDICAL CENTER
3.92,40.72593,-73.47844,46754.12,ST JOSEPH HOSPITAL
3.96,40.88512,-72.38030,47739.02,SOUTHAMPTON HOSPITAL
3.54,40.65508,-73.94521,39116.24,UNIVERSITY HOSPITAL OF BROOKLYN ( DOWNSTATE )
3.07,42.11422,-75.95851,29491.77,UNITED HEALTH SERVICES HOSPITALS, INC
3.64,40.59803,-73.75296,41028.24,ST JOHN'S EPISCOPAL HOSPITAL AT SOUTH SHORE
4.45,40.85738,-73.18681,57729.39,ST CATHERINE OF SIENA HOSPITAL
2.95,35.57658,-82.54922,26915.45,MEMORIAL MISSION HOSPITAL AND ASHEVILLE SURGERY CE
3.24,35.95000,-80.00000,32930.23,HIGH POINT REGIONAL HOSPITAL
3.17,34.75124,-79.46789,31559.19,SCOTLAND MEMORIAL HOSPITAL
3.15,36.07581,-80.29779,31113.63,FORSYTH MEMORIAL HOSPITAL
3.29,35.68172,-80.47072,34036.73,ROWAN REGIONAL MEDICAL CENTER
2.66,35.32080,-82.46812,21095.20,MARGARET R PARDEE MEMORIAL HOSPITAL
2.93,35.30288,-81.53571,26657.75,CLEVELAND REGIONAL MEDICAL CENTER
2.83,35.29053,-77.58307,24454.82,LENOIR MEMORIAL HOSPITAL
3.56,36.00850,-78.94006,39556.79,DUKE UNIVERSITY HOSPITAL
3.24,36.09904,-78.30111,32993.91,FRANKLIN REGIONAL MEDICAL CENTER
2.57,35.24106,-81.35660,19174.29,KINGS MOUNTAIN HOSPITAL INC
2.16,35.54918,-77.03985,10851.06,BEAUFORT COUNTY MEDICAL CENTER
3.68,35.79986,-80.87863,41941.70,IREDELL MEMORIAL HOSPITAL INC
3.74,35.60726,-77.40477,43172.08,PITT COUNTY MEMORIAL HOSPITAL
3.07,35.91058,-81.53512,29423.16,CALDWELL MEMORIAL HOSPITAL
3.36,34.76273,-77.38582,35461.20,ONSLOW MEMORIAL HOSPITAL
3.54,36.09062,-80.27161,39163.70,NORTH CAROLINA BAPTIST HOSPITAL
3.79,35.22196,-80.83287,44226.57,PRESBYTERIAN HOSPITAL
3.67,35.90529,-79.04963,41728.21,UNIVERSITY OF NORTH CAROLINA HOSPITAL
2.92,34.33747,-78.69425,26308.05,COLUMBUS REGIONAL HEALTHCARE SYSTEM
3.85,35.78523,-78.58836,45327.52,WAKEMED, RALEIGH CAMPUS
2.55,36.06347,-79.50208,18897.63,ALAMANCE REGIONAL MEDICAL CENTER
2.79,35.88264,-80.08199,23723.21,THOMASVILLE MEDICAL CENTER
2.73,35.66344,-82.02770,22466.69,THE MCDOWELL HOSPITAL
2.80,36.09251,-79.78855,23916.97,MOSES H CONE MEMORIAL HOSPITAL, THE
3.45,35.21029,-80.82084,37118.84,CAROLINAS MED CENTER-MERCY
2.71,36.28555,-76.99489,22038.85,ROANOKE CHOWAN HOSPITAL
3.82,34.90228,-79.71125,44837.63,SANDHILLS REGIONAL MEDICAL CENTER
2.95,36.32690,-76.22370,27047.98,ALBEMARLE HOSPITAL AUTHORITY
2.93,35.36457,-80.19450,26604.68,STANLY REGIONAL MEDICAL CENTER
2.55,34.96500,-77.96165,18756.63,DUPLIN GENERAL HOSPITAL
2.74,35.71177,-79.81489,22768.22,RANDOLPH HOSPITAL
3.38,35.71850,-77.94518,35797.50,WILSON MEDICAL CENTER
2.76,36.31070,-78.59083,23127.28,GRANVILLE MEDICAL CENTER
3.84,35.54775,-80.85563,45289.75,LAKE NORMAN REGIONAL MEDICAL CENTER
2.63,34.97382,-80.52250,20523.93,CAROLINAS MEDICAL CENTER-UNION
2.94,36.32959,-78.39916,26806.25,MARIA PARHAM MEDICAL CENTER
3.21,35.83976,-77.07310,32387.94,MARTIN GENERAL HOSPITAL
2.70,34.72615,-76.75452,21820.38,CARTERET GENERAL HOSPITAL
3.00,35.71664,-81.26661,27978.77,CATAWBA VALLEY MEDICAL CENTER
2.99,36.43295,-77.64729,27765.70,HALIFAX REGIONAL MEDICAL CENTER INC
3.15,36.04960,-78.90617,31052.83,DURHAM REGIONAL HOSPITAL
3.03,34.00906,-78.28992,28624.60,BRUNSWICK COMMUNITY HOSPITAL
3.13,36.40660,-78.98563,30642.50,PERSON MEMORIAL HOSPITAL
3.34,35.11432,-80.71971,34977.08,PRESBYTERIAN HOSPITAL MATTHEWS
2.91,35.40634,-80.86005,26076.33,PRESBYTERIAN HOSPITAL HUNTERSVILLE
2.48,35.52586,-82.94351,17329.65,MEDWEST HAYWOOD
2.89,46.80739,-100.77773,25741.68,ST ALEXIUS MEDICAL CENTER
2.76,48.23258,-101.28843,23178.69,TRINITY HOSPITALS
3.12,46.88496,-96.78609,30418.80,SANFORD MEDICAL CENTER FARGO
2.46,46.80798,-100.78229,16964.44,MEDCENTER ONE
3.37,47.91045,-97.06742,35560.73,ALTRU HOSPITAL
2.97,46.83250,-96.82805,27477.35,ESSENTIA HEALTH-FARGO
3.16,39.08582,-84.34886,31321.06,MERCY HOSPITAL ANDERSON
2.11,40.85871,-82.31023,9849.73,SAMARITAN HOSPITAL - PEOPLES HOSPITAL
3.94,39.13707,-84.50392,47202.01,UNIVERSITY HOSPITAL, INC
3.96,40.03064,-83.03440,47694.20,RIVERSIDE METHODIST HOSPITAL
3.33,38.75320,-82.97800,34721.91,SOUTHERN OHIO MEDICAL CENTER
3.07,40.73578,-84.08630,29437.24,LIMA MEMORIAL HEALTH SYSTEM
2.39,40.51393,-81.45644,15447.86,UNION HOSPITAL
2.75,39.32796,-82.11564,22971.93,O'BLENESS MEMORIAL HOSPITAL
3.26,39.20680,-84.38093,33340.32,JEWISH HOSPITAL, LLC
4.13,39.96098,-82.99077,51083.80,GRANT MEDICAL CENTER
4.00,41.01476,-81.58913,48495.03,SUMMA HEALTH SYSTEM BARBERTON HOSPITAL
3.03,41.44642,-82.70864,28627.08,FIRELANDS REGIONAL MEDICAL CENTER
3.17,39.70022,-83.92782,31458.48,GREENE MEMORIAL HOSPITAL
3.88,41.07747,-81.53042,45988.40,AKRON GENERAL MEDICAL CENTER
2.74,41.37576,-83.66556,22679.00,WOOD COUNTY HOSPITAL
2.33,40.54518,-84.37011,14341.23,GRAND LAKE HEALTH SYSTEM
2.16,40.82041,-81.93422,10907.23,WOOSTER COMMUNITY HOSPITAL
3.70,41.49640,-81.67376,42289.88,ST VINCENT CHARITY MEDICAL CENTER
2.87,40.39967,-82.44822,25311.62,KNOX COMMUNITY HOSPITAL
2.68,41.38265,-81.73127,21426.48,PARMA COMMUNITY GENERAL HOSPITAL
3.07,40.08892,-84.63511,29533.53,WAYNE HOSPITAL
2.43,39.51256,-84.74034,16411.53,MCCULLOUGH-HYDE MEMORIAL HOSPITAL
4.92,41.61788,-83.61632,67364.83,UNIVERSITY OF TOLEDO MEDICAL CENTER
4.52,39.74547,-84.18523,59080.39,MIAMI VALLEY HOSPITAL
4.68,39.78778,-84.23493,62434.89,GOOD SAMARITAN HOSPITAL
2.73,38.84439,-82.23902,22562.54,HOLZER MEDICAL CENTER
3.48,39.31257,-84.51774,37782.91,MERCY HOSPITAL FAIRFIELD
2.76,41.22570,-82.60491,23049.31,FISHER-TITUS HOSPITAL
2.73,40.81219,-81.39625,22579.21,MERCY MEDICAL CENTER
2.55,39.71750,-82.57772,18824.77,FAIRFIELD MEDICAL CENTER
3.37,41.58130,-81.48979,35543.90,UHHS RICHMOND HEIGHTS HOSPITAL
3.19,41.17554,-81.24915,31919.08,ROBINSON MEMORIAL HOSPITAL
3.10,40.09873,-80.72072,29987.91,EAST OHIO REGIONAL HOSPITAL
4.25,41.63639,-83.48640,53546.68,MERCY ST CHARLES HOSPITAL
3.68,41.59825,-81.54884,41994.17,EUCLID HOSPITAL
5.01,39.99445,-83.01872,69090.24,OHIO STATE UNIVERSITY HOSPITALS
3.01,41.55725,-83.68141,28225.07,ST LUKE'S HOSPITAL
2.70,41.01785,-83.65165,21832.30,BLANCHARD VALLEY HOSPITAL
2.54,40.62149,-80.58651,18699.92,EAST LIVERPOOL CITY HOSPITAL
3.79,41.66317,-81.24696,44208.13,LAKE HEALTH
3.46,41.52522,-81.58267,37486.59,HURON HOSPITAL
4.48,41.66810,-83.54275,58290.56,MERCY ST VINCENT MEDICAL CENTER
3.48,41.39496,-81.53484,37778.09,UHHS BEDFORD MEDICAL CENTER
3.30,40.75264,-82.52803,34069.89,MEDCENTRAL HEALTH SYSTEM
3.02,41.43653,-81.94451,28507.83,ST JOHN MEDICAL CENTER
2.97,41.88034,-80.79553,27334.72,ASHTABULA COUNTY MEDICAL CENTER
3.90,41.42112,-81.59808,46329.13,MARYMOUNT HOSPITAL
2.97,41.36649,-82.09708,27461.18,EMH REGIONAL MEDICAL CENTER
2.93,39.43061,-81.46454,26509.07,MARIETTA MEMORIAL HOSPITAL
2.36,40.56515,-81.92046,14992.75,POMERENE HOSPITAL
3.57,40.80656,-81.51633,39710.57,AFFINITY MEDICAL CENTER
3.43,41.37028,-81.83189,36736.94,SOUTHWEST GENERAL HEALTH CENTER
3.10,41.33913,-83.13441,29984.85,MEMORIAL HOSPITAL
3.19,41.43688,-82.23761,31935.90,MERCY REGIONAL MEDICAL CENTER
4.63,41.50248,-81.62110,61349.09,CLEVELAND CLINIC
2.55,40.90093,-80.83181,18793.17,SALEM COMMUNITY HOSPITAL
2.63,40.04115,-81.57789,20409.23,SOUTHEASTERN OHIO REGIONAL MEDICAL CENTER
3.32,40.30562,-83.08915,34559.15,GRADY MEMORIAL HOSPITAL
3.93,41.48479,-81.79649,47119.74,LAKEWOOD HOSPITAL
3.53,41.52013,-81.43291,38779.10,HILLCREST HOSPITAL
4.10,41.69195,-83.62455,50562.05,MERCY ST ANNE HOSPITAL
3.19,40.99498,-80.66192,31928.12,ST ELIZABETH BOARDMAN HEALTH CENTER
3.56,39.35830,-84.36785,39517.79,WEST CHESTER MEDICAL CENTER
2.93,36.87520,-94.87633,26517.28,INTEGRIS BAPTIST REG HEALTH CENTER
3.19,36.72564,-97.06859,31843.09,PONCA CITY MEDICAL CENTER
4.48,34.00655,-96.39398,58334.74,MEDICAL CENTER OF SOUTHEASTERN OKLAHOMA
2.63,36.75199,-95.94089,20522.93,JANE PHILLIPS MEDICAL CENTER
3.25,35.41174,-99.42511,33087.85,GREAT PLAINS REGIONAL MEDICAL CENTER
2.74,34.77442,-96.63477,22659.61,VALLEY VIEW REGIONAL HOSPITAL
2.80,34.63509,-99.31700,23921.07,JACKSON COUNTY MEMORIAL HOSPITAL
3.24,35.75351,-95.40612,32954.83,MUSKOGEE REGIONAL MEDICAL CENTER
3.93,36.39385,-97.87094,46946.17,ST MARY'S REGIONAL MEDICAL CENTER
2.59,36.79828,-97.29999,19600.50,INTEGRIS BLACKWELL REGIONAL HOSPITAL
4.08,35.52531,-97.58461,50112.97,DEACONESS HOSPITAL
2.15,34.69149,-99.91488,10701.43,HARMON MEMORIAL HOSPITAL
3.36,35.47800,-97.52352,35444.69,ST ANTHONY HOSPITAL
3.37,36.32303,-95.60538,35559.14,CLAREMORE REGIONAL HOSPITAL
3.35,34.18908,-97.14128,35104.38,MERCY MEMORIAL HEALTH CENTER
4.72,36.14675,-95.99969,63286.49,OKLAHOMA STATE UNIVERSITY MEDICAL CENTER
2.63,35.91530,-94.94996,20385.98,TAHLEQUAH CITY HOSPITAL
6.37,35.46721,-97.39370,96862.90,MIDWEST REGIONAL MEDICAL CENTER
3.97,34.59434,-98.46105,47887.14,SOUTHWESTERN MEDICAL CENTER
2.18,35.30692,-99.63242,11305.56,SAYRE MEMORIAL HOSPITAL, INC
3.26,36.13393,-95.96718,33260.26,ST JOHN MEDICAL CENTER, INC
2.43,34.76678,-97.18839,16298.47,PAULS VALLEY GENERAL HOSPITAL
2.06,35.02883,-97.36581,8747.07,PURCELL MUNICIPAL HOSPITAL
4.22,36.03590,-95.86511,52963.34,SOUTHCREST HOSPITAL
4.42,35.48499,-97.76360,57155.43,INTEGRIS CANADIAN VALLEY  HOSPITAL
3.19,35.60901,-97.59429,31830.77,OKLAHOMA HEART HOSPITAL
2.78,35.78090,-95.35819,23534.19,MUSKOGEE COMMUNITY HOSPITAL
2.71,45.58783,-121.16575,22027.81,MID-COLUMBIA MEDICAL CENTER
3.42,42.42112,-123.34326,36564.05,THREE RIVERS COMMUNITY HOSPITAL
3.95,45.54248,-122.66972,47356.08,LEGACY EMANUEL MEDICAL CENTER
3.69,44.60322,-123.25312,42071.36,GOOD SAMARITAN REGIONAL MEDICAL CENTER
3.64,45.53028,-122.69692,41180.49,LEGACY GOOD SAMARITAN MEDICAL CENTER
4.14,42.31769,-122.83333,51426.55,ROGUE VALLEY MEDICAL CENTER
3.06,45.51993,-122.97759,29295.78,TUALITY COMMUNITY HOSPITAL
3.35,44.63225,-123.11580,35172.39,SAMARITAN ALBANY GENERAL HOSPITAL
3.22,45.51716,-122.40750,32610.34,LEGACY MOUNT HOOD MEDICAL CENTER
2.94,45.31017,-122.93437,26739.54,PROVIDENCE NEWBERG MEDICAL CENTER
2.67,45.35635,-122.58647,21332.38,PROVIDENCE WILLAMETTE FALLS MEDICAL CENTER
3.06,44.28804,-121.16952,29202.57,ST CHARLES MEDICAL CENTER - REDMOND
4.09,44.06773,-121.26817,50256.41,ST CHARLES MEDICAL CENTER - BEND
3.33,44.93267,-123.03418,34690.00,SALEM HOSPITAL
3.00,45.51288,-122.55630,28097.70,ADVENTIST MEDICAL CENTER
3.24,45.52677,-122.61469,32997.89,PROVIDENCE PORTLAND MEDICAL CENTER
3.12,45.19897,-123.16482,30380.81,WILLAMETTE VALLEY MEDICAL CENTER
3.31,42.34086,-122.86108,34382.19,PROVIDENCE MEDFORD MEDICAL CENTER
2.39,45.43061,-122.56202,15494.43,KAISER SUNNYSIDE MEDICAL CENTER
3.53,41.40075,-75.64594,38860.00,COMMUNITY MEDICAL CENTER
4.59,40.96789,-76.60506,60548.98,GEISINGER MEDICAL CENTER
2.40,40.86987,-80.27559,15831.83,ELLWOOD CITY HOSPITAL
4.33,42.11102,-80.07912,55224.86,SAINT VINCENT HEALTH CENTER
2.29,40.97877,-76.88593,13437.60,EVANGELICAL COMMUNITY HOSPITAL
2.45,41.01409,-80.35398,16779.10,JAMESON MEMORIAL HOSPITAL
6.11,40.07880,-75.21107,91614.11,CHESTNUT HILL HOSPITAL
3.47,40.43609,-79.98537,37673.68,UPMC MERCY
2.63,40.69101,-76.18682,20495.90,SCHUYLKILL MEDICAL CENTER - EAST NORWEGIAN STREET
3.87,40.43850,-75.34895,45834.61,ST LUKE'S QUAKERTOWN HOSPITAL
2.73,40.71251,-80.32136,22434.67,HERITAGE VALLEY BEAVER
2.99,40.54345,-80.17760,27905.94,HERITAGE VALLEY SEWICKLEY
2.85,40.00729,-79.07854,25035.89,SOMERSET HOSPITAL
2.25,39.90180,-79.73854,12714.97,UNIONTOWN HOSPITAL
2.80,40.18302,-80.24767,23827.78,WASHINGTON HOSPITAL, THE
2.95,41.74508,-77.30043,26932.65,SOLDIERS AND SAILORS MEMORIAL HOSPITAL
3.20,41.24548,-77.01438,32084.23,WILLIAMSPORT REGIONAL MEDICAL CENTER
2.69,40.61795,-77.56734,21769.31,LEWISTOWN HOSPITAL
4.50,40.45705,-80.00363,58602.54,ALLEGHENY GENERAL HOSPITAL
2.36,41.03301,-78.44915,14878.98,CLEARFIELD HOSPITAL
4.29,40.36358,-75.32621,54318.10,GRAND VIEW HOSPITAL
5.01,42.13338,-80.08703,69129.45,UPMC HAMOT
5.91,40.10226,-74.86338,87484.16,LOWER BUCKS HOSPITAL
3.79,41.13189,-77.47022,44178.00,LOCK HAVEN HOSPITAL
3.02,40.52204,-78.39824,28449.85,ALTOONA REGIONAL HEALTH SYSTEM
2.48,41.11492,-78.77515,17405.64,DUBOIS REGIONAL MEDICAL CENTER
2.65,41.36116,-79.70065,20892.67,UPMC NORTHWEST
2.18,41.19016,-79.39934,11206.27,CLARION HOSPITAL
2.46,41.57235,-75.49676,16997.37,MARIAN COMMUNITY HOSPITAL
3.60,40.04740,-76.30540,40281.44,LANCASTER GENERAL HOSPITAL
3.71,40.48928,-79.89596,42463.94,UPMC ST MARGARET
2.49,41.67196,-78.81707,17542.13,KANE COMMUNITY HOSPITAL
4.76,40.12453,-75.33533,64074.00,MONTGOMERY HOSPITAL
6.89,39.95045,-75.19259,107488.86,HOSPITAL OF UNIV OF PENNSYLVANIA
2.52,40.24198,-78.83828,18229.90,WINDBER HOSPITAL
2.73,41.64205,-80.14579,22499.67,MEADVILLE MEDICAL CENTER
5.36,40.07160,-74.98341,76258.55,ARIA HEALTH
5.35,40.13916,-75.31510,75983.69,MERCY SUBURBAN HOSPITAL
3.97,41.41107,-75.65091,47857.49,MOSES TAYLOR HOSPITAL
2.06,41.63317,-79.67924,8845.71,TITUSVILLE HOSPITAL
7.06,40.24397,-75.61364,110950.12,POTTSTOWN MEMORIAL MEDICAL CENTER
2.34,41.57647,-75.26049,14615.86,WAYNE MEMORIAL HOSPITAL
5.02,40.60000,-75.47000,69281.00,LEHIGH VALLEY HOSPITAL
2.83,39.75368,-77.57415,24619.31,WAYNESBORO HOSPITAL
2.91,40.30103,-79.55505,26124.74,EXCELA HEALTH WESTMORELAND REGIONAL HOSPITAL
2.83,41.83752,-79.14728,24516.86,WARREN GENERAL HOSPITAL
3.29,39.93492,-77.64744,33953.87,CHAMBERSBURG HOSPITAL
5.88,40.04475,-75.50425,86988.78,MAIN LINE HOSPITAL PAOLI
5.61,39.92871,-75.26873,81391.36,MERCY FITZGERALD HOSPITAL
5.16,40.68708,-75.24272,72229.78,EASTON HOSPITAL
2.98,40.81645,-79.52199,27514.38,ACMH HOSPITAL
2.52,40.60755,-79.15657,18206.58,INDIANA REGIONAL MEDICAL CENTER
6.65,39.94969,-75.15712,102720.35,THOMAS JEFFERSON UNIVERSITY HOSPITAL
3.38,41.41133,-80.37169,35863.34,UPMC HORIZON
3.85,39.97024,-75.60259,45455.97,CHESTER COUNTY HOSPITAL
10.97,39.85598,-75.36791,191096.65,CROZER CHESTER MEDICAL CENTER
3.46,40.82134,-75.91392,37462.95,ST LUKE'S MINERS MEMORIAL HOSPITAL
2.64,40.83130,-75.72794,20723.85,GNADEN HUETTEN MEMORIAL HOSPITAL
3.94,40.99225,-75.17466,47293.74,POCONO MEDICAL CENTER
2.58,40.14526,-79.54992,19454.13,EXCELA HEALTH FRICK HOSPITAL
3.16,40.18739,-76.18224,31389.45,EPHRATA COMMUNITY HOSPITAL
2.85,40.37782,-80.06589,24964.84,ST CLAIR MEMORIAL HOSPITAL
6.69,40.12077,-75.11818,103494.09,ABINGTON MEMORIAL HOSPITAL
2.71,39.80858,-76.98306,22137.99,HANOVER HOSPITAL
4.18,40.20064,-74.92952,52137.23,ST MARY MEDICAL CENTER
2.83,40.31802,-79.93494,24448.76,JEFFERSON REGIONAL MEDICAL CENTER
2.96,40.42897,-79.74808,27139.38,WESTERN PENNSYLVANIA HOSP FORBES REGIONAL CAMPUS
3.37,40.81936,-77.84273,35559.54,MOUNT NITTANY MEDICAL CENTER
3.99,41.25855,-75.81041,48267.56,GEISINGER WYOMING VALLEY MEDICAL CENTER
12.00,39.95658,-75.16249,212070.87,HAHNEMANN UNIVERSITY HOSPITAL
2.54,40.76999,-76.32970,18549.32,SAINT CATHERINE MEDICAL CENTER FOUNTAIN SPRINGS
3.32,41.86943,-71.37561,34659.19,MEMORIAL HOSPITAL OF RHODE ISLAND
3.29,41.85574,-71.45945,33869.30,ST JOSEPH HEALTH SERVICES OF RI
3.87,41.81254,-71.40760,45710.95,RHODE ISLAND HOSPITAL
3.63,42.00497,-71.49561,40952.51,LANDMARK MEDICAL CENTER,  INC
3.65,41.85172,-71.39826,41394.48,MIRIAM HOSPITAL
3.52,34.96733,-81.94021,38731.89,SPARTANBURG REGIONAL MEDICAL CENTER
3.53,34.69403,-82.98884,38779.10,OCONEE MEDICAL CENTER
6.41,34.02839,-81.03539,97813.52,PALMETTO HEALTH RICHLAND
3.31,34.92040,-82.24388,34285.35,GREER MEMORIAL HOSPITAL
5.75,34.71787,-80.78844,84247.19,SPRINGS MEMORIAL HOSPITAL
3.81,35.08901,-81.63335,44675.35,UPSTATE CAROLINA MEDICAL CENTER
3.82,34.24654,-80.60702,44775.97,KERSHAW HEALTH
3.79,33.78555,-79.00178,44212.12,CONWAY MEDICAL CENTER
4.11,34.19543,-79.76256,50741.91,MCLEOD REGIONAL MEDICAL CENTER-PEE DEE
3.09,34.28829,-81.60568,29845.07,NEWBERRY COUNTY MEMORIAL HOSPITAL
2.83,34.18661,-79.32541,24459.72,MARION REGIONAL HOSPITAL
2.15,33.30746,-81.02818,10656.06,BAMBERG COUNTY MEMORIAL HOSPITAL
3.54,34.05671,-78.89903,39156.32,LORIS COMMUNITY HOSPITAL
3.79,33.62185,-80.74922,44114.34,TRMC OF ORANGEBURG & CALHOUN
2.95,33.69516,-80.21091,27000.61,CLARENDON MEMORIAL HOSPITAL
3.99,34.17571,-82.15791,48273.24,SELF REGIONAL HEALTHCARE
4.05,34.81904,-82.41308,49440.38,GREENVILLE MEMORIAL HOSPITAL
5.36,32.97605,-80.07302,76290.45,TRIDENT MEDICAL CENTER
3.66,32.22325,-80.71444,41615.23,HILTON HEAD REGIONAL MEDICAL CENTER
4.52,33.70704,-78.89487,59082.77,GRAND STRAND REG MED CENTER
6.06,34.00754,-81.03270,90532.81,PALMETTO HEALTH BAPTIST
3.65,32.78211,-79.95018,41264.07,ROPER HOSPITAL
3.45,33.59553,-79.02412,37181.71,WACCAMAW COMMUNITY HOSPITAL
3.69,34.86182,-82.21649,42031.90,VILLAGE HOSPITAL
2.44,44.91113,-97.12063,16509.16,PRAIRIE LAKES HOSPITAL
3.20,43.71370,-98.00748,32057.64,AVERA QUEEN OF PEACE
3.26,45.46141,-98.47929,33351.38,AVERA ST LUKES
2.88,44.35976,-100.33441,25631.50,ST MARYS HOSPITAL
4.31,43.53460,-96.71136,54709.45,AVERA MCKENNAN HOSPITAL & UNIVERSITY HEALTH CENTER
4.90,43.53562,-96.74305,66899.91,SANFORD USD MEDICAL CENTER
3.02,35.63906,-88.83207,28338.30,JACKSON-MADISON COUNTY GENERAL HOSPITAL
4.65,36.24440,-86.75204,61861.21,SKYLINE MEDICAL CENTER
2.22,35.46872,-86.08400,12117.65,UNITED REGIONAL MEDICAL CENTER
3.14,35.93917,-85.01865,30966.72,CUMBERLAND MEDICAL CENTER
3.24,36.58587,-82.25703,33023.31,WELLMONT BRISTOL REGIONAL MEDICAL CENTER
3.28,36.55401,-82.55483,33658.68,WELLMONT HOLSTON VALLEY MEDICAL CENTER
2.86,36.17561,-82.79033,25164.85,LAUGHLIN MEMORIAL HOSPITAL, INC
2.50,36.39954,-83.01347,17823.09,WELLMONT HAWKINS COUNTY MEMORIAL HOSPITAL
2.87,36.38895,-84.11183,25438.56,TENNOVA HEALTHCARE-LAFOLLETT MEDICAL CENTER
3.02,35.98589,-84.28055,28436.87,METHODIST MEDICAL CENTER OF OAK RIDGE
4.08,36.58199,-87.27050,50148.85,GATEWAY MEDICAL CENTER
3.48,34.50579,-92.96678,37858.45,HORIZON MEDICAL CENTER
4.30,35.12837,-89.86202,54516.03,BAPTIST MEMORIAL HOSPITAL
3.66,35.86074,-86.42434,41522.47,MIDDLE TENNESSEE MEDICAL CENTER INC
2.90,36.10641,-83.51924,25982.02,TENNOVA HEALTHCARE-JEFFERSON MEMORIAL HOSPITAL
2.50,36.44050,-83.59480,17807.58,CLAIBORNE COUNTY HOSPITAL
3.53,35.17733,-86.09081,38899.52,SOUTHERN TENNESSEE MEDICAL CENTER
2.90,36.17121,-85.50938,25965.96,COOKEVILLE REGIONAL MEDICAL CENTER
3.59,36.33465,-88.86858,40149.40,VOLUNTEER COMMUNITY HOSPITAL
4.30,36.30767,-82.38497,54607.52,JOHNSON CITY MEDICAL CENTER
3.05,36.47927,-86.88632,29094.52,NORTHCREST MEDICAL CENTER
3.07,35.44041,-84.60773,29430.82,ATHENS REGIONAL MEDICAL CENTER
3.00,35.85418,-83.53731,27983.42,LECONTE MEDICAL CENTER
3.55,36.12859,-86.84559,39351.29,ST THOMAS HOSPITAL
2.97,36.43222,-84.94250,27466.59,JAMESTOWN REGIONAL MEDICAL CENTER
4.01,35.05068,-85.28823,48595.29,ERLANGER MEDICAL CENTER
3.50,36.16683,-86.80711,38233.64,METRO NASHVILLE GENERAL HOSPITAL
3.14,35.99233,-83.92697,30861.96,TENNOVA HEALTHCARE
3.16,35.95747,-83.93660,31355.92,FORT SANDERS REGIONAL MEDICAL CENTER
2.66,35.53586,-89.67821,21001.64,BAPTIST MEMORIAL HOSPITAL TIPTON
2.92,36.29611,-88.31178,26312.13,HENRY COUNTY MEDICAL CENTER
3.36,36.15388,-86.80249,35319.93,BAPTIST HOSPITAL
2.22,35.96130,-85.82936,12099.74,STONES RIVER HOSPITAL AND DEKALB COMMUNITY HOSP
4.33,35.14261,-90.03138,55148.00,REGIONAL MEDICAL CENTER AT MEMPHIS
2.67,35.96514,-83.18170,21334.09,TENNOVA HEALTHCARE-NEWPORT MEDICAL CENTER
3.99,35.03467,-85.26735,48242.83,PARKRIDGE MEDICAL CENTER
3.04,35.91765,-84.10080,28743.74,PARKWEST MEDICAL CENTER
3.24,35.24230,-87.33474,32955.12,CROCKETT HOSPITAL
3.95,36.55057,-82.51465,47532.70,INDIAN PATH MEDICAL CENTER
3.18,36.13864,-88.49119,31630.67,MCKENZIE REGIONAL HOSPITAL
5.17,35.09925,-89.86301,72315.70,ST FRANCIS HOSPITAL
4.55,35.17731,-84.86873,59669.82,SKYRIDGE MEDICAL CENTER
3.20,36.26377,-85.94855,32105.82,RIVERVIEW REGIONAL MEDICAL CENTER NORTH
3.12,36.38340,-85.32302,30524.12,LIVINGSTON REGIONAL HOSPITAL
4.26,35.68445,-88.85461,53832.88,REGIONAL HOSPITAL OF JACKSON
3.20,35.94893,-85.47825,32184.87,WHITE COUNTY COMMUNITY HOSPITAL
4.16,36.22069,-86.32731,51764.64,UNIVERSITY MEDICAL CENTER
4.65,36.32443,-86.62304,61735.56,HENDERSONVILLE MEDICAL CENTER
3.29,35.97510,-86.56688,34010.44,STONECREST MEDICAL CENTER
4.47,35.20713,-89.80059,58045.47,SAINT FRANCIS BARTLETT MEDICAL CENTER
6.14,31.77031,-106.50085,92244.70,PROVIDENCE MEMORIAL HOSPITAL
3.21,30.04413,-99.15217,32411.44,PETERSON REGIONAL MEDICAL CENTER
3.98,33.90296,-98.50035,48150.01,UNITED REGIONAL HEALTH CARE SYSTEM
3.88,30.65598,-96.34672,46051.73,ST JOSEPH REGIONAL HEALTH CENTER
5.06,32.81043,-96.83699,70089.70,PARKLAND HEALTH AND HOSPITAL SYSTEM
3.63,29.31233,-94.77317,40913.76,UNIVERSITY OF TEXAS MEDICAL BRANCH GAL
3.93,32.78994,-96.78044,47106.07,BAYLOR UNIVERSITY MEDICAL CENTER
3.63,28.81269,-96.97780,40960.51,CITIZENS MEDICAL CENTER
4.81,27.53249,-99.47808,65088.65,LAREDO MEDICAL CENTER
4.31,26.17446,-97.67014,54829.57,VHS HARLINGEN HOSPITAL COMPANY LLC
4.57,29.74802,-95.36609,60136.39,ST JOSEPH MEDICAL CENTER
3.80,32.50219,-94.73025,44399.15,GOOD SHEPHERD MEDICAL CENTER
5.14,32.72621,-97.32659,71753.45,JPS HEALTH NETWORK
6.51,33.57524,-101.89272,99748.99,COVENANT MEDICAL CENTER
3.34,31.51444,-97.19927,34923.98,PROVIDENCE HEALTH CENTER
5.42,32.81224,-96.83795,77581.49,UT SOUTHWESTERN UNIVERSITY HOSPITAL
4.09,32.76017,-96.82437,50377.81,METHODIST DALLAS MEDICAL CENTER
2.72,31.77777,-97.58876,22356.36,GOODALL WITCHER HOSPITAL
3.29,31.07837,-97.36403,33913.84,SCOTT & WHITE MEMORIAL HOSPITAL
4.23,29.43360,-98.49265,53135.28,BAPTIST MEDICAL CENTER
3.77,32.74944,-97.11630,43727.90,TEXAS HEALTH ARLINGTON MEMORIAL HOSPITAL
5.28,29.71431,-95.39680,74700.63,MEMORIAL HERMANN TEXAS MEDICAL CENTER
3.90,32.83520,-96.96101,46504.28,BAYLOR MEDICAL CENTER AT IRVING
2.83,33.17573,-94.97180,24454.50,TITUS REGIONAL MEDICAL CENTER
4.09,28.41591,-97.73190,50218.63,CHRISTUS SPOHN HOSPITAL BEEVILLE
4.78,32.82932,-97.21399,64479.55,NORTH HILLS HOSPITAL
2.70,33.64346,-97.16215,21923.66,NORTH TEXAS MEDICAL CENTER
4.84,29.66575,-95.18131,65671.56,BAYSHORE MEDICAL CENTER
3.88,29.65646,-95.20253,46021.29,PAMPA REGIONAL MEDICAL CENTER
3.14,29.56876,-97.94776,30945.84,GUADALUPE REGIONAL MEDICAL CENTER
5.64,31.76998,-106.49897,82092.39,LAS PALMAS MEDICAL CENTER
2.71,29.15020,-98.16280,22144.08,CONNALLY MEMORIAL MEDICAL CENTER
6.08,26.26353,-98.18455,91039.25,SOUTH TEXAS HEALTH SYSTEM
5.19,30.27438,-97.73395,72875.64,UNIVERSITY MEDICAL CENTER AT BRACKENRIDGE
4.91,29.42561,-98.48946,67072.52,NIX HEALTH CARE SYSTEM
3.24,31.99616,-102.09950,32929.45,MIDLAND MEMORIAL HOSPITAL
3.92,32.73780,-97.33899,46904.73,TEXAS HEALTH HARRIS METHODIST FORT WORTH
5.26,28.80765,-96.99896,74264.69,DETAR HOSPITAL NAVARRO
3.62,31.11326,-97.80076,40742.22,METROPLEX HOSPITAL
2.80,29.37402,-100.89265,23991.53,VAL VERDE REGIONAL MEDICAL CENTER
4.09,27.49018,-97.85078,50259.96,CHRISTUS SPOHN HOSPITAL KLEBERG
4.19,26.19665,-98.31409,52266.46,MISSION REGIONAL MEDICAL CENTER
3.34,29.81230,-95.43010,35003.01,MEMORIAL HERMANN HOSPITAL SYSTEM
3.09,30.14556,-96.39944,29794.88,TRINITY MEDICAL CENTER
5.49,29.70719,-95.40048,78967.33,ST LUKES EPISCOPAL HOSPITAL
5.12,31.96072,-95.27098,71421.41,EAST TEXAS MEDICAL CENTER JACKSONVILLE
4.50,35.19934,-101.92186,58636.42,NORTHWEST TEXAS HOSPITAL
3.24,38.31987,-95.25120,32842.82,GULF COAST MEDICAL CENTER
2.20,30.74287,-98.67768,11622.17,SCOTT & WHITE HOSPITAL-LLANO
3.08,35.86424,-101.97147,29709.15,MOORE COUNTY HOSPITAL DISTRICT
5.94,30.28473,-95.46714,88174.31,CONROE REGIONAL MEDICAL CENTER
3.51,35.19533,-101.91907,38409.27,BAPTIST ST ANTHONYS HEALTH SYSTEM-BAPTIST CAMPUS
2.39,31.89737,-98.60366,15441.69,COMANCHE COUNTY MEDICAL CENTER
3.93,33.21990,-97.59383,47081.67,WISE REGIONAL HEALTH SYSTEM
3.22,29.85271,-97.94841,32600.03,CENTRAL TEXAS MEDICAL CENTER
3.48,29.68674,-95.38652,37811.77,HARRIS COUNTY HOSPITAL DISTRICT
3.11,32.59083,-96.31474,30170.47,TEXAS HEALTH PRESBYTERIAN HOSPITAL KAUFMAN
3.67,33.71085,-96.58493,41745.81,TEXOMA MEDICAL CENTER
3.87,29.57653,-95.77057,45804.47,OAKBEND MEDICAL CENTER
4.80,31.42009,-100.47013,64869.85,SAN ANGELO COMMUNITY MEDICAL CENTER
3.39,30.69934,-95.55927,36067.98,HUNTSVILLE MEMORIAL HOSPITAL
2.79,31.30717,-96.89390,23724.00,FALLS COMMUNITY HOSPITAL AND CLINIC
3.19,33.12242,-96.12404,31989.60,HUNT REGIONAL MEDICAL CENTER
3.59,32.39611,-96.86404,40086.56,BAYLOR MEDICAL CENTER AT WAXAHACHIE
4.67,32.91527,-96.86934,62162.13,DALLAS MEDICAL CENTER
4.47,29.50795,-98.57224,58124.61,METHODIST HOSPITAL
4.49,32.17167,-95.84417,58529.62,EAST TEXAS MEDICAL CENTER ATHENS
2.22,29.69329,-96.78466,12141.37,COLORADO FAYETTE MEDICAL CENTER
3.82,32.08509,-96.50376,44819.53,NAVARRO REGIONAL HOSPITAL
2.56,32.24079,-97.74829,18940.00,GLEN ROSE MEDICAL CENTER
2.51,30.77530,-94.42687,17897.00,TYLER COUNTY HOSPITAL
3.54,32.16134,-94.79542,39113.93,ETMC HENDERSON
4.20,31.32794,-94.75614,52456.85,WOODLAND HEIGHTS MEDICAL CENTER
4.37,29.93570,-93.98900,56043.86,THE MEDICAL CENTER OF SOUTHEAST TEXAS
5.44,29.39378,-94.98682,77815.78,MAINLAND MEDICAL CENTER
5.66,32.40574,-99.76486,82505.19,ABILENE REGIONAL MEDICAL CENTER
4.12,32.93228,-97.09436,50832.00,BAYLOR REGIONAL MEDICAL CENTER AT GRAPEVINE
3.17,31.46574,-100.43466,31587.11,SHANNON MEDICAL CENTER
3.39,31.32376,-95.43900,36041.50,EAST TEXAS MEDICAL CENTER CROCKETT
2.20,33.59227,-99.24735,11696.77,SEYMOUR HOSPITAL
2.41,29.11258,-97.28295,15934.68,CUERO COMMUNITY HOSPITAL
2.54,30.26290,-98.88017,18620.59,HILL COUNTRY MEMORIAL HOSPITAL INC
2.86,27.91542,-97.16169,25076.54,CARE REGIONAL MEDICAL CENTER
3.39,29.78143,-95.54541,36038.09,MEMORIAL HERMANN MEMORIAL CITY MEDICAL CENTER
6.07,33.17345,-97.11382,90716.68,DENTON REGIONAL MEDICAL CENTER
4.97,30.01994,-95.44379,68401.57,HOUSTON NORTHWEST MEDICAL CENTER
5.12,29.72913,-95.59429,71470.06,WEST HOUSTON MEDICAL CENTER
5.65,33.02168,-96.76621,82185.78,MEDICAL CENTER OF PLANO
3.92,32.23859,-101.49810,46856.58,SCENIC MOUNTAIN MEDICAL CENTER
5.05,31.65212,-94.65488,69852.90,NACOGDOCHES MEDICAL CENTER
3.51,31.72461,-96.16962,38399.92,EAST TEXAS MEDICAL CENTER - FAIRFIELD
4.66,31.85052,-102.36474,61982.10,ODESSA REGIONAL HOSPITAL
7.20,25.97780,-97.51442,113942.45,VALLEY REGIONAL MEDICAL CENTER
4.76,33.04634,-97.00473,64005.46,MEDICAL CENTER OF LEWISVILLE
3.65,30.08682,-95.62403,41366.93,TOMBALL REGIONAL MEDICAL CENTER
5.34,32.73563,-97.34483,75815.98,PLAZA MEDICAL CENTER OF FORT WORTH
4.08,32.67614,-97.32079,50178.87,HUGULEY HEALTH SYSTEM
3.52,29.99677,-95.27641,38719.58,MEMORIAL HERMANN NORTHEAST
3.38,33.58838,-101.89214,35802.48,UNIVERSITY MEDICAL CENTER
4.27,29.35295,-98.54601,54085.43,SOUTHWEST GENERAL HOSPITAL
4.37,32.53312,-94.73022,55951.68,LONGVIEW REGIONAL MEDICAL CENTER
3.60,29.54946,-95.08660,40281.82,CHRISTUS ST JOHN HOSPITAL
4.65,30.22723,-97.77447,61712.46,ST DAVID'S SOUTH AUSTIN MEDICAL CENTER
5.64,29.92772,-95.59016,81996.52,CYPRESS FAIRBANKS MEDICAL CENTER
3.63,32.64448,-96.87635,40947.90,METHODIST CHARLTON MEDICAL CENTER
4.14,33.02769,-96.88471,51353.55,BAYLOR MEDICAL CENTER AT CARROLLTON
4.10,32.65818,-97.42078,50427.59,TEXAS HEALTH HARRIS METHODIST HOSPITAL SOUTHWEST F
5.17,27.69288,-97.34476,72322.78,CORPUS CHRISTI MEDICAL CENTER,THE
3.99,29.87147,-95.34242,48273.08,ST ANTHONY'S HOSPITAL
4.29,30.41163,-97.70649,54443.63,NORTH AUSTIN MEDICAL CENTER
5.00,29.58896,-95.63112,69016.19,METHODIST SUGAR LAND HOSPITAL
3.37,32.30684,-96.64115,35592.47,ENNIS REGIONAL MEDICAL CENTER
4.98,29.96603,-95.55127,68590.57,METHODIST WILLOWBROOK HOSPITAL
3.25,29.78747,-95.78578,33180.95,MEMORIAL HERMANN KATY HOSPITAL
4.36,30.20579,-95.45830,55868.53,ST LUKE'S THE WOODLANDS HOSPITAL
4.73,30.40505,-97.74357,63303.52,SETON  NORTHWEST HOSPITAL
4.13,31.73448,-106.30034,51062.73,EAST EL PASO PHYSICIANS MEDICAL CENTER, LLC
7.82,33.11427,-96.77061,126604.31,CENTENNIAL MEDICAL CENTER
3.75,33.01358,-96.78823,43325.26,BAYLOR REGIONAL MEDICAL CENTER AT PLANO
3.32,40.24999,-111.66524,34603.06,UTAH VALLEY REGIONAL MEDICAL CENTER
2.95,40.77848,-111.88062,27047.43,LDS HOSPITAL
2.73,37.65268,-113.08129,22450.32,VALLEY VIEW MEDICAL CENTER
2.64,39.60532,-110.83299,20561.15,CASTLEVIEW HOSPITAL
3.26,40.04365,-111.71457,33418.33,MOUNTAIN VIEW HOSPITAL
2.97,40.56454,-112.29609,27373.64,MOUNTAIN WEST MEDICAL CENTER
2.63,41.75744,-111.82113,20544.18,LOGAN REGIONAL HOSPITAL
2.94,37.09986,-113.55271,26860.69,DIXIE REGIONAL MEDICAL CENTER
2.95,40.38031,-111.76708,27000.21,AMERICAN FORK HOSPITAL
3.28,41.09098,-111.99557,33727.12,DAVIS HOSPITAL AND MEDICAL CENTER
3.34,40.58979,-111.97499,34999.28,JORDAN VALLEY MEDICAL CENTER
3.66,40.31210,-111.71152,41567.93,TIMPANOGOS REGIONAL HOSPITAL
3.01,44.47966,-73.19412,28133.66,FLETCHER ALLEN HOSPITAL OF VERMONT
3.16,43.59828,-72.95512,31253.56,RUTLAND REGIONAL MEDICAL CENTER
2.68,42.84340,-72.56527,21450.73,BRATTLEBORO MEMORIAL HOSPITAL
3.29,36.89897,-82.07851,33878.52,RUSSELL COUNTY MEDICAL CENTER
2.68,38.40552,-78.85730,21567.31,ROCKINGHAM MEMORIAL HOSPITAL
2.75,39.19345,-78.19599,22812.14,WINCHESTER MEDICAL CENTER INC
3.93,36.86268,-76.30355,47005.41,SENTARA NORFOLK GENERAL HOSPITAL
4.35,38.02573,-78.51526,55536.16,UNIVERSITY OF VIRGINIA MEDICAL CENTER
3.13,36.89933,-76.28157,30684.07,BON SECOURS - DEPAUL MEDICAL CENTER
2.89,36.83716,-76.34786,25686.41,BON SECOURS MARYVIEW MEDICAL CENTER
2.48,38.09436,-78.98659,17364.01,AUGUSTA HEALTH
2.76,37.41368,-79.16870,23098.19,CENTRA  HEALTH, INC
3.52,38.71322,-77.80895,38720.65,THE FAUQUIER HOSPITAL, INC
3.20,37.25129,-79.94125,32192.46,CARILION ROANOKE MEMORIAL CENTER
2.67,36.94315,-82.62092,21210.99,MOUNTAIN VIEW REGIONAL MEDICAL CENTER
4.93,37.54330,-77.42932,67433.41,MEDICAL COLLEGE OF VIRGINIA HOSPITALS
2.75,37.47512,-75.86264,22815.43,RIVERSIDE SHORE MEMORIAL HOSPITAL
3.42,38.82218,-77.10533,36574.30,INOVA ALEXANDRIA HOSPITAL
2.86,37.14463,-76.51197,25202.13,MARY IMMACULATE HOSPITAL
2.83,37.09020,-80.50370,24634.00,CARILION NEW RIVER VALLEY MEDICAL CENTER
3.14,39.07405,-77.47754,30841.02,INOVA LOUDOUN HOSPITAL
3.19,36.77378,-76.57856,31828.95,SENTARA OBICI HOSPITAL
3.41,36.85098,-76.18989,36383.01,SENTARA LEIGH HOSPITAL
3.28,37.06523,-76.48417,33750.58,RIVERSIDE REGIONAL MEDICAL CENTER
3.33,37.09990,-81.79024,34792.41,CLINCH VALLEY MEDICAL CENTER
3.25,38.85764,-77.22772,33103.93,INOVA FAIRFAX HOSPITAL
3.06,37.33700,-76.74046,29217.93,SENTARA WILLIAMSBURG REGIONAL MEDICAL CENTER
5.48,37.18253,-77.35957,78780.70,SOUTHSIDE REGIONAL MEDICAL CENTER
3.68,37.62931,-77.38804,42006.36,BON SECOURS - MEMORIAL REGIONAL MEDICAL
2.37,38.02176,-78.44530,15181.38,MARTHA JEFFERSON HOSPITAL
3.27,36.69555,-79.86374,33465.86,MEMORIAL HOSPITAL OF MARTINSVILLE & HENRY COUNTY
2.66,36.99444,-79.88970,21105.97,CARILION FRANKLIN MEMORIAL HOSPITAL
2.71,37.30288,-78.40196,22055.54,SOUTHSIDE COMMUNITY HOSPITAL, INC
3.37,36.69095,-76.93626,35518.42,SOUTHAMPTON MEMORIAL HOSPITAL
3.25,37.05580,-76.39048,33030.15,SENTARA CAREPLEX HOSPITAL
4.27,37.54014,-77.40666,53920.14,BON SECOURS - RICHMOND COMMUNITY HOSPITAL
3.16,38.88483,-77.37995,31376.91,INOVA FAIR OAKS HOSPITAL
2.48,36.95477,-81.09687,17427.79,WYTHE COUNTY COMMUNITY HOSPITAL
3.32,38.63463,-77.28361,34511.36,SENTARA POTOMAC HOSPITAL
2.21,37.12397,-81.48904,11865.69,CARILION TAZEWELL COMMUNITY HOSPITAL
3.71,36.77664,-76.09682,42482.81,SENTARA PRINCESS ANNE HOSPITAL
3.23,38.74009,-77.07732,32805.40,INOVA MOUNT VERNON HOSPITAL
3.25,37.79106,-79.88263,33135.64,LEWISGALE HOSPITAL ALLEGHANY
2.92,37.29071,-82.06423,26377.55,BUCHANAN GENERAL HOSPITAL
3.70,37.46807,-77.66143,42295.46,BON SECOURS - ST FRANCIS MEDICAL CENTER
3.71,47.71468,-122.33762,42510.53,NORTHWEST HOSPITAL
2.43,48.50066,-122.61584,16419.36,ISLAND HOSPITAL
4.32,47.33947,-122.26677,55024.09,AUBURN REGIONAL MEDICAL CENTER
3.66,46.71265,-122.98504,41576.91,PROVIDENCE CENTRALIA HOSPITAL
3.30,46.37074,-120.31663,34168.53,TOPPENISH COMMUNITY HOSPITAL
3.88,47.58295,-122.62506,46074.29,HARRISON MEDICAL CENTER
3.31,46.13039,-122.94110,34266.87,PEACHEALTH ST JOHN MEDICAL CENTER
3.59,45.62460,-122.58145,40100.99,PEACEHEALTH SOUTHWEST MEDICAL CENTER
3.74,47.64936,-117.41194,43186.87,PROVIDENCE SACRED HEART MEDICAL CENTER
3.65,46.28132,-119.28218,41237.50,KADLEC REGIONAL MEDICAL CENTER
4.03,47.60351,-122.32305,49145.29,HARBORVIEW MEDICAL CENTER
2.64,48.11504,-123.41519,20618.54,OLYMPIC MEDICAL CENTER
3.23,47.70969,-117.40722,32791.20,PROVIDENCE HOLY FAMILY HOSPITAL
4.66,47.17742,-122.28943,62035.93,MULTICARE GOOD SAMARITAN HOSPITAL
4.10,47.44243,-122.21392,50530.27,VALLEY MEDICAL CENTER
4.09,47.25980,-122.45243,50232.25,TACOMA GENERAL ALLENMORE HOSPITAL
3.42,47.04174,-122.95125,36694.70,CAPITAL MEDICAL CENTER
4.51,47.29252,-122.32729,58956.30,ST FRANCIS COMMUNITY HOSPITAL
4.17,47.36373,-122.61353,52009.61,ST ANTHONY HOSPITAL
4.20,39.65498,-79.95814,52653.70,WEST VIRGINIA UNIVERSITY HOSPITALS
2.63,37.77324,-80.46826,20489.59,GREENBRIER VALLEY MEDICAL CENTER
2.94,39.32836,-80.23964,26791.66,UNITED HOSPITAL CENTER
3.18,38.43236,-82.40067,31600.60,ST MARY'S MEDICAL CENTER
2.55,39.94672,-80.75423,18755.75,REYNOLDS MEMORIAL HOSPITAL
3.52,38.34739,-81.62600,38706.89,CHARLESTON AREA MEDICAL CENTER
2.45,40.39520,-80.52796,16814.62,WEIRTON MEDICAL CENTER
2.80,39.66383,-79.94681,23878.81,MONONGALIA COUNTY GENERAL HOSPITAL
2.37,38.92594,-79.84673,15190.84,DAVIS MEMORIAL HOSPITAL
2.31,38.35361,-81.63222,13883.17,ST FRANCIS HOSPITAL
3.58,39.27800,-81.55171,39787.67,ST JOSEPHS HEALTHCARE SYSTEM
3.02,40.05876,-80.72237,28376.00,OHIO VALLEY MEDICAL CENTER
2.76,39.48229,-80.16519,23053.05,FAIRMONT GENERAL HOSPITAL
3.48,37.84674,-81.99565,37934.22,LOGAN REGIONAL MEDICAL CENTER
3.24,39.27035,-81.56026,32926.19,CAMDEN CLARK MEDICAL CENTER
2.99,37.78754,-81.20183,27850.42,RALEIGH GENERAL HOSPITAL
2.74,37.67824,-82.27207,22611.50,WILLIAMSON MEMORIAL HOSPITAL
2.35,38.29255,-80.82930,14684.81,SUMMERSVILLE REGIONAL MEDICAL CENTER
2.76,44.52660,-89.56580,23053.77,MINISTRY ST MICHAELS HOSPITAL OF STEVENS POINT
2.53,44.24830,-88.40268,18361.31,ST ELIZABETH HSPTL
2.84,44.95162,-91.35969,24738.26,ST JOSEPHS HSPTL
2.88,45.63932,-89.37481,25637.72,MINISTRY ST MARYS HOSPITAL
3.22,42.60783,-89.63494,32468.51,THE MONROE CLINIC
2.51,44.38171,-89.82976,18014.28,RIVERVIEW HSPTL ASSOC
2.85,44.12383,-87.62011,25026.61,AURORA MED CTR MANITOWOC CTY
2.99,43.77292,-87.71108,27801.36,AURORA SHEBOYGAN MEM MED CTR
3.14,43.31772,-88.36193,30895.43,AURORA MED CENTER-WASHINGTON COUNTY
3.05,43.53915,-89.46262,28976.62,DIVINE SAVIOR HLTHCARE
2.69,44.18700,-88.45431,21680.00,THEDA CLARK MED CTR
2.56,44.01282,-88.60296,19095.18,MERCY MED CTR OF OSHKOSH
3.06,44.50233,-88.01140,29152.90,BELLIN MEMORIAL HSPTL
3.86,43.06195,-87.87861,45570.67,COLUMBIA ST MARYS HSPTL  MILW (COL & MILW CAMPUS)
2.89,43.48057,-89.73142,25763.08,ST CLARE HSPTL HLTH SVCS
2.91,42.67269,-88.28138,26268.76,AURORA MEMORIAL HSPTL BURLINGTON
3.48,42.68685,-89.03244,37747.45,MERCY HLTH SYS CORP
3.41,44.81192,-91.51352,36382.10,MAYO CLINIC HEALTH SYSTEM EAU CLAIRE HOSPITAL
2.74,42.93133,-88.82794,22607.37,FORT HEALTHCARE
3.12,43.77733,-88.42866,30569.98,ST AGNES HSPTL
2.94,45.89438,-89.70190,26804.39,HOWARD YOUNG MED CTR
2.78,42.73444,-87.82788,23559.05,WHEATON FRANCISCAN HEALTHCARE- ALL SAINTS
2.73,44.53265,-88.06664,22456.51,ST MARYS HSPTL MED CTR
3.89,43.07633,-89.43133,46169.38,UNIVERSITY OF WI  HOSPITALS & CLINICS AUTHORITY
4.30,42.54868,-89.00822,54569.14,BELOIT MEM HSPTL
3.41,42.66123,-88.49611,36347.30,AURORA LAKELAND MED CTR
3.38,43.07393,-87.97612,35823.21,WHEATON FRANCISCAN, INC- ST JOSEPH
4.34,42.98958,-87.95079,55361.53,AURORA ST LUKES MEDICAL CENTER
3.25,43.00120,-88.02675,33197.57,AURORA WEST ALLIS MEDICAL CENTER
2.36,44.27860,-88.39550,15004.74,APPLETON MED CTR
3.40,43.04008,-88.02523,36180.61,FROEDTERT MEM LUTHERAN HSPTL
2.98,44.02711,-88.59356,27645.81,AURORA MED CTR OSHKOSH
2.85,44.89045,-89.58006,25040.10,ST CLARE'S HOSPITAL OF WESTON INC
3.64,42.86143,-87.95205,41168.73,WHEATON FRANCISCAN HEALTHCARE- FRANKLIN, INC
3.48,43.32426,-87.92776,37899.79,AURORA MEDICAL CENTER
3.08,44.29069,-105.51950,29702.31,CAMPBELL COUNTY MEMORIAL HOSPITAL
3.77,42.84802,-106.30851,43684.97,WYOMING MEDICAL CENTER
3.52,41.14037,-104.81660,38615.53,CHEYENNE REGIONAL MEDICAL CENTER
2.68,41.31121,-105.55727,21515.93,IVINSON MEMORIAL HOSPITAL
2.28,29.93532,-96.87625,13379.62,ST MARKS MEDICAL CENTER
3.43,29.64125,-95.16176,36829.92,ST LUKE'S PATIENTS MEDICAL CENTER
4.92,30.56899,-97.65104,67301.16,SETON MEDICAL CENTER WILLIAMSON
4.35,30.53180,-97.81107,55704.85,CEDAR PARK REGIONAL MEDICAL CENTER
3.06,32.88575,-96.46443,29273.41,TEXAS HEALTH PRESBYTERIAN HOSPITAL ROCKWALL
5.11,31.79047,-106.26500,71198.02,SIERRA PROVIDENCE EAST MEDICAL CENTER
4.63,29.61578,-98.47479,61369.21,METHODIST STONE OAK HOSPITAL
4.87,32.77776,-96.56763,66358.61,TEXAS REGIONAL MEDICAL CENTER AT SUNNYVALE
2.71,31.28905,-86.25550,22160.91,MIZELL MEMORIAL HOSPITAL
2.70,34.36605,-86.42127,21975.77,MARSHALL MEDICAL CENTER NORTH
3.67,33.59616,-86.66750,41809.60,ST VINCENT'S EAST
3.37,34.43845,-85.75574,35601.75,DEKALB REGIONAL MEDICAL CENTER
4.88,33.25607,-86.81035,66437.15,SHELBY BAPTIST MEDICAL CENTER
2.78,34.74649,-87.69895,23619.53,HELEN KELLER MEMORIAL HOSPITAL
2.57,31.45215,-85.63140,19223.00,DALE MEDICAL CENTER
2.63,32.82377,-85.17019,20538.58,GEORGE H. LANIER MEMORIAL HOSPITAL
2.49,32.63806,-85.40413,17580.17,EAST ALABAMA MEDICAL CENTER AND SNF
4.36,33.50619,-86.80210,55870.60,UNIVERSITY OF ALABAMA HOSPITAL
2.37,32.53405,-85.91236,15159.94,COMMUNITY HOSPITAL INC
3.40,34.20768,-86.87489,36193.69,CULLMAN REGIONAL MEDICAL CENTER
3.83,33.66767,-85.83420,44925.00,STRINGFELLOW MEMORIAL HOSPITAL
7.85,34.00941,-85.97078,127121.05,GADSDEN REGIONAL MEDICAL CENTER
2.40,32.85247,-86.62299,15819.90,CHILTON MEDICAL CENTER
3.52,33.70757,-87.82383,38587.05,FAYETTE MEDICAL CENTER
5.95,34.00426,-86.00339,88382.52,RIVERVIEW REGIONAL MEDICAL CENTER
2.64,33.93332,-86.49498,20707.08,ST VINCENTS BLOUNT
2.98,34.48290,-87.28601,27599.66,LAWRENCE MEDICAL CENTER
2.28,32.94573,-85.98570,13270.73,RUSSELL HOSPITAL
3.52,33.65640,-85.82284,38627.80,NORTHEAST ALABAMA REGIONAL MED CENTER
4.80,30.42700,-87.68386,64813.90,SOUTH BALDWIN REGIONAL MEDICAL CENTER
2.35,34.59052,-86.97262,14824.04,DECATUR GENERAL HOSPITAL
4.24,33.20521,-87.52546,53467.02,D C H REGIONAL MEDICAL CENTER
5.50,33.49854,-86.84633,79144.43,BAPTIST MEDICAL CENTER-PRINCETON
3.02,32.46417,-86.45177,28491.08,PRATTVILLE BAPTIST HOSPITAL
3.89,32.43020,-87.05515,46209.02,VAUGHAN REG MED CENTER PARKWAY CAMPUS
3.16,31.85636,-85.99737,31199.92,TROY REGIONAL MEDICAL CENTER
2.62,30.90107,-87.78271,20331.75,NORTH BALDWIN INFIRMARY
7.50,33.46420,-86.77409,120085.73,BROOKWOOD MEDICAL CENTER
3.16,30.68546,-88.13170,31353.82,SPRINGHILL MEDICAL CENTER
2.39,31.43128,-86.94142,15468.33,EVERGREEN MEDICAL CENTER
3.94,32.38797,-86.17576,47190.17,BAPTIST MEDICAL CENTER EAST
3.10,30.61928,-88.17129,30127.21,INFIRMARY WEST
2.82,34.49384,-87.72713,24292.87,RUSSELLVILLE HOSPITAL
4.70,33.16547,-86.25380,62724.93,COOSA VALLEY MEDICAL CENTER
3.64,32.50808,-85.00867,41137.75,JACK HUGHSTON MEMORIAL HOSPITAL
3.14,31.01668,-87.47680,30848.23,ATMORE COMMUNITY HOSPITAL
4.77,60.94901,-149.17033,64126.22,PROVIDENCE ALASKA MEDICAL CENTER
4.50,61.56297,-149.25782,58756.02,MAT-SU REGIONAL MEDICAL CENTER
5.19,61.21082,-149.82866,72748.74,ALASKA REGIONAL HOSPITAL
4.12,60.49315,-151.07770,50909.90,CENTRAL PENINSULA GENERAL HOSPITAL
3.83,33.50277,-112.17044,45007.11,MARYVALE HOSPITAL
