size_charge,size_pay,lat,lon,state,charge,pay,AcquiredInfect,AcquiredConditions,PatientSafetySummary,name
6.70,2.22,31.21673,-85.36307,AL,27000,6000,50,51,21,Southeast Alabama Medical Center
3.58,2.18,33.59616,-86.66750,AL,12000,5000,66,78,1,St Vincent'S East
6.28,2.20,33.25607,-86.81035,AL,25000,6000,83,70,63,Shelby Baptist Medical Center
3.18,2.20,34.74649,-87.69895,AL,10000,6000,50,91,33,Helen Keller Memorial Hospital
6.23,2.45,32.32785,-86.27750,AL,24000,7000,50,67,54,Baptist Medical Center South
5.14,2.21,32.36656,-86.28572,AL,19000,6000,50,68,82,Jackson Hospital & Clinic Inc
3.01,2.23,32.63806,-85.40413,AL,9000,6000,50,80,13,East Alabama Medical Center And Snf
7.04,2.59,33.50619,-86.80210,AL,28000,7000,66,45,11,University Of Alabama Hospital
5.18,2.19,34.20768,-86.87489,AL,20000,5000,50,63,79,Cullman Regional Medical Center
7.09,2.17,34.72007,-86.58108,AL,29000,5000,50,65,44,Huntsville Hospital
12.95,2.11,34.00941,-85.97078,AL,56000,5000,66,67,27,Gadsden Regional Medical Center
7.54,2.13,31.23767,-85.45625,AL,31000,5000,50,55,79,Flowers Hospital
3.58,2.13,33.50734,-86.78958,AL,12000,5000,50,72,21,St Vincent'S Birmingham
4.73,2.11,30.68199,-88.19897,AL,17000,5000,83,86,0,Providence Hospital
5.56,2.30,33.20521,-87.52546,AL,21000,6000,66,66,21,D C H Regional Medical Center
12.79,2.21,33.51420,-86.74859,AL,55000,6000,66,27,11,Trinity Medical Center
3.91,2.17,30.69697,-88.08081,AL,14000,5000,66,55,24,Mobile Infirmary
9.78,2.14,34.69279,-86.57179,AL,41000,5000,50,77,33,Crestwood Medical Center
12.79,2.11,33.46420,-86.77409,AL,55000,5000,50,65,29,Brookwood Medical Center
6.23,2.39,33.23361,-87.57125,AL,25000,6000,0,0,0,Northport Medical Center
4.57,2.21,32.50808,-85.00867,AL,17000,6000,0,0,0,Jack Hughston Memorial Hospital
6.64,3.07,60.94901,-149.17033,AK,26000,10000,50,81,90,Providence Alaska Medical Center
8.16,2.60,61.21082,-149.82866,AK,34000,7000,50,90,43,Alaska Regional Hospital
7.69,2.72,33.46514,-112.05797,AZ,31000,8000,50,48,69,Banner Good Samaritan Medical Center
5.42,2.49,32.25294,-110.88135,AZ,21000,7000,50,48,3,Tucson Medical Center
7.92,2.37,32.22734,-111.00065,AZ,32000,6000,33,75,63,Carondelet St  Marys Hospital
7.83,2.29,32.22685,-110.85520,AZ,32000,6000,66,55,21,Carondelet St Josephs Hospital
6.21,2.58,34.56017,-112.48217,AZ,24000,7000,25,67,17,Yavapai Regional Medical Center
6.62,3.29,35.20923,-111.64486,AZ,26000,11000,66,78,88,Flagstaff Medical Center
12.62,3.00,33.48073,-112.07948,AZ,55000,9000,33,52,11,St Joseph'S Hospital And Medical Center
10.42,2.56,33.48885,-111.92387,AZ,44000,7000,66,76,54,Scottsdale Healthcare-Osborn Medical Center
9.98,2.25,33.60432,-112.28378,AZ,42000,6000,83,75,95,Banner Boswell Medical Center
9.25,2.59,33.39097,-111.87638,AZ,39000,7000,66,80,56,Banner Desert Medical Center
4.80,2.39,34.47988,-114.33938,AZ,18000,6000,50,70,56,Havasu Regional Medical Center
8.02,2.30,32.32103,-111.01102,AZ,33000,6000,50,71,20,Northwest Medical Center
8.28,2.61,33.60949,-112.18129,AZ,34000,7000,66,73,76,Banner Thunderbird Medical Center
6.17,2.51,33.65947,-111.95626,AZ,24000,7000,66,53,95,Mayo Clinic Hospital
7.16,2.24,33.38006,-111.73470,AZ,29000,6000,0,0,0,Arizona Spine And Joint Hospital
4.26,2.24,33.53218,-112.09949,AZ,15000,6000,0,0,0,Surgical Specialty Hospital Of Arizona
9.64,2.52,33.47818,-112.25744,AZ,41000,7000,50,58,69,Banner Estrella Medical Center
6.36,2.24,36.10940,-94.16036,AR,25000,6000,33,77,74,Washington Regional Med Ctr At North Hills
5.00,2.27,34.75031,-92.33897,AR,19000,6000,66,63,82,St Vincent Infirmary Medical Center
2.73,2.32,35.83746,-90.70386,AR,8000,6000,50,75,2,St Bernards Medical Ctr
4.79,2.22,34.46784,-93.06667,AR,18000,6000,66,66,85,St Josephs Mercy Health Center Inc
6.47,2.25,35.37445,-94.41868,AR,26000,6000,50,53,85,Sparks Regional Medical Center
4.25,2.17,35.35395,-94.35262,AR,15000,5000,50,66,11,St Edward Mercy Medical Center
5.31,2.36,34.18894,-92.01886,AR,20000,6000,50,75,4,Jefferson Regional Medical Center
5.55,2.31,34.74866,-92.35422,AR,21000,6000,50,43,21,Baptist Health Medical Center-Little Rock
4.72,2.06,35.80838,-90.66658,AR,17000,5000,50,57,69,Nea Baptist Memorial Hospital
4.66,2.14,34.81290,-92.20814,AR,17000,5000,0,0,0,St Vincent Medical Center/North
3.59,2.12,34.80457,-92.35122,AR,12000,5000,0,0,0,Arkansas Surgical Hospital
13.08,2.89,37.59283,-122.38249,CA,57000,9000,50,71,33,Peninsula Medical Center
7.98,2.83,37.76862,-122.43525,CA,33000,8000,50,50,74,California Pacific Medical Ctr-Davies Campus Hosp
12.18,3.14,38.57053,-121.45216,CA,53000,10000,83,53,27,Mercy General Hospital
9.98,3.38,32.75426,-117.16592,CA,42000,11000,50,72,69,University Of California San Diego Medical Center
9.72,2.72,32.77495,-117.01467,CA,41000,8000,83,71,33,Grossmont Hospital
11.69,2.64,35.38736,-119.01690,CA,50000,8000,33,85,79,Bakersfield Memorial Hospital
11.04,2.47,39.74221,-121.85000,CA,47000,7000,83,71,48,Enloe Medical Center
9.60,3.29,37.79100,-122.43125,CA,40000,11000,83,63,11,California Pacific Medical Ctr-Pacific Campus Hosp
13.08,2.78,34.67486,-118.15771,CA,57000,8000,50,67,44,Antelope Valley Hospital Med Center
7.52,2.65,36.32737,-119.29548,CA,31000,8000,50,56,12,Kaweah Delta Medical Center
12.62,3.39,34.09643,-118.29103,CA,55000,11000,75,76,74,Hollywood Presbyterian Medical Center
8.79,2.95,33.78036,-117.86495,CA,37000,9000,50,60,88,St Joseph Hospital
16.32,2.87,32.75143,-117.16083,CA,72000,9000,33,62,69,Scripps Mercy Hospital
21.02,2.72,34.21674,-119.15631,CA,94000,8000,50,63,6,St Johns Regional Medical Center
13.37,2.81,37.96987,-121.28873,CA,58000,8000,83,68,97,St Josephs Med Center Of Stockton
9.53,2.62,36.83532,-119.76562,CA,40000,8000,50,66,57,Saint Agnes Medical Center
7.85,2.49,34.10130,-117.63651,CA,32000,7000,50,66,85,San Antonio Community Hospital
11.62,2.78,32.79949,-117.15394,CA,50000,8000,66,62,11,Sharp Memorial Hospital
15.58,2.68,34.95099,-120.41322,CA,69000,8000,50,93,48,Marian Medical Center
13.61,2.90,38.57155,-121.46874,CA,59000,9000,83,77,79,Sutter General Hospital
8.57,2.84,34.02685,-118.48651,CA,36000,9000,50,76,21,Santa Monica - Ucla Med Ctr & Orthopaedic Hospital
10.96,2.51,33.12535,-117.07336,CA,47000,7000,50,55,69,Palomar Medical Center
12.43,2.67,37.96125,-121.30103,CA,54000,8000,50,48,9,Dameron Hospital
7.59,3.10,34.19494,-118.46319,CA,31000,10000,50,77,76,Valley Presbyterian Hospital
8.58,2.59,33.18402,-117.29661,CA,36000,7000,50,57,21,Tri-City Medical Center
10.03,2.77,34.13495,-117.27603,CA,42000,8000,50,66,48,St Bernardine Medical Center
11.88,3.14,36.57886,-121.91316,CA,51000,10000,66,56,57,Community Hospital Of The Monterey Peninsula
15.21,3.24,37.78963,-122.41700,CA,67000,10000,75,70,29,Saint Francis Memorial Hospital
25.13,3.14,37.32710,-121.93863,CA,114000,10000,66,71,37,O'Connor Hospital
8.78,2.42,33.89465,-117.92716,CA,37000,7000,66,71,90,St Jude Medical Center
16.37,2.56,33.96860,-118.04831,CA,72000,7000,50,46,16,Presbyterian Intercommunity Hospital
30.00,2.92,38.44369,-122.70138,CA,137000,9000,66,86,57,Santa Rosa Memorial Hospital
23.31,2.87,37.91341,-122.04163,CA,105000,9000,50,62,33,John Muir Medical Center - Walnut Creek Campus
22.60,3.09,37.55717,-121.98126,CA,102000,10000,50,53,88,Washington Hospital
17.08,2.92,34.58305,-118.14490,CA,76000,9000,50,86,54,Palmdale Regional Medical Center
8.96,2.58,33.62229,-117.92995,CA,37000,7000,50,70,51,Hoag Memorial Hospital Presbyterian
26.80,2.74,34.15601,-118.32834,CA,122000,8000,50,80,97,Providence Saint Joseph Medical Ctr
16.40,3.05,34.14987,-118.23117,CA,72000,10000,66,75,88,Glendale Adventist Medical Center
13.28,2.94,36.98999,-121.98357,CA,58000,9000,50,63,63,Dominican Hospital
15.53,2.59,38.72562,-120.79096,CA,68000,7000,50,81,1,Marshall Medical Center (1-Rh)
12.35,2.78,40.58654,-122.39168,CA,53000,8000,83,71,44,Mercy Medical Center Redding
13.76,2.79,37.69502,-121.88095,CA,60000,8000,50,71,82,Valleycare Medical Center
8.06,2.47,34.03009,-118.47833,CA,33000,7000,50,81,76,Saint John'S Health Center
12.71,3.29,37.85593,-122.25730,CA,55000,11000,50,56,8,Alta Bates Summit Medical Center - Alta Bates Camp
14.61,2.83,37.36934,-122.08047,CA,64000,8000,66,48,6,El Camino Hospital
11.91,2.62,38.76514,-121.24979,CA,51000,7000,66,77,16,Sutter Roseville Medical Center
14.19,2.51,32.88461,-117.22244,CA,62000,7000,50,63,29,Scripps Memorial Hospital La Jolla
10.18,3.35,34.05076,-117.26395,CA,43000,11000,50,55,16,Loma Linda University Medical Center
9.62,3.08,36.65910,-121.64630,CA,41000,10000,50,70,37,Salinas Valley Memorial Hospital
8.92,2.50,33.81131,-118.34364,CA,37000,7000,66,67,88,Torrance Memorial Medical Center
11.63,2.57,33.83891,-118.35677,CA,50000,7000,50,86,94,Providence Little Company Of Mary Med Ctr Torrance
13.73,2.78,37.25153,-121.94684,CA,60000,8000,33,63,3,Good Samaritan Hospital
9.10,2.89,34.08802,-117.89341,CA,38000,9000,66,67,29,Citrus Valley Medical Center-Ic Campus
12.13,2.46,34.27459,-119.25812,CA,52000,7000,50,53,8,Community Memorial Hospital San Buenaventura
5.74,2.60,34.42951,-119.72333,CA,22000,7000,66,72,32,Santa Barbara Cottage Hospital
11.27,2.60,32.89810,-117.24217,CA,48000,7000,50,75,37,Scripps Green Hospital
9.77,2.65,34.13364,-118.15275,CA,41000,8000,66,65,57,Huntington Memorial Hospital
19.59,3.77,37.43436,-122.18013,CA,88000,13000,50,58,27,Stanford Hospital
18.18,4.31,37.76421,-122.45716,CA,81000,15000,66,52,90,Ucsf Medical Center
28.80,4.11,37.77449,-122.45429,CA,131000,15000,50,87,3,St Mary'S Medical Center
12.51,3.04,34.05336,-118.26558,CA,54000,9000,50,68,79,Good Samaritan Hospital
11.20,2.78,33.80861,-118.18661,CA,48000,8000,66,65,27,Long Beach Memorial Medical Center
11.79,2.93,37.69824,-122.08730,CA,51000,9000,66,61,54,Eden Medical Center
15.21,3.12,34.06389,-118.27347,CA,67000,10000,50,80,98,Saint Vincent Medical Center
15.87,2.39,33.03634,-117.28487,CA,70000,6000,50,65,5,Scripps Memorial Hospital - Encinitas
12.38,2.60,35.29188,-120.66635,CA,54000,7000,50,86,81,Sierra Vista Regional Medical Center
16.82,3.27,38.66956,-121.31378,CA,74000,11000,66,66,29,Mercy San Juan Medical Center
10.76,2.96,34.20777,-118.88305,CA,46000,9000,50,51,69,Los Robles Hospital & Medical Center
12.13,2.84,37.66867,-120.97339,CA,52000,9000,66,80,54,Memorial  Medical Center
9.18,2.43,33.56100,-117.66530,CA,38000,7000,66,58,12,Mission Hospital Regional Med Center
16.34,2.36,33.76335,-116.40628,CA,72000,6000,50,56,39,Eisenhower Medical Center
27.79,3.73,38.55484,-121.45628,CA,126000,13000,50,50,3,University Of California Davis Medical Center
19.77,3.15,34.07664,-118.37955,CA,88000,10000,100,58,48,Cedars-Sinai Medical Center
10.97,2.49,35.55536,-120.72067,CA,47000,7000,0,0,0,Twin Cities Community Hospital
13.19,2.75,37.77577,-121.95824,CA,57000,8000,50,66,3,San Ramon Regional Medical Ctr
7.79,2.49,40.58654,-122.39168,CA,32000,7000,0,0,0,Patients' Hospital Of Redding
5.80,2.53,33.55876,-117.18329,CA,22000,7000,66,73,74,Southwest Healthcare System
6.53,2.38,37.66477,-120.95832,CA,26000,6000,0,0,0,Stanislaus Surgical Hospital
23.47,3.32,34.06760,-118.12291,CA,106000,11000,50,93,85,Garfield Medical Center
14.25,2.60,33.98219,-118.43930,CA,62000,7000,50,90,6,Marina Del Rey Hospital
21.13,3.20,34.05723,-118.36025,CA,95000,10000,50,63,69,Olympia Medical Center
11.19,2.54,32.77629,-117.05730,CA,48000,7000,75,78,63,Alvarado Hospital Medical Center
8.96,2.48,33.66270,-117.77270,CA,37000,7000,0,0,0,Hoag Orthopedic Institute
9.31,2.41,40.41481,-104.70890,CO,39000,7000,50,73,57,North Colorado Medical Center
4.34,2.42,40.57315,-105.05741,CO,16000,7000,50,68,95,Poudre Valley Hospital
9.14,3.12,37.23629,-107.82578,CO,38000,10000,0,0,0,Mercy Regional Medical Center
11.12,2.73,39.74615,-104.96682,CO,48000,8000,66,47,17,Presbyterian/St Luke'S Medical Center
8.31,2.49,39.71712,-105.12874,CO,34000,7000,33,67,16,Centura Health-St Anthony Hospital
11.20,2.34,38.28184,-104.61256,CO,48000,6000,66,68,29,Parkview Medical Center Inc
7.65,2.34,38.83903,-104.80024,CO,31000,6000,66,68,33,Memorial Hospital Central
5.95,2.47,39.09046,-108.56190,CO,23000,7000,50,48,57,St Marys Hospital And Medical Center
9.08,3.17,39.74234,-104.84156,CO,38000,10000,66,66,69,University Of Colorado Hospital Anschutz Inpatient
8.62,2.24,40.02615,-105.28391,CO,36000,6000,50,91,82,Boulder Community Hospital
9.45,2.49,38.86559,-104.82182,CO,40000,7000,50,70,37,Centura Health-Penrose St Francis Health Services
10.67,2.50,39.73231,-104.93396,CO,45000,7000,75,50,32,Rose Medical Center
8.53,2.34,39.65399,-104.98116,CO,35000,6000,33,47,17,Swedish Medical Center
10.15,2.68,39.67005,-104.97490,CO,43000,8000,50,75,79,Centura Health-Porter Adventist Hospital
8.99,2.35,39.68859,-104.83205,CO,38000,6000,50,61,13,Medical Center Of Aurora The
10.98,2.37,39.52910,-104.87121,CO,47000,6000,50,76,79,Sky Ridge Medical Center
10.31,2.25,39.57629,-104.98610,CO,44000,6000,50,78,54,Centura Health-Littleton Adventist Hospital
8.60,2.38,39.54881,-104.77119,CO,36000,6000,50,60,12,Parker Adventist Hospital
9.64,2.60,39.56935,-106.07773,CO,41000,7000,0,0,0,St Anthony Summit Medical Center
5.43,2.18,40.45184,-105.19608,CO,21000,5000,50,78,44,Medical Center Of The Rockies
6.87,2.72,41.30978,-72.93806,CT,28000,8000,66,57,8,Hospital Of St Raphael
3.48,2.76,41.77507,-72.69941,CT,12000,8000,50,53,85,St Francis Hospital & Medical Center
5.10,2.56,41.33722,-72.10380,CT,19000,7000,50,72,92,Lawrence & Memorial Hospital
9.14,2.95,41.18881,-73.16645,CT,38000,9000,50,51,21,Bridgeport Hospital
11.09,2.71,41.03431,-73.63020,CT,47000,8000,50,48,63,Greenwich Hospital Association
8.66,3.38,41.30400,-72.93502,CT,36000,11000,66,41,3,Yale-New Haven Hospital
5.68,2.53,41.54301,-72.08799,CT,22000,7000,50,70,44,William W Backus Hospital
4.59,2.89,41.75412,-72.67927,CT,17000,9000,50,47,9,Hartford Hospital
6.45,2.76,41.40474,-73.44739,CT,26000,8000,50,66,57,Danbury Hospital
4.80,2.66,41.66107,-72.78671,CT,18000,8000,50,52,8,Hospital Of Central Connecticut The
4.25,2.71,39.69005,-75.68408,DE,15000,8000,66,58,39,Christiana Care Health Services Inc.
5.63,2.45,38.77159,-75.14210,DE,22000,7000,50,90,81,Beebe Medical Center
10.22,3.00,38.91221,-77.07588,DC,43000,9000,66,65,0,Georgetown University Hospital
4.41,2.41,38.93576,-77.10909,DC,16000,7000,50,76,97,Sibley Memorial Hospital
7.92,2.81,38.92944,-77.01473,DC,32000,8000,33,58,1,Washington Hospital Center
9.16,2.48,28.52517,-81.37729,FL,38000,7000,66,47,29,Orlando Health
9.71,2.88,28.57345,-81.36990,FL,41000,9000,83,66,24,Florida Hospital
17.12,2.58,25.68309,-80.34038,FL,76000,7000,50,62,85,Baptist Hospital Of Miami Inc
15.85,2.69,25.78846,-80.21644,FL,70000,8000,83,56,0,University Of Miami Hospital
7.30,2.32,26.62849,-81.87423,FL,30000,6000,66,52,16,Lee Memorial Hospital
8.22,2.31,29.20117,-81.05828,FL,34000,6000,66,76,79,Halifax Health Medical Center
6.39,2.25,26.15053,-81.79919,FL,25000,6000,66,62,39,Naples Community Hospital
7.96,2.24,28.08771,-80.61362,FL,33000,6000,66,58,17,Holmes Regional Medical Center
10.55,3.68,25.79143,-80.21250,FL,45000,12000,83,48,4,Jackson Memorial Hospital
5.20,2.14,28.83363,-82.33561,FL,20000,5000,50,55,44,Citrus Memorial Hospital
5.52,2.75,30.47650,-87.21219,FL,21000,8000,50,41,39,Sacred Heart Hospital
5.25,2.32,28.54917,-81.52746,FL,20000,6000,50,70,57,Health Central
6.85,2.32,27.49789,-82.56220,FL,27000,6000,50,55,29,Manatee Memorial Hospital
9.32,2.54,26.01867,-80.17981,FL,39000,7000,83,63,76,Memorial Regional Hospital
6.55,2.25,30.30835,-81.68919,FL,26000,6000,50,68,82,St Vincent'S Medical Center
8.64,2.22,28.01404,-82.78368,FL,36000,6000,50,75,54,Mease Hospital Dunedin
9.39,2.32,27.19837,-80.24306,FL,39000,6000,66,70,57,Martin Memorial Medical Center
8.78,2.28,26.94042,-82.04094,FL,37000,6000,50,72,85,Charlotte Regional Medical Center
11.25,2.23,28.02768,-81.72466,FL,48000,6000,50,62,2,Winter Haven Hospital
6.62,2.16,28.13321,-82.75839,FL,26000,5000,0,0,0,Helen Ellis Memorial Hospital
7.60,2.16,29.17594,-82.13898,FL,31000,5000,50,60,94,Munroe Regional Medical Center
9.83,2.29,27.78088,-82.65126,FL,41000,6000,50,68,57,St Anthony'S Hospital
6.12,2.22,29.24333,-81.10760,FL,24000,6000,50,67,95,Florida Hospital Memorial Medical Center
8.50,2.89,28.01266,-82.50384,FL,35000,9000,0,0,0,Florida Hospital Carrollwood
6.55,2.15,27.09043,-82.44499,FL,26000,5000,50,76,48,Venice Regional Medical Center
11.76,2.29,26.18711,-80.11941,FL,51000,6000,83,57,37,Holy Cross Hospital Inc
8.35,2.49,27.98242,-82.49025,FL,35000,7000,66,60,29,St Joseph'S Hospital
11.46,2.27,26.98905,-82.09559,FL,49000,6000,50,68,43,Peace River Regional Medical Center
12.79,2.40,26.59805,-80.09271,FL,55000,6000,100,60,27,Jfk Medical Center
6.96,2.72,28.80659,-81.86906,FL,28000,8000,33,67,24,Leesburg Regional Medical Center
8.11,2.33,26.27623,-80.12220,FL,33000,6000,75,72,57,Broward Health North Broward Medical Center
7.40,2.21,27.31827,-82.53140,FL,30000,6000,33,37,69,Sarasota Memorial Hospital
8.04,2.53,30.31525,-81.66398,FL,33000,7000,66,47,12,Baptist Medical Center
7.24,2.37,29.86371,-81.31749,FL,29000,6000,66,76,29,Flagler Hospital
8.93,2.22,30.43066,-87.23191,FL,37000,6000,50,72,17,Baptist Hospital
5.17,2.27,27.65832,-80.39307,FL,19000,6000,66,76,99,Indian River Medical Center
9.06,3.01,29.64155,-82.34844,FL,38000,9000,66,53,29,Shands Hospital At The University Of Florida
9.18,2.22,27.95192,-82.80379,FL,38000,6000,66,62,9,Morton Plant Hospital
14.65,2.67,27.93740,-82.45927,FL,64000,8000,66,66,0,Tampa General Hospital
5.56,2.35,30.45726,-84.26175,FL,21000,6000,66,57,63,Tallahassee Memorial Healthcare
7.30,2.57,30.26389,-81.44283,FL,30000,7000,83,62,90,Mayo Clinic
10.83,2.42,25.70328,-80.29391,FL,46000,7000,50,65,69,South Miami Hospital Inc
8.27,2.24,28.06172,-81.95304,FL,34000,6000,50,52,3,Lakeland Regional Medical Center
9.57,2.19,27.30187,-82.45428,FL,40000,5000,33,67,95,Doctors Hospital Of Sarasota
7.76,2.51,28.07111,-82.42342,FL,32000,7000,50,68,37,Florida Hospital Tampa
12.88,2.28,29.66085,-82.41172,FL,56000,6000,33,52,17,North Florida Regional Medical Center
12.75,2.14,29.17550,-82.13680,FL,55000,5000,83,55,85,Ocala Regional Medical Center
9.02,2.24,27.48213,-82.62126,FL,38000,6000,50,75,69,Blake Medical Center
11.65,2.28,27.84359,-80.48849,FL,50000,6000,0,0,0,Sebastian River Medical Center
7.88,2.27,26.52735,-81.83337,FL,32000,6000,50,58,63,Gulf Coast Medical Center Lee Mem Health System
13.73,2.30,30.45448,-86.63362,FL,60000,6000,50,72,63,Fort Walton Beach Medical Center
12.54,2.23,30.16550,-81.73775,FL,54000,6000,33,68,57,Orange Park Medical Center
12.51,2.20,30.51624,-87.21856,FL,54000,6000,50,65,4,West Florida Hospital
19.30,2.33,26.98884,-82.09877,FL,86000,6000,50,80,57,Fawcett Memorial Hospital
15.65,2.20,27.78151,-82.66458,FL,69000,6000,50,81,33,Edward White Hospital
11.96,2.58,27.93259,-82.28759,FL,52000,7000,66,67,21,Brandon Regional Hospital
7.88,2.15,26.63958,-81.94164,FL,32000,5000,50,52,21,Cape Coral Hospital
15.92,2.45,27.43392,-80.34350,FL,70000,7000,83,53,29,Lawnwood Regional Medical Center & Heart Institute
9.93,2.18,28.95195,-82.62421,FL,42000,5000,50,72,21,Seven Rivers Regional Medical Center
9.95,2.23,26.92138,-80.09708,FL,42000,6000,50,61,54,Jupiter Medical Center
15.64,2.14,28.36128,-82.68883,FL,69000,5000,66,67,90,Regional Medical Center Bayonet Point
17.44,2.31,26.43709,-80.12728,FL,77000,6000,83,72,92,Delray Medical Center
16.06,2.46,27.28861,-80.29431,FL,71000,7000,50,65,54,St Lucie Medical Center
10.69,2.14,28.53585,-82.53404,FL,46000,5000,66,71,57,Oak Hill Hospital
8.33,2.41,26.01394,-80.30980,FL,34000,7000,66,71,63,Memorial Hospital West
11.51,2.50,26.21388,-81.73257,FL,49000,7000,33,80,33,Physicians Regional Medical Center - Pine Ridge
8.58,2.30,26.70181,-80.05055,FL,36000,6000,50,58,63,Good Samaritan Medical Center
10.06,2.82,26.75635,-80.06322,FL,43000,8000,100,85,74,St Mary'S Medical Center
10.04,2.28,26.08155,-80.36449,FL,42000,6000,100,57,48,Cleveland Clinic Hospital
6.42,2.14,28.94952,-81.95843,FL,25000,5000,33,80,94,Villages Regional Hospital The
7.55,2.22,30.25377,-81.58270,FL,31000,6000,50,77,29,St Vincent'S Medical Center Southside
6.21,2.30,33.94791,-83.40531,GA,24000,6000,50,78,95,St Mary'S Hospital
6.99,2.84,33.79230,-84.32107,GA,28000,9000,50,41,8,Emory University Hospital
7.60,2.81,31.17425,-81.48459,GA,31000,8000,50,61,17,Southeast Georgia Health System- Brunswick Campus
5.02,2.36,33.47096,-81.98176,GA,19000,6000,50,51,21,University Hospital
8.11,2.29,34.30335,-83.81737,GA,33000,6000,66,58,44,Northeast Georgia Medical Center Inc
13.65,2.31,34.19990,-84.79378,GA,60000,6000,50,62,39,Cartersville Medical Center
6.98,2.46,33.96770,-84.55011,GA,28000,7000,66,62,44,Wellstar Kennestone Hospital
8.08,2.56,32.03185,-81.09158,GA,33000,7000,66,61,24,Memorial Health Univ Med Cen Inc
7.34,2.28,31.98515,-81.15475,GA,30000,6000,66,72,33,St Joseph'S Hospital - Savannah
5.32,2.62,32.46602,-84.98695,GA,20000,8000,33,86,63,Medical Center The
7.64,2.53,33.96117,-83.39832,GA,31000,7000,50,68,92,Athens Regional Medical Center
5.69,2.73,33.76810,-84.38616,GA,22000,8000,33,45,9,Emory University Hospital Midtown
8.40,2.54,33.81003,-84.39568,GA,35000,7000,33,57,44,Piedmont Hospital
4.39,2.28,31.47069,-83.50473,GA,16000,6000,16,80,32,Tift Regional Medical Center
5.57,2.52,32.83041,-83.63476,GA,21000,7000,66,48,44,Medical Center Of Central Georgia
4.99,2.17,32.50679,-84.95933,GA,19000,5000,83,67,69,St Francis Hospital Inc
5.97,2.24,34.25704,-85.16467,GA,23000,6000,50,87,24,Redmond Regional Medical Center
8.65,2.44,33.48259,-82.09038,GA,36000,7000,50,58,8,Doctors Hospital
10.04,2.34,33.51144,-84.22200,GA,42000,6000,50,91,92,Henry Medical Center Inc
7.14,2.58,33.87683,-84.02136,GA,29000,7000,50,77,44,Emory Eastside Medical Center
15.07,2.70,34.06334,-84.31976,GA,66000,8000,75,70,74,North Fulton Regional Hospital
5.81,2.19,32.53607,-84.95468,GA,23000,5000,0,0,0,Hughston Hospital
7.18,2.21,33.45252,-84.50697,GA,29000,6000,50,60,33,Piedmont Fayette Hospital
5.07,2.17,34.06670,-84.17643,GA,19000,5000,50,77,88,Emory Johns Creek Hospital
5.79,2.73,21.38328,-157.93828,HI,22000,8000,0,0,0,Pali Momi Medical Center
3.87,2.27,42.59072,-114.49627,ID,13000,6000,50,63,29,St Lukes Magic Valley Rmc
4.38,2.36,43.61218,-116.19234,ID,16000,6000,66,61,16,St Lukes Regional Medical Center
5.02,2.52,43.61359,-116.25484,ID,19000,7000,66,78,24,St Alphonsus Regional Medical Center
7.45,2.34,43.46987,-111.99208,ID,30000,6000,66,66,57,Eastern Idaho Regional Medical Center
7.95,2.66,42.06550,-87.68428,IL,33000,8000,33,55,57,Evanston Hospital
9.75,2.72,39.93563,-91.39833,IL,41000,8000,50,55,92,Blessing Hospital
6.40,2.36,42.07012,-88.33180,IL,25000,6000,50,82,24,Sherman Hospital
7.73,2.50,42.05624,-87.74012,IL,32000,7000,50,75,85,Skokie Hospital
5.54,2.39,39.80726,-89.64496,IL,21000,6000,50,58,79,St Johns Hospital
8.83,2.30,41.66900,-87.81414,IL,37000,6000,50,72,95,Palos Community Hospital
7.27,2.36,41.79660,-87.88627,IL,29000,6000,83,63,37,Adventist La Grange Memorial Hospital
8.20,2.84,40.70200,-89.59222,IL,34000,9000,66,57,3,Saint Francis Medical Center
12.84,3.23,41.78829,-87.60485,IL,56000,10000,66,66,11,The University Of Chicago Medical Center
5.80,2.57,40.11696,-88.21506,IL,23000,7000,33,63,13,Carle Foundation Hospital
7.65,2.35,40.11739,-88.22714,IL,31000,6000,50,62,21,Provena Covenant Medical Center- Urbana
4.88,2.25,42.31832,-88.27920,IL,18000,6000,50,83,24,Centegra Health System - Mc Henry Hospital
8.53,2.88,41.98743,-87.81440,IL,35000,9000,66,62,69,Resurrection Medical Center
8.33,3.26,41.87497,-87.66927,IL,34000,11000,50,42,33,Rush University Medical Center
6.88,2.34,41.80555,-87.92059,IL,28000,6000,50,67,54,Hinsdale Hospital
7.36,2.44,40.49639,-88.99106,IL,30000,7000,0,0,0,Bromenn Healthcare
6.83,2.24,39.86644,-88.96090,IL,27000,6000,50,60,69,Decatur Memorial Hospital
5.32,2.36,39.80893,-89.65530,IL,20000,6000,83,57,11,Memorial Medical Center
7.56,3.98,41.86927,-87.67052,IL,31000,14000,50,76,29,University Of Illinois Hospital
7.26,2.29,40.48254,-88.95519,IL,29000,6000,50,91,29,St Joseph Medical Center
6.91,2.41,37.72790,-89.22058,IL,28000,7000,50,63,90,Memorial Hospital Of Carbondale
7.03,3.47,41.52283,-87.71111,IL,28000,11000,50,75,33,Franciscan St James Health
11.68,4.17,41.93641,-87.65295,IL,50000,15000,50,77,85,Advocate Illinois Masonic Medical Center
5.77,2.28,38.55020,-90.02146,IL,22000,6000,66,81,21,Memorial Hospital
7.61,3.15,41.12572,-87.88526,IL,31000,10000,50,72,81,Riverside Medical Center
5.15,2.22,38.51081,-89.99014,IL,19000,6000,50,65,6,St Elizabeth Hospital
10.58,2.45,41.60726,-87.66060,IL,45000,7000,50,65,76,Ingalls Memorial Hospital
11.18,2.25,41.86362,-87.93567,IL,48000,6000,50,76,92,Elmhurst Memorial Hospital
7.54,2.67,42.27447,-87.95764,IL,31000,8000,50,70,79,Advocate Condell Medical Center
7.35,2.85,41.72031,-87.73249,IL,30000,9000,50,57,74,Advocate Christ Hospital & Medical Center
7.86,2.52,40.70065,-89.59505,IL,32000,7000,50,78,48,Methodist Medical Center Of Illinois
9.27,2.25,41.88566,-88.34311,IL,39000,6000,50,81,4,Delnor Community Hospital
7.24,2.57,41.54446,-87.98379,IL,29000,7000,50,68,88,Silver Cross Hospital  And Medical Centers
6.93,2.63,42.03837,-87.84820,IL,28000,8000,83,77,69,Advocate Lutheran General Hospital
8.57,2.41,42.26584,-89.07428,IL,36000,7000,50,65,76,Swedish American Hospital
6.59,2.25,41.76076,-88.15016,IL,26000,6000,50,68,29,Edward Hospital
6.19,2.32,42.26634,-89.00900,IL,24000,6000,50,50,29,Saint Anthony Medical Center
5.80,2.59,42.29844,-89.09897,IL,22000,7000,50,87,56,Rockford Memorial Hospital
9.03,2.33,41.87269,-88.15684,IL,38000,6000,66,62,88,Central Dupage Hospital
6.22,2.25,42.06732,-87.99368,IL,24000,6000,66,67,57,Northwest Community Hospital
9.54,2.26,42.00413,-88.01745,IL,40000,6000,66,78,88,Alexian Brothers Medical Center
6.40,3.11,41.86110,-87.83404,IL,25000,10000,66,46,4,Loyola University Medical Center
5.10,2.25,41.48200,-90.57158,IL,19000,6000,50,58,63,Trinity Rock Island
10.05,2.85,41.89477,-87.62131,IL,43000,9000,50,61,94,Northwestern Memorial Hospital
7.61,3.53,41.81791,-88.00907,IL,31000,12000,50,86,95,Advocate Good Samaritan Hospital
8.50,2.34,42.05260,-88.14173,IL,35000,6000,50,80,57,St Alexius Medical Center
6.13,2.35,42.19586,-88.17286,IL,24000,6000,50,80,95,Advocate Good Shepherd Hospital
8.29,2.47,41.59920,-87.35764,IN,34000,7000,50,65,94,Methodist Hospitals Inc
8.99,2.68,41.70877,-86.17026,IN,38000,8000,50,88,57,Saint Joseph Regional Medical Center
6.75,2.50,41.03874,-85.24876,IN,27000,7000,66,63,32,Lutheran Hospital Of Indiana
9.49,2.29,39.48518,-87.40893,IN,40000,6000,50,62,33,Union Hospital Inc
5.59,2.29,39.72432,-86.10055,IN,22000,6000,0,0,0,Franciscan St Francis Health - Beech Grove
4.14,2.20,39.79490,-85.76770,IN,15000,6000,0,0,0,Hancock Regional Hospital
5.23,2.20,38.30195,-85.83409,IN,20000,6000,66,85,85,Floyd Memorial Hospital And Health Services
4.82,2.27,39.16006,-86.54038,IN,18000,6000,50,56,24,Indiana University Health Bloomington Hospital
11.11,3.11,39.79009,-86.16260,IN,48000,10000,50,51,79,Indiana University Health
6.36,2.56,41.68479,-86.25217,IN,25000,7000,66,60,8,Memorial Hospital Of South Bend
5.83,2.22,40.04526,-86.02297,IN,23000,6000,50,88,82,Riverview Hospital
5.81,2.28,37.98293,-87.57072,IN,23000,6000,83,66,13,Deaconess Hospital Inc
6.43,2.59,39.91001,-86.19660,IN,25000,7000,66,47,88,St Vincent Hospital & Health Services
6.64,2.53,40.19679,-85.41573,IN,26000,7000,66,62,85,Indiana University Health Ball Memorial Hospital
6.54,2.76,41.49222,-87.52429,IN,26000,8000,50,85,54,Franciscan St Margaret Health - Dyer
7.26,2.27,37.96320,-87.50292,IN,29000,6000,66,67,32,St Mary'S Medical Center Of Evansville Inc
4.45,2.32,39.21585,-85.89683,IN,16000,6000,50,76,95,Columbus Regional Hospital
5.64,2.32,41.55065,-87.50619,IN,22000,6000,50,75,85,Community Hospital
6.25,2.25,39.90998,-86.26738,IN,25000,6000,0,0,0,Indiana Orthopaedic Hospital Llc
5.35,2.15,41.18970,-85.09940,IN,20000,5000,0,0,0,Orthopaedic Hospital At Parkview North Llc
6.72,2.25,39.90060,-86.04218,IN,27000,6000,50,77,76,Community Hospital North
9.29,2.83,40.40296,-86.80885,IN,39000,8000,50,83,97,Indiana University Health Arnett Hospital
5.44,2.34,41.66411,-91.52841,IA,21000,6000,50,65,48,Mercy Hospital
5.13,2.21,42.03321,-93.61164,IA,19000,6000,0,0,0,Mary Greeley Medical Center
4.66,2.21,41.54190,-90.55691,IA,17000,6000,66,58,97,Genesis Medical Center-Davenport
5.95,2.31,41.98570,-91.66093,IA,23000,6000,66,75,90,St Lukes Hospital
4.75,2.29,41.26786,-95.83505,IA,18000,6000,0,0,0,Jennie Edmundson Hospital
4.15,2.30,43.15063,-93.21718,IA,15000,6000,50,82,63,Mercy Medical Center-North Iowa
6.07,2.17,42.49227,-90.67404,IA,24000,5000,50,75,95,Mercy Medical Center-Dubuque
4.70,2.13,41.97864,-91.65507,IA,17000,5000,50,80,99,Mercy Medical Center - Cedar Rapids
5.30,2.36,41.58955,-93.63248,IA,20000,6000,66,37,82,Iowa Methodist Medical Center
5.72,2.35,41.59886,-93.62344,IA,22000,6000,83,75,29,Mercy Medical Center-Des Moines
4.53,2.14,42.49632,-90.68587,IA,17000,5000,0,0,0,The Finley Hospital
5.28,2.35,42.51846,-96.40581,IA,20000,6000,50,60,90,St Lukes Regional Medical Center
5.95,2.58,42.49250,-96.39975,IA,23000,7000,66,71,54,Mercy Medical Center-Sioux City
6.71,2.29,38.83324,-97.61028,KS,27000,6000,50,85,27,Salina Regional Health Center
4.11,2.23,39.05660,-95.69599,KS,15000,6000,33,51,33,St Francis Health Center Inc
7.45,2.68,39.05583,-94.60912,KS,30000,8000,66,53,63,University Of Kansas Hospital
5.06,2.17,38.85279,-94.82413,KS,19000,5000,50,58,62,Olathe Medical Center
6.50,2.29,39.05128,-95.69572,KS,26000,6000,66,71,10,Stormont-Vail Healthcare
8.58,2.19,38.99549,-94.69061,KS,36000,5000,66,46,21,Shawnee Mission Medical Center
7.01,2.37,37.70405,-97.31386,KS,28000,6000,66,68,21,Via Christi Hospitals Wichita Inc
9.40,2.49,37.69556,-97.29785,KS,39000,7000,66,52,5,Wesley Medical Center
7.50,2.28,39.12677,-94.78643,KS,30000,6000,50,60,82,Providence Medical Center
9.83,2.26,38.93763,-94.72630,KS,41000,6000,50,58,9,Overland Park Reg Med Ctr
5.39,2.20,38.91047,-94.65205,KS,21000,6000,50,66,11,Menorah Medical Center
5.47,2.30,38.92696,-94.64353,KS,21000,6000,0,0,0,Doctors Hospital Llc
5.23,2.20,37.74369,-97.22762,KS,20000,6000,0,0,0,Kansas Spine Hospital Llc
4.73,2.16,38.03140,-84.52194,KY,17000,5000,83,67,79,Saint Joseph Hospital
5.75,2.34,36.99641,-86.43006,KY,22000,6000,66,52,33,The Medical Center At Bowling Green
4.96,2.29,39.06704,-84.49946,KY,19000,6000,33,58,79,St Elizabeth Medical Center North
4.46,2.54,37.76518,-87.10197,KY,16000,7000,50,66,29,Owensboro Medical Health System
6.53,2.37,38.24927,-85.75081,KY,26000,6000,66,51,8,Jewish Hospital & St Mary'S Healthcare
6.72,2.55,37.47264,-82.52605,KY,27000,7000,75,86,9,Pikeville Medical Center
5.64,2.52,37.64378,-84.77272,KY,22000,7000,0,0,0,Ephraim Mcdowell Regional Medical Center
7.85,3.28,38.03282,-84.50674,KY,32000,11000,33,62,33,University Of Kentucky Hospital
6.28,2.44,38.24806,-85.75125,KY,25000,7000,50,35,39,Norton Hospitals Inc
5.19,2.30,38.01849,-84.51236,KY,20000,6000,50,71,57,Central Baptist Hospital
6.01,2.14,37.07404,-88.62685,KY,23000,5000,50,80,39,Western Baptist Hospital
6.67,2.35,36.96603,-86.43639,KY,27000,6000,50,85,94,Greenview Regional Hospital
4.81,2.16,38.23898,-85.63941,KY,18000,5000,66,57,74,Baptist Hospital East
7.05,2.36,37.08724,-84.61828,KY,28000,6000,66,60,17,Lake Cumberland Regional Hospital
3.94,2.34,37.99944,-84.43941,KY,14000,6000,50,76,63,Saint Joseph East
7.01,2.71,30.20227,-92.01906,LA,28000,8000,50,73,29,Lafayette General Medical Center
4.83,2.15,29.77956,-90.80568,LA,18000,5000,50,73,92,Thibodaux Regional Medical Center
6.70,2.42,29.59851,-90.71397,LA,27000,7000,25,68,69,Terrebonne General Medical Center
13.58,2.84,30.46813,-90.45814,LA,59000,9000,75,71,74,North Oaks Medical Center Llc
10.52,2.62,31.31451,-92.44997,LA,45000,8000,66,40,39,Rapides Regional Medical Center
6.90,2.59,32.49443,-93.75011,LA,28000,7000,50,68,13,Christus Schumpert Health System
5.16,2.29,30.40118,-91.11160,LA,19000,6000,83,51,33,Our Lady Of The Lake Regional Medical Center
4.07,2.86,32.48177,-93.76264,LA,14000,9000,100,80,0,Lsu Health Sciences Center - Shreveport
5.85,2.30,32.48393,-93.77884,LA,23000,6000,50,63,62,Willis Knighton Medical Center
5.13,2.32,32.49997,-92.11359,LA,19000,6000,66,62,98,St Francis Medical Center
5.08,2.25,30.01438,-90.18155,LA,19000,6000,66,68,74,East Jefferson General Hospital
6.48,2.06,32.50111,-92.11530,LA,26000,5000,0,0,0,P & S Surgical Hospital
7.91,2.33,30.17586,-92.02762,LA,32000,6000,0,0,0,Lafayette Surgical Specialty Hospital
8.48,2.10,32.49813,-93.74607,LA,35000,5000,0,0,0,Specialists Hospital Shreveport
8.30,2.00,31.31391,-92.46790,LA,34000,5000,0,0,0,Central Louisiana Surgical Hospital
3.09,2.23,44.81469,-68.77153,ME,10000,6000,0,0,0,St Joseph Hospital
3.16,2.31,43.65159,-70.26482,ME,10000,6000,0,0,0,Mercy Hospital
3.70,2.55,43.65325,-70.27533,ME,13000,7000,16,47,0,Maine Medical Center
4.58,2.36,44.10107,-70.21432,ME,17000,6000,66,70,57,Central Maine Medical Center
4.31,2.45,44.80988,-68.74929,ME,15000,7000,50,58,37,Eastern Maine Medical Center
2.45,2.38,39.62183,-77.68219,MD,7000,6000,0,0,0,Meritus Medical Center
5.93,5.63,39.28817,-76.62438,MD,23000,22000,0,0,0,University Of Maryland Medical Center
3.00,2.90,39.01578,-77.03591,MD,9000,9000,0,0,0,Holy Cross Hospital
2.51,2.43,39.42366,-77.41386,MD,7000,7000,0,0,0,Frederick Memorial Hospital
3.43,3.32,39.38813,-76.61068,MD,11000,11000,0,0,0,Saint Joseph Medical Center
3.06,2.94,39.29297,-76.61314,MD,10000,9000,0,0,0,Mercy Medical Center Inc
4.10,3.93,39.29688,-76.59242,MD,14000,14000,0,0,0,Johns Hopkins Hospital The
3.01,2.93,39.27352,-76.67219,MD,9000,9000,0,0,0,Saint Agnes Hospital
4.54,4.36,39.35262,-76.66196,MD,17000,16000,0,0,0,Sinai Hospital Of Baltimore
3.01,2.89,39.35169,-76.47919,MD,9000,9000,0,0,0,Franklin Square Hospital Center
3.30,3.17,38.36248,-75.59799,MD,11000,10000,0,0,0,Peninsula Regional Medical Center
2.69,2.59,38.99743,-77.11048,MD,8000,7000,0,0,0,Suburban Hospital
2.58,2.50,38.99014,-76.53398,MD,7000,7000,0,0,0,Anne Arundel Medical Center
3.79,3.66,39.32930,-76.61432,MD,13000,12000,0,0,0,Union Memorial Hospital
3.02,2.91,39.64928,-78.73206,MD,9000,9000,0,0,0,Western Maryland Regional Medical Center
4.76,4.54,39.29100,-76.54623,MD,18000,17000,0,0,0,Johns Hopkins Bayview Medical Center
2.99,2.90,39.55808,-76.99107,MD,9000,9000,0,0,0,Carroll Hospital Center
5.32,5.11,39.25189,-76.61399,MD,20000,19000,0,0,0,Harbor Hospital
3.25,3.11,38.76970,-76.07697,MD,10000,10000,0,0,0,Memorial Hospital At Easton
2.59,2.52,39.13732,-76.62228,MD,7000,7000,0,0,0,Baltimore Washington  Medical Center
3.44,3.31,39.39017,-76.62216,MD,11000,11000,0,0,0,Greater Baltimore Medical Center
2.98,2.88,39.21273,-76.88526,MD,9000,9000,0,0,0,Howard County General Hospital
3.28,3.18,39.51870,-76.34688,MD,11000,10000,0,0,0,Upper Chesapeake Medical Center
3.19,3.12,39.35962,-76.58851,MD,10000,10000,0,0,0,Good Samaritan Hospital
2.84,2.78,39.09796,-77.19799,MD,9000,8000,0,0,0,Shady Grove Adventist Hospital
4.30,2.64,42.37441,-71.13378,MA,15000,8000,66,85,17,Mount Auburn Hospital
4.68,2.67,42.70912,-71.14877,MA,17000,8000,50,71,79,Lawrence General Hospital
3.87,2.81,41.65298,-70.27484,MA,13000,8000,50,56,95,Cape Cod Hospital
4.78,3.49,42.35843,-71.05977,MA,18000,12000,66,51,0,Boston Medical Center Corporation
6.81,2.56,42.51078,-70.90712,MA,27000,7000,33,47,69,North Shore Medical Center
6.21,3.34,42.34896,-71.14768,MA,24000,11000,50,68,57,St Elizabeth'S Medical Center
6.12,2.70,51.46599,-1.28140,MA,24000,8000,50,76,20,Berkshire Medical Center Inc
7.48,2.47,41.94445,-70.64511,MA,30000,7000,50,82,24,Jordan Hospital Inc
4.76,2.63,42.64636,-71.34118,MA,18000,8000,50,87,95,Lowell General Hospital
4.79,2.55,42.11449,-72.59502,MA,18000,7000,50,77,76,Mercy Medical Center
11.29,3.01,42.36227,-71.06941,MA,48000,9000,50,43,16,Massachusetts General Hospital
4.14,2.55,41.70928,-71.14519,MA,15000,7000,25,51,88,Southcoast Hospital Group Inc
3.98,2.86,42.12077,-72.60525,MA,14000,9000,33,61,82,Baystate Medical Center
5.82,2.53,42.72846,-71.16830,MA,23000,7000,50,73,33,Holy Family Hospital
4.77,3.15,42.33719,-71.10939,MA,18000,10000,33,71,33,Beth Israel Deaconess Medical Center
4.87,2.44,42.32919,-71.10626,MA,18000,7000,0,0,0,New England Baptist Hospital
4.52,2.44,42.13234,-71.52825,MA,16000,7000,50,71,95,Milford Regional Medical Center
4.26,2.59,42.17644,-70.95398,MA,15000,7000,66,70,48,South Shore Hospital
7.98,2.46,42.33149,-71.24568,MA,33000,7000,66,70,99,Newton-Wellesley Hospital
11.37,2.98,42.33600,-71.10704,MA,49000,9000,66,40,20,Brigham And Women'S Hospital
5.77,3.27,42.34951,-71.06331,MA,22000,11000,50,63,85,Tufts Medical Center
5.83,3.10,42.27720,-71.75922,MA,23000,10000,50,36,29,Umass Memorial Medical Center Inc
3.40,2.62,42.48585,-71.20686,MA,11000,7000,66,76,16,Lahey Clinic Hospital
6.02,2.25,42.39466,-83.40537,MI,24000,6000,50,60,63,St Mary Mercy Hospital
4.22,2.36,43.20588,-86.20839,MI,15000,6000,50,76,57,Mercy Health Partners Mercy Campus
4.08,2.60,42.28551,-85.58042,MI,14000,7000,66,82,13,Bronson Methodist Hospital
4.80,2.58,42.45741,-83.20513,MI,18000,7000,83,57,48,Providence Hospital And Medical Centers
7.71,2.77,42.29077,-83.21504,MI,31000,8000,33,48,69,Oakwood Hospital And Medical Center
4.02,2.37,42.08955,-86.47781,MI,14000,6000,33,68,88,Lakeland Hospital St Joseph
5.63,2.69,42.61425,-83.27602,MI,22000,8000,66,52,79,St Joseph Mercy Oakland
4.01,2.64,42.96881,-85.66649,MI,14000,8000,33,66,82,Spectrum Health - Butterworth Campus
6.09,3.47,42.28388,-83.72960,MI,24000,11000,50,61,43,University Of Michigan Health System
4.91,2.32,42.61490,-82.96060,MI,18000,6000,50,66,54,Henry Ford Macomb Hospital
5.99,2.96,42.36762,-83.08461,MI,23000,9000,66,47,8,Henry Ford Hospital
3.90,2.54,46.54758,-87.39560,MI,14000,7000,83,67,48,Marquette General Hospital
3.61,2.60,42.95817,-85.66253,MI,12000,7000,50,53,90,Saint Mary'S Health Care
4.95,2.53,43.22169,-86.24283,MI,18000,7000,0,0,0,Mercy Health Partners Hackley Campus
5.07,2.40,43.42857,-83.95556,MI,19000,6000,83,61,63,Covenant Medical Center Inc
5.02,2.32,42.77487,-86.11378,MI,19000,6000,0,0,0,Holland Community Hospital
3.55,2.36,43.42612,-83.94185,MI,12000,6000,66,63,57,St Mary'S Of Michigan Medical Center
5.25,2.37,42.38392,-82.91480,MI,20000,6000,50,62,51,Beaumont Hospital Grosse Pointe
5.61,2.28,42.25117,-84.39240,MI,22000,6000,50,85,98,Allegiance Health
4.28,2.52,44.76156,-85.64143,MI,15000,7000,50,41,57,Munson Medical Center
3.73,2.42,45.37209,-84.97065,MI,13000,7000,50,77,24,Northern Michigan Regional Hospital
8.11,2.49,42.30489,-85.56152,MI,33000,7000,66,47,76,Borgess Medical Center
4.05,2.57,42.51418,-83.19259,MI,14000,7000,66,60,16,William Beaumont Hospital
5.73,2.54,43.01399,-83.73250,MI,22000,7000,50,60,33,Mclaren Flint
4.50,2.38,42.21065,-83.14861,MI,16000,6000,50,70,95,Henry Ford Wyandotte Hospital
5.18,2.47,42.26181,-83.66003,MI,20000,7000,66,62,33,St Joseph Mercy Hospital
5.02,2.71,42.41975,-82.91442,MI,19000,8000,66,72,9,St John Hospital And Medical Center
4.06,2.46,42.70417,-84.55488,MI,14000,7000,33,76,21,Mclaren - Greater Lansing
4.79,2.62,42.89254,-83.63621,MI,18000,7000,66,70,13,Genesys Regional Medical Center - Health Park
4.06,2.44,43.63618,-84.26187,MI,14000,7000,50,72,69,Midmichigan Medical Center-Midland
5.87,2.60,42.73767,-84.51698,MI,23000,7000,83,68,1,Edward W Sparrow Hospital
3.97,2.54,42.85736,-85.71774,MI,14000,7000,50,66,48,Metro Health Hospital
5.57,2.40,42.61826,-83.09239,MI,21000,6000,83,60,62,William Beaumont Hospital-Troy
5.85,2.19,42.53914,-83.40777,MI,23000,5000,50,53,39,Henry Ford West Bloomfield Hospital
5.93,2.41,45.01403,-93.32177,MN,23000,7000,66,68,82,North Memorial Medical Center
5.21,2.44,46.79380,-92.09573,MN,20000,7000,83,75,79,Essentia Health St Mary'S Medical Center
5.71,2.86,44.02052,-92.48292,MN,22000,9000,83,42,32,Mayo Clinic - Saint Marys Hospital
5.20,2.66,45.57390,-94.16942,MN,20000,8000,50,61,37,St Cloud Hospital
8.12,2.82,44.94214,-93.10858,MN,33000,8000,50,86,33,United Hospital
6.34,2.44,46.79634,-92.08793,MN,25000,7000,50,71,29,St Lukes Hospital
3.98,2.45,44.93031,-93.36276,MN,14000,7000,66,72,94,Park Nicollet Methodist Hospital
4.78,2.30,44.84294,-93.79336,MN,18000,6000,0,0,0,Ridgeview Medical Center
6.44,2.62,44.95248,-93.26196,MN,26000,8000,50,70,63,Abbott Northwestern Hospital
6.68,2.43,44.94898,-93.10016,MN,27000,7000,33,66,57,St Joseph'S Hospital
3.92,2.30,45.04805,-92.81903,MN,14000,6000,0,0,0,Lakeview Memorial Hospital
4.71,2.33,44.88645,-93.32693,MN,17000,6000,66,62,94,Fairview Southdale Hospital
6.21,2.92,44.96766,-93.23640,MN,24000,9000,66,56,57,University Of Minnesota  Medical Center Fairview
3.79,2.41,44.16396,-94.00412,MN,13000,6000,50,57,76,Mayo Clinic Health System - Mankato
6.80,2.78,44.95570,-93.09429,MN,27000,8000,50,78,17,Regions Hospital
8.41,2.61,45.18355,-93.36789,MN,35000,7000,50,73,95,Mercy Hospital
6.47,2.61,45.10789,-93.25685,MN,26000,7000,33,85,85,Unity Hospital
4.93,2.51,44.74846,-93.27289,MN,18000,7000,50,83,97,Fairview Ridges Hospital
6.72,2.38,45.02892,-93.03418,MN,27000,6000,50,75,24,Healtheast St John'S Hospital
6.17,2.31,44.91542,-92.94757,MN,24000,6000,0,0,0,Healtheast Woodwinds Hospital
5.98,2.25,45.13294,-93.47922,MN,23000,6000,0,0,0,Maple Grove Hospital
8.96,2.87,32.33069,-90.17030,MS,37000,9000,66,51,6,University Of Mississippi Med Center
5.58,2.41,34.24336,-88.71753,MS,21000,6000,66,61,48,North Mississippi Medical Center
14.28,3.04,30.39599,-88.89061,MS,62000,9000,50,80,48,Biloxi Regional Medical Center
11.05,2.37,30.36674,-89.11535,MS,47000,6000,50,66,69,Memorial Hospital At Gulfport
9.58,2.27,30.37516,-88.53226,MS,40000,6000,50,70,3,Singing River Hospital
6.80,2.31,32.33616,-90.15652,MS,27000,6000,50,60,44,St Dominic-Jackson Memorial Hospital
4.20,2.34,31.31872,-89.32955,MS,15000,6000,50,57,54,Forrest General Hospital
15.49,2.25,32.28618,-90.03434,MS,68000,6000,50,68,6,Crossgates River Oaks Hospital
12.82,2.25,30.44411,-89.09321,MS,56000,6000,50,72,11,Garden Park Medical Center
9.33,2.35,32.32541,-90.10520,MS,39000,6000,0,0,0,River Oaks Hospital
6.23,2.23,37.06032,-94.52747,MO,25000,6000,0,0,0,St John'S Regional Medical Center
5.69,2.10,38.57670,-92.17352,MO,22000,5000,50,86,0,St Marys Health Center
5.32,2.30,38.64281,-90.44448,MO,20000,6000,83,57,74,Mercy Hospital St Louis
10.54,2.57,39.00717,-94.55925,MO,45000,7000,33,82,5,Research Medical Center
6.92,2.84,38.63524,-90.26508,MO,28000,9000,50,56,12,Barnes Jewish Hospital
5.12,2.30,37.14560,-93.28037,MO,19000,6000,50,61,85,Cox Medical Center
4.66,2.36,38.56571,-92.18204,MO,17000,6000,50,83,57,Capital Region Medical Center
6.27,2.31,37.17999,-93.27409,MO,25000,6000,66,61,24,St John'S Regional Health Center
4.37,2.08,38.94903,-92.31563,MO,16000,5000,66,73,43,Boone Hospital Center
3.58,2.13,38.50661,-90.38025,MO,12000,5000,66,57,13,St Anthony'S Medical Center
5.56,2.20,38.93592,-94.60376,MO,21000,6000,50,75,88,St Joseph Medical Center
5.09,2.66,38.63268,-90.31089,MO,19000,8000,83,77,57,Ssm St Marys Health Center
8.35,2.29,39.04749,-94.34105,MO,35000,6000,50,72,39,Centerpoint Medical Center Of Independence Llc
5.12,2.19,39.14957,-94.55148,MO,19000,5000,50,58,63,North Kansas City Hospital
5.13,2.31,38.75097,-90.43255,MO,19000,6000,66,68,43,Ssm Depaul Health Center
11.47,2.25,37.31072,-89.53990,MO,49000,6000,50,72,8,Southeast Missouri Hospital
5.87,2.31,37.05238,-94.52777,MO,23000,6000,83,67,85,Freeman Health System - Freeman West
10.84,2.46,39.04761,-94.59037,MO,46000,7000,66,50,17,St Lukes Hospital Of Kansas City
5.40,2.64,38.95171,-92.33407,MO,21000,8000,66,60,63,University Of Missouri Health Care
8.51,2.25,38.58103,-90.45144,MO,35000,6000,50,70,43,Des Peres Hospital
5.86,2.23,39.27591,-94.42572,MO,23000,6000,33,60,33,Liberty Hospital
4.95,2.36,38.65123,-90.50301,MO,18000,6000,66,67,12,St Lukes Hospital
5.47,2.30,38.77576,-90.23906,MO,21000,6000,66,75,4,Christian Hospital Northeast
12.18,3.18,37.30401,-89.57190,MO,53000,10000,50,65,11,St Francis Medical Center
5.50,2.34,45.78958,-108.51283,MT,21000,6000,50,86,88,Billings Clinic Hospital
4.32,2.50,47.49139,-111.26255,MT,16000,7000,50,61,57,Benefis Hospitals Inc
6.05,2.64,46.84691,-114.04640,MT,24000,8000,0,0,0,Community Medical Center Inc
4.52,2.34,45.79337,-108.51928,MT,16000,6000,50,81,54,St Vincent Healthcare
4.93,2.30,48.21465,-114.32386,MT,18000,6000,50,83,57,Kalispell Regional Medical Center
6.58,2.37,40.78318,-96.63709,NE,26000,6000,66,70,63,Bryanlgh Medical Center
6.85,2.62,40.70646,-99.08136,NE,27000,7000,50,68,51,Good Samaritan Hospital
6.18,2.73,41.25522,-95.97892,NE,24000,8000,50,52,51,The Nebraska Medical Center
5.09,2.34,40.80816,-96.62689,NE,19000,6000,50,66,20,Saint Elizabeth Regional Medical Center
5.52,2.23,41.25797,-96.04164,NE,21000,6000,50,73,33,The Nebraska Methodist Hospital
6.66,2.28,41.23897,-96.03162,NE,27000,6000,50,46,82,Alegent Health Bergan Mercy Medical Center
7.64,2.83,41.88690,-103.66400,NE,31000,8000,50,58,85,Regional West Medical Center
7.19,2.33,41.25751,-96.03663,NE,29000,6000,0,0,0,Midwest Surgical Hospital Llc
7.77,2.17,41.32146,-96.02188,NE,32000,5000,0,0,0,Nebraska Spine Hospital Llc
6.11,2.53,39.52637,-119.79456,NV,24000,7000,50,66,17,Renown Regional Medical Center
10.64,2.66,36.13459,-115.13576,NV,45000,8000,66,68,9,Sunrise Hospital And Medical Center
10.50,2.68,36.15896,-115.16558,NV,45000,8000,33,60,0,Umc Of Southern Nevada
9.16,2.36,39.53066,-119.82067,NV,38000,6000,66,76,44,Saint Mary'S Regional Medical Center
9.78,2.62,39.20247,-119.78446,NV,41000,7000,50,56,69,Carson Tahoe Regional Medical Center
10.54,2.44,36.21599,-115.25095,NV,45000,7000,66,57,13,Mountainview Hospital
9.51,2.44,36.00527,-115.11618,NV,40000,7000,50,50,33,Saint Rose Dominican Hospital - Siena Campus
11.14,2.46,36.09056,-115.24058,NV,48000,7000,66,78,12,Spring Valley Hospital Medical Center
5.25,2.42,43.19846,-71.56230,NH,20000,7000,33,63,94,Concord Hospital
7.16,3.01,43.67286,-72.27232,NH,29000,9000,50,38,0,Mary Hitchcock Memorial Hospital
7.90,2.50,43.06469,-70.78916,NH,32000,7000,50,76,48,Portsmouth Regional Hospital
11.85,2.70,40.88346,-74.05564,NJ,51000,8000,50,58,85,Hackensack University Medical Center
10.72,2.73,40.35684,-74.66166,NJ,46000,8000,50,56,21,University Medical Center At Princeton
8.18,2.46,40.98359,-74.10047,NJ,34000,7000,50,78,21,Valley Hospital
7.22,2.67,40.78883,-74.46620,NJ,29000,8000,66,43,39,Morristown Memorial Hospital
6.39,2.40,40.95858,-74.31000,NJ,25000,6000,50,62,1,Chilton Hospital
8.47,2.96,40.90215,-74.16634,NJ,35000,9000,16,53,94,St Joseph'S Regional Medical Center
11.65,2.42,39.78261,-74.91670,NJ,50000,7000,50,52,74,Virtua West Jersey Hospitals Berlin
7.55,2.61,39.44743,-75.05838,NJ,31000,7000,50,62,1,South Jersey Healthcare Regional Medical Center
10.71,2.27,40.35309,-74.06484,NJ,46000,6000,33,61,69,Riverview Medical Center
9.62,2.82,40.49581,-74.44980,NJ,40000,8000,66,51,1,Robert Wood Johnson University Hospital
8.05,2.31,39.31464,-74.59391,NJ,33000,6000,16,72,82,Shore Medical Center
8.87,2.39,40.89538,-74.46479,NJ,37000,6000,50,63,69,Saint Clare'S Hospital
6.52,2.64,40.71264,-74.35460,NJ,26000,8000,50,52,57,Overlook Hospital
10.97,2.47,39.98588,-74.79393,NJ,47000,7000,66,55,54,Virtua Memorial Hospital Of Burlington County
10.18,2.78,40.50214,-74.46015,NJ,43000,8000,50,53,29,Saint Peter'S University Hospital
13.89,2.49,40.21065,-74.03566,NJ,61000,7000,50,58,6,Jersey Shore University Medical Center
8.89,2.74,40.76190,-74.30335,NJ,37000,8000,83,53,2,Saint Barnabas Medical Center
8.80,2.54,40.55784,-74.34970,NJ,37000,7000,50,71,57,Jfk Medical Ctr - Anthony M. Yelencsics Community
5.09,2.80,35.65960,-105.94578,NM,19000,8000,50,65,29,St Vincent Hospital
5.84,2.43,35.08102,-106.63392,NM,23000,7000,33,51,3,Presbyterian Hospital
6.50,2.28,32.32310,-106.72900,NM,26000,6000,50,68,16,Mountain View Regional Medical Center
7.18,2.69,42.87482,-78.84942,NY,29000,8000,33,45,8,Kaleida Health
6.01,2.69,42.65345,-73.77543,NY,23000,8000,66,60,63,Albany Medical Center Hospital
7.48,2.50,41.69441,-73.93432,NY,30000,7000,83,82,54,Vassar Brothers Medical Center
6.36,3.38,40.79041,-73.95386,NY,25000,11000,83,38,5,Mount Sinai Hospital
5.74,3.38,40.80556,-73.96131,NY,22000,11000,33,56,5,St Luke'S Roosevelt Hospital
6.85,2.34,42.65583,-73.80372,NY,27000,6000,33,47,54,St Peter'S Hospital
8.68,3.58,40.87987,-73.87996,NY,36000,12000,50,38,44,Montefiore Medical Center
6.31,2.59,41.71846,-73.92710,NY,25000,7000,50,80,79,St Francis Hospital
3.52,2.46,42.92866,-78.84819,NY,12000,7000,50,55,29,Sisters Of Charity Hospital
6.42,2.28,42.10076,-76.82800,NY,25000,6000,50,65,33,Arnot Ogden Medical Center
5.48,3.62,40.76487,-73.95398,NY,21000,12000,33,32,74,New York-Presbyterian Hospital
8.02,2.67,41.09642,-73.92501,NY,33000,8000,66,77,76,Nyack Hospital
8.36,3.15,40.77686,-73.70212,NY,35000,10000,33,61,69,North Shore University Hospital
8.69,2.99,40.77362,-73.96093,NY,36000,9000,33,46,11,Lenox Hill Hospital
5.43,2.51,41.44138,-74.36821,NY,21000,7000,50,62,69,Orange Regional Medical Center
5.42,2.47,43.05571,-76.14981,NY,21000,7000,83,37,20,St Joseph'S Hospital Health Center
13.74,2.72,41.11299,-74.13732,NY,60000,8000,66,82,82,Good Samaritan Hospital Of Suffern
3.42,2.30,43.00561,-76.17002,NY,11000,6000,0,0,0,Community-General Hospital Of Greater Syracuse
7.34,2.98,40.58440,-74.08507,NY,30000,9000,66,71,37,Staten Island University Hospital
4.96,2.60,41.19677,-73.72572,NY,19000,7000,50,68,69,Northern Westchester Hospital
5.09,3.24,43.13562,-77.60602,NY,19000,10000,50,43,10,Highland Hospital
8.40,3.17,40.74083,-73.64306,NY,35000,10000,66,50,74,Winthrop-University Hospital
8.62,3.43,40.73265,-73.98162,NY,36000,11000,50,60,39,Beth Israel Medical Center
5.13,2.52,40.87062,-73.62249,NY,19000,7000,50,82,85,Glen Cove Hospital
7.37,2.75,40.80462,-73.67023,NY,30000,8000,83,72,94,St Francis Hospital Roslyn
9.41,3.32,40.75332,-73.70899,NY,40000,11000,50,45,90,Long Island Jewish Medical Center
3.99,2.55,43.04139,-76.13803,NY,14000,7000,50,41,1,Crouse Hospital
8.82,3.09,40.74335,-73.97408,NY,37000,10000,33,63,21,Nyu Hospitals Center
2.87,2.31,43.19054,-77.70177,NY,9000,6000,50,45,82,Unity Hospital Of Rochester
5.89,2.89,43.04269,-76.14043,NY,23000,9000,66,41,3,University Hospital S U N Y Health Science Center
8.59,2.92,40.76488,-73.95302,NY,36000,9000,0,0,0,Hospital For Special Surgery
4.03,2.30,42.84782,-78.81264,NY,14000,6000,50,68,13,Mercy Hospital
2.88,2.77,43.12266,-77.62360,NY,9000,8000,50,55,21,Strong Memorial Hospital
6.87,3.00,40.69327,-73.29412,NY,28000,9000,50,70,74,Good Samaritan Hospital Medical Center
7.89,3.14,40.90922,-73.11520,NY,32000,10000,50,60,44,University Hospital ( Stony Brook )
5.56,2.34,35.43754,-80.60147,NC,21000,6000,66,65,16,Carolinas Medical Center-Northeast
5.73,2.46,35.57658,-82.54922,NC,22000,7000,66,40,81,Memorial Mission Hospital And Asheville Surgery Ce
3.40,2.42,35.39772,-77.95250,NC,11000,7000,50,81,8,Wayne Memorial Hospital
5.36,2.46,36.07581,-80.29779,NC,20000,7000,50,52,39,Forsyth Memorial Hospital
7.66,3.16,36.00850,-78.94006,NC,31000,10000,66,43,76,Duke University Hospital
6.58,2.39,35.27341,-81.13688,NC,26000,6000,50,70,69,Gaston Memorial Hospital
6.69,2.80,35.60726,-77.40477,NC,27000,8000,50,46,1,Pitt County Memorial Hospital
4.75,2.92,36.09062,-80.27161,NC,18000,9000,83,55,57,North Carolina Baptist Hospital
5.54,2.18,36.04290,-78.89690,NC,21000,5000,0,0,0,North Carolina Specialty Hospital
6.64,2.47,35.22196,-80.83287,NC,26000,7000,50,63,13,Presbyterian Hospital
5.67,2.62,35.78523,-78.58836,NC,22000,7000,33,50,79,Wakemed Raleigh Campus
6.77,2.46,35.82915,-78.61922,NC,27000,7000,50,81,79,Duke Health Raleigh Hospital
3.64,2.38,36.09251,-79.78855,NC,12000,6000,66,66,51,Moses H Cone Memorial Hospital The
6.10,2.31,35.92115,-77.55585,NC,24000,6000,50,85,6,Heritage Hospital
8.43,2.85,35.20397,-80.83908,NC,35000,9000,66,63,24,Carolinas Medical Center/Behav Health
4.39,2.19,35.81801,-78.70283,NC,16000,5000,50,65,54,Rex Hospital
4.55,2.31,35.20554,-79.45645,NC,17000,6000,66,60,44,Firsthealth Moore Regional Hospital
9.67,2.29,35.73751,-81.33702,NC,41000,6000,50,67,17,Frye Regional Medical Center
5.59,2.60,35.11420,-77.06568,NC,22000,7000,33,73,90,Carolina East Medical Center
5.67,2.49,34.23786,-77.94764,NC,22000,7000,83,70,57,New Hanover Regional Medical Center
6.47,2.28,35.71664,-81.26661,NC,26000,6000,50,72,63,Catawba Valley Medical Center
7.49,2.20,35.21076,-80.82359,NC,30000,6000,0,0,0,Presbyterian-Orthopaedic Hospital
6.49,2.39,36.04960,-78.90617,NC,26000,6000,50,51,69,Durham Regional Hospital
7.32,2.25,35.52586,-82.94351,NC,30000,6000,0,0,0,Medwest Haywood
3.38,2.38,46.80739,-100.77773,ND,11000,6000,50,72,76,St Alexius Medical Center
4.26,2.64,46.88496,-96.78609,ND,15000,8000,66,61,48,Sanford Medical Center Fargo
3.52,2.46,47.91045,-97.06742,ND,12000,7000,83,53,1,Altru Hospital
5.07,2.30,46.83250,-96.82805,ND,19000,6000,33,77,20,Essentia Health-Fargo
5.17,2.78,39.08582,-84.34886,OH,20000,8000,50,72,85,Mercy Hospital Anderson
6.68,2.37,40.03064,-83.03440,OH,27000,6000,83,71,21,Riverside Methodist Hospital
6.42,2.56,40.57098,-83.12972,OH,25000,7000,50,91,48,Marion General Hospital
8.40,2.33,39.20680,-84.38093,OH,35000,6000,50,76,94,Jewish Hospital Llc
4.06,2.42,41.07747,-81.53042,OH,14000,7000,66,70,63,Akron General Medical Center
5.46,2.41,39.95805,-83.02191,OH,21000,7000,66,42,1,Mount Carmel Health
6.15,2.64,41.49640,-81.67376,OH,24000,8000,25,55,63,St Vincent Charity Medical Center
5.08,2.32,39.97510,-82.01812,OH,19000,6000,50,78,92,Genesis Healthcare System
10.95,2.45,39.74547,-84.18523,OH,47000,7000,66,45,1,Miami Valley Hospital
5.21,2.33,39.31257,-84.51774,OH,20000,6000,50,90,69,Mercy Hospital Fairfield
6.63,2.29,41.11441,-80.65565,OH,26000,6000,83,48,21,St Elizabeth Health Center
6.37,2.24,40.74115,-84.11804,OH,25000,6000,66,73,6,St Rita'S Medical Center
7.11,2.39,41.67775,-83.59589,OH,29000,6000,33,70,57,Toledo Hospital The
3.83,2.29,40.81219,-81.39625,OH,13000,6000,50,62,43,Mercy Medical Center
9.04,2.44,39.69724,-84.19232,OH,38000,7000,66,80,57,Kettering Medical Center
3.79,2.26,40.79609,-81.40360,OH,13000,6000,50,63,17,Aultman Hospital
15.27,3.31,39.99445,-83.01872,OH,67000,11000,66,50,2,Ohio State University Hospitals
7.03,2.36,41.48724,-81.70707,OH,28000,6000,0,0,0,Lutheran Hospital
4.13,2.19,41.55725,-83.68141,OH,15000,5000,50,65,85,St Luke'S Hospital
4.07,2.23,41.01785,-83.65165,OH,14000,6000,50,82,69,Blanchard Valley Hospital
4.79,2.15,41.66317,-81.24696,OH,18000,5000,50,73,39,Lake Health
6.93,2.74,41.66810,-83.54275,OH,28000,8000,50,70,5,Mercy St Vincent Medical Center
4.21,2.36,40.75264,-82.52803,OH,15000,6000,83,81,92,Medcentral Health System
8.98,2.53,39.76950,-84.20285,OH,37000,7000,66,65,90,Grandview Hospital & Medical Center
7.49,2.52,39.13975,-84.52173,OH,30000,7000,66,83,69,Good Samaritan Hospital
7.77,2.86,41.50772,-81.60592,OH,32000,9000,83,46,44,University Hospitals Of Cleveland
3.39,2.18,41.36649,-82.09708,OH,11000,5000,66,75,98,Emh Regional Medical Center
9.30,2.16,41.37028,-81.83189,OH,39000,5000,50,71,74,Southwest General Health Center
6.67,2.39,39.12105,-84.51059,OH,27000,6000,83,46,88,Christ Hospital
10.01,2.34,39.25076,-84.34341,OH,42000,6000,50,62,99,Bethesda North Hospital
8.82,2.60,41.50248,-81.62110,OH,37000,7000,33,32,24,Cleveland Clinic
5.68,2.16,41.52013,-81.43291,OH,22000,5000,66,45,37,Hillcrest Hospital
4.74,2.27,39.20463,-84.57093,OH,17000,6000,50,67,39,Mercy Franciscan Hospital - Mt Airy
6.33,2.21,41.69195,-83.62455,OH,25000,6000,50,81,27,Mercy St Anne Hospital
2.88,2.30,40.08713,-82.79236,OH,9000,6000,0,0,0,Mount Carmel New Albany Surgical Hospital
2.53,2.13,41.09698,-81.51355,OH,7000,5000,0,0,0,Crystal Clinic Orthopaedic Center
8.69,2.26,39.35830,-84.36785,OH,36000,6000,50,93,57,West Chester Medical Center
5.80,2.64,36.14687,-95.96841,OK,23000,8000,83,76,32,Hillcrest Medical Center
7.48,2.24,35.22999,-97.44074,OK,30000,6000,50,73,21,Norman Regional Health System
4.95,2.28,35.60735,-97.59693,OK,18000,6000,66,51,6,Mercy Health Center Inc
7.49,2.58,36.39005,-97.88781,OK,30000,7000,0,0,0,Integris Bass Baptist Health Center
8.07,2.44,34.77442,-96.63477,OK,33000,7000,0,0,0,Valley View Regional Hospital
5.93,2.12,36.39385,-97.87094,OK,23000,5000,50,77,63,St Mary'S Regional Medical Center
9.49,2.51,35.52960,-97.57496,OK,40000,7000,100,76,90,Integris Baptist Medical Center
8.29,2.20,35.52531,-97.58461,OK,34000,6000,75,76,48,Deaconess Hospital
4.36,2.31,34.60992,-98.43419,OK,16000,6000,50,62,48,Comanche County Memorial Hospital
4.98,2.35,36.06135,-95.95154,OK,19000,6000,83,61,44,Saint Francis Hospital Inc
10.71,2.26,35.46721,-97.39370,OK,46000,6000,50,76,92,Midwest Regional Medical Center
9.55,2.55,34.59434,-98.46105,OK,40000,7000,0,0,0,Southwestern Medical Center
5.09,2.29,36.58133,-94.75864,OK,19000,6000,0,0,0,Integris Grove Hospital
4.47,2.25,36.13393,-95.96718,OK,16000,6000,50,51,11,St John Medical Center Inc
6.82,2.12,35.37587,-97.57038,OK,27000,5000,0,0,0,Community Hospital
4.97,2.16,35.61401,-97.58224,OK,19000,5000,0,0,0,Oklahoma Spine Hospital
4.71,2.14,36.06382,-96.00428,OK,17000,5000,0,0,0,Tulsa Spine & Specialty Hospital
18.18,4.52,35.42056,-97.53414,OK,81000,16000,0,0,0,Orthopedic Hospital
5.00,2.15,35.56848,-97.51114,OK,19000,5000,0,0,0,Mcbride Clinic Orthopedic Hospital  L L C
6.20,2.70,35.78090,-95.35819,OK,24000,8000,0,0,0,Muskogee Community Hospital
4.48,2.11,35.38969,-97.42688,OK,16000,5000,50,100,90,Oklahoma Heart Hospital South
5.11,2.54,45.50973,-122.77368,OR,19000,7000,33,55,13,Providence St Vincent Medical Center
6.52,2.87,45.54248,-122.66972,OR,26000,9000,50,62,21,Legacy Emanuel Medical Center
5.13,3.06,45.49956,-122.68802,OR,19000,10000,66,47,6,Ohsu Hospital And Clinics
5.19,2.36,44.60322,-123.25312,OR,20000,6000,33,58,5,Good Samaritan Regional Medical Center
5.22,2.68,45.53028,-122.69692,OR,20000,8000,50,93,39,Legacy Good Samaritan Medical Center
4.73,2.57,42.31769,-122.83333,OR,17000,7000,66,61,90,Rogue Valley Medical Center
5.93,2.36,44.05330,-123.00351,OR,23000,6000,50,67,1,Mckenzie-Willamette Medical Center
5.18,2.44,45.51716,-122.40750,OR,20000,7000,0,0,0,Legacy Mount Hood Medical Center
4.75,2.46,44.06773,-121.26817,OR,18000,7000,66,70,37,St Charles Medical Center - Bend
5.57,2.84,42.25296,-121.78512,OR,21000,9000,0,0,0,Sky Lakes Medical Center
5.81,2.48,44.93267,-123.03418,OR,23000,7000,66,72,24,Salem Hospital
5.63,2.47,45.51288,-122.55630,OR,22000,7000,50,86,16,Adventist Medical Center
5.65,2.53,45.52677,-122.61469,OR,22000,7000,66,75,0,Providence Portland Medical Center
5.32,2.49,42.34086,-122.86108,OR,20000,7000,50,61,54,Providence Medford Medical Center
5.27,2.31,45.37908,-122.74083,OR,20000,6000,50,81,54,Legacy Meridian Park Medical Center
5.73,2.91,43.38402,-124.23280,OR,22000,9000,0,0,0,Bay Area Hospital
4.68,2.53,44.08146,-123.02694,OR,17000,7000,50,60,24,Sacred Heart Medical Center - Riverbend
4.19,2.26,41.40075,-75.64594,PA,15000,6000,50,77,94,Community Medical Center
8.94,2.79,40.96789,-76.60506,PA,37000,8000,33,56,13,Geisinger Medical Center
9.63,2.36,42.11102,-80.07912,PA,41000,6000,50,72,57,Saint Vincent Health Center
7.25,2.32,40.25092,-75.27204,PA,29000,6000,50,81,76,Lansdale Hospital
3.80,2.14,40.97877,-76.88593,PA,13000,5000,0,0,0,Evangelical Community Hospital
2.80,2.15,40.54345,-80.17760,PA,8000,5000,50,80,54,Heritage Valley Sewickley
3.61,2.28,40.18302,-80.24767,PA,12000,6000,50,76,94,Washington Hospital The
4.98,2.31,41.24548,-77.01438,PA,19000,6000,50,57,37,Williamsport Regional Medical Center
4.90,2.73,39.94604,-76.71884,PA,18000,8000,66,45,8,York Hospital
9.84,2.51,40.60811,-75.39260,PA,42000,7000,66,53,57,St Luke'S Hospital Bethlehem
4.96,2.50,40.45705,-80.00363,PA,19000,7000,83,70,44,Allegheny General Hospital
7.10,2.26,40.04093,-76.32139,PA,29000,6000,50,75,54,Lancaster Regional Medical Center
8.76,2.75,42.13338,-80.08703,PA,36000,8000,66,50,33,Upmc Hamot
3.92,2.47,40.25661,-76.87572,PA,14000,7000,83,47,0,Pinnacle Health Hospitals
3.85,2.35,41.98012,-76.52072,PA,13000,6000,50,65,48,Robert Packer Hospital
9.59,2.39,40.11139,-75.09250,PA,40000,6000,50,72,69,Holy Redeemer Hospital And Medical Center
4.73,2.31,40.04740,-76.30540,PA,17000,6000,66,60,82,Lancaster General Hospital
8.00,2.33,40.48928,-79.89596,PA,33000,6000,50,72,63,Upmc St Margaret
6.44,2.13,40.57319,-80.01455,PA,26000,5000,50,57,48,Upmc Passavant
4.25,2.34,40.32674,-78.92197,PA,15000,6000,50,61,3,Conemaugh Valley Memorial Hospital
12.59,3.21,39.95045,-75.19259,PA,55000,10000,50,33,39,Hospital Of Univ Of Pennsylvania
6.47,2.54,40.07160,-74.98341,PA,26000,7000,33,67,5,Aria Health
7.75,2.61,40.60000,-75.47000,PA,32000,7000,66,58,54,Lehigh Valley Hospital
8.87,2.23,41.25860,-75.86729,PA,37000,6000,50,60,79,Wilkes-Barre General Hospital
9.04,2.35,40.01883,-75.32115,PA,38000,6000,50,71,85,Main Line Hospital Bryn Mawr Campus
4.21,2.28,39.93492,-77.64744,PA,15000,6000,50,58,48,Chambersburg Hospital
8.59,2.40,40.04475,-75.50425,PA,36000,6000,50,71,20,Main Line Hospital Paoli
3.14,2.20,40.81645,-79.52199,PA,10000,6000,0,0,0,Acmh Hospital
9.30,2.72,40.44190,-79.96044,PA,39000,8000,83,55,11,Upmc Presbyterian Shadyside
11.72,3.05,39.94969,-75.15712,PA,50000,10000,66,41,57,Thomas Jefferson University Hospital
20.90,2.59,39.85598,-75.36791,PA,94000,7000,66,56,13,Crozer Chester Medical Center
8.23,2.50,39.98905,-75.27707,PA,34000,7000,50,53,24,Main Line Hospital Lankenau
6.55,2.32,40.30531,-75.14763,PA,26000,6000,33,83,92,Doylestown Hospital
16.99,2.33,39.91254,-75.43047,PA,75000,6000,50,90,79,Riddle Memorial Hospital
6.53,2.20,40.18739,-76.18224,PA,26000,5000,50,72,6,Ephrata Community Hospital
8.33,2.73,39.94560,-75.15561,PA,34000,8000,50,56,69,Pennsylvania Hosp Of The Univ Of Pa Health Sys
4.09,2.06,40.37782,-80.06589,PA,14000,5000,66,81,21,St Clair Memorial Hospital
8.42,2.55,40.12077,-75.11818,PA,35000,7000,83,51,43,Abington Memorial Hospital
5.18,2.81,40.26468,-76.67582,PA,20000,8000,66,40,3,Milton S Hershey Medical Center
8.81,2.29,40.20064,-74.92952,PA,37000,6000,33,71,44,St Mary Medical Center
3.91,2.17,40.42897,-79.74808,PA,14000,5000,50,57,57,Western Pennsylvania Hosp Forbes Regional Campus
6.29,2.11,40.81936,-77.84273,PA,25000,5000,50,91,57,Mount Nittany Medical Center
15.28,2.77,41.25855,-75.81041,PA,67000,8000,66,86,2,Geisinger Wyoming Valley Medical Center
5.69,2.97,41.81254,-71.40760,RI,22000,9000,33,48,6,Rhode Island Hospital
6.24,2.52,41.85172,-71.39826,RI,25000,7000,66,51,63,Miriam Hospital
7.69,3.09,32.78272,-79.94543,SC,31000,10000,33,76,69,Musc Medical Center
6.37,2.36,34.96733,-81.94021,SC,25000,6000,33,60,54,Spartanburg Regional Medical Center
14.95,2.69,34.02839,-81.03539,SC,66000,8000,33,43,21,Palmetto Health Richland
9.59,2.41,34.83965,-82.42147,SC,40000,6000,66,66,11,St Francis-Downtown
8.81,2.40,34.51119,-82.64683,SC,37000,6000,50,61,94,Anmed Health
7.43,2.42,34.19543,-79.76256,SC,30000,7000,50,50,79,Mcleod Regional Medical Center-Pee Dee
6.94,2.64,32.80878,-80.04216,SC,28000,8000,50,61,69,Bon Secours-St Francis Xavier Hospital
8.04,3.51,34.17571,-82.15791,SC,33000,12000,66,65,20,Self Regional Healthcare
6.94,2.34,34.00533,-81.11393,SC,28000,6000,66,63,48,Lexington Medical Center
6.33,2.61,34.81904,-82.41308,SC,25000,7000,50,55,17,Greenville Memorial Hospital
7.74,2.43,32.97605,-80.07302,SC,32000,7000,50,56,48,Trident Medical Center
9.64,2.51,33.57070,-81.76332,SC,41000,7000,50,80,8,Aiken Regional Medical Center
6.26,2.23,34.94957,-81.93205,SC,25000,6000,50,47,88,Mary Black Memorial Hospital
7.98,2.22,33.70704,-78.89487,SC,33000,6000,66,50,57,Grand Strand Reg Med Center
7.62,2.33,34.00754,-81.03270,SC,31000,6000,33,66,37,Palmetto Health Baptist
7.19,2.24,32.82119,-79.85052,SC,29000,6000,0,0,0,East Cooper Medical Center
9.58,2.28,34.19543,-79.76256,SC,40000,6000,33,66,13,Carolinas Hospital System
7.09,2.46,34.85212,-82.32561,SC,29000,7000,0,0,0,Patewood Memorial Hospital
8.21,3.26,34.86182,-82.21649,SC,34000,11000,0,0,0,Village Hospital
6.55,2.61,43.53460,-96.71136,SD,26000,7000,66,60,81,Avera Mckennan Hospital & University Health Center
6.67,2.37,43.53562,-96.74305,SD,27000,6000,66,82,57,Sanford Usd Medical Center
6.44,2.66,44.05563,-103.22633,SD,26000,8000,66,42,82,Rapid City Regional Hospital
8.08,2.20,42.48749,-96.48642,SD,33000,6000,0,0,0,Siouxland Surgery Center Lp
5.55,2.28,44.04607,-103.22337,SD,21000,6000,0,0,0,Black Hills Surgical Hospital Llp
4.70,2.44,35.63906,-88.83207,TN,17000,7000,66,53,27,Jackson-Madison County General Hospital
7.72,2.30,36.24440,-86.75204,TN,32000,6000,50,71,85,Skyline Medical Center
4.89,2.18,36.58587,-82.25703,TN,18000,5000,50,62,48,Wellmont Bristol Regional Medical Center
4.95,2.46,35.93985,-83.94326,TN,18000,7000,33,62,20,University Of Tn Memorial Hospital
5.07,2.24,36.55401,-82.55483,TN,19000,6000,50,58,33,Wellmont Holston Valley Medical Center
5.71,2.54,35.91595,-86.81799,TN,22000,7000,50,58,39,Williamson Medical Center
3.53,2.09,35.98589,-84.28055,TN,12000,5000,66,62,79,Methodist Medical Center Of Oak Ridge
10.21,3.04,36.14316,-86.80048,TN,43000,9000,50,43,43,Vanderbilt University Hospital
4.88,2.31,35.12837,-89.86202,TN,18000,6000,50,43,39,Baptist Memorial Hospital
5.93,2.71,35.13640,-90.01928,TN,23000,8000,66,51,37,Methodist Healthcare Memphis Hospitals
5.92,2.52,35.86074,-86.42434,TN,23000,7000,33,87,16,Middle Tennessee Medical Center Inc
3.50,2.30,36.17121,-85.50938,TN,12000,6000,50,73,98,Cookeville Regional Medical Center
8.03,2.37,36.30767,-82.38497,TN,33000,6000,83,50,21,Johnson City Medical Center
4.34,2.72,35.60668,-87.06635,TN,16000,8000,50,72,74,Maury Regional Hospital
5.72,2.17,36.12859,-86.84559,TN,22000,5000,16,75,98,St Thomas Hospital
6.82,2.26,35.04157,-85.26037,TN,27000,6000,33,72,99,Memorial Healthcare System Inc
6.08,2.46,35.05068,-85.28823,TN,24000,7000,50,52,0,Erlanger Medical Center
3.99,2.13,35.99233,-83.92697,TN,14000,5000,50,56,85,Tennova Healthcare
4.49,2.17,35.95747,-83.93660,TN,16000,5000,33,56,44,Fort Sanders Regional Medical Center
5.88,2.51,36.15388,-86.80249,TN,23000,7000,66,66,63,Baptist Hospital
7.46,2.22,35.36202,-86.20943,TN,30000,6000,0,0,0,Harton Regional Medical Center
8.40,2.24,36.17752,-86.60840,TN,35000,6000,50,76,29,Summit Medical Center
9.08,2.32,36.15310,-86.80910,TN,38000,6000,66,68,81,Centennial Medical Center
4.03,2.20,35.91765,-84.10080,TN,14000,6000,33,72,82,Parkwest Medical Center
12.07,2.42,35.09925,-89.86301,TN,52000,7000,50,62,57,St Francis Hospital
5.17,2.14,36.15524,-86.80350,TN,20000,5000,0,0,0,The Center For Spinal Surgery
7.70,2.39,33.90296,-98.50035,TX,31000,6000,66,86,48,United Regional Health Care System
6.82,2.32,30.65598,-96.34672,TX,27000,6000,50,57,32,St Joseph Regional Health Center
6.36,2.98,32.78994,-96.78044,TX,25000,9000,83,58,33,Baylor University Medical Center
8.44,2.55,26.17446,-97.67014,TX,35000,7000,50,67,57,Vhs Harlingen Hospital Company Llc
6.41,2.26,32.50219,-94.73025,TX,25000,6000,50,73,85,Good Shepherd Medical Center
11.54,2.29,33.57524,-101.89272,TX,50000,6000,50,41,48,Covenant Medical Center
3.61,2.20,31.51444,-97.19927,TX,12000,6000,50,50,33,Providence Health Center
6.15,2.67,32.76017,-96.82437,TX,24000,8000,50,40,3,Methodist Dallas Medical Center
10.10,2.22,30.30491,-97.74540,TX,43000,6000,16,56,63,Seton Medical Center Austin
11.00,2.34,29.43360,-98.49265,TX,47000,6000,66,61,24,Baptist Medical Center
11.96,3.37,29.71431,-95.39680,TX,52000,11000,66,46,13,Memorial Hermann Texas Medical Center
9.89,2.20,32.33824,-95.29122,TX,42000,6000,50,55,92,East Texas Medical Center
7.28,2.45,29.66575,-95.18131,TX,29000,7000,50,51,44,Bayshore Medical Center
4.88,2.41,31.48969,-97.15613,TX,18000,7000,50,53,39,Hillcrest Baptist Medical Center
9.53,2.26,32.34280,-95.29201,TX,40000,6000,50,60,98,Mother Frances Hospital
14.06,2.49,31.76998,-106.49897,TX,61000,7000,66,58,8,Las Palmas Medical Center
24.30,2.84,26.26353,-98.18455,TX,110000,9000,66,91,74,South Texas Health System
9.71,2.72,30.27438,-97.73395,TX,41000,8000,33,73,2,University Medical Center At Brackenridge
4.84,2.46,31.84507,-102.37373,TX,18000,7000,33,82,29,Medical Center Hospital
5.49,2.30,31.99616,-102.09950,TX,21000,6000,50,55,37,Midland Memorial Hospital
7.01,2.38,32.73780,-97.33899,TX,28000,6000,66,55,57,Texas Health Harris Methodist Fort Worth
7.04,3.03,29.81230,-95.43010,TX,28000,9000,66,62,69,Memorial Hermann Hospital System
7.88,3.19,29.70719,-95.40048,TX,32000,10000,66,43,1,St Lukes Episcopal Hospital
6.89,2.34,33.42875,-94.04725,TX,28000,6000,0,0,0,Wadley Regional Medical Center
7.43,2.18,31.33632,-94.74205,TX,30000,5000,50,71,63,Memorial Health System Of East Texas- Lufkin
5.49,2.33,32.47171,-99.73315,TX,21000,6000,66,86,39,Hendrick Medical Center
5.04,2.24,35.19533,-101.91907,TX,19000,6000,66,60,21,Baptist St Anthonys Health System-Baptist Campus
10.53,2.35,30.58113,-96.29051,TX,45000,6000,0,0,0,College Station Medical Center
9.73,2.75,33.71085,-96.58493,TX,41000,8000,50,57,21,Texoma Medical Center
6.60,2.47,29.71020,-95.39956,TX,26000,7000,100,60,13,Methodist Hospitalthe
8.23,2.47,29.50795,-98.57224,TX,34000,7000,66,62,57,Methodist Hospital
13.51,2.57,33.15951,-96.63675,TX,59000,7000,66,65,2,Medical Center Of Mckinney
4.55,2.18,32.80420,-96.79456,TX,17000,5000,0,0,0,Baylor Medical Center At Uptown
5.42,2.44,29.76963,-94.97926,TX,21000,7000,50,100,82,San Jacinto Methodist Hospital
6.73,2.52,30.28957,-97.72584,TX,27000,7000,66,81,63,St Davids Medical Center
6.37,2.43,32.88076,-96.76226,TX,25000,7000,66,66,3,Texas Health Presbyterian Hospital  Dallas
4.56,2.42,31.46574,-100.43466,TX,17000,7000,50,72,79,Shannon Medical Center
7.05,2.45,29.78143,-95.54541,TX,28000,7000,83,77,92,Memorial Hermann Memorial City Medical Center
8.50,2.34,29.54043,-95.12730,TX,35000,6000,66,51,21,Clear Lake Regional Medical Center
12.93,2.45,33.02168,-96.76621,TX,56000,7000,50,67,11,Medical Center Of Plano
12.48,2.30,31.77757,-106.48060,TX,54000,6000,75,62,48,Sierra Medical Center
10.39,2.57,32.73563,-97.34483,TX,44000,7000,83,41,74,Plaza Medical Center Of Fort Worth
6.21,2.31,29.99677,-95.27641,TX,24000,6000,66,70,33,Memorial Hermann Northeast
9.06,2.76,29.35295,-98.54601,TX,38000,8000,75,72,44,Southwest General Hospital
10.10,2.22,32.53312,-94.73022,TX,43000,6000,50,77,8,Longview Regional Medical Center
8.97,2.31,33.21746,-97.16488,TX,37000,6000,75,77,74,Texas Health Presbyterian Hospital Denton
4.96,2.41,32.81073,-96.83618,TX,19000,7000,50,73,63,Ut Southwestern University Hospital-Zale Lipshy
7.22,2.27,33.04405,-96.83853,TX,29000,6000,50,75,10,Texas Health Presbyterian Hospital Plano
4.24,2.20,30.01860,-95.44343,TX,15000,6000,0,0,0,Tops Surgical Specialty Hospital
12.13,2.39,27.69288,-97.34476,TX,52000,6000,50,60,85,Corpus Christi Medical Centerthe
5.76,2.17,33.46323,-94.07490,TX,22000,5000,66,80,6,Christus St Michael Health System
7.02,2.24,29.69445,-95.41451,TX,28000,6000,0,0,0,Texas Orthopedic Hospital
3.64,2.17,30.35117,-97.75114,TX,12000,5000,0,0,0,Northwest Hills Surgical Hospital
11.20,2.34,30.41163,-97.70649,TX,48000,6000,33,65,29,North Austin Medical Center
8.16,2.38,29.58896,-95.63112,TX,34000,6000,50,66,12,Methodist Sugar Land Hospital
11.26,2.31,32.90185,-96.95745,TX,48000,6000,0,0,0,Las Colinas Medical Center
4.44,2.20,33.87594,-98.56163,TX,16000,5000,0,0,0,Kell West Regional Hospital
9.81,2.14,31.77972,-106.47734,TX,41000,5000,0,0,0,El Paso Specialty Hospital
9.15,2.51,26.15761,-97.67550,TX,38000,7000,0,0,0,Harlingen Medical Center
6.97,2.16,29.61329,-98.47759,TX,28000,5000,0,0,0,South Texas Spine And Surgical Hospital
7.27,3.23,30.20579,-95.45830,TX,29000,10000,50,67,54,St Luke'S The Woodlands Hospital
6.38,2.37,32.32974,-95.29946,TX,25000,6000,0,0,0,Texas Spine And Joint Hospital
5.45,2.76,26.25286,-98.20590,TX,21000,8000,33,66,44,Doctors Hospital At Renaissance
3.98,2.16,35.21032,-101.91266,TX,14000,5000,0,0,0,Quail Creek Surgical Hospital
6.08,2.22,33.01358,-96.78823,TX,24000,6000,50,72,63,Baylor Regional Medical Center At Plano
7.04,2.20,33.17687,-97.08711,TX,28000,6000,0,0,0,North Texas Hospital
9.09,2.58,32.84016,-96.86869,TX,38000,7000,0,0,0,Pine Creek Medical Center Llp
3.92,2.41,40.24999,-111.66524,UT,14000,7000,50,70,76,Utah Valley Regional Medical Center
4.63,2.37,41.22300,-111.97383,UT,17000,6000,33,70,33,Mckay Dee Hospital Center
4.82,2.80,40.77170,-111.83681,UT,18000,8000,33,53,8,University Health Care/Univ Hospitals And  Clinics
4.78,2.46,40.65922,-111.89189,UT,18000,7000,33,58,54,Intermountain Medical Center
3.78,2.40,37.09986,-113.55271,UT,13000,6000,66,61,24,Dixie Regional Medical Center
4.97,2.37,40.68610,-111.85735,UT,19000,6000,66,72,8,St Marks Hospital
3.29,2.17,40.63050,-111.88367,UT,11000,5000,0,0,0,The Orthopedic Specialty Hospital
4.71,3.01,44.47966,-73.19412,VT,17000,9000,66,50,13,Fletcher Allen Hospital Of Vermont
3.68,2.47,39.19345,-78.19599,VA,13000,7000,66,60,74,Winchester Medical Center Inc
5.54,2.46,36.86268,-76.30355,VA,21000,7000,83,58,4,Sentara Norfolk General Hospital
7.98,3.09,38.02573,-78.51526,VA,33000,10000,33,35,24,University Of Virginia Medical Center
6.73,2.30,36.89933,-76.28157,VA,27000,6000,50,85,57,Bon Secours - Depaul Medical Center
6.01,2.41,36.83716,-76.34786,VA,23000,6000,50,67,95,Bon Secours Maryview Medical Center
3.47,2.25,37.41368,-79.16870,VA,11000,6000,50,70,57,Centra  Health Inc
7.21,2.41,38.31158,-77.48061,VA,29000,7000,66,73,17,Mary Washington Hospital Inc
6.98,2.58,37.25129,-79.94125,VA,28000,7000,50,61,1,Carilion Roanoke Memorial Center
10.23,3.10,37.54330,-77.42932,VA,43000,10000,66,48,0,Medical College Of Virginia Hospitals
5.19,2.18,37.14463,-76.51197,VA,20000,5000,50,78,56,Mary Immaculate Hospital
10.81,2.28,37.09020,-80.50370,VA,46000,6000,0,0,0,Carilion New River Valley Medical Center
4.85,2.23,36.77378,-76.57856,VA,18000,6000,50,77,51,Sentara Obici Hospital
7.23,2.19,37.26336,-80.03166,VA,29000,5000,50,48,8,Lewisgale Medical Center
5.63,2.39,38.88916,-77.12796,VA,22000,6000,100,57,57,Virginia Hospital Center - Arlington
5.58,2.29,36.86449,-76.02844,VA,21000,6000,66,62,39,Sentara Virginia Beach General Hospital
6.80,2.28,37.58440,-77.51252,VA,27000,6000,50,66,69,Bon Secours - St Marys Hospital Of Richmond
6.14,2.64,38.85764,-77.22772,VA,24000,8000,83,53,1,Inova Fairfax Hospital
4.72,2.25,38.02176,-78.44530,VA,17000,6000,50,75,88,Martha Jefferson Hospital
4.63,2.21,37.05580,-76.39048,VA,17000,6000,66,66,74,Sentara Careplex Hospital
6.20,2.25,38.96206,-77.36489,VA,24000,6000,50,68,74,Reston Hospital Center
18.24,2.42,37.51021,-77.59525,VA,81000,7000,83,52,32,Cjw Medical Center
13.47,2.34,37.60459,-77.53929,VA,59000,6000,66,63,29,Henrico Doctors' Hospital
4.87,2.21,36.74610,-76.24609,VA,18000,6000,50,62,85,Chesapeake Regional Medical Center
5.78,2.47,47.71468,-122.33762,WA,22000,7000,50,63,32,Northwest Hospital
7.19,2.46,48.41789,-122.32370,WA,29000,7000,50,93,33,Skagit Valley Hospital
6.09,3.17,47.64928,-122.30681,WA,24000,10000,66,28,44,University Of Washington Medical Ctr
7.39,2.44,47.45757,-122.34315,WA,30000,7000,50,78,79,Highline Medical Center
6.99,2.43,46.59643,-120.52005,WA,28000,7000,50,77,2,Yakima Regional Medical And Cardiac Center
7.58,2.90,48.00091,-122.20600,WA,31000,9000,66,56,32,Providence Regional Medical Center Everett
3.87,2.51,47.40667,-120.32000,WA,13000,7000,50,75,1,Central Washington Hospital
9.86,2.60,47.05286,-122.84707,WA,42000,7000,50,41,11,Providence St Peter Hospital
9.11,2.49,47.60648,-122.31106,WA,38000,7000,25,53,10,Swedish Medical Center/Cherry Hill
8.33,2.67,47.60869,-122.32128,WA,34000,8000,33,56,13,Swedish Medical Center
5.56,2.58,48.77371,-122.47344,WA,21000,7000,50,67,33,St Joseph Medical Center
5.04,2.57,46.59360,-120.54741,WA,19000,7000,50,75,48,Yakima Valley Memorial Hospital
6.80,2.73,47.58295,-122.62506,WA,27000,8000,66,57,33,Harrison Medical Center
8.76,2.54,47.65191,-117.42329,WA,36000,7000,50,57,13,Deaconess Hospital
5.82,2.63,45.62460,-122.58145,WA,23000,8000,66,53,81,Peacehealth Southwest Medical Center
5.57,2.38,47.61943,-122.18605,WA,21000,6000,50,57,76,Overlake Hospital Medical Center
4.41,2.58,47.64936,-117.41194,WA,16000,7000,66,76,33,Providence Sacred Heart Medical Center
5.48,2.41,46.28132,-119.28218,WA,21000,6000,33,77,54,Kadlec Regional Medical Center
6.74,3.37,47.60351,-122.32305,WA,27000,11000,66,52,0,Harborview Medical Center
6.40,2.39,47.70969,-117.40722,WA,25000,6000,50,65,88,Providence Holy Family Hospital
8.94,2.41,47.17742,-122.28943,WA,37000,6000,50,96,11,Multicare Good Samaritan Hospital
8.55,2.71,47.44243,-122.21392,WA,35000,8000,50,55,48,Valley Medical Center
9.25,2.58,47.24670,-122.44841,WA,39000,7000,66,66,21,St Joseph Medical Center
6.23,2.39,47.67076,-117.23552,WA,25000,6000,0,0,0,Valley Hospital
5.98,2.42,47.71603,-122.17867,WA,23000,7000,50,65,95,Evergreen Hospital Medical Center
9.27,2.70,47.25980,-122.45243,WA,39000,8000,83,50,57,Tacoma General Allenmore Hospital
9.18,2.52,47.29252,-122.32729,WA,38000,7000,50,71,1,St Francis Community Hospital
4.18,2.34,47.43282,-120.32200,WA,15000,6000,0,0,0,Wenatchee Valley Hospital
4.95,2.58,45.72039,-122.64855,WA,18000,7000,66,71,82,Legacy Salmon Creek Medical Center
6.53,2.72,39.65498,-79.95814,WV,26000,8000,83,31,5,West Virginia University Hospitals
4.64,2.33,39.32836,-80.23964,WV,17000,6000,66,61,76,United Hospital Center
4.07,2.31,38.43236,-82.40067,WV,14000,6000,66,60,17,St Mary'S Medical Center
5.22,2.83,38.34739,-81.62600,WV,20000,8000,66,58,10,Charleston Area Medical Center
4.84,2.88,38.40959,-82.42708,WV,18000,9000,50,51,8,Cabell-Huntington Hospital Inc
8.89,2.18,37.78754,-81.20183,WV,37000,5000,66,73,82,Raleigh General Hospital
5.66,2.42,43.80136,-91.23958,WI,22000,7000,25,66,69,Mayo Clinic Hlth System- Franciscan Med Ctr Inc
6.50,2.28,43.01152,-88.24308,WI,26000,6000,50,55,24,Waukesha Memorial Hospital
8.22,2.43,44.79461,-91.51111,WI,34000,7000,66,63,13,Sacred Heart Hsptl
5.51,2.32,44.96738,-89.66994,WI,21000,6000,50,67,74,Aspirus Wausau Hospital
4.29,2.55,44.67759,-90.17818,WI,15000,7000,50,57,13,Ministry Saint Joseph'S Hospital
3.37,2.37,44.18700,-88.45431,WI,11000,6000,75,83,0,Theda Clark Med Ctr
4.53,2.35,44.50233,-88.01140,WI,17000,6000,50,61,12,Bellin Memorial Hsptl
6.99,2.32,42.68685,-89.03244,WI,28000,6000,50,63,43,Mercy Hlth Sys Corp
4.76,2.22,44.81192,-91.51352,WI,18000,6000,25,55,69,Mayo Clinic Health System Eau Claire Hospital
5.26,2.44,43.05867,-89.40269,WI,20000,7000,66,77,69,St Mary'S Hospital
5.53,2.42,43.79515,-91.24798,WI,21000,7000,16,61,21,Gundersen Luth Med Ctr
6.38,2.52,43.06432,-89.40100,WI,25000,7000,66,43,56,Meriter Hsptl
5.68,3.03,43.07633,-89.43133,WI,22000,9000,50,35,16,University Of Wi  Hospitals & Clinics Authority
7.63,2.32,42.66123,-88.49611,WI,31000,6000,0,0,0,Aurora Lakeland Med Ctr
6.29,2.22,43.16402,-88.13829,WI,25000,6000,50,60,90,Community Mem Hsptl
7.53,2.61,42.98958,-87.95079,WI,31000,7000,50,65,37,Aurora St Lukes Medical Center
6.19,2.41,44.47472,-87.94018,WI,24000,7000,50,67,88,Aurora Baycare Med Ctr
6.30,2.73,42.84802,-106.30851,WY,25000,8000,50,70,8,Wyoming Medical Center
14.25,3.11,41.14037,-104.81660,WY,62000,10000,50,70,33,Cheyenne Regional Medical Center
9.40,2.30,42.84079,-106.22644,WY,39000,6000,0,0,0,Mountain View Regional Hospital
21.61,3.34,29.53410,-95.12601,TX,97000,11000,0,0,0,Houston Physicians' Hospital
8.54,2.21,29.72406,-95.46114,TX,35000,6000,0,0,0,Foundation Surgical Hospital
11.23,2.21,30.56899,-97.65104,TX,48000,6000,75,91,29,Seton Medical Center Williamson
4.89,2.26,32.87515,-96.77145,TX,18000,6000,0,0,0,North Central Surgical Center Llp
12.38,2.79,29.61578,-98.47479,TX,53000,8000,50,76,33,Methodist Stone Oak Hospital
5.59,2.91,30.20344,-95.45738,TX,22000,9000,0,0,0,St Lukes Lakeside Hospital
4.11,2.11,32.98478,-96.82942,TX,15000,5000,0,0,0,Methodist Hospital For Surgery
