size_charge,size_pay,lat,lon,charge,pay,AcquiredInfect,AcquiredConditions,PatientSafetySummary,name
6.70,2.22,31.21673,-85.36307,26738.52,5593.43,0.50,0.51,0.21,SOUTHEAST ALABAMA MEDICAL CENTER
3.58,2.18,33.59616,-86.66750,12029.36,5404.55,0.67,0.79,0.01,ST VINCENT'S EAST
6.28,2.20,33.25607,-86.81035,24743.46,5505.88,0.83,0.70,0.64,SHELBY BAPTIST MEDICAL CENTER
3.18,2.20,34.74649,-87.69895,10114.75,5504.10,0.50,0.91,0.33,HELEN KELLER MEMORIAL HOSPITAL
6.23,2.45,32.32785,-86.27750,24495.68,6699.95,0.50,0.68,0.54,BAPTIST MEDICAL CENTER SOUTH
5.14,2.21,32.36656,-86.28572,19374.32,5581.97,0.50,0.69,0.83,JACKSON HOSPITAL & CLINIC INC
3.01,2.23,32.63806,-85.40413,9321.79,5667.17,0.50,0.80,0.14,EAST ALABAMA MEDICAL CENTER AND SNF
7.04,2.59,33.50619,-86.80210,28326.23,7365.72,0.67,0.45,0.11,UNIVERSITY OF ALABAMA HOSPITAL
5.18,2.19,34.20768,-86.87489,19582.04,5465.11,0.50,0.64,0.80,CULLMAN REGIONAL MEDICAL CENTER
7.09,2.17,34.72007,-86.58108,28584.10,5387.70,0.50,0.65,0.45,HUNTSVILLE HOSPITAL
12.95,2.11,34.00941,-85.97078,56212.61,5082.81,0.67,0.68,0.28,GADSDEN REGIONAL MEDICAL CENTER
7.54,2.13,31.23767,-85.45625,30711.14,5175.57,0.50,0.55,0.80,FLOWERS HOSPITAL
3.58,2.13,33.50734,-86.78958,12031.34,5187.07,0.50,0.72,0.21,ST VINCENT'S BIRMINGHAM
4.73,2.11,30.68199,-88.19897,17440.12,5105.50,0.83,0.86,0.01,PROVIDENCE HOSPITAL
5.56,2.30,33.20521,-87.52546,21343.71,5997.04,0.67,0.66,0.21,D C H REGIONAL MEDICAL CENTER
12.79,2.21,33.51420,-86.74859,55430.50,5555.42,0.67,0.28,0.11,TRINITY MEDICAL CENTER
3.91,2.17,30.69697,-88.08081,13594.51,5361.59,0.67,0.55,0.25,MOBILE INFIRMARY
9.78,2.14,34.69279,-86.57179,41261.25,5235.75,0.50,0.78,0.33,CRESTWOOD MEDICAL CENTER
12.79,2.11,33.46420,-86.77409,55472.96,5074.63,0.50,0.65,0.30,BROOKWOOD MEDICAL CENTER
6.23,2.39,33.23361,-87.57125,24541.27,6393.00,0.00,0.00,0.00,NORTHPORT MEDICAL CENTER
4.57,2.21,32.50808,-85.00867,16696.23,5571.86,0.00,0.00,0.00,JACK HUGHSTON MEMORIAL HOSPITAL
6.64,3.07,60.94901,-149.17033,26434.71,9635.13,0.50,0.81,0.91,PROVIDENCE ALASKA MEDICAL CENTER
8.16,2.60,61.21082,-149.82866,33638.21,7386.48,0.50,0.90,0.43,ALASKA REGIONAL HOSPITAL
7.69,2.72,33.46514,-112.05797,31411.76,7974.18,0.50,0.49,0.70,BANNER GOOD SAMARITAN MEDICAL CENTER
5.42,2.49,32.25294,-110.88135,20712.00,6900.82,0.50,0.49,0.03,TUCSON MEDICAL CENTER
7.92,2.37,32.22734,-111.00065,32488.11,6340.51,0.33,0.75,0.64,CARONDELET ST  MARYS HOSPITAL
7.83,2.29,32.22685,-110.85520,32074.18,5957.40,0.67,0.55,0.21,CARONDELET ST JOSEPHS HOSPITAL
6.21,2.58,34.56017,-112.48217,24406.32,7285.36,0.25,0.68,0.17,YAVAPAI REGIONAL MEDICAL CENTER
6.62,3.29,35.20923,-111.64486,26348.27,10676.94,0.67,0.79,0.89,FLAGSTAFF MEDICAL CENTER
12.62,3.00,33.48073,-112.07948,54659.05,9300.67,0.33,0.53,0.11,ST JOSEPH'S HOSPITAL AND MEDICAL CENTER
10.42,2.56,33.48885,-111.92387,44279.13,7213.47,0.67,0.76,0.54,SCOTTSDALE HEALTHCARE-OSBORN MEDICAL CENTER
9.98,2.25,33.60432,-112.28378,42194.84,5749.26,0.83,0.75,0.96,BANNER BOSWELL MEDICAL CENTER
9.25,2.59,33.39097,-111.87638,38753.81,7358.38,0.67,0.80,0.57,BANNER DESERT MEDICAL CENTER
4.80,2.39,34.47988,-114.33938,17779.00,6417.33,0.50,0.70,0.57,HAVASU REGIONAL MEDICAL CENTER
8.02,2.30,32.32103,-111.01102,32935.67,5982.31,0.50,0.71,0.20,NORTHWEST MEDICAL CENTER
8.28,2.61,33.60949,-112.18129,34192.93,7451.47,0.67,0.74,0.76,BANNER THUNDERBIRD MEDICAL CENTER
6.17,2.51,33.65947,-111.95626,24222.55,6958.82,0.67,0.54,0.96,MAYO CLINIC HOSPITAL
7.16,2.24,33.38006,-111.73470,28883.93,5712.00,0.00,0.00,0.00,ARIZONA SPINE AND JOINT HOSPITAL
4.26,2.24,33.53218,-112.09949,15249.67,5712.38,0.00,0.00,0.00,SURGICAL SPECIALTY HOSPITAL OF ARIZONA
9.64,2.52,33.47818,-112.25744,40582.82,7001.64,0.50,0.59,0.70,BANNER ESTRELLA MEDICAL CENTER
6.36,2.24,36.10940,-94.16036,25129.67,5692.20,0.33,0.78,0.74,WASHINGTON REGIONAL MED CTR AT NORTH HILLS
5.00,2.27,34.75031,-92.33897,18742.01,5862.01,0.67,0.64,0.83,ST VINCENT INFIRMARY MEDICAL CENTER
2.73,2.32,35.83746,-90.70386,8017.52,6091.23,0.50,0.75,0.03,ST BERNARDS MEDICAL CTR
4.79,2.22,34.46784,-93.06667,17734.86,5628.36,0.67,0.66,0.86,ST JOSEPHS MERCY HEALTH CENTER INC
6.47,2.25,35.37445,-94.41868,25651.82,5756.73,0.50,0.54,0.86,SPARKS REGIONAL MEDICAL CENTER
4.25,2.17,35.35395,-94.35262,15169.29,5360.21,0.50,0.66,0.11,ST EDWARD MERCY MEDICAL CENTER
5.31,2.36,34.18894,-92.01886,20197.29,6269.97,0.50,0.75,0.05,JEFFERSON REGIONAL MEDICAL CENTER
5.55,2.31,34.74866,-92.35422,21294.94,6049.13,0.50,0.44,0.21,BAPTIST HEALTH MEDICAL CENTER-LITTLE ROCK
4.72,2.06,35.80838,-90.66658,17407.80,4844.88,0.50,0.57,0.70,NEA BAPTIST MEMORIAL HOSPITAL
4.66,2.14,34.81290,-92.20814,17117.29,5244.14,0.00,0.00,0.00,ST VINCENT MEDICAL CENTER/NORTH
3.59,2.12,34.80457,-92.35122,12079.04,5158.66,0.00,0.00,0.00,ARKANSAS SURGICAL HOSPITAL
13.08,2.89,37.59283,-122.38249,56839.58,8784.58,0.50,0.71,0.33,PENINSULA MEDICAL CENTER
7.98,2.83,37.76862,-122.43525,32752.92,8482.15,0.50,0.50,0.74,CALIFORNIA PACIFIC MEDICAL CTR-DAVIES CAMPUS HOSP
12.18,3.14,38.57053,-121.45216,52592.49,9966.62,0.83,0.54,0.28,MERCY GENERAL HOSPITAL
9.98,3.38,32.75426,-117.16592,42187.50,11067.50,0.50,0.72,0.70,UNIVERSITY OF CALIFORNIA SAN DIEGO MEDICAL CENTER
9.72,2.72,32.77495,-117.01467,40976.03,7950.34,0.83,0.71,0.33,GROSSMONT HOSPITAL
11.69,2.64,35.38736,-119.01690,50243.30,7605.00,0.33,0.85,0.80,BAKERSFIELD MEMORIAL HOSPITAL
11.04,2.47,39.74221,-121.85000,47181.37,6797.65,0.83,0.71,0.48,ENLOE MEDICAL CENTER
9.60,3.29,37.79100,-122.43125,40419.65,10676.12,0.83,0.64,0.11,CALIFORNIA PACIFIC MEDICAL CTR-PACIFIC CAMPUS HOSP
13.08,2.78,34.67486,-118.15771,56808.18,8231.73,0.50,0.68,0.45,ANTELOPE VALLEY HOSPITAL MED CENTER
7.52,2.65,36.32737,-119.29548,30603.26,7650.00,0.50,0.56,0.12,KAWEAH DELTA MEDICAL CENTER
12.62,3.39,34.09643,-118.29103,54630.12,11108.00,0.75,0.76,0.74,HOLLYWOOD PRESBYTERIAN MEDICAL CENTER
8.79,2.95,33.78036,-117.86495,36595.16,9067.95,0.50,0.60,0.89,ST JOSEPH HOSPITAL
16.32,2.87,32.75143,-117.16083,72072.53,8666.65,0.33,0.62,0.70,SCRIPPS MERCY HOSPITAL
21.02,2.72,34.21674,-119.15631,94232.96,7952.58,0.50,0.64,0.07,ST JOHNS REGIONAL MEDICAL CENTER
13.37,2.81,37.96987,-121.28873,58206.40,8397.50,0.83,0.69,0.97,ST JOSEPHS MED CENTER OF STOCKTON
9.53,2.62,36.83532,-119.76562,40072.67,7502.90,0.50,0.66,0.58,SAINT AGNES MEDICAL CENTER
7.85,2.49,34.10130,-117.63651,32152.88,6899.41,0.50,0.66,0.86,SAN ANTONIO COMMUNITY HOSPITAL
11.62,2.78,32.79949,-117.15394,49950.26,8247.35,0.67,0.62,0.11,SHARP MEMORIAL HOSPITAL
15.58,2.68,34.95099,-120.41322,68598.00,7786.43,0.50,0.94,0.48,MARIAN MEDICAL CENTER
13.61,2.90,38.57155,-121.46874,59304.16,8823.09,0.83,0.78,0.80,SUTTER GENERAL HOSPITAL
8.57,2.84,34.02685,-118.48651,35568.75,8527.08,0.50,0.76,0.21,SANTA MONICA - UCLA MED CTR & ORTHOPAEDIC HOSPITAL
10.96,2.51,33.12535,-117.07336,46813.46,6963.92,0.50,0.55,0.70,PALOMAR MEDICAL CENTER
12.43,2.67,37.96125,-121.30103,53762.44,7712.69,0.50,0.49,0.10,DAMERON HOSPITAL
7.59,3.10,34.19494,-118.46319,30925.27,9754.85,0.50,0.78,0.76,VALLEY PRESBYTERIAN HOSPITAL
8.58,2.59,33.18402,-117.29661,35606.95,7336.80,0.50,0.57,0.21,TRI-CITY MEDICAL CENTER
10.03,2.77,34.13495,-117.27603,42424.64,8200.73,0.50,0.66,0.48,ST BERNARDINE MEDICAL CENTER
11.88,3.14,36.57886,-121.91316,51164.38,9957.79,0.67,0.56,0.58,COMMUNITY HOSPITAL OF THE MONTEREY PENINSULA
15.21,3.24,37.78963,-122.41700,66876.62,10418.69,0.75,0.70,0.30,SAINT FRANCIS MEMORIAL HOSPITAL
25.13,3.14,37.32710,-121.93863,113628.42,9932.58,0.67,0.71,0.38,O'CONNOR HOSPITAL
8.78,2.42,33.89465,-117.92716,36533.67,6559.96,0.67,0.71,0.91,ST JUDE MEDICAL CENTER
16.37,2.56,33.96860,-118.04831,72310.69,7203.92,0.50,0.46,0.16,PRESBYTERIAN INTERCOMMUNITY HOSPITAL
30.00,2.92,38.44369,-122.70138,136598.88,8931.65,0.67,0.86,0.58,SANTA ROSA MEMORIAL HOSPITAL
23.31,2.87,37.91341,-122.04163,105035.45,8667.48,0.50,0.62,0.33,JOHN MUIR MEDICAL CENTER - WALNUT CREEK CAMPUS
22.60,3.09,37.55717,-121.98126,101693.08,9732.38,0.50,0.54,0.89,WASHINGTON HOSPITAL
17.08,2.92,34.58305,-118.14490,75662.54,8896.54,0.50,0.86,0.54,PALMDALE REGIONAL MEDICAL CENTER
8.96,2.58,33.62229,-117.92995,37398.18,7318.36,0.50,0.70,0.51,HOAG MEMORIAL HOSPITAL PRESBYTERIAN
26.80,2.74,34.15601,-118.32834,121504.07,8046.50,0.50,0.80,0.97,PROVIDENCE SAINT JOSEPH MEDICAL CTR
16.40,3.05,34.14987,-118.23117,72479.55,9545.50,0.67,0.75,0.89,GLENDALE ADVENTIST MEDICAL CENTER
13.28,2.94,36.98999,-121.98357,57770.86,9009.80,0.50,0.64,0.64,DOMINICAN HOSPITAL
15.53,2.59,38.72562,-120.79096,68377.89,7352.95,0.50,0.81,0.01,MARSHALL MEDICAL CENTER (1-RH)
12.35,2.78,40.58654,-122.39168,53370.04,8236.54,0.83,0.71,0.45,MERCY MEDICAL CENTER REDDING
13.76,2.79,37.69502,-121.88095,60027.92,8309.25,0.50,0.71,0.83,VALLEYCARE MEDICAL CENTER
8.06,2.47,34.03009,-118.47833,33131.63,6779.41,0.50,0.81,0.76,SAINT JOHN'S HEALTH CENTER
12.71,3.29,37.85593,-122.25730,55076.76,10657.62,0.50,0.56,0.08,ALTA BATES SUMMIT MEDICAL CENTER - ALTA BATES CAMP
14.61,2.83,37.36934,-122.08047,64044.75,8494.73,0.67,0.49,0.07,EL CAMINO HOSPITAL
11.91,2.62,38.76514,-121.24979,51300.29,7476.97,0.67,0.78,0.16,SUTTER ROSEVILLE MEDICAL CENTER
14.19,2.51,32.88461,-117.22244,62064.15,6979.19,0.50,0.64,0.30,SCRIPPS MEMORIAL HOSPITAL LA JOLLA
10.18,3.35,34.05076,-117.26395,43151.69,10943.93,0.50,0.55,0.16,LOMA LINDA UNIVERSITY MEDICAL CENTER
9.62,3.08,36.65910,-121.64630,40509.42,9646.48,0.50,0.70,0.38,SALINAS VALLEY MEMORIAL HOSPITAL
8.92,2.50,33.81131,-118.34364,37190.32,6911.71,0.67,0.68,0.89,TORRANCE MEMORIAL MEDICAL CENTER
11.63,2.57,33.83891,-118.35677,49990.53,7247.75,0.50,0.86,0.94,PROVIDENCE LITTLE COMPANY OF MARY MED CTR TORRANCE
13.73,2.78,37.25153,-121.94684,59892.19,8269.06,0.33,0.64,0.03,GOOD SAMARITAN HOSPITAL
9.10,2.89,34.08802,-117.89341,38071.80,8786.40,0.67,0.68,0.29,CITRUS VALLEY MEDICAL CENTER-IC CAMPUS
12.13,2.46,34.27459,-119.25812,52328.76,6747.00,0.50,0.54,0.08,COMMUNITY MEMORIAL HOSPITAL SAN BUENAVENTURA
5.74,2.60,34.42951,-119.72333,22212.05,7392.12,0.67,0.72,0.32,SANTA BARBARA COTTAGE HOSPITAL
11.27,2.60,32.89810,-117.24217,48284.44,7409.19,0.50,0.75,0.38,SCRIPPS GREEN HOSPITAL
9.77,2.65,34.13364,-118.15275,41220.60,7629.09,0.67,0.65,0.58,HUNTINGTON MEMORIAL HOSPITAL
19.59,3.77,37.43436,-122.18013,87504.50,12931.34,0.50,0.59,0.28,STANFORD HOSPITAL
18.18,4.31,37.76421,-122.45716,80885.88,15484.22,0.67,0.53,0.91,UCSF MEDICAL CENTER
28.80,4.11,37.77449,-122.45429,130922.36,14517.73,0.50,0.88,0.03,ST MARY'S MEDICAL CENTER
12.51,3.04,34.05336,-118.26558,54123.65,9455.88,0.50,0.69,0.80,GOOD SAMARITAN HOSPITAL
11.20,2.78,33.80861,-118.18661,47956.28,8270.14,0.67,0.65,0.28,LONG BEACH MEMORIAL MEDICAL CENTER
11.79,2.93,37.69824,-122.08730,50714.12,8960.57,0.67,0.61,0.54,EDEN MEDICAL CENTER
15.21,3.12,34.06389,-118.27347,66841.82,9838.45,0.50,0.80,0.99,SAINT VINCENT MEDICAL CENTER
15.87,2.39,33.03634,-117.28487,69986.12,6420.35,0.50,0.65,0.05,SCRIPPS MEMORIAL HOSPITAL - ENCINITAS
12.38,2.60,35.29188,-120.66635,53527.96,7420.99,0.50,0.86,0.82,SIERRA VISTA REGIONAL MEDICAL CENTER
16.82,3.27,38.66956,-121.31378,74432.67,10552.40,0.67,0.66,0.30,MERCY SAN JUAN MEDICAL CENTER
10.76,2.96,34.20777,-118.88305,45872.79,9084.96,0.50,0.51,0.70,LOS ROBLES HOSPITAL & MEDICAL CENTER
12.13,2.84,37.66867,-120.97339,52355.13,8544.93,0.67,0.80,0.54,MEMORIAL  MEDICAL CENTER
9.18,2.43,33.56100,-117.66530,38410.28,6597.55,0.67,0.59,0.13,MISSION HOSPITAL REGIONAL MED CENTER
16.34,2.36,33.76335,-116.40628,72192.54,6273.25,0.50,0.56,0.39,EISENHOWER MEDICAL CENTER
27.79,3.73,38.55484,-121.45628,126168.74,12747.66,0.50,0.50,0.03,UNIVERSITY OF CALIFORNIA DAVIS MEDICAL CENTER
19.77,3.15,34.07664,-118.37955,88379.31,9978.31,1.00,0.59,0.48,CEDARS-SINAI MEDICAL CENTER
10.97,2.49,35.55536,-120.72067,46865.31,6892.44,0.00,0.00,0.00,TWIN CITIES COMMUNITY HOSPITAL
13.19,2.75,37.77577,-121.95824,57327.32,8125.64,0.50,0.66,0.03,SAN RAMON REGIONAL MEDICAL CTR
7.79,2.49,40.58654,-122.39168,31888.44,6883.00,0.00,0.00,0.00,PATIENTS' HOSPITAL OF REDDING
5.80,2.53,33.55876,-117.18329,22482.77,7051.45,0.67,0.74,0.74,SOUTHWEST HEALTHCARE SYSTEM
6.53,2.38,37.66477,-120.95832,25952.46,6351.00,0.00,0.00,0.00,STANISLAUS SURGICAL HOSPITAL
23.47,3.32,34.06760,-118.12291,105802.10,10799.00,0.50,0.94,0.86,GARFIELD MEDICAL CENTER
14.25,2.60,33.98219,-118.43930,62330.25,7394.65,0.50,0.90,0.07,MARINA DEL REY HOSPITAL
21.13,3.20,34.05723,-118.36025,94755.00,10230.23,0.50,0.64,0.70,OLYMPIA MEDICAL CENTER
11.19,2.54,32.77629,-117.05730,47918.07,7128.80,0.75,0.79,0.64,ALVARADO HOSPITAL MEDICAL CENTER
8.96,2.48,33.66270,-117.77270,37385.17,6853.33,0.00,0.00,0.00,HOAG ORTHOPEDIC INSTITUTE
9.31,2.41,40.41481,-104.70890,39044.73,6528.91,0.50,0.74,0.58,NORTH COLORADO MEDICAL CENTER
4.34,2.42,40.57315,-105.05741,15612.00,6537.38,0.50,0.69,0.96,POUDRE VALLEY HOSPITAL
9.14,3.12,37.23629,-107.82578,38231.18,9873.35,0.00,0.00,0.00,MERCY REGIONAL MEDICAL CENTER
11.12,2.73,39.74615,-104.96682,47589.48,7994.64,0.67,0.47,0.17,PRESBYTERIAN/ST LUKE'S MEDICAL CENTER
8.31,2.49,39.71712,-105.12874,34331.93,6899.19,0.33,0.68,0.16,CENTURA HEALTH-ST ANTHONY HOSPITAL
11.20,2.34,38.28184,-104.61256,47967.18,6158.64,0.67,0.69,0.30,PARKVIEW MEDICAL CENTER INC
7.65,2.34,38.83903,-104.80024,31211.00,6159.64,0.67,0.69,0.33,MEMORIAL HOSPITAL CENTRAL
5.95,2.47,39.09046,-108.56190,23206.38,6769.64,0.50,0.49,0.58,ST MARYS HOSPITAL AND MEDICAL CENTER
9.08,3.17,39.74234,-104.84156,37949.82,10112.24,0.67,0.66,0.70,UNIVERSITY OF COLORADO HOSPITAL ANSCHUTZ INPATIENT
8.62,2.24,40.02615,-105.28391,35801.16,5717.04,0.50,0.91,0.83,BOULDER COMMUNITY HOSPITAL
9.45,2.49,38.86559,-104.82182,39684.46,6862.70,0.50,0.70,0.38,CENTURA HEALTH-PENROSE ST FRANCIS HEALTH SERVICES
10.67,2.50,39.73231,-104.93396,45449.11,6923.67,0.75,0.50,0.32,ROSE MEDICAL CENTER
8.53,2.34,39.65399,-104.98116,35352.37,6163.54,0.33,0.47,0.17,SWEDISH MEDICAL CENTER
10.15,2.68,39.67005,-104.97490,43022.73,7774.09,0.50,0.75,0.80,CENTURA HEALTH-PORTER ADVENTIST HOSPITAL
8.99,2.35,39.68859,-104.83205,37511.46,6238.00,0.50,0.61,0.14,MEDICAL CENTER OF AURORA THE
10.98,2.37,39.52910,-104.87121,46896.05,6329.79,0.50,0.76,0.80,SKY RIDGE MEDICAL CENTER
10.31,2.25,39.57629,-104.98610,43764.00,5760.27,0.50,0.79,0.54,CENTURA HEALTH-LITTLETON ADVENTIST HOSPITAL
8.60,2.38,39.54881,-104.77119,35702.82,6341.70,0.50,0.60,0.12,PARKER ADVENTIST HOSPITAL
9.64,2.60,39.56935,-106.07773,40587.00,7402.64,0.00,0.00,0.00,ST ANTHONY SUMMIT MEDICAL CENTER
5.43,2.18,40.45184,-105.19608,20730.55,5425.00,0.50,0.79,0.45,MEDICAL CENTER OF THE ROCKIES
6.87,2.72,41.30978,-72.93806,27547.04,7954.83,0.67,0.57,0.08,HOSPITAL OF ST RAPHAEL
3.48,2.76,41.77507,-72.69941,11538.05,8152.41,0.50,0.54,0.86,ST FRANCIS HOSPITAL & MEDICAL CENTER
5.10,2.56,41.33722,-72.10380,19168.71,7223.86,0.50,0.72,0.93,LAWRENCE & MEMORIAL HOSPITAL
9.14,2.95,41.18881,-73.16645,38228.71,9065.00,0.50,0.51,0.21,BRIDGEPORT HOSPITAL
11.09,2.71,41.03431,-73.63020,47454.98,7935.08,0.50,0.49,0.64,GREENWICH HOSPITAL ASSOCIATION
8.66,3.38,41.30400,-72.93502,35978.70,11095.80,0.67,0.41,0.03,YALE-NEW HAVEN HOSPITAL
5.68,2.53,41.54301,-72.08799,21925.06,7071.81,0.50,0.70,0.45,WILLIAM W BACKUS HOSPITAL
4.59,2.89,41.75412,-72.67927,16768.32,8777.71,0.50,0.47,0.10,HARTFORD HOSPITAL
6.45,2.76,41.40474,-73.44739,25573.76,8168.54,0.50,0.66,0.58,DANBURY HOSPITAL
4.80,2.66,41.66107,-72.78671,17768.19,7666.00,0.50,0.53,0.08,HOSPITAL OF CENTRAL CONNECTICUT THE
4.25,2.71,39.69005,-75.68408,15172.19,7909.75,0.67,0.59,0.39,CHRISTIANA CARE HEALTH SERVICES INC.
5.63,2.45,38.77159,-75.14210,21677.67,6682.44,0.50,0.90,0.82,BEEBE MEDICAL CENTER
10.22,3.00,38.91221,-77.07588,43310.03,9274.13,0.67,0.65,0.01,GEORGETOWN UNIVERSITY HOSPITAL
4.41,2.41,38.93576,-77.10909,15946.81,6529.81,0.50,0.76,0.97,SIBLEY MEMORIAL HOSPITAL
7.92,2.81,38.92944,-77.01473,32479.03,8369.76,0.33,0.59,0.02,WASHINGTON HOSPITAL CENTER
9.16,2.48,28.52517,-81.37729,38310.73,6859.94,0.67,0.47,0.29,ORLANDO HEALTH
9.71,2.88,28.57345,-81.36990,40945.18,8700.08,0.83,0.66,0.25,FLORIDA HOSPITAL
17.12,2.58,25.68309,-80.34038,75850.62,7315.00,0.50,0.62,0.86,BAPTIST HOSPITAL OF MIAMI INC
15.85,2.69,25.78846,-80.21644,69861.34,7818.17,0.83,0.56,0.01,UNIVERSITY OF MIAMI HOSPITAL
7.30,2.32,26.62849,-81.87423,29569.18,6085.71,0.67,0.53,0.16,LEE MEMORIAL HOSPITAL
8.22,2.31,29.20117,-81.05828,33898.62,6051.25,0.67,0.76,0.80,HALIFAX HEALTH MEDICAL CENTER
6.39,2.25,26.15053,-81.79919,25278.03,5730.02,0.67,0.62,0.39,NAPLES COMMUNITY HOSPITAL
7.96,2.24,28.08771,-80.61362,32671.50,5696.22,0.67,0.59,0.17,HOLMES REGIONAL MEDICAL CENTER
10.55,3.68,25.79143,-80.21250,44896.67,12473.56,0.83,0.49,0.05,JACKSON MEMORIAL HOSPITAL
5.20,2.14,28.83363,-82.33561,19664.31,5211.00,0.50,0.55,0.45,CITRUS MEMORIAL HOSPITAL
5.52,2.75,30.47650,-87.21219,21182.91,8125.32,0.50,0.41,0.39,SACRED HEART HOSPITAL
5.25,2.32,28.54917,-81.52746,19911.92,6075.00,0.50,0.70,0.58,HEALTH CENTRAL
6.85,2.32,27.49789,-82.56220,27448.00,6096.21,0.50,0.55,0.30,MANATEE MEMORIAL HOSPITAL
9.32,2.54,26.01867,-80.17981,39101.90,7135.32,0.83,0.64,0.76,MEMORIAL REGIONAL HOSPITAL
6.55,2.25,30.30835,-81.68919,26023.07,5751.69,0.50,0.69,0.83,ST VINCENT'S MEDICAL CENTER
8.64,2.22,28.01404,-82.78368,35861.42,5610.67,0.50,0.75,0.54,MEASE HOSPITAL DUNEDIN
9.39,2.32,27.19837,-80.24306,39412.03,6081.97,0.67,0.70,0.58,MARTIN MEMORIAL MEDICAL CENTER
8.78,2.28,26.94042,-82.04094,36521.00,5902.07,0.50,0.72,0.86,CHARLOTTE REGIONAL MEDICAL CENTER
11.25,2.23,28.02768,-81.72466,48198.79,5658.00,0.50,0.62,0.03,WINTER HAVEN HOSPITAL
6.62,2.16,28.13321,-82.75839,26377.67,5343.11,0.00,0.00,0.00,HELEN ELLIS MEMORIAL HOSPITAL
7.60,2.16,29.17594,-82.13898,30962.55,5318.76,0.50,0.60,0.94,MUNROE REGIONAL MEDICAL CENTER
9.83,2.29,27.78088,-82.65126,41499.48,5952.06,0.50,0.69,0.58,ST ANTHONY'S HOSPITAL
6.12,2.22,29.24333,-81.10760,24016.09,5618.94,0.50,0.68,0.96,FLORIDA HOSPITAL MEMORIAL MEDICAL CENTER
8.50,2.89,28.01266,-82.50384,35230.59,8768.55,0.00,0.00,0.00,FLORIDA HOSPITAL CARROLLWOOD
6.55,2.15,27.09043,-82.44499,26047.25,5275.00,0.50,0.76,0.48,VENICE REGIONAL MEDICAL CENTER
11.76,2.29,26.18711,-80.11941,50579.85,5921.59,0.83,0.57,0.38,HOLY CROSS HOSPITAL INC
8.35,2.49,27.98242,-82.49025,34508.18,6886.71,0.67,0.60,0.30,ST JOSEPH'S HOSPITAL
11.46,2.27,26.98905,-82.09559,49163.71,5855.57,0.50,0.69,0.43,PEACE RIVER REGIONAL MEDICAL CENTER
12.79,2.40,26.59805,-80.09271,55449.16,6469.63,1.00,0.60,0.28,JFK MEDICAL CENTER
6.96,2.72,28.80659,-81.86906,27977.07,7986.50,0.33,0.68,0.25,LEESBURG REGIONAL MEDICAL CENTER
8.11,2.33,26.27623,-80.12220,33360.10,6128.00,0.75,0.72,0.58,BROWARD HEALTH NORTH BROWARD MEDICAL CENTER
7.40,2.21,27.31827,-82.53140,30014.59,5573.02,0.33,0.38,0.70,SARASOTA MEMORIAL HOSPITAL
8.04,2.53,30.31525,-81.66398,33034.89,7065.09,0.67,0.47,0.13,BAPTIST MEDICAL CENTER
7.24,2.37,29.86371,-81.31749,29275.42,6338.00,0.67,0.76,0.30,FLAGLER HOSPITAL
8.93,2.22,30.43066,-87.23191,37235.36,5611.50,0.50,0.72,0.17,BAPTIST HOSPITAL
5.17,2.27,27.65832,-80.39307,19499.29,5855.00,0.67,0.76,0.99,INDIAN RIVER MEDICAL CENTER
9.06,3.01,29.64155,-82.34844,37844.56,9331.61,0.67,0.54,0.30,SHANDS HOSPITAL AT THE UNIVERSITY OF FLORIDA
9.18,2.22,27.95192,-82.80379,38429.10,5624.00,0.67,0.62,0.10,MORTON PLANT HOSPITAL
14.65,2.67,27.93740,-82.45927,64221.81,7727.14,0.67,0.66,0.00,TAMPA GENERAL HOSPITAL
5.56,2.35,30.45726,-84.26175,21382.50,6224.75,0.67,0.57,0.64,TALLAHASSEE MEMORIAL HEALTHCARE
7.30,2.57,30.26389,-81.44283,29582.47,7257.76,0.83,0.62,0.91,MAYO CLINIC
10.83,2.42,25.70328,-80.29391,46225.25,6531.81,0.50,0.65,0.69,SOUTH MIAMI HOSPITAL INC
8.27,2.24,28.06172,-81.95304,34122.44,5706.00,0.50,0.53,0.03,LAKELAND REGIONAL MEDICAL CENTER
9.57,2.19,27.30187,-82.45428,40253.68,5456.09,0.33,0.68,0.96,DOCTORS HOSPITAL OF SARASOTA
7.76,2.51,28.07111,-82.42342,31727.69,6956.28,0.50,0.69,0.38,FLORIDA HOSPITAL TAMPA
12.88,2.28,29.66085,-82.41172,55868.48,5894.16,0.33,0.53,0.17,NORTH FLORIDA REGIONAL MEDICAL CENTER
12.75,2.14,29.17550,-82.13680,55242.20,5256.26,0.83,0.55,0.86,OCALA REGIONAL MEDICAL CENTER
9.02,2.24,27.48213,-82.62126,37674.54,5697.07,0.50,0.75,0.69,BLAKE MEDICAL CENTER
11.65,2.28,27.84359,-80.48849,50056.18,5913.88,0.00,0.00,0.00,SEBASTIAN RIVER MEDICAL CENTER
7.88,2.27,26.52735,-81.83337,32319.81,5865.11,0.50,0.59,0.64,GULF COAST MEDICAL CENTER LEE MEM HEALTH SYSTEM
13.73,2.30,30.45448,-86.63362,59878.37,6009.83,0.50,0.72,0.64,FORT WALTON BEACH MEDICAL CENTER
12.54,2.23,30.16550,-81.73775,54271.72,5664.24,0.33,0.69,0.58,ORANGE PARK MEDICAL CENTER
12.51,2.20,30.51624,-87.21856,54117.76,5531.41,0.50,0.65,0.05,WEST FLORIDA HOSPITAL
19.30,2.33,26.98884,-82.09877,86124.63,6146.82,0.50,0.80,0.58,FAWCETT MEMORIAL HOSPITAL
15.65,2.20,27.78151,-82.66458,68944.11,5504.89,0.50,0.81,0.33,EDWARD WHITE HOSPITAL
11.96,2.58,27.93259,-82.28759,51533.44,7289.93,0.67,0.68,0.21,BRANDON REGIONAL HOSPITAL
7.88,2.15,26.63958,-81.94164,32306.40,5275.87,0.50,0.53,0.21,CAPE CORAL HOSPITAL
15.92,2.45,27.43392,-80.34350,70230.06,6684.81,0.83,0.54,0.30,LAWNWOOD REGIONAL MEDICAL CENTER & HEART INSTITUTE
9.93,2.18,28.95195,-82.62421,41973.44,5426.04,0.50,0.72,0.21,SEVEN RIVERS REGIONAL MEDICAL CENTER
9.95,2.23,26.92138,-80.09708,42067.48,5667.27,0.50,0.61,0.54,JUPITER MEDICAL CENTER
15.64,2.14,28.36128,-82.68883,68879.63,5221.11,0.67,0.68,0.91,REGIONAL MEDICAL CENTER BAYONET POINT
17.44,2.31,26.43709,-80.12728,77374.33,6045.50,0.83,0.72,0.93,DELRAY MEDICAL CENTER
16.06,2.46,27.28861,-80.29431,70871.59,6748.30,0.50,0.65,0.54,ST LUCIE MEDICAL CENTER
10.69,2.14,28.53585,-82.53404,45527.00,5217.00,0.67,0.71,0.58,OAK HILL HOSPITAL
8.33,2.41,26.01394,-80.30980,34421.08,6502.00,0.67,0.71,0.64,MEMORIAL HOSPITAL WEST
11.51,2.50,26.21388,-81.73257,49402.76,6923.95,0.33,0.80,0.33,PHYSICIANS REGIONAL MEDICAL CENTER - PINE RIDGE
8.58,2.30,26.70181,-80.05055,35610.62,5974.92,0.50,0.59,0.64,GOOD SAMARITAN MEDICAL CENTER
10.06,2.82,26.75635,-80.06322,42592.77,8440.85,1.00,0.85,0.74,ST MARY'S MEDICAL CENTER
10.04,2.28,26.08155,-80.36449,42470.80,5904.13,1.00,0.57,0.48,CLEVELAND CLINIC HOSPITAL
6.42,2.14,28.94952,-81.95843,25417.26,5247.00,0.33,0.80,0.94,VILLAGES REGIONAL HOSPITAL THE
7.55,2.22,30.25377,-81.58270,30745.72,5630.20,0.50,0.78,0.30,ST VINCENT'S MEDICAL CENTER SOUTHSIDE
6.21,2.30,33.94791,-83.40531,24424.62,5968.08,0.50,0.79,0.96,ST MARY'S HOSPITAL
6.99,2.84,33.79230,-84.32107,28103.63,8530.90,0.50,0.41,0.08,EMORY UNIVERSITY HOSPITAL
7.60,2.81,31.17425,-81.48459,30990.00,8396.65,0.50,0.61,0.17,SOUTHEAST GEORGIA HEALTH SYSTEM- BRUNSWICK CAMPUS
5.02,2.36,33.47096,-81.98176,18806.08,6262.25,0.50,0.51,0.21,UNIVERSITY HOSPITAL
8.11,2.29,34.30335,-83.81737,33368.83,5943.22,0.67,0.59,0.45,NORTHEAST GEORGIA MEDICAL CENTER INC
13.65,2.31,34.19990,-84.79378,59511.46,6041.00,0.50,0.62,0.39,CARTERSVILLE MEDICAL CENTER
6.98,2.46,33.96770,-84.55011,28035.93,6754.38,0.67,0.62,0.45,WELLSTAR KENNESTONE HOSPITAL
8.08,2.56,32.03185,-81.09158,33218.41,7204.91,0.67,0.61,0.25,MEMORIAL HEALTH UNIV MED CEN INC
7.34,2.28,31.98515,-81.15475,29730.70,5890.15,0.67,0.72,0.33,ST JOSEPH'S HOSPITAL - SAVANNAH
5.32,2.62,32.46602,-84.98695,20216.28,7506.04,0.33,0.86,0.64,MEDICAL CENTER THE
7.64,2.53,33.96117,-83.39832,31147.61,7067.65,0.50,0.69,0.93,ATHENS REGIONAL MEDICAL CENTER
5.69,2.73,33.76810,-84.38616,21989.14,8037.07,0.33,0.45,0.10,EMORY UNIVERSITY HOSPITAL MIDTOWN
8.40,2.54,33.81003,-84.39568,34737.74,7141.63,0.33,0.57,0.45,PIEDMONT HOSPITAL
4.39,2.28,31.47069,-83.50473,15821.37,5880.00,0.17,0.80,0.32,TIFT REGIONAL MEDICAL CENTER
5.57,2.52,32.83041,-83.63476,21422.90,7004.03,0.67,0.49,0.45,MEDICAL CENTER OF CENTRAL GEORGIA
4.99,2.17,32.50679,-84.95933,18676.38,5377.08,0.83,0.68,0.70,ST FRANCIS HOSPITAL INC
5.97,2.24,34.25704,-85.16467,23308.53,5693.41,0.50,0.88,0.25,REDMOND REGIONAL MEDICAL CENTER
8.65,2.44,33.48259,-82.09038,35939.94,6637.50,0.50,0.59,0.08,DOCTORS HOSPITAL
10.04,2.34,33.51144,-84.22200,42464.59,6172.76,0.50,0.91,0.93,HENRY MEDICAL CENTER INC
7.14,2.58,33.87683,-84.02136,28795.12,7317.12,0.50,0.78,0.45,EMORY EASTSIDE MEDICAL CENTER
15.07,2.70,34.06334,-84.31976,66209.25,7879.94,0.75,0.70,0.74,NORTH FULTON REGIONAL HOSPITAL
5.81,2.19,32.53607,-84.95468,22530.09,5486.41,0.00,0.00,0.00,HUGHSTON HOSPITAL
7.18,2.21,33.45252,-84.50697,28984.29,5572.90,0.50,0.60,0.33,PIEDMONT FAYETTE HOSPITAL
5.07,2.17,34.06670,-84.17643,19071.41,5397.94,0.50,0.78,0.89,EMORY JOHNS CREEK HOSPITAL
5.79,2.73,21.38328,-157.93828,22420.50,8022.64,0.00,0.00,0.00,PALI MOMI MEDICAL CENTER
3.87,2.27,42.59072,-114.49627,13401.00,5840.00,0.50,0.64,0.30,ST LUKES MAGIC VALLEY RMC
4.38,2.36,43.61218,-116.19234,15802.35,6264.29,0.67,0.61,0.16,ST LUKES REGIONAL MEDICAL CENTER
5.02,2.52,43.61359,-116.25484,18809.90,7001.65,0.67,0.79,0.25,ST ALPHONSUS REGIONAL MEDICAL CENTER
7.45,2.34,43.46987,-111.99208,30293.82,6157.09,0.67,0.66,0.58,EASTERN IDAHO REGIONAL MEDICAL CENTER
7.95,2.66,42.06550,-87.68428,32627.67,7704.02,0.33,0.55,0.58,EVANSTON HOSPITAL
9.75,2.72,39.93563,-91.39833,41132.08,7986.38,0.50,0.55,0.93,BLESSING HOSPITAL
6.40,2.36,42.07012,-88.33180,25321.64,6275.29,0.50,0.82,0.25,SHERMAN HOSPITAL
7.73,2.50,42.05624,-87.74012,31607.49,6930.18,0.50,0.75,0.86,SKOKIE HOSPITAL
5.54,2.39,39.80726,-89.64496,21245.53,6392.58,0.50,0.59,0.80,ST JOHNS HOSPITAL
8.83,2.30,41.66900,-87.81414,36782.55,6002.36,0.50,0.72,0.96,PALOS COMMUNITY HOSPITAL
7.27,2.36,41.79660,-87.88627,29432.38,6286.38,0.83,0.64,0.38,ADVENTIST LA GRANGE MEMORIAL HOSPITAL
8.20,2.84,40.70200,-89.59222,33827.55,8532.48,0.67,0.57,0.03,SAINT FRANCIS MEDICAL CENTER
12.84,3.23,41.78829,-87.60485,55688.88,10383.06,0.67,0.66,0.11,THE UNIVERSITY OF CHICAGO MEDICAL CENTER
5.80,2.57,40.11696,-88.21506,22502.66,7278.60,0.33,0.64,0.14,CARLE FOUNDATION HOSPITAL
7.65,2.35,40.11739,-88.22714,31193.24,6234.29,0.50,0.62,0.21,PROVENA COVENANT MEDICAL CENTER- URBANA
4.88,2.25,42.31832,-88.27920,18133.21,5739.00,0.50,0.84,0.25,CENTEGRA HEALTH SYSTEM - MC HENRY HOSPITAL
8.53,2.88,41.98743,-87.81440,35342.81,8729.62,0.67,0.62,0.70,RESURRECTION MEDICAL CENTER
8.33,3.26,41.87497,-87.66927,34416.49,10503.42,0.50,0.42,0.33,RUSH UNIVERSITY MEDICAL CENTER
6.88,2.34,41.80555,-87.92059,27603.05,6168.37,0.50,0.68,0.54,HINSDALE HOSPITAL
7.36,2.44,40.49639,-88.99106,29860.88,6662.09,0.00,0.00,0.00,BROMENN HEALTHCARE
6.83,2.24,39.86644,-88.96090,27350.55,5691.73,0.50,0.60,0.70,DECATUR MEMORIAL HOSPITAL
5.32,2.36,39.80893,-89.65530,20248.41,6262.52,0.83,0.57,0.11,MEMORIAL MEDICAL CENTER
7.56,3.98,41.86927,-87.67052,30779.00,13915.38,0.50,0.76,0.30,UNIVERSITY OF ILLINOIS HOSPITAL
7.26,2.29,40.48254,-88.95519,29385.92,5935.00,0.50,0.91,0.30,ST JOSEPH MEDICAL CENTER
6.91,2.41,37.72790,-89.22058,27715.67,6526.67,0.50,0.64,0.91,MEMORIAL HOSPITAL OF CARBONDALE
7.03,3.47,41.52283,-87.71111,28281.31,11483.69,0.50,0.75,0.33,FRANCISCAN ST JAMES HEALTH
11.68,4.17,41.93641,-87.65295,50215.12,14815.56,0.50,0.78,0.86,ADVOCATE ILLINOIS MASONIC MEDICAL CENTER
5.77,2.28,38.55020,-90.02146,22337.29,5891.05,0.67,0.81,0.21,MEMORIAL HOSPITAL
7.61,3.15,41.12572,-87.88526,31010.67,9974.13,0.50,0.72,0.82,RIVERSIDE MEDICAL CENTER
5.15,2.22,38.51081,-89.99014,19413.69,5598.56,0.50,0.65,0.07,ST ELIZABETH HOSPITAL
10.58,2.45,41.60726,-87.66060,45047.14,6673.57,0.50,0.65,0.76,INGALLS MEMORIAL HOSPITAL
11.18,2.25,41.86362,-87.93567,47855.09,5730.45,0.50,0.76,0.93,ELMHURST MEMORIAL HOSPITAL
7.54,2.67,42.27447,-87.95764,30687.55,7729.60,0.50,0.70,0.80,ADVOCATE CONDELL MEDICAL CENTER
7.35,2.85,41.72031,-87.73249,29810.24,8577.59,0.50,0.57,0.74,ADVOCATE CHRIST HOSPITAL & MEDICAL CENTER
7.86,2.52,40.70065,-89.59505,32210.29,7028.61,0.50,0.79,0.48,METHODIST MEDICAL CENTER OF ILLINOIS
9.27,2.25,41.88566,-88.34311,38864.73,5750.64,0.50,0.81,0.05,DELNOR COMMUNITY HOSPITAL
7.24,2.57,41.54446,-87.98379,29289.88,7282.56,0.50,0.69,0.89,SILVER CROSS HOSPITAL  AND MEDICAL CENTERS
6.93,2.63,42.03837,-87.84820,27842.15,7540.80,0.83,0.78,0.70,ADVOCATE LUTHERAN GENERAL HOSPITAL
8.57,2.41,42.26584,-89.07428,35563.14,6507.36,0.50,0.65,0.76,SWEDISH AMERICAN HOSPITAL
6.59,2.25,41.76076,-88.15016,26230.44,5741.09,0.50,0.69,0.30,EDWARD HOSPITAL
6.19,2.32,42.26634,-89.00900,24322.32,6102.05,0.50,0.50,0.30,SAINT ANTHONY MEDICAL CENTER
5.80,2.59,42.29844,-89.09897,22484.82,7359.73,0.50,0.88,0.57,ROCKFORD MEMORIAL HOSPITAL
9.03,2.33,41.87269,-88.15684,37744.55,6126.33,0.67,0.62,0.89,CENTRAL DUPAGE HOSPITAL
6.22,2.25,42.06732,-87.99368,24460.97,5738.38,0.67,0.68,0.58,NORTHWEST COMMUNITY HOSPITAL
9.54,2.26,42.00413,-88.01745,40120.00,5806.75,0.67,0.79,0.89,ALEXIAN BROTHERS MEDICAL CENTER
6.40,3.11,41.86110,-87.83404,25316.20,9794.07,0.67,0.46,0.05,LOYOLA UNIVERSITY MEDICAL CENTER
5.10,2.25,41.48200,-90.57158,19167.20,5769.53,0.50,0.59,0.64,TRINITY ROCK ISLAND
10.05,2.85,41.89477,-87.62131,42546.12,8566.82,0.50,0.61,0.94,NORTHWESTERN MEMORIAL HOSPITAL
7.61,3.53,41.81791,-88.00907,31018.64,11775.73,0.50,0.86,0.96,ADVOCATE GOOD SAMARITAN HOSPITAL
8.50,2.34,42.05260,-88.14173,35202.85,6170.77,0.50,0.80,0.58,ST ALEXIUS MEDICAL CENTER
6.13,2.35,42.19586,-88.17286,24044.62,6231.31,0.50,0.80,0.96,ADVOCATE GOOD SHEPHERD HOSPITAL
8.29,2.47,41.59920,-87.35764,34253.59,6792.71,0.50,0.65,0.94,METHODIST HOSPITALS INC
8.99,2.68,41.70877,-86.17026,37551.67,7800.80,0.50,0.89,0.58,SAINT JOSEPH REGIONAL MEDICAL CENTER
6.75,2.50,41.03874,-85.24876,26960.22,6917.72,0.67,0.64,0.32,LUTHERAN HOSPITAL OF INDIANA
9.49,2.29,39.48518,-87.40893,39904.82,5961.00,0.50,0.62,0.33,UNION HOSPITAL INC
5.59,2.29,39.72432,-86.10055,21521.79,5954.88,0.00,0.00,0.00,FRANCISCAN ST FRANCIS HEALTH - BEECH GROVE
4.14,2.20,39.79490,-85.76770,14662.45,5537.64,0.00,0.00,0.00,HANCOCK REGIONAL HOSPITAL
5.23,2.20,38.30195,-85.83409,19787.55,5530.27,0.67,0.85,0.86,FLOYD MEMORIAL HOSPITAL AND HEALTH SERVICES
4.82,2.27,39.16006,-86.54038,17893.12,5854.54,0.50,0.56,0.25,INDIANA UNIVERSITY HEALTH BLOOMINGTON HOSPITAL
11.11,3.11,39.79009,-86.16260,47509.83,9802.39,0.50,0.51,0.80,INDIANA UNIVERSITY HEALTH
6.36,2.56,41.68479,-86.25217,25124.58,7220.50,0.67,0.60,0.08,MEMORIAL HOSPITAL OF SOUTH BEND
5.83,2.22,40.04526,-86.02297,22634.92,5615.83,0.50,0.89,0.83,RIVERVIEW HOSPITAL
5.81,2.28,37.98293,-87.57072,22535.52,5913.93,0.83,0.66,0.14,DEACONESS HOSPITAL INC
6.43,2.59,39.91001,-86.19660,25463.04,7365.33,0.67,0.47,0.89,ST VINCENT HOSPITAL & HEALTH SERVICES
6.64,2.53,40.19679,-85.41573,26470.19,7060.98,0.67,0.62,0.85,INDIANA UNIVERSITY HEALTH BALL MEMORIAL HOSPITAL
6.54,2.76,41.49222,-87.52429,25972.23,8160.15,0.50,0.85,0.54,FRANCISCAN ST MARGARET HEALTH - DYER
7.26,2.27,37.96320,-87.50292,29378.69,5843.62,0.67,0.68,0.32,ST MARY'S MEDICAL CENTER OF EVANSVILLE INC
4.45,2.32,39.21585,-85.89683,16133.12,6099.12,0.50,0.76,0.96,COLUMBUS REGIONAL HOSPITAL
5.64,2.32,41.55065,-87.50619,21737.32,6064.36,0.50,0.75,0.86,COMMUNITY HOSPITAL
6.25,2.25,39.90998,-86.26738,24619.23,5730.95,0.00,0.00,0.00,INDIANA ORTHOPAEDIC HOSPITAL LLC
5.35,2.15,41.18970,-85.09940,20387.76,5301.47,0.00,0.00,0.00,ORTHOPAEDIC HOSPITAL AT PARKVIEW NORTH LLC
6.72,2.25,39.90060,-86.04218,26822.46,5729.65,0.50,0.78,0.76,COMMUNITY HOSPITAL NORTH
9.29,2.83,40.40296,-86.80885,38926.75,8467.00,0.50,0.84,0.97,INDIANA UNIVERSITY HEALTH ARNETT HOSPITAL
5.44,2.34,41.66411,-91.52841,20779.19,6194.10,0.50,0.65,0.48,MERCY HOSPITAL
5.13,2.21,42.03321,-93.61164,19339.98,5550.00,0.00,0.00,0.00,MARY GREELEY MEDICAL CENTER
4.66,2.21,41.54190,-90.55691,17099.79,5579.25,0.67,0.59,0.97,GENESIS MEDICAL CENTER-DAVENPORT
5.95,2.31,41.98570,-91.66093,23175.96,6057.64,0.67,0.75,0.91,ST LUKES HOSPITAL
4.75,2.29,41.26786,-95.83505,17533.75,5935.88,0.00,0.00,0.00,JENNIE EDMUNDSON HOSPITAL
4.15,2.30,43.15063,-93.21718,14705.02,5974.35,0.50,0.82,0.64,MERCY MEDICAL CENTER-NORTH IOWA
6.07,2.17,42.49227,-90.67404,23742.93,5351.29,0.50,0.75,0.96,MERCY MEDICAL CENTER-DUBUQUE
4.70,2.13,41.97864,-91.65507,17287.80,5176.72,0.50,0.80,1.00,MERCY MEDICAL CENTER - CEDAR RAPIDS
5.30,2.36,41.58955,-93.63248,20149.46,6262.84,0.67,0.38,0.83,IOWA METHODIST MEDICAL CENTER
5.72,2.35,41.59886,-93.62344,22120.28,6239.00,0.83,0.75,0.29,MERCY MEDICAL CENTER-DES MOINES
4.53,2.14,42.49632,-90.68587,16509.87,5224.57,0.00,0.00,0.00,THE FINLEY HOSPITAL
5.28,2.35,42.51846,-96.40581,20022.00,6232.73,0.50,0.60,0.91,ST LUKES REGIONAL MEDICAL CENTER
5.95,2.58,42.49250,-96.39975,23198.47,7310.20,0.67,0.71,0.54,MERCY MEDICAL CENTER-SIOUX CITY
6.71,2.29,38.83324,-97.61028,26804.74,5920.95,0.50,0.85,0.28,SALINA REGIONAL HEALTH CENTER
4.11,2.23,39.05660,-95.69599,14523.64,5644.96,0.33,0.51,0.33,ST FRANCIS HEALTH CENTER INC
7.45,2.68,39.05583,-94.60912,30247.95,7790.07,0.67,0.54,0.64,UNIVERSITY OF KANSAS HOSPITAL
5.06,2.17,38.85279,-94.82413,19006.44,5377.56,0.50,0.59,0.63,OLATHE MEDICAL CENTER
6.50,2.29,39.05128,-95.69572,25813.27,5936.60,0.67,0.71,0.11,STORMONT-VAIL HEALTHCARE
8.58,2.19,38.99549,-94.69061,35615.02,5455.96,0.67,0.46,0.21,SHAWNEE MISSION MEDICAL CENTER
7.01,2.37,37.70405,-97.31386,28196.48,6329.00,0.67,0.69,0.21,VIA CHRISTI HOSPITALS WICHITA INC
9.40,2.49,37.69556,-97.29785,39444.29,6885.79,0.67,0.53,0.05,WESLEY MEDICAL CENTER
7.50,2.28,39.12677,-94.78643,30496.86,5877.14,0.50,0.60,0.83,PROVIDENCE MEDICAL CENTER
9.83,2.26,38.93763,-94.72630,41492.45,5809.91,0.50,0.59,0.10,OVERLAND PARK REG MED CTR
5.39,2.20,38.91047,-94.65205,20566.69,5514.69,0.50,0.66,0.11,MENORAH MEDICAL CENTER
5.47,2.30,38.92696,-94.64353,20921.61,5968.02,0.00,0.00,0.00,DOCTORS HOSPITAL LLC
5.23,2.20,37.74369,-97.22762,19823.52,5514.96,0.00,0.00,0.00,KANSAS SPINE HOSPITAL LLC
4.73,2.16,38.03140,-84.52194,17440.37,5337.11,0.83,0.68,0.80,SAINT JOSEPH HOSPITAL
5.75,2.34,36.99641,-86.43006,22233.11,6172.00,0.67,0.53,0.33,THE MEDICAL CENTER AT BOWLING GREEN
4.96,2.29,39.06704,-84.49946,18512.26,5947.66,0.33,0.59,0.80,ST ELIZABETH MEDICAL CENTER NORTH
4.46,2.54,37.76518,-87.10197,16191.92,7134.46,0.50,0.66,0.30,OWENSBORO MEDICAL HEALTH SYSTEM
6.53,2.37,38.24927,-85.75081,25931.93,6330.20,0.67,0.51,0.08,JEWISH HOSPITAL & ST MARY'S HEALTHCARE
6.72,2.55,37.47264,-82.52605,26836.29,7169.19,0.75,0.86,0.10,PIKEVILLE MEDICAL CENTER
5.64,2.52,37.64378,-84.77272,21722.93,7023.19,0.00,0.00,0.00,EPHRAIM MCDOWELL REGIONAL MEDICAL CENTER
7.85,3.28,38.03282,-84.50674,32156.15,10604.92,0.33,0.62,0.33,UNIVERSITY OF KENTUCKY HOSPITAL
6.28,2.44,38.24806,-85.75125,24740.95,6639.41,0.50,0.35,0.39,NORTON HOSPITALS INC
5.19,2.30,38.01849,-84.51236,19629.78,5980.43,0.50,0.71,0.58,CENTRAL BAPTIST HOSPITAL
6.01,2.14,37.07404,-88.62685,23466.42,5239.00,0.50,0.80,0.39,WESTERN BAPTIST HOSPITAL
6.67,2.35,36.96603,-86.43639,26579.62,6220.75,0.50,0.85,0.94,GREENVIEW REGIONAL HOSPITAL
4.81,2.16,38.23898,-85.63941,17813.62,5320.03,0.67,0.57,0.74,BAPTIST HOSPITAL EAST
7.05,2.36,37.08724,-84.61828,28402.52,6262.43,0.67,0.60,0.17,LAKE CUMBERLAND REGIONAL HOSPITAL
3.94,2.34,37.99944,-84.43941,13737.67,6172.92,0.50,0.76,0.64,SAINT JOSEPH EAST
7.01,2.71,30.20227,-92.01906,28182.16,7928.04,0.50,0.74,0.30,LAFAYETTE GENERAL MEDICAL CENTER
4.83,2.15,29.77956,-90.80568,17926.30,5266.75,0.50,0.74,0.93,THIBODAUX REGIONAL MEDICAL CENTER
6.70,2.42,29.59851,-90.71397,26712.93,6548.40,0.25,0.69,0.69,TERREBONNE GENERAL MEDICAL CENTER
13.58,2.84,30.46813,-90.45814,59169.53,8554.13,0.75,0.71,0.74,NORTH OAKS MEDICAL CENTER LLC
10.52,2.62,31.31451,-92.44997,44761.69,7520.15,0.67,0.40,0.39,RAPIDES REGIONAL MEDICAL CENTER
6.90,2.59,32.49443,-93.75011,27657.47,7359.29,0.50,0.69,0.14,CHRISTUS SCHUMPERT HEALTH SYSTEM
5.16,2.29,30.40118,-91.11160,19474.59,5947.76,0.83,0.51,0.33,OUR LADY OF THE LAKE REGIONAL MEDICAL CENTER
4.07,2.86,32.48177,-93.76264,14314.64,8624.32,1.00,0.80,0.00,LSU HEALTH SCIENCES CENTER - SHREVEPORT
5.85,2.30,32.48393,-93.77884,22719.90,5980.51,0.50,0.64,0.63,WILLIS KNIGHTON MEDICAL CENTER
5.13,2.32,32.49997,-92.11359,19309.20,6073.10,0.67,0.62,0.99,ST FRANCIS MEDICAL CENTER
5.08,2.25,30.01438,-90.18155,19085.63,5756.35,0.67,0.69,0.74,EAST JEFFERSON GENERAL HOSPITAL
6.48,2.06,32.50111,-92.11530,25683.36,4838.00,0.00,0.00,0.00,P & S SURGICAL HOSPITAL
7.91,2.33,30.17586,-92.02762,32440.46,6148.21,0.00,0.00,0.00,LAFAYETTE SURGICAL SPECIALTY HOSPITAL
8.48,2.10,32.49813,-93.74607,35143.83,5054.00,0.00,0.00,0.00,SPECIALISTS HOSPITAL SHREVEPORT
8.30,2.00,31.31391,-92.46790,34300.56,4573.25,0.00,0.00,0.00,CENTRAL LOUISIANA SURGICAL HOSPITAL
3.09,2.23,44.81469,-68.77153,9700.46,5646.10,0.00,0.00,0.00,ST JOSEPH HOSPITAL
3.16,2.31,43.65159,-70.26482,10054.87,6045.80,0.00,0.00,0.00,MERCY HOSPITAL
3.70,2.55,43.65325,-70.27533,12599.88,7169.27,0.17,0.47,0.01,MAINE MEDICAL CENTER
4.58,2.36,44.10107,-70.21432,16735.38,6254.77,0.67,0.70,0.58,CENTRAL MAINE MEDICAL CENTER
4.31,2.45,44.80988,-68.74929,15466.09,6678.95,0.50,0.59,0.38,EASTERN MAINE MEDICAL CENTER
2.45,2.38,39.62183,-77.68219,6701.43,6352.31,0.00,0.00,0.00,MERITUS MEDICAL CENTER
5.93,5.63,39.28817,-76.62438,23085.24,21700.19,0.00,0.00,0.00,UNIVERSITY OF MARYLAND MEDICAL CENTER
3.00,2.90,39.01578,-77.03591,9305.67,8822.67,0.00,0.00,0.00,HOLY CROSS HOSPITAL
2.51,2.43,39.42366,-77.41386,6982.82,6597.66,0.00,0.00,0.00,FREDERICK MEMORIAL HOSPITAL
3.43,3.32,39.38813,-76.61068,11322.12,10784.44,0.00,0.00,0.00,SAINT JOSEPH MEDICAL CENTER
3.06,2.94,39.29297,-76.61314,9583.63,9008.58,0.00,0.00,0.00,MERCY MEDICAL CENTER INC
4.10,3.93,39.29688,-76.59242,14481.40,13670.32,0.00,0.00,0.00,JOHNS HOPKINS HOSPITAL THE
3.01,2.93,39.27352,-76.67219,9312.76,8944.59,0.00,0.00,0.00,SAINT AGNES HOSPITAL
4.54,4.36,39.35262,-76.66196,16557.31,15717.70,0.00,0.00,0.00,SINAI HOSPITAL OF BALTIMORE
3.01,2.89,39.35169,-76.47919,9321.37,8792.05,0.00,0.00,0.00,FRANKLIN SQUARE HOSPITAL CENTER
3.30,3.17,38.36248,-75.59799,10725.17,10081.67,0.00,0.00,0.00,PENINSULA REGIONAL MEDICAL CENTER
2.69,2.59,38.99743,-77.11048,7819.66,7377.38,0.00,0.00,0.00,SUBURBAN HOSPITAL
2.58,2.50,38.99014,-76.53398,7303.33,6920.38,0.00,0.00,0.00,ANNE ARUNDEL MEDICAL CENTER
3.79,3.66,39.32930,-76.61432,13035.90,12400.50,0.00,0.00,0.00,UNION MEMORIAL HOSPITAL
3.02,2.91,39.64928,-78.73206,9382.87,8871.48,0.00,0.00,0.00,WESTERN MARYLAND REGIONAL MEDICAL CENTER
4.76,4.54,39.29100,-76.54623,17604.93,16548.50,0.00,0.00,0.00,JOHNS HOPKINS BAYVIEW MEDICAL CENTER
2.99,2.90,39.55808,-76.99107,9247.10,8829.70,0.00,0.00,0.00,CARROLL HOSPITAL CENTER
5.32,5.11,39.25189,-76.61399,20227.39,19251.72,0.00,0.00,0.00,HARBOR HOSPITAL
3.25,3.11,38.76970,-76.07697,10443.82,9817.09,0.00,0.00,0.00,MEMORIAL HOSPITAL AT EASTON
2.59,2.52,39.13732,-76.62228,7350.89,7028.89,0.00,0.00,0.00,BALTIMORE WASHINGTON  MEDICAL CENTER
3.44,3.31,39.39017,-76.62216,11352.20,10771.32,0.00,0.00,0.00,GREATER BALTIMORE MEDICAL CENTER
2.98,2.88,39.21273,-76.88526,9200.93,8726.07,0.00,0.00,0.00,HOWARD COUNTY GENERAL HOSPITAL
3.28,3.18,39.51870,-76.34688,10624.30,10145.80,0.00,0.00,0.00,UPPER CHESAPEAKE MEDICAL CENTER
3.19,3.12,39.35962,-76.58851,10202.27,9854.73,0.00,0.00,0.00,GOOD SAMARITAN HOSPITAL
2.84,2.78,39.09796,-77.19799,8549.76,8253.88,0.00,0.00,0.00,SHADY GROVE ADVENTIST HOSPITAL
4.30,2.64,42.37441,-71.13378,15409.69,7584.00,0.67,0.85,0.17,MOUNT AUBURN HOSPITAL
4.68,2.67,42.70912,-71.14877,17204.09,7746.50,0.50,0.71,0.80,LAWRENCE GENERAL HOSPITAL
3.87,2.81,41.65298,-70.27484,13367.31,8379.11,0.50,0.56,0.96,CAPE COD HOSPITAL
4.78,3.49,42.35843,-71.05977,17702.00,11587.86,0.67,0.51,0.00,BOSTON MEDICAL CENTER CORPORATION
6.81,2.56,42.51078,-70.90712,27265.98,7190.59,0.33,0.47,0.70,NORTH SHORE MEDICAL CENTER
6.21,3.34,42.34896,-71.14768,24436.33,10876.95,0.50,0.69,0.58,ST ELIZABETH'S MEDICAL CENTER
6.12,2.70,51.46599,-1.28140,24013.91,7854.09,0.50,0.76,0.20,BERKSHIRE MEDICAL CENTER INC
7.48,2.47,41.94445,-70.64511,30434.04,6774.89,0.50,0.82,0.25,JORDAN HOSPITAL INC
4.76,2.63,42.64636,-71.34118,17597.24,7523.52,0.50,0.88,0.96,LOWELL GENERAL HOSPITAL
4.79,2.55,42.11449,-72.59502,17719.22,7152.30,0.50,0.78,0.76,MERCY MEDICAL CENTER
11.29,3.01,42.36227,-71.06941,48375.44,9347.59,0.50,0.44,0.16,MASSACHUSETTS GENERAL HOSPITAL
4.14,2.55,41.70928,-71.14519,14648.56,7160.50,0.25,0.51,0.89,SOUTHCOAST HOSPITAL GROUP INC
3.98,2.86,42.12077,-72.60525,13928.82,8626.10,0.33,0.61,0.83,BAYSTATE MEDICAL CENTER
5.82,2.53,42.72846,-71.16830,22590.23,7067.77,0.50,0.74,0.33,HOLY FAMILY HOSPITAL
4.77,3.15,42.33719,-71.10939,17655.24,10015.31,0.33,0.71,0.33,BETH ISRAEL DEACONESS MEDICAL CENTER
4.87,2.44,42.32919,-71.10626,18092.03,6651.19,0.00,0.00,0.00,NEW ENGLAND BAPTIST HOSPITAL
4.52,2.44,42.13234,-71.52825,16451.55,6648.55,0.50,0.71,0.96,MILFORD REGIONAL MEDICAL CENTER
4.26,2.59,42.17644,-70.95398,15248.14,7370.86,0.67,0.70,0.48,SOUTH SHORE HOSPITAL
7.98,2.46,42.33149,-71.24568,32782.05,6751.88,0.67,0.70,0.99,NEWTON-WELLESLEY HOSPITAL
11.37,2.98,42.33600,-71.10704,48763.03,9197.37,0.67,0.40,0.20,BRIGHAM AND WOMEN'S HOSPITAL
5.77,3.27,42.34951,-71.06331,22336.90,10539.43,0.50,0.64,0.86,TUFTS MEDICAL CENTER
5.83,3.10,42.27720,-71.75922,22633.14,9760.12,0.50,0.36,0.30,UMASS MEMORIAL MEDICAL CENTER INC
3.40,2.62,42.48585,-71.20686,11153.46,7498.36,0.67,0.76,0.16,LAHEY CLINIC HOSPITAL
6.02,2.25,42.39466,-83.40537,23542.45,5751.36,0.50,0.60,0.64,ST MARY MERCY HOSPITAL
4.22,2.36,43.20588,-86.20839,15027.71,6263.71,0.50,0.76,0.58,MERCY HEALTH PARTNERS MERCY CAMPUS
4.08,2.60,42.28551,-85.58042,14404.37,7404.70,0.67,0.82,0.14,BRONSON METHODIST HOSPITAL
4.80,2.58,42.45741,-83.20513,17776.24,7298.12,0.83,0.57,0.48,PROVIDENCE HOSPITAL AND MEDICAL CENTERS
7.71,2.77,42.29077,-83.21504,31475.14,8222.27,0.33,0.49,0.70,OAKWOOD HOSPITAL AND MEDICAL CENTER
4.02,2.37,42.08955,-86.47781,14088.47,6305.77,0.33,0.69,0.89,LAKELAND HOSPITAL ST JOSEPH
5.63,2.69,42.61425,-83.27602,21687.20,7824.46,0.67,0.53,0.80,ST JOSEPH MERCY OAKLAND
4.01,2.64,42.96881,-85.66649,14072.70,7602.38,0.33,0.66,0.83,SPECTRUM HEALTH - BUTTERWORTH CAMPUS
6.09,3.47,42.28388,-83.72960,23880.62,11493.29,0.50,0.61,0.43,UNIVERSITY OF MICHIGAN HEALTH SYSTEM
4.91,2.32,42.61490,-82.96060,18288.67,6094.44,0.50,0.66,0.54,HENRY FORD MACOMB HOSPITAL
5.99,2.96,42.36762,-83.08461,23382.47,9087.73,0.67,0.47,0.08,HENRY FORD HOSPITAL
3.90,2.54,46.54758,-87.39560,13532.31,7132.28,0.83,0.68,0.48,MARQUETTE GENERAL HOSPITAL
3.61,2.60,42.95817,-85.66253,12164.61,7404.79,0.50,0.54,0.91,SAINT MARY'S HEALTH CARE
4.95,2.53,43.22169,-86.24283,18493.75,7054.00,0.00,0.00,0.00,MERCY HEALTH PARTNERS HACKLEY CAMPUS
5.07,2.40,43.42857,-83.95556,19056.02,6462.07,0.83,0.61,0.64,COVENANT MEDICAL CENTER INC
5.02,2.32,42.77487,-86.11378,18801.79,6093.93,0.00,0.00,0.00,HOLLAND COMMUNITY HOSPITAL
3.55,2.36,43.42612,-83.94185,11883.02,6255.29,0.67,0.64,0.58,ST MARY'S OF MICHIGAN MEDICAL CENTER
5.25,2.37,42.38392,-82.91480,19912.38,6341.00,0.50,0.62,0.51,BEAUMONT HOSPITAL GROSSE POINTE
5.61,2.28,42.25117,-84.39240,21616.45,5911.27,0.50,0.85,0.99,ALLEGIANCE HEALTH
4.28,2.52,44.76156,-85.64143,15316.07,7022.11,0.50,0.41,0.58,MUNSON MEDICAL CENTER
3.73,2.42,45.37209,-84.97065,12748.48,6558.00,0.50,0.78,0.25,NORTHERN MICHIGAN REGIONAL HOSPITAL
8.11,2.49,42.30489,-85.56152,33391.47,6894.73,0.67,0.47,0.76,BORGESS MEDICAL CENTER
4.05,2.57,42.51418,-83.19259,14236.41,7274.83,0.67,0.60,0.16,WILLIAM BEAUMONT HOSPITAL
5.73,2.54,43.01399,-83.73250,22163.90,7125.30,0.50,0.60,0.33,MCLAREN FLINT
4.50,2.38,42.21065,-83.14861,16380.68,6372.59,0.50,0.70,0.96,HENRY FORD WYANDOTTE HOSPITAL
5.18,2.47,42.26181,-83.66003,19583.68,6785.29,0.67,0.62,0.33,ST JOSEPH MERCY HOSPITAL
5.02,2.71,42.41975,-82.91442,18801.40,7932.00,0.67,0.72,0.10,ST JOHN HOSPITAL AND MEDICAL CENTER
4.06,2.46,42.70417,-84.55488,14274.70,6724.66,0.33,0.76,0.21,MCLAREN - GREATER LANSING
4.79,2.62,42.89254,-83.63621,17709.13,7473.70,0.67,0.70,0.14,GENESYS REGIONAL MEDICAL CENTER - HEALTH PARK
4.06,2.44,43.63618,-84.26187,14278.61,6644.22,0.50,0.72,0.70,MIDMICHIGAN MEDICAL CENTER-MIDLAND
5.87,2.60,42.73767,-84.51698,22797.55,7415.26,0.83,0.69,0.01,EDWARD W SPARROW HOSPITAL
3.97,2.54,42.85736,-85.71774,13869.81,7116.55,0.50,0.66,0.48,METRO HEALTH HOSPITAL
5.57,2.40,42.61826,-83.09239,21396.17,6474.21,0.83,0.60,0.63,WILLIAM BEAUMONT HOSPITAL-TROY
5.85,2.19,42.53914,-83.40777,22717.82,5448.82,0.50,0.54,0.39,HENRY FORD WEST BLOOMFIELD HOSPITAL
5.93,2.41,45.01403,-93.32177,23085.09,6529.35,0.67,0.69,0.83,NORTH MEMORIAL MEDICAL CENTER
5.21,2.44,46.79380,-92.09573,19696.85,6630.50,0.83,0.75,0.80,ESSENTIA HEALTH ST MARY'S MEDICAL CENTER
5.71,2.86,44.02052,-92.48292,22088.78,8635.34,0.83,0.42,0.32,MAYO CLINIC - SAINT MARYS HOSPITAL
5.20,2.66,45.57390,-94.16942,19676.49,7666.00,0.50,0.61,0.38,ST CLOUD HOSPITAL
8.12,2.82,44.94214,-93.10858,33432.65,8450.82,0.50,0.86,0.33,UNITED HOSPITAL
6.34,2.44,46.79634,-92.08793,25046.20,6633.33,0.50,0.71,0.30,ST LUKES HOSPITAL
3.98,2.45,44.93031,-93.36276,13913.49,6718.26,0.67,0.72,0.94,PARK NICOLLET METHODIST HOSPITAL
4.78,2.30,44.84294,-93.79336,17678.80,6000.73,0.00,0.00,0.00,RIDGEVIEW MEDICAL CENTER
6.44,2.62,44.95248,-93.26196,25523.24,7515.73,0.50,0.70,0.64,ABBOTT NORTHWESTERN HOSPITAL
6.68,2.43,44.94898,-93.10016,26659.31,6583.62,0.33,0.66,0.58,ST JOSEPH'S HOSPITAL
3.92,2.30,45.04805,-92.81903,13620.21,6006.57,0.00,0.00,0.00,LAKEVIEW MEMORIAL HOSPITAL
4.71,2.33,44.88645,-93.32693,17367.29,6139.81,0.67,0.62,0.94,FAIRVIEW SOUTHDALE HOSPITAL
6.21,2.92,44.96766,-93.23640,24422.75,8914.17,0.67,0.56,0.58,UNIVERSITY OF MINNESOTA  MEDICAL CENTER FAIRVIEW
3.79,2.41,44.16396,-94.00412,13004.21,6493.07,0.50,0.57,0.76,MAYO CLINIC HEALTH SYSTEM - MANKATO
6.80,2.78,44.95570,-93.09429,27188.74,8265.21,0.50,0.79,0.17,REGIONS HOSPITAL
8.41,2.61,45.18355,-93.36789,34809.30,7429.20,0.50,0.74,0.96,MERCY HOSPITAL
6.47,2.61,45.10789,-93.25685,25655.00,7451.61,0.33,0.85,0.86,UNITY HOSPITAL
4.93,2.51,44.74846,-93.27289,18401.87,6967.00,0.50,0.84,0.97,FAIRVIEW RIDGES HOSPITAL
6.72,2.38,45.02892,-93.03418,26826.00,6385.37,0.50,0.75,0.25,HEALTHEAST ST JOHN'S HOSPITAL
6.17,2.31,44.91542,-92.94757,24248.96,6020.00,0.00,0.00,0.00,HEALTHEAST WOODWINDS HOSPITAL
5.98,2.25,45.13294,-93.47922,23351.82,5729.64,0.00,0.00,0.00,MAPLE GROVE HOSPITAL
8.96,2.87,32.33069,-90.17030,37384.32,8683.59,0.67,0.51,0.07,UNIVERSITY OF MISSISSIPPI MED CENTER
5.58,2.41,34.24336,-88.71753,21470.86,6497.29,0.67,0.61,0.48,NORTH MISSISSIPPI MEDICAL CENTER
14.28,3.04,30.39599,-88.89061,62476.25,9479.25,0.50,0.80,0.48,BILOXI REGIONAL MEDICAL CENTER
11.05,2.37,30.36674,-89.11535,47234.14,6335.36,0.50,0.66,0.69,MEMORIAL HOSPITAL AT GULFPORT
9.58,2.27,30.37516,-88.53226,40330.00,5865.25,0.50,0.70,0.03,SINGING RIVER HOSPITAL
6.80,2.31,32.33616,-90.15652,27186.21,6043.54,0.50,0.60,0.45,ST DOMINIC-JACKSON MEMORIAL HOSPITAL
4.20,2.34,31.31872,-89.32955,14948.86,6174.18,0.50,0.57,0.54,FORREST GENERAL HOSPITAL
15.49,2.25,32.28618,-90.03434,68185.62,5746.81,0.50,0.69,0.07,CROSSGATES RIVER OAKS HOSPITAL
12.82,2.25,30.44411,-89.09321,55584.38,5736.25,0.50,0.72,0.11,GARDEN PARK MEDICAL CENTER
9.33,2.35,32.32541,-90.10520,39153.55,6212.91,0.00,0.00,0.00,RIVER OAKS HOSPITAL
6.23,2.23,37.06032,-94.52747,24521.55,5646.55,0.00,0.00,0.00,ST JOHN'S REGIONAL MEDICAL CENTER
5.69,2.10,38.57670,-92.17352,21995.11,5067.11,0.50,0.86,0.01,ST MARYS HEALTH CENTER
5.32,2.30,38.64281,-90.44448,20212.62,6005.77,0.83,0.57,0.74,MERCY HOSPITAL ST LOUIS
10.54,2.57,39.00717,-94.55925,44834.00,7269.91,0.33,0.82,0.05,RESEARCH MEDICAL CENTER
6.92,2.84,38.63524,-90.26508,27775.81,8510.45,0.50,0.56,0.12,BARNES JEWISH HOSPITAL
5.12,2.30,37.14560,-93.28037,19292.78,5966.07,0.50,0.61,0.86,COX MEDICAL CENTER
4.66,2.36,38.56571,-92.18204,17103.05,6269.50,0.50,0.84,0.58,CAPITAL REGION MEDICAL CENTER
6.27,2.31,37.17999,-93.27409,24704.86,6043.80,0.67,0.61,0.25,ST JOHN'S REGIONAL HEALTH CENTER
4.37,2.08,38.94903,-92.31563,15752.81,4973.80,0.67,0.74,0.43,BOONE HOSPITAL CENTER
3.58,2.13,38.50661,-90.38025,12022.27,5205.09,0.67,0.57,0.14,ST ANTHONY'S MEDICAL CENTER
5.56,2.20,38.93592,-94.60376,21352.44,5524.85,0.50,0.75,0.89,ST JOSEPH MEDICAL CENTER
5.09,2.66,38.63268,-90.31089,19139.50,7675.86,0.83,0.78,0.58,SSM ST MARYS HEALTH CENTER
8.35,2.29,39.04749,-94.34105,34526.62,5945.48,0.50,0.72,0.39,CENTERPOINT MEDICAL CENTER OF INDEPENDENCE LLC
5.12,2.19,39.14957,-94.55148,19302.33,5478.73,0.50,0.59,0.64,NORTH KANSAS CITY HOSPITAL
5.13,2.31,38.75097,-90.43255,19331.24,6027.52,0.67,0.69,0.43,SSM DEPAUL HEALTH CENTER
11.47,2.25,37.31072,-89.53990,49230.62,5741.35,0.50,0.72,0.08,SOUTHEAST MISSOURI HOSPITAL
5.87,2.31,37.05238,-94.52777,22802.56,6038.56,0.83,0.68,0.86,FREEMAN HEALTH SYSTEM - FREEMAN WEST
10.84,2.46,39.04761,-94.59037,46236.52,6741.30,0.67,0.50,0.17,ST LUKES HOSPITAL OF KANSAS CITY
5.40,2.64,38.95171,-92.33407,20610.88,7607.48,0.67,0.60,0.64,UNIVERSITY OF MISSOURI HEALTH CARE
8.51,2.25,38.58103,-90.45144,35286.44,5750.81,0.50,0.70,0.43,DES PERES HOSPITAL
5.86,2.23,39.27591,-94.42572,22762.28,5665.43,0.33,0.60,0.33,LIBERTY HOSPITAL
4.95,2.36,38.65123,-90.50301,18490.48,6247.16,0.67,0.68,0.12,ST LUKES HOSPITAL
5.47,2.30,38.77576,-90.23906,20956.56,5994.50,0.67,0.75,0.05,CHRISTIAN HOSPITAL NORTHEAST
12.18,3.18,37.30401,-89.57190,52573.69,10144.79,0.50,0.65,0.11,ST FRANCIS MEDICAL CENTER
5.50,2.34,45.78958,-108.51283,21069.97,6175.55,0.50,0.86,0.89,BILLINGS CLINIC HOSPITAL
4.32,2.50,47.49139,-111.26255,15533.45,6932.76,0.50,0.61,0.58,BENEFIS HOSPITALS INC
6.05,2.64,46.84691,-114.04640,23646.35,7593.40,0.00,0.00,0.00,COMMUNITY MEDICAL CENTER INC
4.52,2.34,45.79337,-108.51928,16446.88,6181.15,0.50,0.81,0.54,ST VINCENT HEALTHCARE
4.93,2.30,48.21465,-114.32386,18371.78,5981.44,0.50,0.84,0.58,KALISPELL REGIONAL MEDICAL CENTER
6.58,2.37,40.78318,-96.63709,26169.31,6323.58,0.67,0.70,0.64,BRYANLGH MEDICAL CENTER
6.85,2.62,40.70646,-99.08136,27445.87,7497.67,0.50,0.69,0.51,GOOD SAMARITAN HOSPITAL
6.18,2.73,41.25522,-95.97892,24284.68,8000.06,0.50,0.53,0.51,THE NEBRASKA MEDICAL CENTER
5.09,2.34,40.80816,-96.62689,19134.34,6184.20,0.50,0.66,0.20,SAINT ELIZABETH REGIONAL MEDICAL CENTER
5.52,2.23,41.25797,-96.04164,21184.68,5677.82,0.50,0.74,0.33,THE NEBRASKA METHODIST HOSPITAL
6.66,2.28,41.23897,-96.03162,26565.70,5911.13,0.50,0.46,0.83,ALEGENT HEALTH BERGAN MERCY MEDICAL CENTER
7.64,2.83,41.88690,-103.66400,31158.79,8481.58,0.50,0.59,0.86,REGIONAL WEST MEDICAL CENTER
7.19,2.33,41.25751,-96.03663,29035.03,6150.11,0.00,0.00,0.00,MIDWEST SURGICAL HOSPITAL LLC
7.77,2.17,41.32146,-96.02188,31767.57,5365.00,0.00,0.00,0.00,NEBRASKA SPINE HOSPITAL LLC
6.11,2.53,39.52637,-119.79456,23930.88,7049.50,0.50,0.66,0.17,RENOWN REGIONAL MEDICAL CENTER
10.64,2.66,36.13459,-115.13576,45289.70,7694.13,0.67,0.69,0.10,SUNRISE HOSPITAL AND MEDICAL CENTER
10.50,2.68,36.15896,-115.16558,44672.88,7783.00,0.33,0.60,0.00,UMC OF SOUTHERN NEVADA
9.16,2.36,39.53066,-119.82067,38347.69,6263.59,0.67,0.76,0.45,SAINT MARY'S REGIONAL MEDICAL CENTER
9.78,2.62,39.20247,-119.78446,41249.00,7478.74,0.50,0.56,0.70,CARSON TAHOE REGIONAL MEDICAL CENTER
10.54,2.44,36.21599,-115.25095,44863.02,6630.93,0.67,0.57,0.14,MOUNTAINVIEW HOSPITAL
9.51,2.44,36.00527,-115.11618,39984.40,6663.80,0.50,0.50,0.33,SAINT ROSE DOMINICAN HOSPITAL - SIENA CAMPUS
11.14,2.46,36.09056,-115.24058,47652.22,6722.89,0.67,0.79,0.13,SPRING VALLEY HOSPITAL MEDICAL CENTER
5.25,2.42,43.19846,-71.56230,19889.72,6555.83,0.33,0.64,0.94,CONCORD HOSPITAL
7.16,3.01,43.67286,-72.27232,28888.29,9350.12,0.50,0.39,0.01,MARY HITCHCOCK MEMORIAL HOSPITAL
7.90,2.50,43.06469,-70.78916,32385.16,6933.58,0.50,0.76,0.48,PORTSMOUTH REGIONAL HOSPITAL
11.85,2.70,40.88346,-74.05564,51037.04,7856.09,0.50,0.59,0.86,HACKENSACK UNIVERSITY MEDICAL CENTER
10.72,2.73,40.35684,-74.66166,45706.57,8033.43,0.50,0.56,0.21,UNIVERSITY MEDICAL CENTER AT PRINCETON
8.18,2.46,40.98359,-74.10047,33715.00,6738.57,0.50,0.79,0.21,VALLEY HOSPITAL
7.22,2.67,40.78883,-74.46620,29194.52,7755.20,0.67,0.44,0.39,MORRISTOWN MEMORIAL HOSPITAL
6.39,2.40,40.95858,-74.31000,25255.32,6456.42,0.50,0.62,0.01,CHILTON HOSPITAL
8.47,2.96,40.90215,-74.16634,35073.11,9089.22,0.17,0.54,0.94,ST JOSEPH'S REGIONAL MEDICAL CENTER
11.65,2.42,39.78261,-74.91670,50090.52,6546.42,0.50,0.53,0.74,VIRTUA WEST JERSEY HOSPITALS BERLIN
7.55,2.61,39.44743,-75.05838,30731.64,7449.50,0.50,0.62,0.01,SOUTH JERSEY HEALTHCARE REGIONAL MEDICAL CENTER
10.71,2.27,40.35309,-74.06484,45625.54,5861.64,0.33,0.61,0.70,RIVERVIEW MEDICAL CENTER
9.62,2.82,40.49581,-74.44980,40482.90,8447.62,0.67,0.51,0.01,ROBERT WOOD JOHNSON UNIVERSITY HOSPITAL
8.05,2.31,39.31464,-74.59391,33118.77,6031.13,0.17,0.72,0.83,SHORE MEDICAL CENTER
8.87,2.39,40.89538,-74.46479,36961.95,6426.47,0.50,0.64,0.70,SAINT CLARE'S HOSPITAL
6.52,2.64,40.71264,-74.35460,25864.52,7573.06,0.50,0.53,0.58,OVERLOOK HOSPITAL
10.97,2.47,39.98588,-74.79393,46857.71,6768.29,0.67,0.55,0.54,VIRTUA MEMORIAL HOSPITAL OF BURLINGTON COUNTY
10.18,2.78,40.50214,-74.46015,43120.92,8228.92,0.50,0.54,0.30,SAINT PETER'S UNIVERSITY HOSPITAL
13.89,2.49,40.21065,-74.03566,60653.38,6876.38,0.50,0.59,0.07,JERSEY SHORE UNIVERSITY MEDICAL CENTER
8.89,2.74,40.76190,-74.30335,37049.05,8069.11,0.83,0.54,0.03,SAINT BARNABAS MEDICAL CENTER
8.80,2.54,40.55784,-74.34970,36613.32,7134.21,0.50,0.71,0.58,JFK MEDICAL CTR - ANTHONY M. YELENCSICS COMMUNITY
5.09,2.80,35.65960,-105.94578,19142.09,8349.48,0.50,0.65,0.30,ST VINCENT HOSPITAL
5.84,2.43,35.08102,-106.63392,22692.20,6592.40,0.33,0.51,0.03,PRESBYTERIAN HOSPITAL
6.50,2.28,32.32310,-106.72900,25814.57,5874.30,0.50,0.69,0.16,MOUNTAIN VIEW REGIONAL MEDICAL CENTER
7.18,2.69,42.87482,-78.84942,28991.91,7829.00,0.33,0.45,0.08,KALEIDA HEALTH
6.01,2.69,42.65345,-73.77543,23483.00,7819.61,0.67,0.60,0.64,ALBANY MEDICAL CENTER HOSPITAL
7.48,2.50,41.69441,-73.93432,30392.69,6936.00,0.83,0.82,0.54,VASSAR BROTHERS MEDICAL CENTER
6.36,3.38,40.79041,-73.95386,25133.87,11073.73,0.83,0.39,0.05,MOUNT SINAI HOSPITAL
5.74,3.38,40.80556,-73.96131,22208.94,11098.29,0.33,0.56,0.05,ST LUKE'S ROOSEVELT HOSPITAL
6.85,2.34,42.65583,-73.80372,27451.54,6153.77,0.33,0.47,0.54,ST PETER'S HOSPITAL
8.68,3.58,40.87987,-73.87996,36080.91,12013.27,0.50,0.39,0.45,MONTEFIORE MEDICAL CENTER
6.31,2.59,41.71846,-73.92710,24873.43,7373.29,0.50,0.80,0.80,ST FRANCIS HOSPITAL
3.52,2.46,42.92866,-78.84819,11730.79,6723.74,0.50,0.55,0.30,SISTERS OF CHARITY HOSPITAL
6.42,2.28,42.10076,-76.82800,25430.41,5900.47,0.50,0.65,0.33,ARNOT OGDEN MEDICAL CENTER
5.48,3.62,40.76487,-73.95398,20999.08,12222.95,0.33,0.33,0.74,NEW YORK-PRESBYTERIAN HOSPITAL
8.02,2.67,41.09642,-73.92501,32975.18,7733.45,0.67,0.78,0.76,NYACK HOSPITAL
8.36,3.15,40.77686,-73.70212,34546.71,9976.54,0.33,0.61,0.69,NORTH SHORE UNIVERSITY HOSPITAL
8.69,2.99,40.77362,-73.96093,36123.77,9218.59,0.33,0.46,0.11,LENOX HILL HOSPITAL
5.43,2.51,41.44138,-74.36821,20768.83,6976.92,0.50,0.62,0.70,ORANGE REGIONAL MEDICAL CENTER
5.42,2.47,43.05571,-76.14981,20722.00,6777.50,0.83,0.38,0.20,ST JOSEPH'S HOSPITAL HEALTH CENTER
13.74,2.72,41.11299,-74.13732,59945.65,7977.18,0.67,0.82,0.83,GOOD SAMARITAN HOSPITAL OF SUFFERN
3.42,2.30,43.00561,-76.17002,11269.29,5974.58,0.00,0.00,0.00,COMMUNITY-GENERAL HOSPITAL OF GREATER SYRACUSE
7.34,2.98,40.58440,-74.08507,29767.75,9189.67,0.67,0.71,0.38,STATEN ISLAND UNIVERSITY HOSPITAL
4.96,2.60,41.19677,-73.72572,18553.26,7396.74,0.50,0.69,0.70,NORTHERN WESTCHESTER HOSPITAL
5.09,3.24,43.13562,-77.60602,19154.91,10424.45,0.50,0.44,0.11,HIGHLAND HOSPITAL
8.40,3.17,40.74083,-73.64306,34728.14,10085.14,0.67,0.50,0.74,WINTHROP-UNIVERSITY HOSPITAL
8.62,3.43,40.73265,-73.98162,35778.85,11333.88,0.50,0.60,0.39,BETH ISRAEL MEDICAL CENTER
5.13,2.52,40.87062,-73.62249,19347.24,7045.90,0.50,0.82,0.86,GLEN COVE HOSPITAL
7.37,2.75,40.80462,-73.67023,29902.49,8128.46,0.83,0.72,0.94,ST FRANCIS HOSPITAL ROSLYN
9.41,3.32,40.75332,-73.70899,39529.17,10820.11,0.50,0.45,0.91,LONG ISLAND JEWISH MEDICAL CENTER
3.99,2.55,43.04139,-76.13803,13970.71,7186.71,0.50,0.41,0.02,CROUSE HOSPITAL
8.82,3.09,40.74335,-73.97408,36720.15,9730.72,0.33,0.64,0.21,NYU HOSPITALS CENTER
2.87,2.31,43.19054,-77.70177,8678.38,6023.19,0.50,0.45,0.83,UNITY HOSPITAL OF ROCHESTER
5.89,2.89,43.04269,-76.14043,22897.50,8779.88,0.67,0.41,0.03,UNIVERSITY HOSPITAL S U N Y HEALTH SCIENCE CENTER
8.59,2.92,40.76488,-73.95302,35642.43,8895.84,0.00,0.00,0.00,HOSPITAL FOR SPECIAL SURGERY
4.03,2.30,42.84782,-78.81264,14125.45,5988.70,0.50,0.69,0.14,MERCY HOSPITAL
2.88,2.77,43.12266,-77.62360,8699.54,8196.07,0.50,0.55,0.21,STRONG MEMORIAL HOSPITAL
6.87,3.00,40.69327,-73.29412,27519.18,9299.35,0.50,0.70,0.74,GOOD SAMARITAN HOSPITAL MEDICAL CENTER
7.89,3.14,40.90922,-73.11520,32334.29,9971.64,0.50,0.60,0.45,UNIVERSITY HOSPITAL ( STONY BROOK )
5.56,2.34,35.43754,-80.60147,21339.32,6186.79,0.67,0.65,0.16,CAROLINAS MEDICAL CENTER-NORTHEAST
5.73,2.46,35.57658,-82.54922,22152.77,6750.90,0.67,0.40,0.82,MEMORIAL MISSION HOSPITAL AND ASHEVILLE SURGERY CE
3.40,2.42,35.39772,-77.95250,11174.45,6549.82,0.50,0.81,0.08,WAYNE MEMORIAL HOSPITAL
5.36,2.46,36.07581,-80.29779,20438.87,6721.19,0.50,0.53,0.39,FORSYTH MEMORIAL HOSPITAL
7.66,3.16,36.00850,-78.94006,31278.77,10037.54,0.67,0.44,0.76,DUKE UNIVERSITY HOSPITAL
6.58,2.39,35.27341,-81.13688,26174.33,6428.00,0.50,0.70,0.70,GASTON MEMORIAL HOSPITAL
6.69,2.80,35.60726,-77.40477,26685.84,8341.18,0.50,0.46,0.01,PITT COUNTY MEMORIAL HOSPITAL
4.75,2.92,36.09062,-80.27161,17545.34,8896.17,0.83,0.55,0.58,NORTH CAROLINA BAPTIST HOSPITAL
5.54,2.18,36.04290,-78.89690,21282.26,5398.74,0.00,0.00,0.00,NORTH CAROLINA SPECIALTY HOSPITAL
6.64,2.47,35.22196,-80.83287,26439.52,6805.52,0.50,0.64,0.14,PRESBYTERIAN HOSPITAL
5.67,2.62,35.78523,-78.58836,21897.52,7491.08,0.33,0.50,0.80,WAKEMED RALEIGH CAMPUS
6.77,2.46,35.82915,-78.61922,27080.29,6750.45,0.50,0.81,0.80,DUKE HEALTH RALEIGH HOSPITAL
3.64,2.38,36.09251,-79.78855,12320.04,6342.12,0.67,0.66,0.51,MOSES H CONE MEMORIAL HOSPITAL THE
6.10,2.31,35.92115,-77.55585,23891.94,6033.67,0.50,0.85,0.06,HERITAGE HOSPITAL
8.43,2.85,35.20397,-80.83908,34883.33,8593.74,0.67,0.64,0.25,CAROLINAS MEDICAL CENTER/BEHAV HEALTH
4.39,2.19,35.81801,-78.70283,15848.51,5450.09,0.50,0.65,0.54,REX HOSPITAL
4.55,2.31,35.20554,-79.45645,16605.43,6024.00,0.67,0.60,0.45,FIRSTHEALTH MOORE REGIONAL HOSPITAL
9.67,2.29,35.73751,-81.33702,40758.89,5937.91,0.50,0.68,0.17,FRYE REGIONAL MEDICAL CENTER
5.59,2.60,35.11420,-77.06568,21514.75,7392.00,0.33,0.74,0.91,CAROLINA EAST MEDICAL CENTER
5.67,2.49,34.23786,-77.94764,21891.14,6881.77,0.83,0.70,0.58,NEW HANOVER REGIONAL MEDICAL CENTER
6.47,2.28,35.71664,-81.26661,25660.79,5908.50,0.50,0.72,0.64,CATAWBA VALLEY MEDICAL CENTER
7.49,2.20,35.21076,-80.82359,30453.96,5509.25,0.00,0.00,0.00,PRESBYTERIAN-ORTHOPAEDIC HOSPITAL
6.49,2.39,36.04960,-78.90617,25752.11,6392.08,0.50,0.51,0.70,DURHAM REGIONAL HOSPITAL
7.32,2.25,35.52586,-82.94351,29673.38,5733.56,0.00,0.00,0.00,MEDWEST HAYWOOD
3.38,2.38,46.80739,-100.77773,11101.66,6381.63,0.50,0.72,0.76,ST ALEXIUS MEDICAL CENTER
4.26,2.64,46.88496,-96.78609,15243.30,7591.40,0.67,0.61,0.48,SANFORD MEDICAL CENTER FARGO
3.52,2.46,47.91045,-97.06742,11758.30,6730.70,0.83,0.54,0.01,ALTRU HOSPITAL
5.07,2.30,46.83250,-96.82805,19068.21,5991.58,0.33,0.78,0.20,ESSENTIA HEALTH-FARGO
5.17,2.78,39.08582,-84.34886,19540.89,8272.00,0.50,0.72,0.86,MERCY HOSPITAL ANDERSON
6.68,2.37,40.03064,-83.03440,26625.53,6305.29,0.83,0.71,0.21,RIVERSIDE METHODIST HOSPITAL
6.42,2.56,40.57098,-83.12972,25433.55,7227.18,0.50,0.91,0.48,MARION GENERAL HOSPITAL
8.40,2.33,39.20680,-84.38093,34744.33,6126.33,0.50,0.76,0.94,JEWISH HOSPITAL LLC
4.06,2.42,41.07747,-81.53042,14307.96,6560.72,0.67,0.70,0.64,AKRON GENERAL MEDICAL CENTER
5.46,2.41,39.95805,-83.02191,20892.93,6526.53,0.67,0.42,0.02,MOUNT CARMEL HEALTH
6.15,2.64,41.49640,-81.67376,24163.61,7586.12,0.25,0.55,0.64,ST VINCENT CHARITY MEDICAL CENTER
5.08,2.32,39.97510,-82.01812,19106.95,6079.07,0.50,0.79,0.93,GENESIS HEALTHCARE SYSTEM
10.95,2.45,39.74547,-84.18523,46754.53,6691.43,0.67,0.45,0.02,MIAMI VALLEY HOSPITAL
5.21,2.33,39.31257,-84.51774,19688.53,6113.16,0.50,0.90,0.70,MERCY HOSPITAL FAIRFIELD
6.63,2.29,41.11441,-80.65565,26384.22,5958.44,0.83,0.49,0.21,ST ELIZABETH HEALTH CENTER
6.37,2.24,40.74115,-84.11804,25199.35,5723.55,0.67,0.74,0.07,ST RITA'S MEDICAL CENTER
7.11,2.39,41.67775,-83.59589,28689.63,6413.92,0.33,0.70,0.58,TOLEDO HOSPITAL THE
3.83,2.29,40.81219,-81.39625,13191.77,5924.62,0.50,0.62,0.43,MERCY MEDICAL CENTER
9.04,2.44,39.69724,-84.19232,37765.00,6634.19,0.67,0.80,0.58,KETTERING MEDICAL CENTER
3.79,2.26,40.79609,-81.40360,13011.26,5813.67,0.50,0.64,0.17,AULTMAN HOSPITAL
15.27,3.31,39.99445,-83.01872,67148.25,10750.75,0.67,0.50,0.03,OHIO STATE UNIVERSITY HOSPITALS
7.03,2.36,41.48724,-81.70707,28297.00,6280.06,0.00,0.00,0.00,LUTHERAN HOSPITAL
4.13,2.19,41.55725,-83.68141,14596.42,5479.12,0.50,0.65,0.86,ST LUKE'S HOSPITAL
4.07,2.23,41.01785,-83.65165,14321.43,5677.46,0.50,0.82,0.70,BLANCHARD VALLEY HOSPITAL
4.79,2.15,41.66317,-81.24696,17751.00,5301.77,0.50,0.74,0.39,LAKE HEALTH
6.93,2.74,41.66810,-83.54275,27798.98,8074.90,0.50,0.70,0.05,MERCY ST VINCENT MEDICAL CENTER
4.21,2.36,40.75264,-82.52803,14985.75,6271.00,0.83,0.81,0.93,MEDCENTRAL HEALTH SYSTEM
8.98,2.53,39.76950,-84.20285,37482.35,7085.71,0.67,0.65,0.91,GRANDVIEW HOSPITAL & MEDICAL CENTER
7.49,2.52,39.13975,-84.52173,30469.49,7040.59,0.67,0.84,0.69,GOOD SAMARITAN HOSPITAL
7.77,2.86,41.50772,-81.60592,31773.62,8624.55,0.83,0.46,0.45,UNIVERSITY HOSPITALS OF CLEVELAND
3.39,2.18,41.36649,-82.09708,11123.76,5413.94,0.67,0.75,0.98,EMH REGIONAL MEDICAL CENTER
9.30,2.16,41.37028,-81.83189,39002.27,5342.47,0.50,0.71,0.74,SOUTHWEST GENERAL HEALTH CENTER
6.67,2.39,39.12105,-84.51059,26591.88,6430.38,0.83,0.46,0.89,CHRIST HOSPITAL
10.01,2.34,39.25076,-84.34341,42338.64,6191.36,0.50,0.62,0.99,BETHESDA NORTH HOSPITAL
8.82,2.60,41.50248,-81.62110,36743.20,7382.95,0.33,0.33,0.25,CLEVELAND CLINIC
5.68,2.16,41.52013,-81.43291,21925.18,5346.50,0.67,0.45,0.38,HILLCREST HOSPITAL
4.74,2.27,39.20463,-84.57093,17486.73,5834.73,0.50,0.68,0.39,MERCY FRANCISCAN HOSPITAL - MT AIRY
6.33,2.21,41.69195,-83.62455,24987.39,5583.33,0.50,0.81,0.28,MERCY ST ANNE HOSPITAL
2.88,2.30,40.08713,-82.79236,8713.26,6011.35,0.00,0.00,0.00,MOUNT CARMEL NEW ALBANY SURGICAL HOSPITAL
2.53,2.13,41.09698,-81.51355,7074.77,5209.52,0.00,0.00,0.00,CRYSTAL CLINIC ORTHOPAEDIC CENTER
8.69,2.26,39.35830,-84.36785,36127.89,5793.93,0.50,0.94,0.58,WEST CHESTER MEDICAL CENTER
5.80,2.64,36.14687,-95.96841,22505.37,7590.60,0.83,0.76,0.32,HILLCREST MEDICAL CENTER
7.48,2.24,35.22999,-97.44074,30421.75,5698.96,0.50,0.74,0.21,NORMAN REGIONAL HEALTH SYSTEM
4.95,2.28,35.60735,-97.59693,18489.50,5907.41,0.67,0.51,0.07,MERCY HEALTH CENTER INC
7.49,2.58,36.39005,-97.88781,30439.30,7314.26,0.00,0.00,0.00,INTEGRIS BASS BAPTIST HEALTH CENTER
8.07,2.44,34.77442,-96.63477,33185.75,6647.00,0.00,0.00,0.00,VALLEY VIEW REGIONAL HOSPITAL
5.93,2.12,36.39385,-97.87094,23111.95,5140.00,0.50,0.78,0.64,ST MARY'S REGIONAL MEDICAL CENTER
9.49,2.51,35.52960,-97.57496,39894.83,6980.54,1.00,0.76,0.91,INTEGRIS BAPTIST MEDICAL CENTER
8.29,2.20,35.52531,-97.58461,34226.06,5505.50,0.75,0.76,0.48,DEACONESS HOSPITAL
4.36,2.31,34.60992,-98.43419,15687.68,6023.36,0.50,0.62,0.48,COMANCHE COUNTY MEMORIAL HOSPITAL
4.98,2.35,36.06135,-95.95154,18633.65,6204.72,0.83,0.61,0.45,SAINT FRANCIS HOSPITAL INC
10.71,2.26,35.46721,-97.39370,45623.06,5811.41,0.50,0.76,0.93,MIDWEST REGIONAL MEDICAL CENTER
9.55,2.55,34.59434,-98.46105,40173.67,7147.00,0.00,0.00,0.00,SOUTHWESTERN MEDICAL CENTER
5.09,2.29,36.58133,-94.75864,19123.22,5933.88,0.00,0.00,0.00,INTEGRIS GROVE HOSPITAL
4.47,2.25,36.13393,-95.96718,16227.47,5762.37,0.50,0.51,0.11,ST JOHN MEDICAL CENTER INC
6.82,2.12,35.37587,-97.57038,27283.07,5140.00,0.00,0.00,0.00,COMMUNITY HOSPITAL
4.97,2.16,35.61401,-97.58224,18591.94,5309.69,0.00,0.00,0.00,OKLAHOMA SPINE HOSPITAL
4.71,2.14,36.06382,-96.00428,17339.85,5217.65,0.00,0.00,0.00,TULSA SPINE & SPECIALTY HOSPITAL
18.18,4.52,35.42056,-97.53414,80878.18,16460.82,0.00,0.00,0.00,ORTHOPEDIC HOSPITAL
5.00,2.15,35.56848,-97.51114,18738.56,5285.75,0.00,0.00,0.00,MCBRIDE CLINIC ORTHOPEDIC HOSPITAL  L L C
6.20,2.70,35.78090,-95.35819,24366.50,7875.10,0.00,0.00,0.00,MUSKOGEE COMMUNITY HOSPITAL
4.48,2.11,35.38969,-97.42688,16279.18,5093.91,0.50,1.00,0.90,OKLAHOMA HEART HOSPITAL SOUTH
5.11,2.54,45.50973,-122.77368,19260.61,7107.67,0.33,0.55,0.14,PROVIDENCE ST VINCENT MEDICAL CENTER
6.52,2.87,45.54248,-122.66972,25863.23,8661.92,0.50,0.62,0.21,LEGACY EMANUEL MEDICAL CENTER
5.13,3.06,45.49956,-122.68802,19334.12,9586.57,0.67,0.47,0.07,OHSU HOSPITAL AND CLINICS
5.19,2.36,44.60322,-123.25312,19599.78,6267.78,0.33,0.59,0.05,GOOD SAMARITAN REGIONAL MEDICAL CENTER
5.22,2.68,45.53028,-122.69692,19778.72,7788.51,0.50,0.94,0.39,LEGACY GOOD SAMARITAN MEDICAL CENTER
4.73,2.57,42.31769,-122.83333,17431.42,7270.50,0.67,0.61,0.91,ROGUE VALLEY MEDICAL CENTER
5.93,2.36,44.05330,-123.00351,23110.13,6287.30,0.50,0.68,0.01,MCKENZIE-WILLAMETTE MEDICAL CENTER
5.18,2.44,45.51716,-122.40750,19547.35,6644.00,0.00,0.00,0.00,LEGACY MOUNT HOOD MEDICAL CENTER
4.75,2.46,44.06773,-121.26817,17518.10,6740.42,0.67,0.70,0.38,ST CHARLES MEDICAL CENTER - BEND
5.57,2.84,42.25296,-121.78512,21426.62,8522.76,0.00,0.00,0.00,SKY LAKES MEDICAL CENTER
5.81,2.48,44.93267,-123.03418,22545.23,6838.90,0.67,0.72,0.25,SALEM HOSPITAL
5.63,2.47,45.51288,-122.55630,21709.79,6797.92,0.50,0.86,0.16,ADVENTIST MEDICAL CENTER
5.65,2.53,45.52677,-122.61469,21772.86,7054.93,0.67,0.75,0.00,PROVIDENCE PORTLAND MEDICAL CENTER
5.32,2.49,42.34086,-122.86108,20225.74,6906.83,0.50,0.61,0.54,PROVIDENCE MEDFORD MEDICAL CENTER
5.27,2.31,45.37908,-122.74083,19988.21,6023.30,0.50,0.81,0.54,LEGACY MERIDIAN PARK MEDICAL CENTER
5.73,2.91,43.38402,-124.23280,22164.51,8874.46,0.00,0.00,0.00,BAY AREA HOSPITAL
4.68,2.53,44.08146,-123.02694,17205.28,7076.10,0.50,0.60,0.25,SACRED HEART MEDICAL CENTER - RIVERBEND
4.19,2.26,41.40075,-75.64594,14892.64,5806.57,0.50,0.78,0.94,COMMUNITY MEDICAL CENTER
8.94,2.79,40.96789,-76.60506,37286.21,8296.07,0.33,0.56,0.14,GEISINGER MEDICAL CENTER
9.63,2.36,42.11102,-80.07912,40564.97,6280.97,0.50,0.72,0.58,SAINT VINCENT HEALTH CENTER
7.25,2.32,40.25092,-75.27204,29340.71,6099.71,0.50,0.81,0.76,LANSDALE HOSPITAL
3.80,2.14,40.97877,-76.88593,13050.19,5244.00,0.00,0.00,0.00,EVANGELICAL COMMUNITY HOSPITAL
2.80,2.15,40.54345,-80.17760,8322.82,5291.06,0.50,0.80,0.54,HERITAGE VALLEY SEWICKLEY
3.61,2.28,40.18302,-80.24767,12154.59,5885.00,0.50,0.76,0.94,WASHINGTON HOSPITAL THE
4.98,2.31,41.24548,-77.01438,18602.61,6046.13,0.50,0.57,0.38,WILLIAMSPORT REGIONAL MEDICAL CENTER
4.90,2.73,39.94604,-76.71884,18263.38,8022.53,0.67,0.45,0.08,YORK HOSPITAL
9.84,2.51,40.60811,-75.39260,41526.53,6977.18,0.67,0.54,0.58,ST LUKE'S HOSPITAL BETHLEHEM
4.96,2.50,40.45705,-80.00363,18549.45,6912.42,0.83,0.70,0.45,ALLEGHENY GENERAL HOSPITAL
7.10,2.26,40.04093,-76.32139,28604.86,5796.64,0.50,0.75,0.54,LANCASTER REGIONAL MEDICAL CENTER
8.76,2.75,42.13338,-80.08703,36448.08,8094.56,0.67,0.50,0.33,UPMC HAMOT
3.92,2.47,40.25661,-76.87572,13644.67,6793.38,0.83,0.47,0.01,PINNACLE HEALTH HOSPITALS
3.85,2.35,41.98012,-76.52072,13289.80,6210.00,0.50,0.65,0.48,ROBERT PACKER HOSPITAL
9.59,2.39,40.11139,-75.09250,40370.25,6403.19,0.50,0.72,0.70,HOLY REDEEMER HOSPITAL AND MEDICAL CENTER
4.73,2.31,40.04740,-76.30540,17429.02,6043.69,0.67,0.60,0.83,LANCASTER GENERAL HOSPITAL
8.00,2.33,40.48928,-79.89596,32879.53,6138.00,0.50,0.72,0.64,UPMC ST MARGARET
6.44,2.13,40.57319,-80.01455,25530.17,5185.92,0.50,0.57,0.48,UPMC PASSAVANT
4.25,2.34,40.32674,-78.92197,15199.32,6184.26,0.50,0.61,0.03,CONEMAUGH VALLEY MEMORIAL HOSPITAL
12.59,3.21,39.95045,-75.19259,54509.29,10272.95,0.50,0.34,0.39,HOSPITAL OF UNIV OF PENNSYLVANIA
6.47,2.54,40.07160,-74.98341,25659.07,7096.53,0.33,0.68,0.05,ARIA HEALTH
7.75,2.61,40.60000,-75.47000,31664.41,7438.93,0.67,0.59,0.54,LEHIGH VALLEY HOSPITAL
8.87,2.23,41.25860,-75.86729,36952.06,5674.94,0.50,0.60,0.80,WILKES-BARRE GENERAL HOSPITAL
9.04,2.35,40.01883,-75.32115,37787.45,6212.00,0.50,0.71,0.86,MAIN LINE HOSPITAL BRYN MAWR CAMPUS
4.21,2.28,39.93492,-77.64744,15001.75,5888.50,0.50,0.59,0.48,CHAMBERSBURG HOSPITAL
8.59,2.40,40.04475,-75.50425,35660.52,6438.45,0.50,0.71,0.20,MAIN LINE HOSPITAL PAOLI
3.14,2.20,40.81645,-79.52199,9966.72,5538.61,0.00,0.00,0.00,ACMH HOSPITAL
9.30,2.72,40.44190,-79.96044,38993.50,7982.61,0.83,0.55,0.11,UPMC PRESBYTERIAN SHADYSIDE
11.72,3.05,39.94969,-75.15712,50406.41,9528.15,0.67,0.41,0.58,THOMAS JEFFERSON UNIVERSITY HOSPITAL
20.90,2.59,39.85598,-75.36791,93671.65,7337.41,0.67,0.56,0.14,CROZER CHESTER MEDICAL CENTER
8.23,2.50,39.98905,-75.27707,33955.80,6910.67,0.50,0.54,0.25,MAIN LINE HOSPITAL LANKENAU
6.55,2.32,40.30531,-75.14763,26046.62,6072.69,0.33,0.84,0.93,DOYLESTOWN HOSPITAL
16.99,2.33,39.91254,-75.43047,75236.50,6125.44,0.50,0.90,0.80,RIDDLE MEMORIAL HOSPITAL
6.53,2.20,40.18739,-76.18224,25923.92,5496.33,0.50,0.72,0.07,EPHRATA COMMUNITY HOSPITAL
8.33,2.73,39.94560,-75.15561,34404.09,8035.02,0.50,0.56,0.70,PENNSYLVANIA HOSP OF THE UNIV OF PA HEALTH SYS
4.09,2.06,40.37782,-80.06589,14435.08,4848.42,0.67,0.81,0.21,ST CLAIR MEMORIAL HOSPITAL
8.42,2.55,40.12077,-75.11818,34841.84,7162.71,0.83,0.51,0.43,ABINGTON MEMORIAL HOSPITAL
5.18,2.81,40.26468,-76.67582,19570.89,8383.41,0.67,0.40,0.03,MILTON S HERSHEY MEDICAL CENTER
8.81,2.29,40.20064,-74.92952,36691.22,5926.00,0.33,0.71,0.45,ST MARY MEDICAL CENTER
3.91,2.17,40.42897,-79.74808,13557.46,5354.46,0.50,0.57,0.58,WESTERN PENNSYLVANIA HOSP FORBES REGIONAL CAMPUS
6.29,2.11,40.81936,-77.84273,24778.36,5072.18,0.50,0.91,0.58,MOUNT NITTANY MEDICAL CENTER
15.28,2.77,41.25855,-75.81041,67168.50,8222.73,0.67,0.86,0.03,GEISINGER WYOMING VALLEY MEDICAL CENTER
5.69,2.97,41.81254,-71.40760,21987.52,9146.00,0.33,0.49,0.07,RHODE ISLAND HOSPITAL
6.24,2.52,41.85172,-71.39826,24563.00,7032.67,0.67,0.51,0.64,MIRIAM HOSPITAL
7.69,3.09,32.78272,-79.94543,31379.78,9707.27,0.33,0.76,0.70,MUSC MEDICAL CENTER
6.37,2.36,34.96733,-81.94021,25166.48,6260.04,0.33,0.60,0.54,SPARTANBURG REGIONAL MEDICAL CENTER
14.95,2.69,34.02839,-81.03539,65626.09,7814.78,0.33,0.44,0.21,PALMETTO HEALTH RICHLAND
9.59,2.41,34.83965,-82.42147,40382.38,6499.35,0.67,0.66,0.11,ST FRANCIS-DOWNTOWN
8.81,2.40,34.51119,-82.64683,36668.50,6450.67,0.50,0.61,0.94,ANMED HEALTH
7.43,2.42,34.19543,-79.76256,30180.96,6550.25,0.50,0.50,0.80,MCLEOD REGIONAL MEDICAL CENTER-PEE DEE
6.94,2.64,32.80878,-80.04216,27866.94,7589.18,0.50,0.61,0.70,BON SECOURS-ST FRANCIS XAVIER HOSPITAL
8.04,3.51,34.17571,-82.15791,33036.90,11675.52,0.67,0.65,0.20,SELF REGIONAL HEALTHCARE
6.94,2.34,34.00533,-81.11393,27872.30,6189.73,0.67,0.64,0.48,LEXINGTON MEDICAL CENTER
6.33,2.61,34.81904,-82.41308,25003.66,7434.43,0.50,0.55,0.17,GREENVILLE MEMORIAL HOSPITAL
7.74,2.43,32.97605,-80.07302,31621.13,6622.70,0.50,0.56,0.48,TRIDENT MEDICAL CENTER
9.64,2.51,33.57070,-81.76332,40601.53,6979.42,0.50,0.80,0.08,AIKEN REGIONAL MEDICAL CENTER
6.26,2.23,34.94957,-81.93205,24650.25,5670.69,0.50,0.47,0.89,MARY BLACK MEMORIAL HOSPITAL
7.98,2.22,33.70704,-78.89487,32771.46,5632.85,0.67,0.50,0.58,GRAND STRAND REG MED CENTER
7.62,2.33,34.00754,-81.03270,31058.25,6116.60,0.33,0.66,0.38,PALMETTO HEALTH BAPTIST
7.19,2.24,32.82119,-79.85052,29059.17,5693.73,0.00,0.00,0.00,EAST COOPER MEDICAL CENTER
9.58,2.28,34.19543,-79.76256,40334.20,5876.08,0.33,0.66,0.14,CAROLINAS HOSPITAL SYSTEM
7.09,2.46,34.85212,-82.32561,28593.00,6758.53,0.00,0.00,0.00,PATEWOOD MEMORIAL HOSPITAL
8.21,3.26,34.86182,-82.21649,33846.00,10513.36,0.00,0.00,0.00,VILLAGE HOSPITAL
6.55,2.61,43.53460,-96.71136,26021.78,7453.83,0.67,0.60,0.82,AVERA MCKENNAN HOSPITAL & UNIVERSITY HEALTH CENTER
6.67,2.37,43.53562,-96.74305,26607.56,6313.96,0.67,0.82,0.58,SANFORD USD MEDICAL CENTER
6.44,2.66,44.05563,-103.22633,25532.24,7672.05,0.67,0.42,0.83,RAPID CITY REGIONAL HOSPITAL
8.08,2.20,42.48749,-96.48642,33246.57,5536.00,0.00,0.00,0.00,SIOUXLAND SURGERY CENTER LP
5.55,2.28,44.04607,-103.22337,21296.23,5891.00,0.00,0.00,0.00,BLACK HILLS SURGICAL HOSPITAL LLP
4.70,2.44,35.63906,-88.83207,17293.19,6668.45,0.67,0.54,0.28,JACKSON-MADISON COUNTY GENERAL HOSPITAL
7.72,2.30,36.24440,-86.75204,31529.31,5974.92,0.50,0.71,0.86,SKYLINE MEDICAL CENTER
4.89,2.18,36.58587,-82.25703,18209.13,5423.60,0.50,0.62,0.48,WELLMONT BRISTOL REGIONAL MEDICAL CENTER
4.95,2.46,35.93985,-83.94326,18477.41,6739.82,0.33,0.62,0.20,UNIVERSITY OF TN MEMORIAL HOSPITAL
5.07,2.24,36.55401,-82.55483,19062.48,5689.33,0.50,0.59,0.33,WELLMONT HOLSTON VALLEY MEDICAL CENTER
5.71,2.54,35.91595,-86.81799,22067.25,7127.00,0.50,0.59,0.39,WILLIAMSON MEDICAL CENTER
3.53,2.09,35.98589,-84.28055,11773.68,5017.84,0.67,0.62,0.80,METHODIST MEDICAL CENTER OF OAK RIDGE
10.21,3.04,36.14316,-86.80048,43278.90,9498.18,0.50,0.44,0.43,VANDERBILT UNIVERSITY HOSPITAL
4.88,2.31,35.12837,-89.86202,18137.32,6050.97,0.50,0.44,0.39,BAPTIST MEMORIAL HOSPITAL
5.93,2.71,35.13640,-90.01928,23095.79,7926.98,0.67,0.51,0.38,METHODIST HEALTHCARE MEMPHIS HOSPITALS
5.92,2.52,35.86074,-86.42434,23037.53,7006.53,0.33,0.88,0.16,MIDDLE TENNESSEE MEDICAL CENTER INC
3.50,2.30,36.17121,-85.50938,11662.03,5986.54,0.50,0.74,0.99,COOKEVILLE REGIONAL MEDICAL CENTER
8.03,2.37,36.30767,-82.38497,33023.32,6320.40,0.83,0.50,0.21,JOHNSON CITY MEDICAL CENTER
4.34,2.72,35.60668,-87.06635,15615.50,7958.79,0.50,0.72,0.74,MAURY REGIONAL HOSPITAL
5.72,2.17,36.12859,-86.84559,22108.53,5372.00,0.17,0.75,0.99,ST THOMAS HOSPITAL
6.82,2.26,35.04157,-85.26037,27281.63,5810.27,0.33,0.72,0.99,MEMORIAL HEALTHCARE SYSTEM INC
6.08,2.46,35.05068,-85.28823,23794.64,6752.72,0.50,0.53,0.00,ERLANGER MEDICAL CENTER
3.99,2.13,35.99233,-83.92697,13934.33,5168.47,0.50,0.56,0.85,TENNOVA HEALTHCARE
4.49,2.17,35.95747,-83.93660,16314.92,5380.00,0.33,0.56,0.45,FORT SANDERS REGIONAL MEDICAL CENTER
5.88,2.51,36.15388,-86.80249,22889.88,6999.29,0.67,0.66,0.64,BAPTIST HOSPITAL
7.46,2.22,35.36202,-86.20943,30301.03,5602.71,0.00,0.00,0.00,HARTON REGIONAL MEDICAL CENTER
8.40,2.24,36.17752,-86.60840,34739.93,5717.00,0.50,0.76,0.30,SUMMIT MEDICAL CENTER
9.08,2.32,36.15310,-86.80910,37942.27,6085.07,0.67,0.69,0.82,CENTENNIAL MEDICAL CENTER
4.03,2.20,35.91765,-84.10080,14135.30,5526.52,0.33,0.72,0.83,PARKWEST MEDICAL CENTER
12.07,2.42,35.09925,-89.86301,52067.41,6537.67,0.50,0.62,0.58,ST FRANCIS HOSPITAL
5.17,2.14,36.15524,-86.80350,19504.01,5217.00,0.00,0.00,0.00,THE CENTER FOR SPINAL SURGERY
7.70,2.39,33.90296,-98.50035,31467.17,6426.67,0.67,0.86,0.48,UNITED REGIONAL HEALTH CARE SYSTEM
6.82,2.32,30.65598,-96.34672,27282.43,6096.31,0.50,0.57,0.32,ST JOSEPH REGIONAL HEALTH CENTER
6.36,2.98,32.78994,-96.78044,25139.20,9171.20,0.83,0.59,0.33,BAYLOR UNIVERSITY MEDICAL CENTER
8.44,2.55,26.17446,-97.67014,34955.09,7163.82,0.50,0.68,0.58,VHS HARLINGEN HOSPITAL COMPANY LLC
6.41,2.26,32.50219,-94.73025,25352.48,5820.83,0.50,0.74,0.86,GOOD SHEPHERD MEDICAL CENTER
11.54,2.29,33.57524,-101.89272,49571.47,5961.58,0.50,0.41,0.48,COVENANT MEDICAL CENTER
3.61,2.20,31.51444,-97.19927,12183.55,5523.97,0.50,0.50,0.33,PROVIDENCE HEALTH CENTER
6.15,2.67,32.76017,-96.82437,24137.82,7730.46,0.50,0.40,0.03,METHODIST DALLAS MEDICAL CENTER
10.10,2.22,30.30491,-97.74540,42765.91,5601.00,0.17,0.56,0.64,SETON MEDICAL CENTER AUSTIN
11.00,2.34,29.43360,-98.49265,47026.56,6180.19,0.67,0.61,0.25,BAPTIST MEDICAL CENTER
11.96,3.37,29.71431,-95.39680,51531.33,11027.33,0.67,0.46,0.14,MEMORIAL HERMANN TEXAS MEDICAL CENTER
9.89,2.20,32.33824,-95.29122,41784.67,5536.11,0.50,0.55,0.93,EAST TEXAS MEDICAL CENTER
7.28,2.45,29.66575,-95.18131,29455.32,6675.18,0.50,0.51,0.45,BAYSHORE MEDICAL CENTER
4.88,2.41,31.48969,-97.15613,18176.47,6516.40,0.50,0.54,0.39,HILLCREST BAPTIST MEDICAL CENTER
9.53,2.26,32.34280,-95.29201,40099.22,5785.72,0.50,0.60,0.98,MOTHER FRANCES HOSPITAL
14.06,2.49,31.76998,-106.49897,61452.60,6901.25,0.67,0.59,0.08,LAS PALMAS MEDICAL CENTER
24.30,2.84,26.26353,-98.18455,109742.33,8521.87,0.67,0.91,0.74,SOUTH TEXAS HEALTH SYSTEM
9.71,2.72,30.27438,-97.73395,40941.56,7947.44,0.33,0.74,0.03,UNIVERSITY MEDICAL CENTER AT BRACKENRIDGE
4.84,2.46,31.84507,-102.37373,17970.62,6749.23,0.33,0.82,0.29,MEDICAL CENTER HOSPITAL
5.49,2.30,31.99616,-102.09950,21049.68,5985.08,0.50,0.55,0.38,MIDLAND MEMORIAL HOSPITAL
7.01,2.38,32.73780,-97.33899,28198.45,6359.21,0.67,0.55,0.58,TEXAS HEALTH HARRIS METHODIST FORT WORTH
7.04,3.03,29.81230,-95.43010,28351.52,9412.18,0.67,0.62,0.70,MEMORIAL HERMANN HOSPITAL SYSTEM
7.88,3.19,29.70719,-95.40048,32294.65,10195.22,0.67,0.44,0.01,ST LUKES EPISCOPAL HOSPITAL
6.89,2.34,33.42875,-94.04725,27628.22,6158.93,0.00,0.00,0.00,WADLEY REGIONAL MEDICAL CENTER
7.43,2.18,31.33632,-94.74205,30199.35,5422.82,0.50,0.71,0.64,MEMORIAL HEALTH SYSTEM OF EAST TEXAS- LUFKIN
5.49,2.33,32.47171,-99.73315,21013.07,6121.38,0.67,0.86,0.39,HENDRICK MEDICAL CENTER
5.04,2.24,35.19533,-101.91907,18887.14,5716.50,0.67,0.60,0.21,BAPTIST ST ANTHONYS HEALTH SYSTEM-BAPTIST CAMPUS
10.53,2.35,30.58113,-96.29051,44792.00,6231.33,0.00,0.00,0.00,COLLEGE STATION MEDICAL CENTER
9.73,2.75,33.71085,-96.58493,41032.32,8129.16,0.50,0.57,0.21,TEXOMA MEDICAL CENTER
6.60,2.47,29.71020,-95.39956,26247.33,6777.07,1.00,0.60,0.14,METHODIST HOSPITALTHE
8.23,2.47,29.50795,-98.57224,33930.35,6811.82,0.67,0.62,0.58,METHODIST HOSPITAL
13.51,2.57,33.15951,-96.63675,58843.93,7249.87,0.67,0.65,0.03,MEDICAL CENTER OF MCKINNEY
4.55,2.18,32.80420,-96.79456,16612.82,5438.00,0.00,0.00,0.00,BAYLOR MEDICAL CENTER AT UPTOWN
5.42,2.44,29.76963,-94.97926,20713.52,6658.96,0.50,1.00,0.83,SAN JACINTO METHODIST HOSPITAL
6.73,2.52,30.28957,-97.72584,26884.31,7040.00,0.67,0.81,0.64,ST DAVIDS MEDICAL CENTER
6.37,2.43,32.88076,-96.76226,25185.63,6587.31,0.67,0.66,0.03,TEXAS HEALTH PRESBYTERIAN HOSPITAL  DALLAS
4.56,2.42,31.46574,-100.43466,16665.82,6553.18,0.50,0.72,0.80,SHANNON MEDICAL CENTER
7.05,2.45,29.78143,-95.54541,28364.24,6714.71,0.83,0.78,0.93,MEMORIAL HERMANN MEMORIAL CITY MEDICAL CENTER
8.50,2.34,29.54043,-95.12730,35227.13,6168.42,0.67,0.51,0.21,CLEAR LAKE REGIONAL MEDICAL CENTER
12.93,2.45,33.02168,-96.76621,56112.09,6694.45,0.50,0.68,0.11,MEDICAL CENTER OF PLANO
12.48,2.30,31.77757,-106.48060,54006.12,5979.31,0.75,0.62,0.48,SIERRA MEDICAL CENTER
10.39,2.57,32.73563,-97.34483,44155.83,7244.33,0.83,0.41,0.74,PLAZA MEDICAL CENTER OF FORT WORTH
6.21,2.31,29.99677,-95.27641,24412.73,6042.27,0.67,0.70,0.33,MEMORIAL HERMANN NORTHEAST
9.06,2.76,29.35295,-98.54601,37839.83,8159.42,0.75,0.72,0.45,SOUTHWEST GENERAL HOSPITAL
10.10,2.22,32.53312,-94.73022,42744.07,5630.37,0.50,0.78,0.08,LONGVIEW REGIONAL MEDICAL CENTER
8.97,2.31,33.21746,-97.16488,37461.31,6029.56,0.75,0.78,0.74,TEXAS HEALTH PRESBYTERIAN HOSPITAL DENTON
4.96,2.41,32.81073,-96.83618,18547.44,6526.16,0.50,0.74,0.64,UT SOUTHWESTERN UNIVERSITY HOSPITAL-ZALE LIPSHY
7.22,2.27,33.04405,-96.83853,29202.69,5866.12,0.50,0.75,0.11,TEXAS HEALTH PRESBYTERIAN HOSPITAL PLANO
4.24,2.20,30.01860,-95.44343,15112.11,5502.00,0.00,0.00,0.00,TOPS SURGICAL SPECIALTY HOSPITAL
12.13,2.39,27.69288,-97.34476,52334.08,6423.95,0.50,0.60,0.86,CORPUS CHRISTI MEDICAL CENTERTHE
5.76,2.17,33.46323,-94.07490,22306.76,5366.48,0.67,0.80,0.07,CHRISTUS ST MICHAEL HEALTH SYSTEM
7.02,2.24,29.69445,-95.41451,28228.90,5697.00,0.00,0.00,0.00,TEXAS ORTHOPEDIC HOSPITAL
3.64,2.17,30.35117,-97.75114,12310.69,5356.00,0.00,0.00,0.00,NORTHWEST HILLS SURGICAL HOSPITAL
11.20,2.34,30.41163,-97.70649,47973.25,6175.19,0.33,0.65,0.29,NORTH AUSTIN MEDICAL CENTER
8.16,2.38,29.58896,-95.63112,33630.66,6385.79,0.50,0.66,0.12,METHODIST SUGAR LAND HOSPITAL
11.26,2.31,32.90185,-96.95745,48230.30,6017.55,0.00,0.00,0.00,LAS COLINAS MEDICAL CENTER
4.44,2.20,33.87594,-98.56163,16093.27,5496.00,0.00,0.00,0.00,KELL WEST REGIONAL HOSPITAL
9.81,2.14,31.77972,-106.47734,41396.92,5211.54,0.00,0.00,0.00,EL PASO SPECIALTY HOSPITAL
9.15,2.51,26.15761,-97.67550,38290.21,6964.13,0.00,0.00,0.00,HARLINGEN MEDICAL CENTER
6.97,2.16,29.61329,-98.47759,28025.44,5324.75,0.00,0.00,0.00,SOUTH TEXAS SPINE AND SURGICAL HOSPITAL
7.27,3.23,30.20579,-95.45830,29440.69,10368.62,0.50,0.68,0.54,ST LUKE'S THE WOODLANDS HOSPITAL
6.38,2.37,32.32974,-95.29946,25240.96,6326.68,0.00,0.00,0.00,TEXAS SPINE AND JOINT HOSPITAL
5.45,2.76,26.25286,-98.20590,20860.15,8178.59,0.33,0.66,0.45,DOCTORS HOSPITAL AT RENAISSANCE
3.98,2.16,35.21032,-101.91266,13895.38,5335.79,0.00,0.00,0.00,QUAIL CREEK SURGICAL HOSPITAL
6.08,2.22,33.01358,-96.78823,23793.40,5629.67,0.50,0.72,0.64,BAYLOR REGIONAL MEDICAL CENTER AT PLANO
7.04,2.20,33.17687,-97.08711,28336.75,5538.81,0.00,0.00,0.00,NORTH TEXAS HOSPITAL
9.09,2.58,32.84016,-96.86869,38000.27,7308.53,0.00,0.00,0.00,PINE CREEK MEDICAL CENTER LLP
3.92,2.41,40.24999,-111.66524,13616.69,6508.42,0.50,0.70,0.76,UTAH VALLEY REGIONAL MEDICAL CENTER
4.63,2.37,41.22300,-111.97383,16969.18,6326.18,0.33,0.70,0.33,MCKAY DEE HOSPITAL CENTER
4.82,2.80,40.77170,-111.83681,17877.29,8358.67,0.33,0.54,0.08,UNIVERSITY HEALTH CARE/UNIV HOSPITALS AND  CLINICS
4.78,2.46,40.65922,-111.89189,17665.38,6761.00,0.33,0.59,0.54,INTERMOUNTAIN MEDICAL CENTER
3.78,2.40,37.09986,-113.55271,12983.86,6439.57,0.67,0.61,0.25,DIXIE REGIONAL MEDICAL CENTER
4.97,2.37,40.68610,-111.85735,18572.60,6316.65,0.67,0.72,0.08,ST MARKS HOSPITAL
3.29,2.17,40.63050,-111.88367,10633.57,5377.57,0.00,0.00,0.00,THE ORTHOPEDIC SPECIALTY HOSPITAL
4.71,3.01,44.47966,-73.19412,17338.69,9324.92,0.67,0.50,0.14,FLETCHER ALLEN HOSPITAL OF VERMONT
3.68,2.47,39.19345,-78.19599,12504.95,6802.59,0.67,0.60,0.74,WINCHESTER MEDICAL CENTER INC
5.54,2.46,36.86268,-76.30355,21270.69,6763.42,0.83,0.59,0.05,SENTARA NORFOLK GENERAL HOSPITAL
7.98,3.09,38.02573,-78.51526,32773.68,9698.78,0.33,0.35,0.25,UNIVERSITY OF VIRGINIA MEDICAL CENTER
6.73,2.30,36.89933,-76.28157,26880.64,5976.07,0.50,0.85,0.58,BON SECOURS - DEPAUL MEDICAL CENTER
6.01,2.41,36.83716,-76.34786,23462.10,6498.00,0.50,0.68,0.96,BON SECOURS MARYVIEW MEDICAL CENTER
3.47,2.25,37.41368,-79.16870,11496.11,5736.92,0.50,0.70,0.58,CENTRA  HEALTH INC
7.21,2.41,38.31158,-77.48061,29156.43,6503.78,0.67,0.74,0.17,MARY WASHINGTON HOSPITAL INC
6.98,2.58,37.25129,-79.94125,28052.16,7293.95,0.50,0.61,0.01,CARILION ROANOKE MEMORIAL CENTER
10.23,3.10,37.54330,-77.42932,43377.64,9760.17,0.67,0.49,0.00,MEDICAL COLLEGE OF VIRGINIA HOSPITALS
5.19,2.18,37.14463,-76.51197,19610.73,5438.18,0.50,0.79,0.57,MARY IMMACULATE HOSPITAL
10.81,2.28,37.09020,-80.50370,46094.15,5882.08,0.00,0.00,0.00,CARILION NEW RIVER VALLEY MEDICAL CENTER
4.85,2.23,36.77378,-76.57856,18022.62,5675.77,0.50,0.78,0.51,SENTARA OBICI HOSPITAL
7.23,2.19,37.26336,-80.03166,29227.47,5470.13,0.50,0.49,0.08,LEWISGALE MEDICAL CENTER
5.63,2.39,38.88916,-77.12796,21683.02,6409.81,1.00,0.57,0.58,VIRGINIA HOSPITAL CENTER - ARLINGTON
5.58,2.29,36.86449,-76.02844,21449.63,5935.32,0.67,0.62,0.39,SENTARA VIRGINIA BEACH GENERAL HOSPITAL
6.80,2.28,37.58440,-77.51252,27184.49,5901.22,0.50,0.66,0.70,BON SECOURS - ST MARYS HOSPITAL OF RICHMOND
6.14,2.64,38.85764,-77.22772,24099.72,7598.44,0.83,0.54,0.01,INOVA FAIRFAX HOSPITAL
4.72,2.25,38.02176,-78.44530,17392.96,5736.06,0.50,0.75,0.89,MARTHA JEFFERSON HOSPITAL
4.63,2.21,37.05580,-76.39048,16978.94,5549.53,0.67,0.66,0.74,SENTARA CAREPLEX HOSPITAL
6.20,2.25,38.96206,-77.36489,24366.71,5748.89,0.50,0.69,0.74,RESTON HOSPITAL CENTER
18.24,2.42,37.51021,-77.59525,81166.06,6538.06,0.83,0.53,0.32,CJW MEDICAL CENTER
13.47,2.34,37.60459,-77.53929,58649.29,6198.00,0.67,0.64,0.30,HENRICO DOCTORS' HOSPITAL
4.87,2.21,36.74610,-76.24609,18098.60,5571.50,0.50,0.62,0.86,CHESAPEAKE REGIONAL MEDICAL CENTER
5.78,2.47,47.71468,-122.33762,22389.74,6790.38,0.50,0.64,0.32,NORTHWEST HOSPITAL
7.19,2.46,48.41789,-122.32370,29066.86,6725.57,0.50,0.94,0.33,SKAGIT VALLEY HOSPITAL
6.09,3.17,47.64928,-122.30681,23835.96,10112.04,0.67,0.29,0.45,UNIVERSITY OF WASHINGTON MEDICAL CTR
7.39,2.44,47.45757,-122.34315,29976.15,6646.58,0.50,0.79,0.80,HIGHLINE MEDICAL CENTER
6.99,2.43,46.59643,-120.52005,28102.81,6583.65,0.50,0.78,0.03,YAKIMA REGIONAL MEDICAL AND CARDIAC CENTER
7.58,2.90,48.00091,-122.20600,30861.35,8818.84,0.67,0.56,0.32,PROVIDENCE REGIONAL MEDICAL CENTER EVERETT
3.87,2.51,47.40667,-120.32000,13388.94,6972.61,0.50,0.75,0.02,CENTRAL WASHINGTON HOSPITAL
9.86,2.60,47.05286,-122.84707,41651.54,7391.88,0.50,0.41,0.11,PROVIDENCE ST PETER HOSPITAL
9.11,2.49,47.60648,-122.31106,38117.17,6897.65,0.25,0.54,0.10,SWEDISH MEDICAL CENTER/CHERRY HILL
8.33,2.67,47.60869,-122.32128,34431.02,7733.00,0.33,0.56,0.14,SWEDISH MEDICAL CENTER
5.56,2.58,48.77371,-122.47344,21369.64,7310.64,0.50,0.68,0.33,ST JOSEPH MEDICAL CENTER
5.04,2.57,46.59360,-120.54741,18886.42,7278.42,0.50,0.75,0.48,YAKIMA VALLEY MEMORIAL HOSPITAL
6.80,2.73,47.58295,-122.62506,27189.27,8034.27,0.67,0.57,0.33,HARRISON MEDICAL CENTER
8.76,2.54,47.65191,-117.42329,36433.90,7136.50,0.50,0.57,0.14,DEACONESS HOSPITAL
5.82,2.63,45.62460,-122.58145,22592.37,7566.46,0.67,0.54,0.82,PEACEHEALTH SOUTHWEST MEDICAL CENTER
5.57,2.38,47.61943,-122.18605,21395.33,6365.90,0.50,0.57,0.76,OVERLAKE HOSPITAL MEDICAL CENTER
4.41,2.58,47.64936,-117.41194,15946.85,7289.79,0.67,0.76,0.33,PROVIDENCE SACRED HEART MEDICAL CENTER
5.48,2.41,46.28132,-119.28218,20991.95,6490.57,0.33,0.78,0.54,KADLEC REGIONAL MEDICAL CENTER
6.74,3.37,47.60351,-122.32305,26915.74,11049.63,0.67,0.53,0.00,HARBORVIEW MEDICAL CENTER
6.40,2.39,47.70969,-117.40722,25325.33,6396.13,0.50,0.65,0.89,PROVIDENCE HOLY FAMILY HOSPITAL
8.94,2.41,47.17742,-122.28943,37294.60,6494.27,0.50,0.96,0.11,MULTICARE GOOD SAMARITAN HOSPITAL
8.55,2.71,47.44243,-122.21392,35462.00,7930.77,0.50,0.55,0.48,VALLEY MEDICAL CENTER
9.25,2.58,47.24670,-122.44841,38768.69,7312.78,0.67,0.66,0.21,ST JOSEPH MEDICAL CENTER
6.23,2.39,47.67076,-117.23552,24533.78,6389.11,0.00,0.00,0.00,VALLEY HOSPITAL
5.98,2.42,47.71603,-122.17867,23328.50,6540.70,0.50,0.65,0.96,EVERGREEN HOSPITAL MEDICAL CENTER
9.27,2.70,47.25980,-122.45243,38851.03,7885.89,0.83,0.50,0.58,TACOMA GENERAL ALLENMORE HOSPITAL
9.18,2.52,47.29252,-122.32729,38425.10,7014.19,0.50,0.71,0.02,ST FRANCIS COMMUNITY HOSPITAL
4.18,2.34,47.43282,-120.32200,14844.80,6174.27,0.00,0.00,0.00,WENATCHEE VALLEY HOSPITAL
4.95,2.58,45.72039,-122.64855,18492.58,7295.29,0.67,0.71,0.83,LEGACY SALMON CREEK MEDICAL CENTER
6.53,2.72,39.65498,-79.95814,25956.20,7977.17,0.83,0.31,0.05,WEST VIRGINIA UNIVERSITY HOSPITALS
4.64,2.33,39.32836,-80.23964,17021.33,6123.62,0.67,0.61,0.76,UNITED HOSPITAL CENTER
4.07,2.31,38.43236,-82.40067,14310.22,6024.38,0.67,0.60,0.17,ST MARY'S MEDICAL CENTER
5.22,2.83,38.34739,-81.62600,19779.29,8481.93,0.67,0.59,0.11,CHARLESTON AREA MEDICAL CENTER
4.84,2.88,38.40959,-82.42708,17978.50,8728.47,0.50,0.51,0.08,CABELL-HUNTINGTON HOSPITAL INC
8.89,2.18,37.78754,-81.20183,37046.88,5425.50,0.67,0.74,0.83,RALEIGH GENERAL HOSPITAL
5.66,2.42,43.80136,-91.23958,21843.25,6545.88,0.25,0.66,0.70,MAYO CLINIC HLTH SYSTEM- FRANCISCAN MED CTR INC
6.50,2.28,43.01152,-88.24308,25813.73,5880.14,0.50,0.55,0.25,WAUKESHA MEMORIAL HOSPITAL
8.22,2.43,44.79461,-91.51111,33901.00,6599.17,0.67,0.64,0.14,SACRED HEART HSPTL
5.51,2.32,44.96738,-89.66994,21123.48,6101.22,0.50,0.68,0.74,ASPIRUS WAUSAU HOSPITAL
4.29,2.55,44.67759,-90.17818,15379.06,7179.53,0.50,0.57,0.14,MINISTRY SAINT JOSEPH'S HOSPITAL
3.37,2.37,44.18700,-88.45431,11039.97,6303.37,0.75,0.84,0.01,THEDA CLARK MED CTR
4.53,2.35,44.50233,-88.01140,16514.88,6212.44,0.50,0.61,0.12,BELLIN MEMORIAL HSPTL
6.99,2.32,42.68685,-89.03244,28120.00,6081.00,0.50,0.64,0.43,MERCY HLTH SYS CORP
4.76,2.22,44.81192,-91.51352,17582.56,5590.95,0.25,0.55,0.70,MAYO CLINIC HEALTH SYSTEM EAU CLAIRE HOSPITAL
5.26,2.44,43.05867,-89.40269,19935.22,6669.74,0.67,0.78,0.70,ST MARY'S HOSPITAL
5.53,2.42,43.79515,-91.24798,21202.00,6543.85,0.17,0.61,0.21,GUNDERSEN LUTH MED CTR
6.38,2.52,43.06432,-89.40100,25218.56,7013.78,0.67,0.44,0.57,MERITER HSPTL
5.68,3.03,43.07633,-89.43133,21927.46,9432.43,0.50,0.35,0.16,UNIVERSITY OF WI  HOSPITALS & CLINICS AUTHORITY
7.63,2.32,42.66123,-88.49611,31139.82,6062.73,0.00,0.00,0.00,AURORA LAKELAND MED CTR
6.29,2.22,43.16402,-88.13829,24823.86,5610.73,0.50,0.60,0.91,COMMUNITY MEM HSPTL
7.53,2.61,42.98958,-87.95079,30656.63,7450.47,0.50,0.65,0.38,AURORA ST LUKES MEDICAL CENTER
6.19,2.41,44.47472,-87.94018,24317.72,6523.51,0.50,0.68,0.89,AURORA BAYCARE MED CTR
6.30,2.73,42.84802,-106.30851,24864.87,8012.47,0.50,0.70,0.08,WYOMING MEDICAL CENTER
14.25,3.11,41.14037,-104.81660,62353.07,9821.29,0.50,0.70,0.33,CHEYENNE REGIONAL MEDICAL CENTER
9.40,2.30,42.84079,-106.22644,39487.87,6008.53,0.00,0.00,0.00,MOUNTAIN VIEW REGIONAL HOSPITAL
21.61,3.34,29.53410,-95.12601,97018.88,10904.75,0.00,0.00,0.00,HOUSTON PHYSICIANS' HOSPITAL
8.54,2.21,29.72406,-95.46114,35399.37,5545.95,0.00,0.00,0.00,FOUNDATION SURGICAL HOSPITAL
11.23,2.21,30.56899,-97.65104,48117.57,5579.71,0.75,0.91,0.30,SETON MEDICAL CENTER WILLIAMSON
4.89,2.26,32.87515,-96.77145,18206.62,5801.14,0.00,0.00,0.00,NORTH CENTRAL SURGICAL CENTER LLP
12.38,2.79,29.61578,-98.47479,53493.80,8318.37,0.50,0.76,0.33,METHODIST STONE OAK HOSPITAL
5.59,2.91,30.20344,-95.45738,21512.65,8856.09,0.00,0.00,0.00,ST LUKES LAKESIDE HOSPITAL
4.11,2.11,32.98478,-96.82942,14542.70,5086.60,0.00,0.00,0.00,METHODIST HOSPITAL FOR SURGERY
