size_charge,size_pay,lat,lon,charge,pay,name,Air,BloodInf,UrinaryInf,Falls double,Mismatch,Objects,Sores,Sugar
7.91,2.32,36.18082,-94.13644,31120.05,6302.42,NW ARKANSAS HOSPITALS, LLC,0.0,0.327,0.245,0.818,0.0,0.0,0.164,0.0
6.07,2.23,34.46784,-93.06667,22951.22,5931.04,ST JOSEPHS MERCY HEALTH CENTER INC,0.0,0.343,0.942,0.171,0.0,0.0,0.171,0.0
3.52,2.09,36.34295,-92.39442,11646.70,5304.22,BAXTER REGIONAL MEDICAL CENTER,0.0,0.0,0.484,0.194,0.0,0.097,0.194,0.0
3.52,2.20,35.08546,-92.45774,11614.28,5793.50,CONWAY REGIONAL MEDICAL CENTER,0.0,0.62,1.24,0.155,0.0,0.0,0.0,0.0
4.58,2.20,34.77770,-92.12539,16326.78,5798.72,BAPTIST HEALTH MEDICAL CENTER NORTH LITTLE ROCK,0.0,0.625,0.803,0.0,0.0,0.0,0.357,0.089
4.39,2.19,35.37445,-94.41868,15487.88,5712.88,SPARKS REGIONAL MEDICAL CENTER,0.0,0.277,1.248,0.486,0.0,0.0,0.139,0.069
5.97,2.11,35.35395,-94.35262,22493.16,5395.36,ST EDWARD MERCY MEDICAL CENTER,0.0,0.604,0.302,0.906,0.0,0.0,0.101,0.0
4.13,2.21,34.57290,-92.58508,14324.47,5832.84,SALINE MEMORIAL HOSPITAL,0.0,0.442,0.221,0.0,0.0,0.0,0.0,0.0
5.65,2.29,34.74866,-92.35422,21074.87,6155.90,BAPTIST HEALTH MEDICAL CENTER-LITTLE ROCK,0.0,0.656,0.656,0.231,0.0,0.039,0.347,0.077
5.39,2.35,35.80838,-90.66658,19919.06,6424.18,NEA BAPTIST MEMORIAL HOSPITAL,0.0,0.134,0.939,0.402,0.0,0.0,0.134,0.134
6.73,2.62,35.76927,-91.63408,25873.86,7645.43,WHITE RIVER MEDICAL CENTER,0.0,0.87,0.497,0.249,0.0,0.0,0.373,0.0
8.39,2.59,40.78366,-124.14246,33213.00,7504.00,ST JOSEPH HOSPITAL,0.0,0.179,0.716,0.0,0.0,0.179,0.179,0.0
11.90,2.68,37.59283,-122.38249,48813.47,7912.79,PENINSULA MEDICAL CENTER,0.0,0.495,0.619,1.114,0.0,0.0,0.0,0.0
15.65,2.83,38.32472,-122.29671,65450.67,8573.07,QUEEN OF THE VALLEY MEDICAL CENTER,0.0,0.306,1.073,0.613,0.0,0.0,0.0,0.0
6.66,3.42,32.75426,-117.16592,25545.32,11190.32,UNIVERSITY OF CALIFORNIA SAN DIEGO MEDICAL CENTER,0.0,0.475,0.158,0.079,0.0,0.238,0.0,0.0
11.07,2.85,32.77495,-117.01467,45112.09,8642.03,GROSSMONT HOSPITAL,0.0,0.131,0.327,0.523,0.0,0.065,0.0,0.0
10.68,2.55,39.74221,-121.85000,43398.54,7326.46,ENLOE MEDICAL CENTER,0.0,0.144,0.433,0.0,0.0,0.072,0.072,0.0
16.00,3.38,37.82206,-122.26275,66981.94,10996.78,ALTA BATES SUMMIT MEDICAL CENTER,0.0,0.897,0.489,0.489,0.0,0.0,0.163,0.0
12.43,3.52,37.79100,-122.43125,51170.55,11642.15,CALIFORNIA PACIFIC MEDICAL CTR-PACIFIC CAMPUS HOSP,0.0,0.689,0.536,0.842,0.0,0.0,0.153,0.0
5.57,2.88,34.67486,-118.15771,20712.91,8802.23,ANTELOPE VALLEY HOSPITAL MED CENTER,0.0,0.369,0.462,0.092,0.0,0.185,0.0,0.0
9.85,2.84,36.32737,-119.29548,39703.70,8624.40,KAWEAH DELTA MEDICAL CENTER,0.0,0.4,0.599,0.4,0.0,0.0,0.2,0.067
9.72,3.22,36.73000,-119.78000,39125.44,10290.88,COMMUNITY REGIONAL MEDICAL CENTER,0.0,0.42,0.18,0.12,0.0,0.0,0.48,0.0
8.25,2.61,33.78036,-117.86495,32604.43,7581.29,ST JOSEPH HOSPITAL,0.0,0.106,0.53,0.212,0.0,0.106,0.212,0.0
16.04,2.94,37.96987,-121.28873,67161.20,9071.30,ST JOSEPHS MED CENTER OF STOCKTON,0.0,0.222,0.296,0.518,0.0,0.148,0.0,0.0
7.58,3.00,38.28820,-122.46533,29646.64,9334.45,SONOMA VALLEY HOSPITAL,0.0,0.0,0.0,0.0,0.0,0.0,0.0,0.603
9.53,2.64,36.83532,-119.76562,38278.37,7723.11,SAINT AGNES MEDICAL CENTER,0.0,0.275,0.826,0.138,0.0,0.0,0.184,0.0
8.74,2.45,34.10130,-117.63651,34771.18,6902.09,SAN ANTONIO COMMUNITY HOSPITAL,0.0,0.539,0.673,0.135,0.0,0.0,0.135,0.0
10.84,2.73,32.79949,-117.15394,44100.20,8140.05,SHARP MEMORIAL HOSPITAL,0.0,0.288,0.672,0.48,0.0,0.096,0.0,0.0
10.97,2.97,38.57155,-121.46874,44671.14,9196.36,SUTTER GENERAL HOSPITAL,0.0,0.129,0.579,0.643,0.0,0.0,0.0,0.0
12.77,2.85,34.02685,-118.48651,52658.00,8653.29,SANTA MONICA - UCLA MED CTR & ORTHOPAEDIC HOSPITAL,0.0,0.45,0.36,0.629,0.0,0.0,0.0,0.0
9.20,2.47,33.12535,-117.07336,36804.73,6987.64,PALOMAR MEDICAL CENTER,0.0,0.56,0.56,0.224,0.0,0.0,0.224,0.112
15.50,2.86,34.22014,-118.53410,64786.14,8699.64,NORTHRIDGE HOSPITAL MEDICAL CENTER,0.0,1.27,0.098,0.586,0.0,0.195,0.098,0.0
6.82,2.78,33.18402,-117.29661,26257.67,8361.00,TRI-CITY MEDICAL CENTER,0.0,0.196,0.294,2.551,0.0,0.196,0.196,0.0
13.39,2.88,38.25455,-122.63177,55401.83,8810.83,PETALUMA VALLEY HOSPITAL,0.0,0.776,0.0,0.0,0.0,0.0,0.0,0.0
11.61,3.00,36.57886,-121.91316,47504.42,9331.06,COMMUNITY HOSPITAL OF THE MONTEREY PENINSULA,0.0,0.488,0.781,0.098,0.0,0.098,0.098,0.0
7.85,2.53,39.22809,-121.04721,30854.33,7221.58,SIERRA NEVADA MEMORIAL HOSPITAL,0.0,0.777,0.388,0.388,0.0,0.0,0.0,0.194
8.94,2.49,33.89465,-117.92716,35693.25,7085.83,ST JUDE MEDICAL CENTER,0.0,0.103,0.309,0.516,0.0,0.0,0.206,0.0
13.54,2.96,38.44369,-122.70138,56090.60,9136.45,SANTA ROSA MEMORIAL HOSPITAL,0.0,0.0,0.389,0.389,0.0,0.0,0.0,0.0
13.30,2.72,37.51164,-120.83800,55022.58,8062.50,EMANUEL MEDICAL CENTER INC,0.0,0.147,0.587,0.0,0.0,0.0,0.0,0.0
19.15,2.94,37.91341,-122.04163,80959.69,9040.50,JOHN MUIR MEDICAL CENTER - WALNUT CREEK CAMPUS,0.0,0.082,0.245,0.735,0.0,0.0,0.082,0.082
18.38,3.22,37.55717,-121.98126,77522.85,10280.85,WASHINGTON HOSPITAL,0.0,0.196,0.785,0.589,0.0,0.098,0.0,0.098
6.47,2.52,33.62229,-117.92995,24705.79,7179.31,HOAG MEMORIAL HOSPITAL PRESBYTERIAN,0.0,0.544,0.302,0.363,0.0,0.0,0.06,0.0
21.22,2.52,39.75720,-121.57018,90143.83,7209.25,FEATHER RIVER HOSPITAL,0.0,0.199,0.596,0.794,0.0,0.0,0.0,0.397
9.48,2.73,34.13973,-118.03534,38075.50,8149.07,METHODIST HOSPITAL OF SOUTHERN CA,0.0,0.262,1.397,0.175,0.0,0.087,0.087,0.087
12.59,4.37,37.75676,-122.40461,51880.45,15400.18,SAN FRANCISCO GENERAL HOSPITAL,0.0,0.0,0.626,0.209,0.0,0.209,0.417,0.209
14.07,3.01,36.98999,-121.98357,58440.45,9371.73,DOMINICAN HOSPITAL,0.0,0.241,0.723,0.844,0.0,0.0,0.121,0.0
18.00,2.76,33.83862,-116.54557,75835.15,8248.65,DESERT REGIONAL MEDICAL CENTER,0.0,0.507,0.71,0.0,0.0,0.0,0.0,0.0
9.45,2.85,40.58654,-122.39168,37927.95,8666.95,MERCY MEDICAL CENTER REDDING,0.0,0.238,0.713,0.079,0.0,0.0,0.079,0.0
10.55,2.72,34.50107,-117.17285,42821.33,8074.08,ST MARY MEDICAL CENTER,0.0,0.245,0.368,0.0,0.0,0.0,0.0,0.0
7.22,2.73,39.15350,-123.20435,28058.33,8110.67,UKIAH VALLEY MEDICAL CENTER/HOSPITAL D,0.0,0.0,0.0,0.0,0.0,0.0,0.0,0.0
13.17,2.82,37.36934,-122.08047,54418.85,8537.50,EL CAMINO HOSPITAL,0.0,0.83,0.554,1.015,0.0,0.277,0.185,0.0
8.73,2.72,38.76514,-121.24979,34751.57,8106.04,SUTTER ROSEVILLE MEDICAL CENTER,0.0,0.208,0.415,0.83,0.0,0.0,0.0,0.0
11.19,2.98,32.88461,-117.22244,45648.53,9251.60,SCRIPPS MEMORIAL HOSPITAL LA JOLLA,0.0,0.344,0.458,1.146,0.0,0.0,0.229,0.0
23.89,2.63,38.12186,-121.28665,101957.58,7687.58,LODI MEMORIAL HOSPITAL,0.0,0.76,0.76,0.76,0.0,0.0,0.0,0.0
9.71,2.43,33.81131,-118.34364,39077.74,6819.58,TORRANCE MEMORIAL MEDICAL CENTER,0.0,0.585,0.418,0.167,0.0,0.0,0.418,0.0
9.37,2.52,33.83891,-118.35677,37575.83,7215.58,PROVIDENCE LITTLE COMPANY OF MARY MED CTR TORRANCE,0.0,0.179,0.089,0.089,0.0,0.0,0.0,0.0
17.25,3.12,37.94748,-122.53677,72544.45,9858.60,MARIN GENERAL HOSPITAL,0.0,0.759,0.379,0.379,0.0,0.126,0.0,0.0
30.00,3.46,38.26174,-122.04662,129078.14,11375.14,NORTHBAY MEDICAL CENTER,0.0,0.52,0.26,0.26,0.0,0.0,0.26,0.0
12.80,2.54,34.27459,-119.25812,52797.79,7272.71,COMMUNITY MEMORIAL HOSPITAL SAN BUENAVENTURA,0.0,0.114,0.114,0.114,0.0,0.114,0.341,0.114
8.16,2.66,34.42951,-119.72333,32225.66,7818.06,SANTA BARBARA COTTAGE HOSPITAL,0.0,0.0,0.239,0.159,0.0,0.0,0.08,0.08
5.42,2.56,32.89810,-117.24217,20074.38,7366.06,SCRIPPS GREEN HOSPITAL,0.0,0.528,0.352,0.616,0.0,0.0,0.0,0.0
12.26,2.73,34.13364,-118.15275,50377.12,8108.56,HUNTINGTON MEMORIAL HOSPITAL,0.0,0.171,0.514,0.171,0.0,0.0,0.057,0.057
18.97,3.96,37.43436,-122.18013,80135.42,13599.65,STANFORD HOSPITAL,0.0,0.28,0.449,0.337,0.0,0.0,0.112,0.112
10.65,2.97,37.34027,-120.46817,43263.83,9190.50,MERCY MEDICAL CENTER,0.0,0.358,0.597,0.119,0.0,0.0,0.0,0.0
8.11,2.95,35.64086,-117.67119,31973.25,9084.00,RIDGECREST REGIONAL HOSPITAL,0.0,0.0,0.0,0.0,0.0,0.0,0.0,0.0
11.47,3.98,37.76421,-122.45716,46881.22,13660.00,UCSF MEDICAL CENTER,0.0,0.738,0.492,0.492,0.0,0.123,0.123,0.0
24.54,3.02,37.66540,-120.99743,104853.17,9395.92,DOCTORS MEDICAL CENTER,0.0,0.232,0.928,0.464,0.0,0.0,0.116,0.0
24.65,3.11,34.20285,-118.62962,105335.82,9806.82,WEST HILLS HOSPITAL & MEDICAL CENTER,0.0,0.0,0.581,0.726,0.0,0.145,0.29,0.0
10.20,2.93,33.80861,-118.18661,41280.86,8997.79,LONG BEACH MEMORIAL MEDICAL CENTER,0.0,0.66,0.6,0.42,0.0,0.0,0.0,0.06
21.20,2.90,37.98396,-122.03464,90027.27,8903.00,JOHN MUIR MEDICAL CENTER - CONCORD CAMPUS,0.0,0.512,0.256,0.64,0.0,0.0,0.0,0.0
8.09,2.57,38.94514,-121.10174,31918.83,7405.08,SUTTER AUBURN FAITH HOSPITAL,0.0,0.0,0.0,0.287,0.0,0.0,0.0,0.0
10.27,2.65,33.03634,-117.28487,41554.87,7752.22,SCRIPPS MEMORIAL HOSPITAL - ENCINITAS,0.0,0.19,0.569,0.569,0.0,0.19,0.0,0.0
10.31,3.19,38.66956,-121.31378,41737.75,10176.25,MERCY SAN JUAN MEDICAL CENTER,0.0,0.085,0.34,0.17,0.0,0.0,0.17,0.085
12.35,2.72,34.20777,-118.88305,50794.67,8078.13,LOS ROBLES HOSPITAL & MEDICAL CENTER,0.0,0.543,0.633,0.543,0.0,0.181,0.0,0.09
12.81,2.66,37.66867,-120.97339,52842.33,7814.94,MEMORIAL  MEDICAL CENTER,0.0,0.667,0.167,0.25,0.0,0.0,0.0,0.0
14.58,2.84,33.56100,-117.66530,60677.76,8628.00,MISSION HOSPITAL REGIONAL MED CENTER,0.0,0.311,0.466,0.233,0.0,0.078,0.233,0.0
16.82,2.46,33.76335,-116.40628,70636.86,6920.67,EISENHOWER MEDICAL CENTER,0.0,0.344,0.589,0.393,0.0,0.049,0.0,0.049
13.27,3.67,38.55484,-121.45628,54896.63,12303.63,UNIVERSITY OF CALIFORNIA DAVIS MEDICAL CENTER,0.0,1.915,0.479,2.668,0.0,0.137,0.0,0.137
12.30,2.43,33.60883,-117.70881,50553.69,6810.31,SADDLEBACK MEMORIAL MEDICAL CENTER,0.0,0.0,0.267,0.534,0.0,0.0,0.067,0.067
11.41,2.80,34.24359,-119.01992,46629.07,8453.29,ST JOHNS PLEASANT VALLEY HOSPITAL,0.0,0.846,0.282,0.846,0.0,0.0,0.0,0.0
20.47,3.22,34.07664,-118.37955,86806.14,10301.61,CEDARS-SINAI MEDICAL CENTER,0.0,0.348,0.294,0.268,0.0,0.107,0.241,0.0
15.85,3.12,35.55536,-120.72067,66322.64,9845.64,TWIN CITIES COMMUNITY HOSPITAL,0.0,0.951,0.571,0.0,0.0,0.0,0.0,0.0
7.36,2.61,33.55876,-117.18329,28665.36,7588.64,SOUTHWEST HEALTHCARE SYSTEM,0.0,0.0,1.03,0.257,0.0,0.0,0.129,0.0
19.35,2.79,34.17067,-118.53200,81861.50,8412.21,PROVIDENCE TARZANA MEDICAL CENTER,0.0,1.031,0.344,0.258,0.0,0.0,0.172,0.086
6.01,2.49,40.41481,-104.70890,22671.43,7077.33,NORTH COLORADO MEDICAL CENTER,0.0,0.0,0.603,0.345,0.0,0.0,0.172,0.0
7.64,2.33,40.18134,-105.12769,29887.67,6366.00,LONGMONT UNITED HOSPITAL,0.0,0.0,0.536,0.0,0.0,0.0,0.536,0.179
3.84,2.36,38.48040,-107.86857,13054.44,6493.50,MONTROSE MEMORIAL HOSPITAL,0.0,0.0,0.8,0.4,0.0,0.0,0.0,0.0
4.10,2.54,37.47150,-105.88350,14209.42,7305.00,SAN LUIS VALLEY REGIONAL MEDICAL CENTER,0.0,0.0,0.0,0.0,0.0,0.0,0.0,0.0
6.54,2.33,39.76893,-105.09006,25034.62,6370.67,EXEMPLA LUTHERAN MEDICAL CENTER,0.109,0.437,0.219,0.328,0.0,0.109,0.0,0.109
6.03,2.39,40.57315,-105.05741,22778.30,6606.48,POUDRE VALLEY HOSPITAL,0.0,0.181,0.543,0.362,0.0,0.0,0.0,0.091
9.73,2.42,38.23421,-104.62292,39197.12,6754.88,CENTURA HEALTH-ST MARY CORWIN MEDICAL CENTER,0.0,0.304,1.064,0.152,0.0,0.304,0.456,0.0
6.31,2.69,37.23629,-107.82578,23987.00,7957.06,MERCY REGIONAL MEDICAL CENTER,0.0,0.0,0.0,0.0,0.0,0.0,0.0,0.0
6.22,2.57,38.45565,-105.23021,23620.83,7429.08,CENTURA HEALTH-ST THOMAS MORE HOSPITAL,0.0,1.542,2.569,1.028,0.0,0.0,0.0,0.0
7.34,2.37,38.28184,-104.61256,28591.60,6549.17,PARKVIEW MEDICAL CENTER INC,0.0,0.206,0.619,0.206,0.0,0.0,0.31,0.0
6.44,2.37,38.83903,-104.80024,24567.53,6526.22,MEMORIAL HOSPITAL CENTRAL,0.0,0.363,0.544,0.06,0.0,0.0,0.0,0.181
6.25,2.47,39.09046,-108.56190,23736.04,6995.38,ST MARYS HOSPITAL AND MEDICAL CENTER,0.0,0.976,0.759,1.193,0.0,0.0,0.217,0.108
6.65,3.17,39.74234,-104.84156,25496.77,10069.21,UNIVERSITY OF COLORADO HOSPITAL ANSCHUTZ INPATIENT,0.0,0.843,0.169,1.096,0.0,0.0,0.084,0.0
8.47,2.25,40.02615,-105.28391,33566.55,6017.52,BOULDER COMMUNITY HOSPITAL,0.0,0.192,0.192,0.0,0.0,0.0,0.0,0.0
4.31,2.24,40.41320,-105.05139,15146.00,5938.69,MCKEE MEDICAL CENTER,0.0,0.0,0.0,0.252,0.0,0.0,0.0,0.0
6.58,2.26,38.86559,-104.82182,25197.77,6024.95,CENTURA HEALTH-PENROSE ST FRANCIS HEALTH SERVICES,0.0,0.655,0.298,0.119,0.0,0.0,0.238,0.0
8.55,2.49,39.73231,-104.93396,33931.44,7057.76,ROSE MEDICAL CENTER,0.0,2.064,0.551,1.789,0.0,0.0,0.275,0.138
7.91,2.44,39.65399,-104.98116,31124.63,6862.07,SWEDISH MEDICAL CENTER,0.0,1.376,0.994,0.688,0.0,0.076,0.0,0.306
9.99,2.50,39.67005,-104.97490,40326.46,7098.08,CENTURA HEALTH-PORTER ADVENTIST HOSPITAL,0.0,0.158,0.947,0.473,0.0,0.0,0.0,0.0
4.23,2.29,38.74540,-108.04700,14768.68,6181.68,DELTA COUNTY MEMORIAL HOSPITAL,0.0,0.766,0.0,0.0,0.0,0.0,0.0,0.0
8.76,2.62,39.68859,-104.83205,34868.03,7623.34,MEDICAL CENTER OF AURORA, THE,0.0,0.92,1.022,0.409,0.0,0.0,0.102,0.0
8.43,2.46,39.84960,-105.01825,33410.57,6948.93,CENTURA HEALTH-ST ANTHONY NORTH HOSPITAL,0.0,0.581,0.968,0.387,0.0,0.0,0.194,0.0
8.02,2.26,39.52910,-104.87121,31581.10,6036.60,SKY RIDGE MEDICAL CENTER,0.0,0.298,0.745,0.298,0.0,0.0,0.0,0.0
8.10,2.47,39.57629,-104.98610,31959.48,6979.32,CENTURA HEALTH-LITTLETON ADVENTIST HOSPITAL,0.0,0.0,0.35,0.175,0.0,0.0,0.175,0.0
8.96,2.88,41.30978,-72.93806,35755.60,8783.32,HOSPITAL OF ST RAPHAEL,0.0,0.344,0.516,0.602,0.0,0.0,0.086,0.043
7.76,2.90,41.77507,-72.69941,30450.94,8883.62,ST FRANCIS HOSPITAL & MEDICAL CENTER,0.0,0.714,0.672,0.462,0.0,0.0,0.126,0.084
7.82,2.71,41.55959,-73.05941,30703.09,8052.45,WATERBURY HOSPITAL,0.0,0.629,0.45,0.09,0.0,0.09,0.09,0.0
7.30,2.78,41.05562,-73.55390,28401.45,8360.73,STAMFORD HOSPITAL,0.0,1.067,0.534,0.32,0.0,0.0,0.854,0.107
3.25,2.52,41.79153,-73.13382,10440.60,7187.07,CHARLOTTE HUNGERFORD HOSPITAL,0.0,0.0,0.494,0.165,0.0,0.0,0.165,0.0
3.96,3.04,41.55241,-73.03554,13596.92,9500.77,SAINT MARYS HOSPITAL,0.0,0.294,0.783,0.098,0.0,0.098,0.196,0.0
6.25,2.50,41.54874,-72.80148,23747.00,7121.20,MIDSTATE MEDICAL CENTER,0.0,1.042,0.781,0.391,0.0,0.13,0.0,0.0
7.36,2.55,41.03431,-73.63020,28647.00,7337.50,GREENWICH HOSPITAL ASSOCIATION,0.0,0.102,0.407,0.611,0.0,0.102,0.204,0.102
6.73,2.55,41.55473,-72.64872,25885.67,7339.74,MIDDLESEX HOSPITAL,0.0,0.0,0.574,1.884,0.0,0.082,0.246,0.0
4.47,2.93,41.71622,-72.22399,15852.96,9012.92,WINDHAM COMM MEM HOSP & HATCH HOSP,0.0,0.0,0.458,0.0,0.0,0.0,0.687,0.0
7.91,3.30,41.30400,-72.93502,31083.21,10672.17,YALE-NEW HAVEN HOSPITAL,0.0,0.865,0.587,0.68,0.0,0.124,0.062,0.34
5.61,2.61,41.54301,-72.08799,20886.08,7601.85,WILLIAM W BACKUS HOSPITAL,0.0,0.555,0.333,0.111,0.0,0.0,0.0,0.111
6.70,3.12,41.75412,-72.67927,25729.59,9863.03,HARTFORD HOSPITAL,0.0,0.402,0.511,0.548,0.0,0.073,0.073,0.11
5.46,2.48,41.78185,-72.52591,20229.50,7018.00,MANCHESTER MEMORIAL HOSPITAL,0.0,0.0,0.863,0.0,0.0,0.0,0.173,0.173
6.46,2.78,41.20049,-73.20281,24691.33,8336.83,ST VINCENT'S MEDICAL CENTER,0.0,0.375,0.25,0.437,0.0,0.0,0.0,0.0
5.32,2.95,41.40474,-73.44739,19635.95,9104.29,DANBURY HOSPITAL,0.0,0.0,0.517,0.46,0.0,0.0,0.057,0.23
7.65,2.96,41.11147,-73.42010,29950.87,9161.32,NORWALK HOSPITAL ASSOCIATION,0.0,0.195,0.39,0.098,0.0,0.0,0.293,0.0
7.41,2.84,41.66107,-72.78671,28899.69,8605.14,HOSPITAL OF CENTRAL CONNECTICUT, THE,0.0,0.249,0.187,0.435,0.0,0.062,0.124,0.124
5.37,2.73,39.69005,-75.68408,19823.75,8132.84,CHRISTIANA CARE HEALTH SERVICES, INC.,0.0,0.513,0.424,0.379,0.0,0.0,0.067,0.089
4.72,2.60,39.15135,-75.52309,16952.37,7566.00,BAYHEALTH - KENT GENERAL HOSPITAL,0.0,0.258,0.773,0.193,0.0,0.0,0.064,0.129
6.03,2.44,38.77159,-75.14210,22753.69,6837.75,BEEBE MEDICAL CENTER,0.0,0.0,0.098,0.195,0.0,0.0,0.0,0.0
7.81,2.98,38.90106,-77.05079,30657.34,9216.31,GEORGE WASHINGTON UNIV HOSPITAL,0.0,0.445,1.112,0.778,0.0,0.445,0.0,0.111
8.81,3.99,38.91770,-77.02193,35086.64,13713.18,HOWARD UNIVERSITY HOSPITAL,0.0,0.805,0.322,0.644,0.0,0.0,0.161,0.0
6.85,3.23,38.91221,-77.07588,26397.42,10342.89,GEORGETOWN UNIVERSITY HOSPITAL,0.0,0.876,0.548,0.438,0.0,0.0,0.11,0.0
5.14,2.27,38.93576,-77.10909,18835.81,6069.67,SIBLEY MEMORIAL HOSPITAL,0.0,0.0,0.649,0.26,0.0,0.0,0.13,0.0
6.17,2.94,38.94397,-76.99040,23401.36,9060.86,PROVIDENCE HOSPITAL,0.0,0.322,0.215,0.0,0.107,0.107,0.322,0.0
7.54,3.07,38.92944,-77.01473,29478.41,9640.32,WASHINGTON HOSPITAL CENTER,0.0,0.761,0.217,0.362,0.0,0.0,0.145,0.109
8.42,3.14,30.34913,-81.66391,33345.47,9934.32,SHANDS JACKSONVILLE MEDICAL CENTER,0.0,0.31,0.31,0.186,0.0,0.0,0.124,0.186
8.30,2.43,26.50479,-80.06979,32851.87,6786.13,BETHESDA MEMORIAL HOSPITAL,0.0,0.508,0.799,0.29,0.0,0.073,0.29,0.0
10.34,2.50,28.52517,-81.37729,41882.53,7106.31,ORLANDO HEALTH,0.0,0.826,0.486,0.219,0.0,0.049,0.097,0.024
9.06,2.60,28.57345,-81.36990,36185.90,7559.21,FLORIDA HOSPITAL,0.0,0.317,0.317,0.136,0.0,0.0,0.011,0.023
12.47,2.61,25.68309,-80.34038,51307.83,7587.62,BAPTIST HOSPITAL OF MIAMI INC,0.0,0.316,0.443,0.19,0.0,0.0,0.19,0.063
10.22,2.69,25.78846,-80.21644,41345.58,7932.75,UNIVERSITY OF MIAMI HOSPITAL,0.0,0.929,0.547,0.109,0.0,0.0,1.093,0.055
6.51,2.32,26.62849,-81.87423,24912.68,6309.40,LEE MEMORIAL HOSPITAL,0.0,0.511,0.746,1.021,0.0,0.0,0.157,0.039
5.09,2.11,29.01347,-80.94096,18575.25,5379.33,BERT FISH MEDICAL CENTER,0.0,1.16,0.87,0.58,0.0,0.0,0.0,0.0
5.72,2.36,29.20117,-81.05828,21394.52,6507.36,HALIFAX HEALTH MEDICAL CENTER,0.0,0.425,0.729,0.121,0.0,0.0,0.0,0.0
6.07,2.35,26.15053,-81.79919,22921.55,6464.43,NAPLES COMMUNITY HOSPITAL,0.0,0.303,0.539,0.101,0.0,0.0,0.135,0.034
6.52,2.28,28.08771,-80.61362,24935.90,6111.36,HOLMES REGIONAL MEDICAL CENTER,0.0,0.475,0.647,0.216,0.0,0.043,0.043,0.0
6.20,2.19,28.83363,-82.33561,23519.22,5740.83,CITRUS MEMORIAL HOSPITAL,0.0,0.415,0.415,2.24,0.0,0.0,0.249,0.083
5.14,2.74,30.47650,-87.21219,18839.69,8178.50,SACRED HEART HOSPITAL,0.058,0.231,0.231,0.81,0.0,0.173,0.058,0.116
13.35,2.68,25.86166,-80.21398,55251.73,7917.13,NORTH SHORE MEDICAL CENTER,0.0,0.15,0.225,0.0,0.0,0.0,0.075,0.0
8.70,2.59,27.76332,-82.64325,34608.41,7509.18,BAYFRONT MEDICAL CENTER INC,0.0,1.031,0.469,0.0,0.0,0.0,0.0,0.0
13.13,2.76,25.81317,-80.13996,54271.44,8254.56,MOUNT SINAI MEDICAL CENTER,0.0,0.313,0.813,0.313,0.0,0.063,0.125,0.063
6.99,2.36,27.49789,-82.56220,27039.33,6491.53,MANATEE MEMORIAL HOSPITAL,0.0,0.271,0.542,0.542,0.0,0.09,0.181,0.0
12.29,2.55,26.01867,-80.17981,50528.29,7352.06,MEMORIAL REGIONAL HOSPITAL,0.0,0.273,0.436,0.164,0.0,0.0,0.055,0.109
6.62,2.27,30.30835,-81.68919,25403.16,6069.96,ST VINCENT'S MEDICAL CENTER,0.0,0.139,0.173,0.104,0.0,0.0,0.069,0.035
7.58,2.24,27.19837,-80.24306,29622.52,5963.48,MARTIN MEMORIAL MEDICAL CENTER,0.0,0.448,0.384,0.128,0.0,0.064,0.0,0.0
8.40,2.21,28.26092,-82.18802,33273.58,5831.75,FLORIDA HOSPITAL ZEPHYRHILLS,0.0,0.131,0.262,0.262,0.0,0.131,0.262,0.0
8.53,2.25,26.94042,-82.04094,33870.41,5984.00,CHARLOTTE REGIONAL MEDICAL CENTER,0.0,0.199,0.099,0.397,0.0,0.0,0.0,0.099
10.55,2.35,28.55140,-81.72120,42833.58,6459.68,SOUTH LAKE HOSPITAL,0.0,1.095,1.824,0.547,0.0,0.0,0.0,0.0
7.41,2.37,28.02768,-81.72466,28903.48,6536.74,WINTER HAVEN HOSPITAL,0.0,0.4,0.799,0.32,0.0,0.0,0.719,0.0
6.75,2.45,28.82358,-81.71133,25950.38,6900.88,FLORIDA HOSPITAL WATERMAN,0.0,0.137,0.825,0.069,0.0,0.0,0.069,0.0
6.57,2.19,29.17594,-82.13898,25177.19,5711.85,MUNROE REGIONAL MEDICAL CENTER,0.0,0.135,0.628,0.359,0.0,0.0,0.09,0.135
6.14,2.10,27.78088,-82.65126,23246.08,5317.62,ST ANTHONY'S HOSPITAL,0.0,0.632,0.316,0.316,0.0,0.0,0.105,0.0
4.72,2.21,29.24333,-81.10760,16944.67,5821.00,FLORIDA HOSPITAL MEMORIAL MEDICAL CENTER,0.0,0.378,0.472,0.189,0.0,0.094,0.0,0.0
6.49,2.16,27.09043,-82.44499,24812.70,5605.93,VENICE REGIONAL MEDICAL CENTER,0.0,0.41,0.614,0.205,0.0,0.0,0.0,0.0
12.56,2.34,28.53906,-82.44193,51747.61,6408.33,BROOKSVILLE REGIONAL HOSPITAL,0.0,0.525,0.393,0.0,0.0,0.0,0.262,0.0
8.10,2.40,26.18711,-80.11941,31932.27,6683.73,HOLY CROSS HOSPITAL INC,0.0,0.328,0.46,1.182,0.0,0.0,0.131,0.066
7.59,2.45,27.98242,-82.49025,29666.14,6868.92,ST JOSEPH'S HOSPITAL,0.0,0.48,0.384,0.144,0.0,0.0,0.096,0.192
8.29,2.29,26.98905,-82.09559,32804.92,6196.42,PEACE RIVER REGIONAL MEDICAL CENTER,0.0,0.13,0.391,0.782,0.0,0.13,0.0,0.0
11.91,2.41,26.59805,-80.09271,48831.78,6719.86,JFK MEDICAL CENTER,0.0,0.454,0.578,0.165,0.0,0.041,0.041,0.0
5.79,2.29,28.80659,-81.86906,21718.57,6183.52,LEESBURG REGIONAL MEDICAL CENTER,0.0,0.322,0.643,0.214,0.0,0.054,0.0,0.0
5.82,2.32,27.31827,-82.53140,21838.85,6311.94,SARASOTA MEMORIAL HOSPITAL,0.045,0.27,0.36,1.622,0.0,0.045,0.045,0.09
8.27,2.37,30.31525,-81.66398,32690.59,6514.16,BAPTIST MEDICAL CENTER,0.0,0.377,0.519,1.131,0.0,0.047,0.047,0.047
8.38,2.72,29.86371,-81.31749,33182.50,8101.54,FLAGLER HOSPITAL,0.0,0.591,0.739,0.074,0.0,0.0,0.0,0.0
6.09,2.25,28.33522,-80.72319,23012.07,5981.00,WUESTHOFF MEDICAL CENTER  ROCKLEDGE,0.0,0.193,1.158,0.289,0.0,0.0,0.0,0.193
6.69,2.26,30.43066,-87.23191,25675.67,6054.58,BAPTIST HOSPITAL,0.0,0.201,0.502,0.1,0.0,0.0,0.1,0.0
4.66,2.33,27.65832,-80.39307,16709.70,6340.38,INDIAN RIVER MEDICAL CENTER,0.0,0.068,0.204,0.136,0.0,0.068,0.0,0.0
8.36,2.58,27.50001,-81.43962,33092.75,7484.05,FLORIDA HOSPITAL HEARTLAND MEDICAL CENTER,0.0,0.568,0.812,0.487,0.0,0.081,0.0,0.0
12.46,2.42,28.29946,-81.41021,51279.50,6756.20,OSCEOLA REGIONAL MEDICAL CENTER,0.0,1.196,0.498,0.299,0.0,0.1,0.0,0.0
6.70,3.30,29.64155,-82.34844,25734.07,10644.37,SHANDS HOSPITAL AT THE UNIVERSITY OF FLORIDA,0.0,0.99,0.344,0.689,0.0,0.0,0.172,0.172
6.91,2.15,30.27449,-81.40071,26660.72,5552.72,BAPTIST MEDICAL CENTER  BEACHES,0.0,0.0,0.0,0.173,0.0,0.0,0.0,0.0
12.35,2.74,25.47971,-80.43038,50811.69,8177.77,HOMESTEAD HOSPITAL,0.0,0.0,0.499,0.25,0.0,0.0,0.0,0.0
5.76,2.19,27.95192,-82.80379,21565.97,5722.55,MORTON PLANT HOSPITAL,0.052,0.209,0.731,0.992,0.0,0.0,0.0,0.0
11.57,2.93,27.93740,-82.45927,47345.89,9012.50,TAMPA GENERAL HOSPITAL,0.0,0.722,0.587,0.045,0.0,0.0,0.0,0.181
11.51,2.36,25.96994,-80.14533,47070.15,6475.23,AVENTURA HOSPITAL AND MEDICAL CENTER,0.0,0.351,0.984,0.141,0.0,0.0,0.351,0.0
7.76,2.31,28.01563,-82.13900,30428.31,6268.15,SOUTH FLORIDA BAPTIST HOSPITAL,0.0,0.274,0.0,0.0,0.0,0.0,0.0,0.0
7.62,2.42,30.45726,-84.26175,29811.54,6733.50,TALLAHASSEE MEMORIAL HEALTHCARE,0.0,0.228,0.609,1.37,0.0,0.0,0.076,0.076
6.75,2.23,30.65118,-81.44923,25980.80,5895.40,BAPTIST MEDICAL CENTER - NASSAU,0.0,0.0,0.471,0.0,0.0,0.0,0.0,0.0
3.98,2.66,30.26389,-81.44283,13675.00,7840.25,MAYO CLINIC,0.0,0.504,0.144,0.216,0.0,0.0,0.072,0.144
10.29,2.36,25.70328,-80.29391,41674.40,6489.33,SOUTH MIAMI HOSPITAL, INC,0.0,0.124,0.745,0.0,0.0,0.124,0.248,0.0
6.88,2.54,30.18340,-82.68783,26557.09,7303.00,LAKE CITY MEDICAL CENTER,0.0,0.547,0.182,0.365,0.0,0.0,0.0,0.0
6.84,2.26,28.06172,-81.95304,26356.43,6024.43,LAKELAND REGIONAL MEDICAL CENTER,0.0,1.08,0.68,0.52,0.0,0.0,0.12,0.04
6.47,2.25,26.35875,-80.10203,24725.62,5978.38,BOCA RATON REGIONAL HOSPITAL,0.0,0.324,0.486,0.648,0.0,0.054,0.324,0.108
10.17,3.31,28.07111,-82.42342,41115.40,10682.67,FLORIDA HOSPITAL TAMPA,0.0,0.307,0.461,0.307,0.0,0.077,0.0,0.0
9.33,2.27,26.83035,-80.08655,37381.13,6104.60,PALM BEACH GARDENS MEDICAL CENTER,0.0,0.494,0.494,0.593,0.0,0.0,0.099,0.099
11.81,2.44,30.28793,-81.60103,48409.64,6848.45,MEMORIAL HOSPITAL JACKSONVILLE,0.0,0.449,0.337,0.281,0.0,0.112,0.449,0.056
13.17,2.22,28.19342,-82.46987,54413.08,5846.33,MEDICAL CENTER OF TRINITY,0.0,0.312,0.623,0.208,0.0,0.0,0.0,0.0
12.68,2.31,29.66085,-82.41172,52258.74,6261.52,NORTH FLORIDA REGIONAL MEDICAL CENTER,0.0,0.656,0.615,0.983,0.0,0.082,0.164,0.0
9.93,2.22,29.17550,-82.13680,40056.21,5873.17,OCALA REGIONAL MEDICAL CENTER,0.0,0.338,0.745,0.474,0.0,0.0,0.203,0.135
9.21,2.18,27.48213,-82.62126,36851.94,5685.26,BLAKE MEDICAL CENTER,0.0,0.073,1.028,0.0,0.0,0.0,0.22,0.0
7.43,2.39,26.52735,-81.83337,28962.85,6608.21,GULF COAST MEDICAL CENTER LEE MEM HEALTH SYSTEM,0.0,0.418,0.731,0.209,0.0,0.0,0.052,0.052
12.66,2.36,30.45448,-86.63362,52161.39,6487.78,FORT WALTON BEACH MEDICAL CENTER,0.0,1.008,0.807,0.202,0.0,0.0,0.0,0.0
13.38,2.24,30.16550,-81.73775,55369.17,5965.78,ORANGE PARK MEDICAL CENTER,0.0,0.578,0.413,0.165,0.0,0.0,0.0,0.165
9.11,2.25,30.51624,-87.21856,36437.25,5990.46,WEST FLORIDA HOSPITAL,0.0,0.614,0.79,0.176,0.0,0.0,0.176,0.0
6.36,3.39,29.64481,-81.69431,24228.18,11036.64,PUTNAM COMMUNITY MEDICAL CENTER,0.0,0.0,0.326,0.163,0.0,0.163,0.0,0.0
12.27,2.14,26.98884,-82.09877,50460.24,5506.47,FAWCETT MEMORIAL HOSPITAL,0.0,0.333,0.333,0.416,0.0,0.0,0.0,0.0
14.13,2.40,27.93259,-82.28759,58700.39,6676.78,BRANDON REGIONAL HOSPITAL,0.0,0.598,0.684,0.085,0.0,0.0,0.085,0.0
5.70,2.18,26.63958,-81.94164,21318.25,5674.56,CAPE CORAL HOSPITAL,0.0,0.526,1.278,0.301,0.0,0.075,0.15,0.0
11.66,2.25,27.91458,-82.80382,47735.47,5987.13,LARGO MEDICAL CENTER,0.0,0.108,0.759,0.433,0.0,0.163,0.108,0.054
9.18,2.24,26.92138,-80.09708,36730.77,5973.64,JUPITER MEDICAL CENTER,0.0,0.852,0.532,0.745,0.0,0.106,0.0,0.0
13.29,2.14,28.36128,-82.68883,54943.94,5520.69,REGIONAL MEDICAL CENTER BAYONET POINT,0.0,0.258,0.687,0.258,0.0,0.0,0.086,0.0
9.13,2.21,26.43709,-80.12728,36508.53,5831.38,DELRAY MEDICAL CENTER,0.0,0.373,0.479,0.053,0.0,0.0,0.053,0.0
10.57,2.44,27.28861,-80.29431,42887.76,6860.97,ST LUCIE MEDICAL CENTER,0.0,0.407,0.652,0.244,0.0,0.0,0.0,0.244
14.33,2.15,28.53585,-82.53404,59574.33,5555.79,OAK HILL HOSPITAL,0.0,0.467,1.089,0.0,0.0,0.078,0.0,0.0
6.73,2.16,28.03957,-82.70875,25853.69,5613.69,MEASE COUNTRYSIDE HOSPITAL,0.0,0.083,0.667,0.833,0.0,0.0,0.083,0.0
7.97,2.35,26.35614,-80.19956,31382.77,6461.23,WEST BOCA MEDICAL CENTER,0.0,0.0,0.205,0.205,0.0,0.0,0.205,0.0
7.84,2.51,26.65230,-80.20504,30806.31,7131.62,WELLINGTON REGIONAL MEDICAL CENTER,0.0,0.312,0.623,0.0,0.0,0.0,0.0,0.312
9.22,2.14,26.01394,-80.30980,36892.07,5518.67,MEMORIAL HOSPITAL WEST,0.0,0.341,0.114,0.454,0.0,0.0,0.0,0.114
9.23,2.18,26.21388,-81.73257,36969.94,5679.39,PHYSICIANS REGIONAL MEDICAL CENTER - PINE RIDGE,0.0,0.122,0.733,0.122,0.0,0.0,0.0,0.0
8.79,2.42,26.70181,-80.05055,34998.85,6745.20,GOOD SAMARITAN MEDICAL CENTER,0.0,0.825,0.275,0.138,0.138,0.0,0.138,0.0
5.66,2.17,28.94952,-81.95843,21129.57,5651.41,VILLAGES REGIONAL HOSPITAL, THE,0.0,0.386,0.258,0.0,0.0,0.0,0.064,0.0
6.03,2.12,27.38993,-82.43343,22752.09,5429.55,LAKEWOOD RANCH MEDICAL CENTER,0.0,0.0,0.623,0.0,0.0,0.0,0.0,0.0
5.89,2.33,34.78963,-84.98398,22163.72,6348.28,HAMILTON MEDICAL CENTER,0.0,0.162,0.809,0.324,0.0,0.0,0.0,0.0
4.50,2.38,32.88710,-84.33393,15972.00,6575.25,UPSON REGIONAL MEDICAL CENTER,0.0,0.329,0.329,0.0,0.0,0.0,0.0,0.0
5.67,2.18,31.22516,-82.34898,21151.86,5687.71,SATILLA REGIONAL MEDICAL CENTER,0.0,0.0,0.535,0.0,0.0,0.0,0.0,0.0
7.48,2.38,34.17863,-84.13992,29176.19,6596.38,NORTHSIDE HOSPITAL FORSYTH,0.0,0.696,0.974,0.139,0.0,0.0,0.0,0.139
5.84,2.47,31.59023,-84.15756,21905.83,6961.42,PHOEBE PUTNEY MEMORIAL HOSPITAL,0.177,0.177,0.795,0.0,0.0,0.177,0.088,0.0
4.73,2.62,33.79230,-84.32107,16979.94,7622.03,EMORY UNIVERSITY HOSPITAL,0.0,2.246,0.299,1.098,0.0,0.1,0.299,0.2
5.22,2.31,33.56970,-85.07276,19172.06,6279.25,TANNER MEDICAL CENTER - CARROLLTON,0.0,0.172,0.343,0.0,0.0,0.172,0.0,0.0
4.52,2.34,33.03204,-85.05781,16065.89,6409.83,WEST GEORGIA MEDICAL CENTER,0.0,0.151,0.303,0.0,0.0,0.151,0.0,0.0
5.51,2.40,32.02825,-81.09977,20455.71,6686.53,CANDLER HOSPITAL,0.0,0.559,0.0,0.0,0.0,0.0,0.14,0.0
7.04,2.79,31.17425,-81.48459,27233.31,8386.14,SOUTHEAST GEORGIA HEALTH SYSTEM- BRUNSWICK CAMPUS,0.0,0.576,0.346,0.115,0.0,0.0,0.115,0.115
5.76,2.34,33.47096,-81.98176,21576.62,6416.33,UNIVERSITY HOSPITAL,0.0,0.792,0.396,5.205,0.0,0.0,0.339,0.113
7.44,2.36,34.30335,-83.81737,29025.94,6492.23,NORTHEAST GEORGIA MEDICAL CENTER, INC,0.0,0.15,0.4,0.65,0.0,0.05,0.0,0.1
8.14,2.33,33.23886,-84.26706,32104.64,6365.27,SPALDING REGIONAL MEDICAL CENTER,0.0,0.721,0.432,0.144,0.0,0.0,0.0,0.0
6.56,2.24,34.59332,-83.34788,25097.00,5968.38,STEPHENS COUNTY HOSPITAL,0.0,0.339,1.017,0.0,0.0,0.0,0.0,0.0
4.73,3.13,33.47091,-81.98988,17013.92,9918.83,MEDICAL COLLEGE OF GA HOSPITALS AND CLINICS,0.0,0.631,0.36,0.18,0.0,0.09,0.45,0.27
6.58,2.33,33.96770,-84.55011,25195.51,6341.61,WELLSTAR KENNESTONE HOSPITAL,0.0,0.818,0.696,0.368,0.0,0.0,0.082,0.0
5.02,2.60,32.03185,-81.09158,18274.81,7557.19,MEMORIAL HEALTH UNIV MED CEN, INC,0.0,0.179,0.359,0.299,0.0,0.06,0.179,0.0
5.49,2.24,30.82614,-83.97393,20350.54,5966.92,JOHN D ARCHBOLD MEMORIAL HOSPITAL,0.0,0.134,0.403,0.134,0.0,0.0,0.134,0.0
6.48,2.17,31.98515,-81.15475,24783.08,5666.42,ST JOSEPH'S HOSPITAL - SAVANNAH,0.0,0.375,0.844,0.0,0.0,0.0,0.094,0.0
3.72,2.26,34.88620,-83.96241,12504.73,6065.64,UNION GENERAL HOSPITAL,0.0,0.613,0.613,0.0,0.0,0.0,0.0,0.0
7.60,2.60,34.26000,-85.17000,29725.00,7543.93,FLOYD MEDICAL CENTER,0.0,0.109,1.091,0.218,0.0,0.0,0.0,0.109
5.14,2.69,32.46602,-84.98695,18823.09,7935.00,MEDICAL CENTER, THE,0.0,0.0,0.177,0.0,0.0,0.177,0.0,0.0
5.85,2.29,32.61642,-83.63065,21967.94,6164.00,HOUSTON MEDICAL CENTER,0.0,0.863,0.384,0.767,0.0,0.0,0.0,0.0
5.71,2.39,33.96117,-83.39832,21324.89,6618.50,ATHENS REGIONAL MEDICAL CENTER,0.0,0.276,0.276,0.414,0.0,0.138,0.0,0.0
5.07,2.52,33.78956,-84.28077,18510.56,7184.56,DEKALB MEDICAL CENTER,0.0,0.243,0.243,0.081,0.0,0.0,0.0,0.0
5.77,2.54,33.76810,-84.38616,21625.96,7307.78,EMORY UNIVERSITY HOSPITAL MIDTOWN,0.0,1.358,0.647,0.453,0.0,0.065,0.129,0.065
5.99,3.10,33.75205,-84.38272,22601.89,9777.84,GRADY MEMORIAL HOSPITAL,0.0,0.528,0.211,1.056,0.0,0.106,0.106,0.0
5.43,2.19,33.90877,-84.35180,20115.75,5747.67,SAINT JOSEPH'S HOSPITAL OF ATLANTA, INC,0.0,0.348,0.557,0.696,0.0,0.07,0.0,0.07
5.81,2.23,33.81003,-84.39568,21787.05,5909.05,PIEDMONT HOSPITAL,0.0,0.146,0.438,0.049,0.0,0.049,0.049,0.049
5.46,2.39,33.96351,-84.01769,20220.49,6621.57,GWINNETT MEDICAL CENTER,0.0,0.159,0.239,0.0,0.0,0.0,0.0,0.0
6.57,2.54,33.68072,-84.00200,25175.83,7298.61,ROCKDALE MEDICAL CENTER,0.0,0.0,0.369,0.185,0.0,0.185,0.185,0.185
7.04,2.35,31.47069,-83.50473,27230.08,6448.00,TIFT REGIONAL MEDICAL CENTER,0.0,0.0,0.751,0.0,0.0,0.0,0.501,0.0
4.19,2.17,31.97683,-83.78280,14588.56,5624.31,CRISP REGIONAL HOSPITAL,0.0,0.432,0.432,0.0,0.0,0.0,0.0,0.0
7.44,2.53,32.83041,-83.63476,29025.12,7251.35,MEDICAL CENTER OF CENTRAL GEORGIA,0.0,0.371,0.619,0.165,0.0,0.041,0.165,0.082
6.03,2.32,30.86250,-83.28630,22760.31,6314.62,SOUTH GEORGIA MEDICAL CENTER,0.0,0.41,0.41,0.513,0.0,0.0,0.103,0.0
6.94,2.53,32.54026,-82.95741,26787.20,7261.60,FAIRVIEW PARK HOSPITAL,0.0,0.463,0.463,0.0,0.0,0.0,0.232,0.0
4.18,2.24,32.50679,-84.95933,14564.53,5952.73,ST FRANCIS HOSPITAL, INC,0.0,0.229,0.915,0.153,0.0,0.0,0.0,0.153
6.78,2.60,33.85638,-84.60446,26076.39,7573.04,WELLSTAR COBB HOSPITAL,0.0,0.718,0.319,0.558,0.0,0.0,0.239,0.08
8.12,2.38,33.08014,-83.23210,32028.09,6571.00,OCONEE REGIONAL MEDICAL CENTER,0.0,0.343,0.343,0.0,0.0,0.0,0.0,0.0
6.98,2.34,32.84705,-83.61823,26970.41,6414.73,COLISEUM MEDICAL CENTER,0.0,0.817,0.584,0.35,0.0,0.0,0.234,0.0
7.41,2.55,33.57843,-84.38897,28875.65,7327.95,SOUTHERN REGIONAL MEDICAL CENTER,0.0,0.51,0.255,0.255,0.0,0.0,0.0,0.0
6.92,2.34,34.25704,-85.16467,26727.76,6389.82,REDMOND REGIONAL MEDICAL CENTER,0.0,0.0,0.501,0.167,0.0,0.0,0.0,0.0
4.78,2.35,33.51144,-84.22200,17236.18,6464.18,HENRY MEDICAL CENTER, INC,0.0,0.124,0.249,0.0,0.0,0.0,0.0,0.0
15.48,2.45,34.06334,-84.31976,64698.88,6893.41,NORTH FULTON REGIONAL HOSPITAL,0.0,0.587,0.782,1.565,0.0,0.0,0.0,0.0
6.74,2.24,32.86625,-83.69421,25908.62,5934.85,COLISEUM NORTHSIDE HOSPITAL,0.0,1.417,1.771,0.0,0.0,0.0,0.0,0.354
6.42,2.25,33.45252,-84.50697,24497.60,6016.60,PIEDMONT FAYETTE HOSPITAL,0.0,0.375,0.876,0.0,0.0,0.0,0.375,0.125
17.19,2.70,33.68000,-84.42685,72249.33,8011.00,SOUTH FULTON MEDICAL CENTER,0.0,1.406,0.234,0.0,0.0,0.0,0.0,0.0
5.17,3.38,21.30780,-157.85505,18937.62,11030.92,THE QUEENS MEDICAL CENTER,0.0,0.369,0.442,0.811,0.0,0.0,0.074,0.0
3.78,2.27,42.59072,-114.49627,12768.81,6080.00,ST LUKES MAGIC VALLEY RMC,0.0,0.491,0.818,0.327,0.0,0.0,0.0,0.164
4.10,2.35,43.61218,-116.19234,14216.33,6435.00,ST LUKES REGIONAL MEDICAL CENTER,0.068,0.342,0.342,0.342,0.0,0.0,0.068,0.0
4.34,2.25,43.61359,-116.25484,15262.00,6000.53,ST ALPHONSUS REGIONAL MEDICAL CENTER,0.0,0.085,0.683,0.256,0.0,0.0,0.0,0.0
4.89,2.33,43.65510,-116.69360,17715.45,6358.45,WEST VALLEY MEDICAL CENTER,0.0,0.0,0.0,0.0,0.0,0.0,0.0,0.0
4.82,2.34,43.46987,-111.99208,17416.07,6397.07,EASTERN IDAHO REGIONAL MEDICAL CENTER,0.0,0.338,0.676,0.169,0.0,0.0,0.0,0.169
4.11,2.78,42.87331,-112.42180,14246.71,8361.14,PORTNEUF MEDICAL CENTER,0.0,0.196,0.588,0.784,0.0,0.0,0.0,0.0
4.06,2.39,47.69645,-116.79476,14036.06,6602.75,KOOTENAI MEDICAL CENTER,0.0,0.246,1.229,0.738,0.0,0.0,0.0,0.0
10.43,2.40,41.52896,-88.13550,42301.67,6643.83,PROVENA ST JOSEPH MEDICAL CENTER,0.0,0.0,0.289,2.213,0.0,0.0,0.192,0.0
6.40,2.71,42.06550,-87.68428,24394.16,8049.51,EVANSTON HOSPITAL,0.0,0.131,0.557,0.164,0.0,0.033,0.066,0.033
4.77,2.25,37.80207,-89.02660,17178.45,5984.00,HERRIN HOSPITAL,0.0,0.168,0.503,0.168,0.0,0.0,0.0,0.0
6.95,2.57,39.93563,-91.39833,26843.44,7432.06,BLESSING HOSPITAL,0.0,0.164,0.164,0.082,0.0,0.082,0.409,0.164
7.83,3.36,41.86011,-87.69571,30755.83,10902.42,MT SINAI HOSPITAL MEDICAL CENTER,0.0,0.0,0.179,0.359,0.0,0.179,0.718,0.0
10.17,2.43,41.72930,-88.26976,41138.15,6797.77,COPLEY MEMORIAL HOSPITAL,0.0,0.135,0.405,0.0,0.0,0.0,0.0,0.0
9.04,2.55,42.07012,-88.33180,36135.22,7308.74,SHERMAN HOSPITAL,0.0,0.0,0.996,0.299,0.0,0.0,0.0,0.0
4.07,2.18,39.12680,-88.55059,14079.25,5679.55,ST ANTHONYS MEMORIAL HOSPITAL,0.0,0.135,0.811,0.811,0.0,0.0,0.135,0.0
8.13,2.30,41.80160,-89.69714,32079.69,6209.23,CGH MEDICAL CENTER,0.0,0.0,0.0,0.474,0.0,0.0,0.158,0.0
4.76,2.17,38.32292,-88.91026,17139.46,5667.23,GOOD SAMARITAN REGIONAL HLTH CENTER,0.0,0.137,0.274,0.411,0.0,0.0,0.0,0.0
6.44,2.50,41.72636,-87.56727,24570.18,7091.91,ADVOCATE TRINITY HOSPITAL,0.0,0.832,0.238,0.595,0.0,0.0,0.0,0.119
6.81,2.77,41.89141,-87.77618,26234.54,8321.38,WEST SUBURBAN MEDICAL CENTER,0.0,0.164,0.492,0.164,0.0,0.0,0.164,0.0
8.50,2.67,42.05624,-87.74012,33716.67,7868.40,SKOKIE HOSPITAL,0.0,0.207,0.311,0.104,0.0,0.0,0.104,0.0
5.03,2.42,39.80726,-89.64496,18348.72,6769.75,ST JOHNS HOSPITAL,0.0,0.318,0.572,0.254,0.0,0.0,0.127,0.127
6.83,2.63,41.83195,-87.79266,26307.12,7701.62,MACNEAL  HOSPITAL,0.0,0.181,0.272,0.0,0.0,0.091,0.0,0.0
8.58,2.38,41.66900,-87.81414,34058.09,6565.57,PALOS COMMUNITY HOSPITAL,0.0,0.0,0.181,0.136,0.0,0.045,0.091,0.0
7.07,2.70,40.98818,-90.36374,27380.64,8012.21,ST MARY MEDICAL CENTER,0.0,0.0,0.247,0.0,0.0,0.0,0.0,0.0
7.39,2.47,41.79660,-87.88627,28783.04,6990.38,ADVENTIST LA GRANGE MEMORIAL HOSPITAL,0.0,0.092,0.832,0.554,0.092,0.0,0.0,0.0
7.75,2.75,40.70200,-89.59222,30373.25,8236.11,SAINT FRANCIS MEDICAL CENTER,0.0,0.311,0.489,0.533,0.0,0.0,0.133,0.089
8.71,2.85,42.02578,-87.68371,34661.00,8660.42,RHC ST FRANCIS HOSPITAL,0.0,0.378,0.378,0.0,0.0,0.126,0.0,0.0
11.24,2.52,42.37840,-87.83329,45866.50,7193.17,VISTA MEDICAL CENTER EAST,0.0,0.631,0.526,0.0,0.0,0.0,0.315,0.0
7.81,3.44,41.78829,-87.60485,30671.41,11281.45,THE UNIVERSITY OF CHICAGO MEDICAL CENTER,0.0,1.208,0.226,0.453,0.0,0.0,0.0,0.528
9.32,2.91,40.11696,-88.21506,37371.03,8939.97,CARLE FOUNDATION HOSPITAL,0.0,0.374,0.524,0.824,0.0,0.0,0.225,0.0
9.37,2.29,40.13811,-87.64569,37582.00,6166.91,PROVENA UNITED SAMARITANS MEDCTR-LOGAN,0.0,0.166,0.498,0.332,0.0,0.0,0.0,0.0
7.75,2.66,41.36897,-88.42537,30410.94,7798.94,MORRIS HOSPITAL & HEALTHCARE CENTERS,0.0,0.0,0.224,0.0,0.0,0.0,0.0,0.224
6.62,2.40,40.11739,-88.22714,25364.90,6653.67,PROVENA COVENANT MEDICAL CENTER- URBANA,0.0,0.0,0.877,0.146,0.0,0.0,0.438,0.146
10.36,2.79,41.97532,-87.69958,41960.73,8399.87,SWEDISH COVENANT HOSPITAL,0.0,0.276,0.0,0.276,0.0,0.0,0.0,0.0
8.56,2.27,42.31832,-88.27920,33993.24,6093.82,CENTEGRA HEALTH SYSTEM - MC HENRY HOSPITAL,0.0,0.205,0.307,0.102,0.0,0.0,0.0,0.0
8.26,2.60,41.98743,-87.81440,32672.05,7565.05,RESURRECTION MEDICAL CENTER,0.0,0.446,1.211,0.382,0.0,0.0,0.0,0.064
6.87,2.81,41.65880,-87.67729,26495.82,8497.41,METROSOUTH MEDICAL CENTER,0.0,0.11,0.44,0.11,0.0,0.0,0.11,0.11
7.87,3.21,41.87497,-87.66927,30922.28,10267.36,RUSH UNIVERSITY MEDICAL CENTER,0.0,0.884,0.416,0.988,0.0,0.156,0.104,0.156
7.42,2.23,40.56211,-89.63314,28951.79,5914.21,PEKIN MEMORIAL HOSPITAL,0.0,0.298,0.893,0.0,0.0,0.0,0.298,0.0
7.30,2.40,41.80555,-87.92059,28405.29,6672.71,HINSDALE HOSPITAL,0.0,0.507,0.304,0.304,0.0,0.101,0.0,0.0
4.81,3.64,41.87381,-87.67421,17359.20,12167.47,JOHN H STROGER JR HOSPITAL,0.0,1.269,0.423,0.211,0.0,0.0,0.211,0.423
5.24,2.37,40.49639,-88.99106,19274.58,6527.67,BROMENN HEALTHCARE,0.0,0.13,0.521,0.0,0.0,0.0,0.0,0.13
7.12,2.26,42.25244,-87.86528,27609.06,6060.38,LAKE FOREST HOSPITAL,0.0,0.167,0.333,0.0,0.0,0.0,0.0,0.0
6.67,2.77,41.76946,-87.69239,25613.54,8325.62,HOLY CROSS HOSPITAL,0.0,0.253,0.126,0.253,0.0,0.0,0.0,0.0
5.49,2.29,39.86644,-88.96090,20374.47,6163.92,DECATUR MEMORIAL HOSPITAL,0.0,0.161,1.048,0.161,0.0,0.0,0.081,0.081
5.10,2.46,39.80893,-89.65530,18625.95,6925.57,MEMORIAL MEDICAL CENTER,0.0,0.643,0.683,0.121,0.0,0.0,0.08,0.08
6.79,3.68,41.86927,-87.67052,26119.25,12333.58,UNIVERSITY OF ILLINOIS HOSPITAL,0.0,1.673,0.257,0.0,0.0,0.0,0.129,0.0
4.49,3.10,41.84639,-87.62345,15920.14,9755.90,MERCY HOSPITAL AND MEDICAL CENTER,0.0,0.442,0.442,0.53,0.0,0.088,0.088,0.088
4.44,2.23,37.72790,-89.22058,15722.31,5898.08,MEMORIAL HOSPITAL OF CARBONDALE,0.0,0.504,0.504,0.0,0.0,0.126,0.126,0.0
7.67,2.77,41.52283,-87.71111,30023.83,8299.08,FRANCISCAN ST JAMES HEALTH,0.0,0.0,0.196,0.147,0.0,0.0,0.049,0.049
8.63,2.46,41.78566,-88.32886,34289.56,6936.44,PROVENA MERCY MEDICAL CENTER,0.0,1.262,0.361,0.0,0.0,0.0,0.0,0.18
8.07,2.57,42.27597,-88.40019,31815.38,7398.69,CENTEGRA HEALTH SYSTEM - WOODSTOCK HOSPITAL,0.0,0.173,1.553,0.0,0.0,0.0,0.0,0.173
7.83,2.36,41.72094,-87.69220,30728.86,6489.94,LITTLE COMPANY OF MARY HOSPITAL,0.0,0.218,0.436,0.291,0.0,0.0,0.073,0.145
9.91,3.41,41.90414,-87.68254,39978.47,11153.33,ST MARY & ELIZABETH MED CTR-DIVISION CAMPUS,0.0,0.285,0.57,0.071,0.0,0.071,0.428,0.071
7.41,3.38,41.93641,-87.65295,28876.05,11006.29,ADVOCATE ILLINOIS MASONIC MEDICAL CENTER,0.0,0.399,0.199,0.0,0.0,0.1,0.0,0.0
7.19,2.38,38.55020,-90.02146,27904.74,6557.79,MEMORIAL HOSPITAL,0.0,0.611,0.229,0.153,0.0,0.0,0.0,0.0
6.73,2.51,41.12572,-87.88526,25872.17,7153.10,RIVERSIDE MEDICAL CENTER,0.0,0.186,0.931,1.117,0.0,0.0,0.0,0.0
4.89,2.25,39.48849,-88.27581,17717.77,6019.50,SARAH BUSH LINCOLN HEALTH CENTER,0.0,0.53,0.177,0.884,0.0,0.177,0.177,0.0
6.57,2.40,41.60726,-87.66060,25146.44,6687.33,INGALLS MEMORIAL HOSPITAL,0.0,0.279,0.21,0.279,0.0,0.07,0.07,0.0
8.80,2.29,41.86362,-87.93567,35040.06,6162.21,ELMHURST MEMORIAL HOSPITAL,0.0,0.449,0.299,0.973,0.0,0.0,0.0,0.0
10.80,2.41,42.27447,-87.95764,43911.42,6718.00,ADVOCATE CONDELL MEDICAL CENTER,0.0,0.279,0.488,0.209,0.0,0.0,0.0,0.07
7.50,2.87,41.72031,-87.73249,29284.53,8728.97,ADVOCATE CHRIST HOSPITAL & MEDICAL CENTER,0.0,0.172,0.138,0.034,0.0,0.069,0.241,0.034
6.90,2.45,40.70065,-89.59505,26641.60,6877.68,METHODIST MEDICAL CENTER OF ILLINOIS,0.0,0.178,0.446,0.0,0.0,0.0,0.0,0.089
9.26,2.29,41.88566,-88.34311,37109.59,6188.18,DELNOR COMMUNITY HOSPITAL,0.0,0.132,0.397,0.397,0.0,0.0,0.0,0.0
6.90,2.38,41.54446,-87.98379,26616.88,6597.38,SILVER CROSS HOSPITAL  AND MEDICAL CENTERS,0.0,0.513,0.22,0.439,0.0,0.0,0.0,0.073
7.70,2.91,42.03837,-87.84820,30153.16,8908.32,ADVOCATE LUTHERAN GENERAL HOSPITAL,0.0,0.181,0.135,0.045,0.0,0.0,0.0,0.045
6.72,2.55,42.26584,-89.07428,25819.79,7345.58,SWEDISH AMERICAN HOSPITAL,0.0,0.156,0.857,0.312,0.0,0.0,0.312,0.0
7.64,2.38,41.76076,-88.15016,29899.28,6596.16,EDWARD HOSPITAL,0.0,0.393,0.131,0.524,0.0,0.066,0.0,0.0
6.42,2.20,42.26634,-89.00900,24512.93,5792.86,SAINT ANTHONY MEDICAL CENTER,0.0,0.311,0.414,0.311,0.0,0.104,0.104,0.104
5.40,2.50,42.29844,-89.09897,19981.18,7129.36,ROCKFORD MEMORIAL HOSPITAL,0.0,0.197,0.492,0.0,0.0,0.0,0.0,0.0
8.98,2.56,41.87269,-88.15684,35845.98,7380.48,CENTRAL DUPAGE HOSPITAL,0.0,0.067,0.599,0.399,0.0,0.0,0.067,0.067
6.58,2.87,41.56720,-87.69566,25210.20,8757.15,ADVOCATE SOUTH SUBURBAN HOSPITAL,0.0,0.588,0.098,0.196,0.0,0.0,0.0,0.0
7.87,2.68,42.06732,-87.99368,30912.64,7919.10,NORTHWEST COMMUNITY HOSPITAL,0.0,0.249,0.87,0.207,0.0,0.0,0.041,0.0
9.19,2.32,42.00413,-88.01745,36796.91,6294.41,ALEXIAN BROTHERS MEDICAL CENTER,0.0,0.056,0.726,0.223,0.0,0.0,0.0,0.0
4.50,2.23,41.49581,-90.41871,16001.09,5922.45,GENESIS MEDICAL CENTER ILLINI CAMPUS,0.0,0.0,0.475,0.0,0.0,0.0,0.0,0.0
5.06,3.06,41.86110,-87.83404,18473.57,9607.53,LOYOLA UNIVERSITY MEDICAL CENTER,0.0,0.47,0.352,0.587,0.0,0.117,0.235,0.059
4.19,2.22,41.48200,-90.57158,14603.78,5870.22,TRINITY ROCK ISLAND,0.0,0.145,0.867,0.145,0.0,0.072,0.145,0.0
6.48,3.00,41.89477,-87.62131,24771.35,9315.47,NORTHWESTERN MEMORIAL HOSPITAL,0.0,0.382,0.243,0.208,0.0,0.0,0.243,0.035
8.12,2.28,41.96185,-88.72130,32014.36,6154.43,KISHWAUKEE COMMUNITY HOSPITAL,0.0,0.181,0.542,0.181,0.0,0.0,0.0,0.0
4.50,2.15,38.73818,-89.94728,15957.26,5573.00,ANDERSON HOSPITAL,0.0,0.0,0.187,0.561,0.0,0.0,0.0,0.0
8.87,2.37,42.05260,-88.14173,35347.94,6531.56,ST ALEXIUS MEDICAL CENTER,0.0,0.232,0.232,0.0,0.0,0.077,0.0,0.0
6.05,2.60,42.19586,-88.17286,22862.00,7563.86,ADVOCATE GOOD SHEPHERD HOSPITAL,0.0,0.501,0.201,0.301,0.0,0.0,0.0,0.0
5.27,2.55,41.59920,-87.35764,19410.89,7325.21,METHODIST HOSPITALS INC,0.0,0.576,0.384,0.0,0.0,0.064,0.192,0.0
4.57,2.23,40.42687,-86.88197,16268.20,5926.35,FRANCISCAN ST ELIZABETH HEALTH - LAFAYETTE CENTRAL,0.0,0.456,0.684,0.228,0.0,0.0,0.228,0.0
4.65,2.22,39.76255,-86.50165,16647.08,5871.12,HENDRICKS REGIONAL HEALTH,0.0,0.485,0.0,1.941,0.0,0.0,0.0,0.0
7.13,2.53,41.61055,-86.72511,27635.64,7262.45,INDIANA UNIVERSITY HEALTH LA PORTE HOSPITAL,0.0,0.0,0.777,0.0,0.0,0.0,0.0,0.0
4.09,2.01,40.44665,-86.12707,14158.69,4947.92,HOWARD REGIONAL HEALTH SYSTEM,0.0,0.0,0.223,0.223,0.0,0.0,0.223,0.0
5.29,2.37,38.28244,-85.74923,19492.29,6511.52,CLARK MEMORIAL HOSPITAL,0.0,0.0,0.695,0.261,0.0,0.0,0.0,0.0
5.27,2.29,40.56435,-85.66576,19412.26,6167.95,MARION GENERAL HOSPITAL,0.0,0.212,0.425,0.212,0.0,0.0,0.0,0.425
5.64,2.73,41.70877,-86.17026,21056.53,8119.65,SAINT JOSEPH REGIONAL MEDICAL CENTER,0.0,0.0,0.439,0.146,0.0,0.0,0.0,0.0
6.23,2.33,41.03874,-85.24876,23659.04,6368.08,LUTHERAN HOSPITAL OF INDIANA,0.0,0.481,0.962,0.361,0.0,0.0,0.12,0.0
4.61,2.34,41.70568,-85.93404,16468.67,6383.67,ELKHART GENERAL HOSPITAL,0.0,0.0,0.791,0.099,0.099,0.0,0.297,0.099
5.57,2.37,41.04659,-85.10906,20740.56,6511.92,PARKVIEW REGIONAL MEDICAL CENTER,0.0,0.131,0.524,1.114,0.0,0.0,0.131,0.066
7.10,2.45,39.48518,-87.40893,27527.10,6892.79,UNION HOSPITAL INC,0.0,0.182,0.728,0.182,0.0,0.0,0.061,0.061
3.52,3.05,39.78091,-86.17629,11643.55,9559.45,WILLIAM N WISHARD MEMORIAL HOSPITAL,0.0,0.291,0.145,0.436,0.0,0.145,0.0,0.0
6.98,2.29,41.56352,-85.83039,26990.41,6159.65,IU HEALTH GOSHEN HOSPITAL,0.0,0.21,0.0,0.0,0.0,0.21,0.0,0.0
6.06,2.26,39.72432,-86.10055,22910.71,6027.82,FRANCISCAN ST FRANCIS HEALTH - BEECH GROVE,0,0,0,0,0,0,0,0
6.59,2.35,41.51266,-87.26125,25237.15,6421.69,ST MARY MEDICAL CENTER INC,0.0,0.19,0.476,0.381,0.0,0.0,0.0,0.0
7.47,2.31,41.46729,-87.05130,29146.46,6265.68,PORTER VALPARAISO HOSPITAL,0.0,0.342,0.684,0.342,0.0,0.0,0.0,0.0
3.18,2.25,39.79490,-85.76770,10106.82,5980.45,HANCOCK REGIONAL HOSPITAL,0.0,0.0,0.0,0.312,0.0,0.0,0.0,0.0
4.73,2.17,38.67313,-87.53370,17018.73,5658.18,GOOD SAMARITAN HOSPITAL,0.0,0.285,0.285,0.142,0.0,0.0,0.0,0.142
5.13,2.18,38.30195,-85.83409,18779.92,5674.92,FLOYD MEMORIAL HOSPITAL AND HEALTH SERVICES,0.0,0.077,0.154,0.309,0.0,0.0,0.0,0.0
4.10,2.59,39.86405,-84.88413,14223.77,7498.31,REID HOSPITAL & HEALTH CARE SERVICES,0.0,0.354,0.707,0.0,0.0,0.0,0.088,0.088
4.37,2.33,39.16006,-86.54038,15385.52,6361.38,INDIANA UNIVERSITY HEALTH BLOOMINGTON HOSPITAL,0.0,0.287,0.382,0.955,0.0,0.096,0.096,0.0
7.98,3.38,39.79009,-86.16260,31406.38,11014.21,INDIANA UNIVERSITY HEALTH,0.028,0.369,0.454,0.17,0.0,0.0,0.057,0.057
6.07,2.42,41.68479,-86.25217,22931.47,6763.06,MEMORIAL HOSPITAL OF SOUTH BEND,0.0,0.0,1.135,1.059,0.0,0.076,0.151,0.0
5.12,2.36,40.04526,-86.02297,18741.06,6483.22,RIVERVIEW HOSPITAL,0.0,0.0,1.487,0.0,0.0,0.0,0.0,0.0
3.94,2.44,38.95542,-85.89223,13479.36,6848.09,SCHNECK MEDICAL CENTER,0.0,0.0,0.38,0.759,0.0,0.0,0.0,0.0
4.63,2.41,38.73589,-85.37996,16575.09,6706.09,KING'S DAUGHTERS' HOSPITAL AND HEALTH SERVICES,THE,0.0,0.0,0.265,0.796,0.0,0.0,0.0,0.0
5.79,2.46,39.78704,-86.07673,21705.73,6914.27,COMMUNITY HOSPITAL EAST,0.0,0.299,0.1,0.299,0.0,0.0,0.0,0.0
5.75,2.23,37.98293,-87.57072,21522.73,5920.73,DEACONESS HOSPITAL INC,0.0,0.472,0.515,0.215,0.0,0.086,0.0,0.0
6.54,2.56,39.91001,-86.19660,25020.05,7371.70,ST VINCENT HOSPITAL & HEALTH SERVICES,0.0,0.773,0.258,0.472,0.0,0.086,0.043,0.086
6.68,2.26,40.09594,-85.68152,25634.08,6056.67,SAINT JOHN'S HEALTH SYSTEM,0.0,0.15,0.15,0.451,0.0,0.0,0.0,0.15
8.00,2.49,40.19679,-85.41573,31506.36,7080.07,INDIANA UNIVERSITY HEALTH BALL MEMORIAL HOSPITAL,0.0,0.066,0.66,0.264,0.0,0.0,0.132,0.066
4.82,2.35,39.52494,-85.78113,17420.79,6423.57,MAJOR HOSPITAL,0.0,0.0,0.397,0.0,0.0,0.0,0.0,0.0
5.17,2.26,37.96320,-87.50292,18951.09,6051.09,ST MARY'S MEDICAL CENTER OF EVANSVILLE INC,0.0,0.262,0.589,0.327,0.0,0.0,0.131,0.0
4.17,2.33,39.21585,-85.89683,14520.12,6344.84,COLUMBUS REGIONAL HOSPITAL,0.0,0.0,0.652,0.13,0.0,0.0,0.0,0.13
4.37,2.31,40.12998,-85.69436,15405.73,6279.00,COMMUNITY HOSPITAL OF ANDERSON AND MADISON COUNTY,0.0,0.159,0.637,0.0,0.0,0.0,0.0,0.0
5.14,2.33,41.55065,-87.50619,18805.05,6373.70,COMMUNITY HOSPITAL,0.0,0.554,0.604,0.252,0.0,0.0,0.0,0.0
5.97,2.34,41.39576,-87.36689,22507.86,6416.73,FRANCISCAN ST ANTHONY HEALTH - CROWN POINT,0.0,0.0,0.849,0.189,0.0,0.0,0.0,0.0
5.84,2.20,39.63776,-86.13260,21936.82,5786.27,COMMUNITY HOSPITAL SOUTH,0.0,0.0,0.922,0.0,0.0,0.154,0.0,0.154
6.38,2.25,39.78047,-86.34084,24316.92,6016.25,IU HEALTH WEST HOSPITAL,0.0,0.194,1.357,0.0,0.0,0.0,0.194,0.0
6.63,2.39,39.64935,-86.07960,25423.19,6601.69,FRANCISCAN ST FRANCIS HEALTH - INDIANAPOLIS,0.0,0.0,0.13,0.261,0.0,0.0,0.0,0.13
4.90,2.30,39.90060,-86.04218,17735.25,6200.00,COMMUNITY HOSPITAL NORTH,0.0,0.335,0.781,0.112,0.0,0.0,0.0,0.0
3.94,2.64,42.04855,-92.90625,13507.83,7724.75,MARSHALLTOWN MEDICAL & SURGICAL CENTER,0.0,0.367,0.734,1.835,0.0,0.0,0.0,0.367
5.18,2.30,42.49388,-94.18926,18978.23,6235.92,TRINITY REGIONAL MEDICAL CENTER,0.0,0.0,0.359,0.359,0.0,0.0,0.0,0.0
5.41,2.44,41.60051,-93.61086,20000.54,6849.15,IOWA LUTHERAN HOSPITAL,0.0,0.187,0.187,0.187,0.0,0.0,0.0,0.0
4.65,2.22,41.66411,-91.52841,16623.60,5876.84,MERCY HOSPITAL,0.0,0.133,0.665,0.798,0.0,0.133,0.0,0.0
4.75,2.23,42.03321,-93.61164,17089.83,5910.71,MARY GREELEY MEDICAL CENTER,0.0,0.0,0.135,0.541,0.0,0.0,0.0,0.0
4.35,2.21,41.54190,-90.55691,15310.63,5834.07,GENESIS MEDICAL CENTER-DAVENPORT,0.0,0.118,0.296,0.059,0.0,0.059,0.118,0.059
5.62,2.32,41.98570,-91.66093,20943.43,6321.68,ST LUKES HOSPITAL,0.0,0.0,0.589,0.098,0.0,0.098,0.0,0.0
6.21,2.26,41.26786,-95.83505,23574.92,6033.00,JENNIE EDMUNDSON HOSPITAL,0.0,0.0,0.193,0.0,0.0,0.0,0.193,0.0
5.28,2.29,40.81009,-91.17356,19459.42,6169.33,GREAT RIVER MEDICAL CENTER,0.0,0.798,1.117,0.0,0.0,0.16,0.0,0.0
5.38,3.07,41.66092,-91.54800,19869.37,9651.17,UNIVERSITY OF IOWA HOSPITAL & CLINICS,0.0,0.58,1.159,0.58,0.0,0.064,0.386,0.064
5.29,2.33,43.15063,-93.21718,19496.12,6354.46,MERCY MEDICAL CENTER-NORTH IOWA,0.0,0.076,0.076,0.534,0.0,0.0,0.0,0.0
4.33,2.34,42.46407,-92.34532,15236.43,6392.95,COVENANT MEDICAL CENTER,0.0,0.0,0.372,0.0,0.0,0.0,0.0,0.0
4.50,2.14,42.49227,-90.67404,15961.11,5507.68,MERCY MEDICAL CENTER-DUBUQUE,0.0,0.261,0.651,0.0,0.0,0.0,0.0,0.13
4.75,2.12,41.97864,-91.65507,17101.25,5420.00,MERCY MEDICAL CENTER - CEDAR RAPIDS,0.0,0.226,0.113,0.0,0.0,0.113,0.0,0.0
6.62,2.45,41.58955,-93.63248,25404.05,6883.02,IOWA METHODIST MEDICAL CENTER,0.0,0.502,0.669,1.339,0.0,0.112,0.223,0.335
4.95,2.47,41.59886,-93.62344,17995.79,6962.23,MERCY MEDICAL CENTER-DES MOINES,0.0,0.201,0.402,0.08,0.0,0.0,0.12,0.0
3.28,2.19,42.52665,-92.33957,10578.34,5734.10,ALLEN MEMORIAL HOSPITAL,0.0,0.165,0.165,0.0,0.0,0.082,0.0,0.0
4.54,2.10,42.49632,-90.68587,16150.87,5354.80,THE FINLEY HOSPITAL,0.0,0.0,1.134,0.0,0.0,0.0,0.454,0.0
6.21,2.26,42.49250,-96.39975,23571.40,6045.67,MERCY MEDICAL CENTER-SIOUX CITY,0.0,0.417,0.104,0.208,0.0,0.0,0.208,0.0
5.13,2.37,38.83324,-97.61028,18757.00,6538.60,SALINA REGIONAL HEALTH CENTER,0.0,0.155,0.774,0.0,0.0,0.0,0.0,0.0
6.95,2.59,38.87847,-99.29923,26866.38,7494.00,HAYS MEDICAL CENTER,0.0,0.0,0.712,0.712,0.0,0.178,0.534,0.0
4.53,2.18,39.05660,-95.69599,16126.06,5703.89,ST FRANCIS HEALTH CENTER INC,0.0,0.42,0.631,3.258,0.0,0.0,0.21,0.21
6.47,2.45,38.07731,-97.89183,24697.65,6891.83,HUTCHINSON REGIONAL MEDICAL CENTER INC,0.0,0.135,0.808,0.135,0.0,0.0,0.0,0.0
9.54,2.98,39.05583,-94.60912,38322.12,9220.56,UNIVERSITY OF KANSAS HOSPITAL,0.0,0.627,0.57,0.0,0.0,0.057,0.114,0.114
5.92,2.18,38.85279,-94.82413,22264.19,5686.00,OLATHE MEDICAL CENTER,0.0,0.942,0.824,0.353,0.0,0.0,0.353,0.0
6.80,2.33,39.05128,-95.69572,26177.04,6346.88,STORMONT-VAIL HEALTHCARE,0.0,0.061,0.427,0.549,0.0,0.0,0.122,0.0
7.68,2.15,38.99549,-94.69061,30092.16,5569.52,SHAWNEE MISSION MEDICAL CENTER,0.0,0.563,0.844,0.141,0.0,0.07,0.141,0.07
7.66,2.48,37.70405,-97.31386,29974.65,7009.10,VIA CHRISTI HOSPITALS WICHITA INC,0.0,0.213,0.39,0.567,0.0,0.0,0.213,0.0
9.60,2.54,37.69556,-97.29785,38619.50,7281.19,WESLEY MEDICAL CENTER,0.0,0.076,0.841,1.605,0.0,0.076,0.382,0.0
4.06,2.37,38.97848,-95.24771,14041.00,6514.17,LAWRENCE MEMORIAL HOSPITAL,0.0,0.207,0.83,0.415,0.0,0.0,0.0,0.207
3.46,2.17,39.20164,-96.60003,11380.09,5657.45,MERCY REGIONAL HEALTH CENTER,0.0,0.224,1.121,0.224,0.0,0.0,0.0,0.0
9.38,2.24,38.90355,-94.66966,37618.38,5965.15,SAINT LUKE'S SOUTH HOSPITAL,0.0,0.0,0.471,0.0,0.0,0.0,0.0,0.0
5.40,2.34,38.47021,-82.63498,19987.03,6406.10,KING'S DAUGHTERS' MEDICAL CENTER,0.0,0.092,0.826,0.092,0.0,0.0,0.138,0.138
4.49,2.17,38.03140,-84.52194,15917.29,5633.00,SAINT JOSEPH HOSPITAL,0.0,0.051,0.66,0.61,0.0,0.0,0.254,0.0
6.28,2.38,37.11784,-84.10910,23890.13,6564.13,SAINT JOSEPH HOSPITAL LONDON,0.0,0.0,0.451,0.0,0.0,0.0,0.15,0.15
3.25,2.21,37.71183,-85.87623,10445.08,5805.24,HARDIN MEMORIAL HOSPITAL,0.0,0.09,0.538,0.627,0.0,0.0,0.0,0.0
4.82,2.46,36.99641,-86.43006,17405.45,6912.83,THE MEDICAL CENTER AT BOWLING GREEN,0.0,0.412,1.029,0.412,0.0,0.0,0.48,0.069
4.03,2.40,37.01079,-85.90342,13877.91,6680.64,T J SAMSON COMMUNITY HOSPITAL,0.0,0.0,0.356,0.0,0.0,0.0,0.0,0.178
3.77,2.19,36.60798,-88.30957,12746.00,5712.42,MURRAY-CALLOWAY COUNTY HOSPITAL,0.0,0.0,0.91,0.682,0.0,0.0,0.0,0.0
6.19,2.34,39.06704,-84.49946,23473.20,6392.47,ST ELIZABETH MEDICAL CENTER NORTH,0.042,0.085,0.254,0.042,0.0,0.0,0.042,0.042
3.66,2.52,37.76518,-87.10197,12244.58,7214.67,OWENSBORO MEDICAL HEALTH SYSTEM,0.0,0.121,0.908,0.0,0.0,0.061,0.0,0.061
5.27,2.48,38.24927,-85.75081,19404.68,7033.71,JEWISH HOSPITAL & ST MARY'S HEALTHCARE,0.0,0.506,0.476,0.149,0.0,0.06,0.06,0.03
9.10,2.57,37.47264,-82.52605,36367.85,7433.31,PIKEVILLE MEDICAL CENTER,0.0,0.71,0.304,0.0,0.0,0.0,0.0,0.0
5.40,2.50,37.64378,-84.77272,19991.12,7116.56,EPHRAIM MCDOWELL REGIONAL MEDICAL CENTER,0.0,0.0,1.158,0.386,0.0,0.0,0.0,0.129
5.09,2.18,36.86034,-87.49528,18583.64,5697.36,JENNIE STUART MEDICAL CENTER,0.0,0.0,0.843,0.169,0.0,0.0,0.0,0.0
7.24,3.25,38.03282,-84.50674,28113.44,10414.67,UNIVERSITY OF KENTUCKY HOSPITAL,0.0,0.676,1.07,0.282,0.0,0.0,0.282,0.0
7.08,2.45,38.24806,-85.75125,27405.17,6878.24,NORTON HOSPITALS, INC,0.0,0.605,0.706,0.176,0.025,0.025,0.202,0.05
4.86,2.26,37.33959,-87.48988,17595.81,6044.06,REGIONAL MEDICAL CENTER OF HOPKINS COUNTY,0.0,0.0,0.271,0.0,0.0,0.0,0.0,0.136
5.23,2.38,38.01849,-84.51236,19207.69,6597.49,CENTRAL BAPTIST HOSPITAL,0.0,0.283,0.848,2.191,0.0,0.0,0.0,0.0
3.76,2.17,37.07404,-88.62685,12698.81,5657.00,WESTERN BAPTIST HOSPITAL,0.0,0.131,0.588,0.261,0.0,0.0,0.0,0.0
6.11,2.24,36.96603,-86.43639,23138.45,5948.91,GREENVIEW REGIONAL HOSPITAL,0.0,0.0,0.563,0.281,0.0,0.0,0.0,0.0
5.04,2.14,38.23898,-85.63941,18386.94,5522.60,BAPTIST HOSPITAL EAST,0.0,0.615,0.73,0.192,0.0,0.038,0.038,0.0
5.97,2.40,37.08724,-84.61828,22484.05,6655.18,LAKE CUMBERLAND REGIONAL HOSPITAL,0.0,0.191,1.147,0.0,0.0,0.0,0.86,0.573
7.75,2.93,38.24802,-85.74464,30400.75,9027.33,UNIVERSITY OF LOUISVILLE HOSPITAL,0.0,0.122,0.122,1.347,0.0,0.0,0.0,0.0
6.07,2.33,30.20227,-92.01906,22941.77,6350.69,LAFAYETTE GENERAL MEDICAL CENTER,0.091,0.364,0.0,0.091,0.0,0.0,0.0,0.0
6.05,2.13,29.77956,-90.80568,22868.92,5460.15,THIBODAUX REGIONAL MEDICAL CENTER,0.0,0.153,0.153,0.305,0.0,0.0,0.305,0.0
4.50,2.26,29.59851,-90.71397,15998.80,6042.60,TERREBONNE GENERAL MEDICAL CENTER,0.0,0.267,0.668,0.134,0.0,0.0,0.134,0.0
11.28,2.48,30.46813,-90.45814,46062.12,7009.81,NORTH OAKS MEDICAL CENTER, LLC,0.0,0.101,0.101,0.604,0.0,0.0,0.806,0.0
5.76,2.25,31.28258,-92.46060,21569.12,5990.91,CHRISTUS ST FRANCES CABRINI HOSPITAL,0.0,0.928,0.186,0.557,0.0,0.0,0.557,0.0
7.86,2.68,31.31451,-92.44997,30894.31,7917.56,RAPIDES REGIONAL MEDICAL CENTER,0.08,0.879,0.479,0.399,0.0,0.0,0.479,0.24
6.65,2.71,30.21521,-93.22682,25531.73,8023.13,CHRISTUS ST PATRICK HOSPITAL,0.0,0.53,0.662,0.132,0.0,0.0,0.0,0.265
4.99,2.55,30.01875,-90.19452,18157.65,7317.12,OCHSNER FOUNDATION HOSPITAL,0.0,0.453,0.091,0.59,0.0,0.0,0.091,0.045
8.03,2.23,30.28456,-89.77038,31617.20,5931.47,SLIDELL MEMORIAL HOSPITAL AND MEDICAL CENTER,0.0,0.89,0.534,0.0,0.0,0.0,0.0,0.0
8.11,2.41,32.49443,-93.75011,31983.88,6692.46,CHRISTUS SCHUMPERT HEALTH SYSTEM,0.0,0.256,0.511,0.256,0.0,0.0,0.0,0.085
6.67,2.72,30.20458,-93.19774,25584.35,8092.59,LAKE CHARLES MEMORIAL HOSPITAL,0.0,0.0,1.108,0.0,0.0,0.0,0.277,0.0
5.19,2.35,30.40118,-91.11160,19050.97,6425.97,OUR LADY OF THE LAKE REGIONAL MEDICAL CENTER,0.0,0.221,0.486,0.044,0.0,0.044,0.839,0.088
4.48,2.50,30.45015,-91.15273,15891.19,7090.88,BATON ROUGE GENERAL MEDICAL CENTER,0.0,0.556,0.626,0.139,0.0,0.0,0.0,0.0
4.84,2.52,30.15052,-92.03698,17482.69,7216.92,OUR LADY OF LOURDES REGIONAL MEDICAL CENTER, INC,0.0,0.328,0.328,0.109,0.0,0.109,0.0,0.0
6.86,2.30,32.48393,-93.77884,26431.13,6233.35,WILLIS KNIGHTON MEDICAL CENTER,0.0,0.155,0.466,0.155,0.0,0.039,0.039,0.0
6.99,2.35,32.49997,-92.11359,27001.58,6427.73,ST FRANCIS MEDICAL CENTER,0.0,1.122,0.321,1.763,0.0,0.0,0.561,0.0
6.01,2.48,32.61700,-93.28566,22656.82,7019.64,MINDEN MEDICAL CENTER,0.0,0.279,0.558,0.0,0.0,0.0,0.0,0.0
6.26,2.31,30.01438,-90.18155,23768.67,6274.44,EAST JEFFERSON GENERAL HOSPITAL,0.0,0.321,0.578,0.064,0.0,0.129,0.0,0.0
7.61,2.29,32.51315,-92.15713,29787.26,6191.47,GLENWOOD REGIONAL MEDICAL CENTER,0.0,0.108,0.108,0.0,0.0,0.0,0.0,0.0
6.02,2.15,32.55761,-93.71874,22722.18,5574.18,WILLIS KNIGHTON BOSSIER HEALTH CENTER,0.0,0.0,0.0,0.0,0.0,0.149,0.0,0.0
4.10,2.26,44.81469,-68.77153,14208.83,6029.50,ST JOSEPH HOSPITAL,0.0,0.0,0.609,1.217,0.0,0.0,0.203,0.203
5.49,2.33,43.65159,-70.26482,20388.64,6358.18,MERCY HOSPITAL,0.0,0.312,0.468,0.78,0.0,0.0,0.312,0.0
4.99,2.63,43.65325,-70.27533,18149.46,7676.76,MAINE MEDICAL CENTER,0.0,0.287,0.409,0.737,0.0,0.041,0.246,0.082
5.08,2.33,43.90901,-69.89611,18532.00,6371.18,MID COAST HOSPITAL,0.0,0.249,0.997,0.748,0.0,0.0,0.0,0.0
4.65,2.47,44.80988,-68.74929,16646.77,6985.32,EASTERN MAINE MEDICAL CENTER,0.0,0.343,0.286,0.514,0.0,0.0,0.286,0.114
4.96,2.41,45.25378,-69.44547,18025.07,6694.79,MAINE GENERAL MEDICAL CENTER,0.0,0.895,0.597,0.895,0.0,0.0,0.298,0.199
3.04,2.94,39.62183,-77.68219,9508.20,9040.42,MERITUS MEDICAL CENTER,0.0,0.0,0.0,0.0,0.0,0.0,0.0,0.0
3.52,3.36,39.28817,-76.62438,11620.15,10922.92,UNIVERSITY OF MARYLAND MEDICAL CENTER,0.0,0.0,0.0,0.0,0.0,0.0,0.0,0.0
3.61,3.45,38.93090,-76.92161,12048.67,11325.83,PRINCE GEORGES HOSPITAL CENTER,0.0,0.0,0.0,0.0,0.0,0.0,0.0,0.0
2.46,2.39,39.01578,-77.03591,6915.05,6619.14,HOLY CROSS HOSPITAL,0.0,0.0,0.0,0.0,0.0,0.0,0.0,0.0
3.14,3.01,39.42366,-77.41386,9949.51,9352.55,FREDERICK MEMORIAL HOSPITAL,0.0,0.0,0.0,0.0,0.0,0.0,0.0,0.0
2.89,2.77,39.54345,-76.09153,8831.33,8301.39,HARFORD MEMORIAL HOSPITAL,0.0,0.0,0.0,0.0,0.0,0.0,0.0,0.0
2.80,2.69,39.38813,-76.61068,8452.33,7945.26,SAINT JOSEPH MEDICAL CENTER,0.0,0.0,0.0,0.0,0.0,0.0,0.0,0.0
3.68,3.52,39.29297,-76.61314,12353.64,11612.36,MERCY MEDICAL CENTER INC,0.0,0.0,0.0,0.0,0.0,0.0,0.0,0.0
4.01,3.83,39.29688,-76.59242,13802.67,13000.86,JOHNS HOPKINS HOSPITAL, THE,0.0,0.0,0.0,0.0,0.0,0.0,0.0,0.0
3.24,3.10,39.27352,-76.67219,10391.92,9768.35,SAINT AGNES HOSPITAL,0.0,0.0,0.0,0.0,0.0,0.0,0.0,0.0
3.29,3.15,39.35262,-76.66196,10602.94,9998.14,SINAI HOSPITAL OF BALTIMORE,0.0,0.0,0.0,0.0,0.0,0.0,0.0,0.0
3.33,3.21,39.35169,-76.47919,10796.67,10266.03,FRANKLIN SQUARE HOSPITAL CENTER,0.0,0.0,0.0,0.0,0.0,0.0,0.0,0.0
3.67,3.51,38.98482,-77.00139,12309.00,11570.47,WASHINGTON ADVENTIST HOSPITAL,0.0,0.0,0.0,0.0,0.0,0.0,0.0,0.0
3.29,3.16,39.15402,-77.05431,10629.64,10037.24,MONTGOMERY GENERAL HOSPITAL INC,0.0,0.0,0.0,0.0,0.0,0.0,0.0,0.0
3.40,3.25,38.36248,-75.59799,11079.78,10455.58,PENINSULA REGIONAL MEDICAL CENTER,0.0,0.0,0.0,0.0,0.0,0.0,0.0,0.0
2.82,2.73,38.99743,-77.11048,8549.08,8124.82,SUBURBAN HOSPITAL,0.0,0.0,0.0,0.0,0.0,0.0,0.0,0.0
2.77,2.68,38.99014,-76.53398,8315.56,7926.00,ANNE ARUNDEL MEDICAL CENTER,0.0,0.0,0.0,0.0,0.0,0.0,0.0,0.0
3.41,3.26,39.32930,-76.61432,11139.44,10492.64,UNION MEMORIAL HOSPITAL,0.0,0.0,0.0,0.0,0.0,0.0,0.0,0.0
3.35,3.21,39.64928,-78.73206,10898.51,10244.56,WESTERN MARYLAND REGIONAL MEDICAL CENTER,0.0,0.0,0.0,0.0,0.0,0.0,0.0,0.0
3.01,2.88,38.29124,-76.63579,9369.88,8807.69,SAINT MARY'S HOSPITAL,0.0,0.0,0.0,0.0,0.0,0.0,0.0,0.0
3.07,2.95,39.29100,-76.54623,9652.97,9121.35,JOHNS HOPKINS BAYVIEW MEDICAL CENTER,0.0,0.0,0.0,0.0,0.0,0.0,0.0,0.0
4.11,3.92,39.21770,-76.06494,14266.83,13410.92,CHESTER RIVER HOSPITAL CENTER,0.0,0.0,0.0,0.0,0.0,0.0,0.0,0.0
3.69,3.56,39.55808,-76.99107,12380.89,11808.89,CARROLL HOSPITAL CENTER,0.0,0.0,0.0,0.0,0.0,0.0,0.0,0.0
3.08,2.95,39.25189,-76.61399,9672.00,9091.64,HARBOR HOSPITAL,0.0,0.0,0.0,0.0,0.0,0.0,0.0,0.0
2.83,2.72,38.52905,-76.97068,8580.32,8065.42,CIVISTA MEDICAL CENTER,0.0,0.0,0.0,0.0,0.0,0.0,0.0,0.0
3.24,3.10,38.76970,-76.07697,10399.95,9776.00,MEMORIAL HOSPITAL AT EASTON,0.0,0.0,0.0,0.0,0.0,0.0,0.0,0.0
2.58,2.49,38.55963,-76.59455,7483.19,7049.25,CALVERT MEMORIAL HOSPITAL,0.0,0.0,0.0,0.0,0.0,0.0,0.0,0.0
3.90,3.72,39.35852,-76.78208,13299.34,12501.41,NORTHWEST HOSPITAL CENTER,0.0,0.0,0.0,0.0,0.0,0.0,0.0,0.0
3.24,3.10,39.13732,-76.62228,10371.11,9748.79,BALTIMORE WASHINGTON  MEDICAL CENTER,0.0,0.0,0.0,0.0,0.0,0.0,0.0,0.0
3.24,3.11,39.39017,-76.62216,10375.47,9830.00,GREATER BALTIMORE MEDICAL CENTER,0.0,0.0,0.0,0.0,0.0,0.0,0.0,0.0
2.71,2.63,39.21273,-76.88526,8037.73,7701.48,HOWARD COUNTY GENERAL HOSPITAL,0.0,0.0,0.0,0.0,0.0,0.0,0.0,0.0
2.78,2.68,39.51870,-76.34688,8371.61,7904.84,UPPER CHESAPEAKE MEDICAL CENTER,0.0,0.0,0.0,0.0,0.0,0.0,0.0,0.0
2.87,2.75,38.96851,-76.86203,8746.31,8221.62,DOCTORS'  COMMUNITY HOSPITAL,0.0,0.0,0.0,0.0,0.0,0.0,0.0,0.0
3.47,3.31,38.74827,-76.87590,11403.78,10719.48,SOUTHERN MARYLAND HOSPITAL CENTER,0.0,0.0,0.0,0.0,0.0,0.0,0.0,0.0
3.03,2.90,39.35962,-76.58851,9438.19,8871.88,GOOD SAMARITAN HOSPITAL,0.0,0.0,0.0,0.0,0.0,0.0,0.0,0.0
3.18,3.04,39.09796,-77.19799,10107.46,9500.96,SHADY GROVE ADVENTIST HOSPITAL,0.0,0.0,0.0,0.0,0.0,0.0,0.0,0.0
2.34,2.25,38.33876,-75.21128,6392.82,6009.35,ATLANTIC GENERAL HOSPITAL,0.0,0.0,0.0,0.0,0.0,0.0,0.0,0.0
4.57,2.74,42.37441,-71.13378,16292.43,8165.57,MOUNT AUBURN HOSPITAL,0.0,0.0,0.282,0.0,0.0,0.094,0.0,0.0
4.70,2.55,41.94236,-71.27364,16862.62,7330.92,STURDY MEMORIAL HOSPITAL,0.0,0.315,0.472,2.99,0.0,0.0,0.157,0.0
4.15,2.69,42.70912,-71.14877,14448.75,7973.25,LAWRENCE GENERAL HOSPITAL,0.0,0.0,1.138,0.114,0.0,0.114,0.0,0.0
4.36,3.01,42.37451,-71.10418,15347.00,9359.58,CAMBRIDGE HEALTH ALLIANCE,0.0,0.144,0.0,0.144,0.0,0.0,0.0,0.0
3.86,2.75,41.65298,-70.27484,13146.28,8203.91,CAPE COD HOSPITAL,0.0,0.159,0.318,0.106,0.0,0.106,0.053,0.053
3.91,2.17,42.33185,-72.65422,13357.19,5646.62,COOLEY DICKINSON HOSPITAL INC,THE,0.0,0.0,0.455,0.152,0.0,0.0,0.0,0.0
3.36,2.41,42.20038,-72.62762,10921.82,6719.55,HOLYOKE MEDICAL CENTER,0.0,0.0,0.727,0.0,0.0,0.0,0.182,0.0
3.50,2.42,42.81476,-70.89068,11551.46,6751.23,ANNA JAQUES HOSPITAL,0.0,0.622,0.778,0.0,0.0,0.0,0.0,0.0
3.67,3.39,42.35843,-71.05977,12304.26,11054.70,BOSTON MEDICAL CENTER CORPORATION,0.0,0.493,0.062,0.123,0.0,0.062,0.308,0.185
3.69,2.54,42.56407,-70.87543,12385.66,7277.45,BEVERLY HOSPITAL CORPORATION,0.0,0.397,0.238,0.238,0.0,0.0,0.079,0.079
6.04,2.49,42.51078,-70.90712,22801.04,7072.78,NORTH SHORE MEDICAL CENTER,0.0,0.108,0.597,0.325,0.0,0.163,0.542,0.054
3.64,3.05,42.34896,-71.14768,12166.82,9527.91,ST ELIZABETH'S MEDICAL CENTER,0.0,0.204,0.306,0.51,0.0,0.102,0.0,0.0
3.84,2.76,51.46599,-1.28140,13060.87,8248.07,BERKSHIRE MEDICAL CENTER INC,0.0,0.194,0.485,1.261,0.0,0.0,0.0,0.0
4.17,2.69,42.03597,-71.09792,14500.83,7929.67,SIGNATURE HEALTHCARE BROCKTON HOSPITAL,0.0,0.324,0.216,0.108,0.0,0.108,0.0,0.971
3.57,2.50,41.94445,-70.64511,11858.96,7100.80,JORDAN HOSPITAL INC,0.0,0.0,0.556,0.0,0.0,0.0,0.278,0.0
4.00,2.63,42.64636,-71.34118,13757.35,7676.94,LOWELL GENERAL HOSPITAL,0.0,0.0,0.397,0.264,0.0,0.0,0.0,0.0
3.83,2.47,42.11449,-72.59502,12988.05,6973.53,MERCY MEDICAL CENTER,0.0,0.33,0.55,0.0,0.0,0.0,0.11,0.0
11.14,3.64,42.36227,-71.06941,45423.38,12170.91,MASSACHUSETTS GENERAL HOSPITAL,0.028,0.908,0.482,0.312,0.0,0.0,0.17,0.085
2.98,2.46,41.90456,-71.09562,9219.09,6924.36,MORTON HOSPITAL,0.0,0.125,0.0,0.626,0.0,0.0,0.0,0.0
4.53,2.64,41.70928,-71.14519,16096.99,7721.82,SOUTHCOAST HOSPITAL GROUP, INC,0.028,0.277,0.471,0.138,0.0,0.0,0.111,0.055
4.02,2.82,42.12077,-72.60525,13867.77,8508.34,BAYSTATE MEDICAL CENTER,0.0,0.119,0.398,0.398,0.0,0.0,0.239,0.119
4.18,2.19,42.43082,-71.37554,14550.08,5712.46,EMERSON HOSPITAL,0.0,0.2,0.801,0.2,0.2,0.2,0.0,0.2
4.49,3.35,42.33719,-71.10939,15938.67,10863.38,BETH ISRAEL DEACONESS MEDICAL CENTER,0.0,0.469,0.289,0.397,0.0,0.0,0.036,0.0
4.59,2.45,42.13234,-71.52825,16377.67,6870.14,MILFORD REGIONAL MEDICAL CENTER,0.0,0.118,0.355,0.355,0.0,0.0,0.0,0.118
4.48,2.33,42.17644,-70.95398,15889.17,6349.19,SOUTH SHORE HOSPITAL,0.0,0.204,0.511,0.204,0.0,0.0,0.0,0.102
4.75,2.22,42.33149,-71.24568,17085.58,5856.17,NEWTON-WELLESLEY HOSPITAL,0.0,0.187,0.281,0.749,0.0,0.0,0.187,0.0
2.93,2.32,42.46581,-71.12210,9015.00,6325.60,WINCHESTER HOSPITAL,0.0,0.273,0.638,0.091,0.0,0.091,0.091,0.0
7.33,2.97,42.33600,-71.10704,28510.49,9184.18,BRIGHAM AND WOMEN'S HOSPITAL,0.034,1.091,0.478,0.614,0.0,0.068,0.0,0.273
3.32,2.56,42.09864,-71.06607,10746.13,7372.40,GOOD SAMARITAN MEDICAL CENTER,0.0,0.169,0.675,0.169,0.0,0.0,0.084,0.506
5.12,3.33,42.34951,-71.06331,18742.82,10802.73,TUFTS MEDICAL CENTER,0.0,0.407,0.244,0.163,0.0,0.081,0.081,0.0
3.79,2.64,42.30049,-71.12771,12838.07,7737.80,FAULKNER HOSPITAL,0.0,0.0,0.301,0.0,0.0,0.0,0.0,0.0
4.16,2.39,42.18869,-71.20197,14474.83,6607.67,NORWOOD HOSPITAL,0.0,0.0,0.189,0.378,0.0,0.0,0.0,0.189
3.73,2.47,41.56412,-70.62200,12550.08,6986.50,FALMOUTH HOSPITAL,0.0,0.0,0.27,0.135,0.0,0.27,0.27,0.0
6.28,3.20,42.27720,-71.75922,23884.31,10207.79,UMASS MEMORIAL MEDICAL CENTER INC,0.033,0.36,0.459,0.36,0.0,0.033,0.229,0.033
3.59,2.54,42.48585,-71.20686,11942.00,7292.80,LAHEY CLINIC HOSPITAL,0.0,0.271,0.226,0.045,0.0,0.0,0.0,0.045
4.55,2.31,42.39466,-83.40537,16185.46,6246.00,ST MARY MERCY HOSPITAL,0.0,0.225,0.845,0.056,0.0,0.0,0.056,0.169
3.36,2.39,43.20588,-86.20839,10918.86,6628.50,MERCY HEALTH PARTNERS, MERCY CAMPUS,0.0,0.089,0.892,0.0,0.0,0.0,0.089,0.0
5.69,2.72,42.28551,-85.58042,21256.51,8084.66,BRONSON METHODIST HOSPITAL,0.0,0.0,0.179,0.119,0.0,0.0,0.0,0.06
5.52,2.65,42.45741,-83.20513,20500.16,7769.63,PROVIDENCE HOSPITAL AND MEDICAL CENTERS,0.0,0.539,0.404,0.438,0.0,0.034,0.135,0.0
6.37,3.10,42.29077,-83.21504,24288.44,9765.60,OAKWOOD HOSPITAL AND MEDICAL CENTER,0.0,0.653,0.481,0.309,0.0,0.069,0.103,0.034
3.58,2.46,42.08955,-86.47781,11895.17,6949.41,LAKELAND HOSPITAL, ST JOSEPH,0.0,0.287,0.862,0.144,0.0,0.0,0.072,0.0
4.76,2.85,42.41911,-83.18228,17136.88,8670.69,SINAI-GRACE HOSPITAL,0.0,0.703,0.192,0.512,0.0,0.064,0.384,0.128
4.82,2.80,42.61425,-83.27602,17410.96,8431.67,ST JOSEPH MERCY OAKLAND,0.0,0.532,0.886,0.295,0.0,0.059,0.177,0.0
5.97,2.55,45.07773,-83.45146,22507.22,7321.33,ALPENA REGIONAL MEDICAL CENTER,0.0,0.207,0.83,0.83,0.0,0.0,0.0,0.0
4.12,2.72,42.96881,-85.66649,14292.59,8068.52,SPECTRUM HEALTH - BUTTERWORTH CAMPUS,0.0,0.275,0.426,0.05,0.0,0.0,0.075,0.025
6.51,2.39,43.58941,-83.86908,24900.62,6642.62,MCLAREN BAY REGION,0.0,0.576,0.518,0.518,0.0,0.0,0.058,0.23
5.29,3.14,42.28388,-83.72960,19470.88,9959.43,UNIVERSITY OF MICHIGAN HEALTH SYSTEM,0.0,0.523,0.628,1.884,0.0,0.0,0.279,0.0
4.19,2.40,42.61490,-82.96060,14582.98,6677.61,HENRY FORD MACOMB HOSPITAL,0.0,0.209,0.962,0.209,0.0,0.0,0.293,0.0
5.01,3.08,42.36762,-83.08461,18229.38,9663.42,HENRY FORD HOSPITAL,0.0,0.368,0.501,0.468,0.0,0.033,0.2,0.033
3.10,2.41,46.54758,-87.39560,9754.14,6729.07,MARQUETTE GENERAL HOSPITAL,0.0,0.375,0.5,0.25,0.0,0.0,0.0,0.125
3.60,2.60,42.95817,-85.66253,11974.82,7551.36,SAINT MARY'S HEALTH CARE,0.0,0.162,1.217,0.243,0.0,0.0,0.406,0.081
6.01,2.46,43.42857,-83.95556,22666.12,6923.44,COVENANT MEDICAL CENTER, INC,0.0,0.253,0.421,0.211,0.0,0.0,0.295,0.042
4.19,2.32,42.77487,-86.11378,14599.86,6329.43,HOLLAND COMMUNITY HOSPITAL,0.0,0.713,0.951,1.665,0.0,0.238,0.0,0.238
4.98,2.41,43.42612,-83.94185,18086.86,6727.29,ST MARY'S OF MICHIGAN MEDICAL CENTER,0.0,0.954,0.556,0.238,0.0,0.0,0.0,0.079
3.85,2.41,44.24532,-85.38950,13116.07,6719.86,MERCY HOSPITAL - CADILLAC,0.0,0.464,0.696,0.232,0.232,0.0,0.0,0.0
5.21,2.39,42.38392,-82.91480,19144.25,6615.92,BEAUMONT HOSPITAL, GROSSE POINTE,0.0,0.526,0.263,0.088,0.0,0.0,0.088,0.088
7.22,2.33,42.25117,-84.39240,28053.86,6372.23,ALLEGIANCE HEALTH,0.0,0.0,0.448,0.0,0.0,0.0,0.0,0.064
2.98,2.26,44.26333,-84.24625,9221.13,6063.20,WEST BRANCH REGIONAL MEDICAL CENTER,0.0,0.0,0.326,0.653,0.0,0.0,0.0,0.0
4.88,2.66,44.76156,-85.64143,17673.10,7827.97,MUNSON MEDICAL CENTER,0.042,0.21,0.379,0.463,0.0,0.084,0.126,0.042
5.41,2.30,41.91643,-83.39771,20006.89,6228.11,MERCY MEMORIAL HOSPITAL SYSTEM,0.0,0.125,0.623,0.374,0.0,0.0,0.249,0.0
5.96,2.48,45.74575,-87.10106,22467.07,7009.00,ST FRANCIS HOSPITAL,0.0,0.0,0.0,0.0,0.0,0.0,0.0,0.0
4.87,3.41,42.35230,-83.05676,17632.14,11125.71,HARPER UNIVERSITY HOSPITAL,0.0,0.502,0.144,0.287,0.0,0.0,0.144,0.072
3.90,2.43,45.37209,-84.97065,13337.26,6810.13,NORTHERN MICHIGAN REGIONAL HOSPITAL,0.0,0.112,0.784,0.0,0.0,0.0,0.112,0.0
5.99,2.47,42.30489,-85.56152,22596.35,6988.27,BORGESS MEDICAL CENTER,0.0,0.803,0.535,0.375,0.0,0.054,0.054,0.054
7.30,2.71,42.51418,-83.19259,28403.31,8039.24,WILLIAM BEAUMONT HOSPITAL,0.0,0.557,0.298,0.358,0.0,0.0,0.099,0.02
5.57,2.66,43.01399,-83.73250,20705.42,7823.35,MCLAREN FLINT,0.0,0.364,0.591,0.182,0.0,0.0,0.045,0.136
5.51,2.44,42.27424,-83.36580,20478.20,6837.33,OAKWOOD ANNAPOLIS HOSPITAL,0.0,0.233,0.117,0.0,0.0,0.0,0.35,0.117
5.03,2.42,42.21065,-83.14861,18334.43,6757.26,HENRY FORD WYANDOTTE HOSPITAL,0.0,0.232,0.522,0.232,0.0,0.058,0.0,0.0
4.78,2.99,42.46176,-83.37629,17218.74,9299.26,BOTSFORD HOSPITAL,0.0,0.066,0.531,0.0,0.0,0.0,0.199,0.0
5.17,2.53,42.26181,-83.66003,18947.98,7226.24,ST JOSEPH MERCY HOSPITAL,0.0,0.217,0.398,0.434,0.0,0.0,0.108,0.072
6.23,2.91,42.41975,-82.91442,23659.94,8936.17,ST JOHN HOSPITAL AND MEDICAL CENTER,0.0,0.151,0.377,0.339,0.0,0.0,0.075,0.0
6.14,2.58,42.70417,-84.55488,23255.04,7452.52,MCLAREN - GREATER LANSING,0.0,0.267,0.6,0.333,0.0,0.0,0.0,0.0
6.39,2.49,42.50514,-83.00422,24342.58,7083.77,ST JOHN MACOMB-OAKLAND HOSPITAL-MACOMB CENTER,0.0,0.477,0.404,0.845,0.0,0.147,0.073,0.0
5.60,2.78,42.89254,-83.63621,20861.41,8342.24,GENESYS REGIONAL MEDICAL CENTER - HEALTH PARK,0.0,0.051,0.355,0.0,0.0,0.102,0.102,0.0
5.79,2.29,42.98625,-82.42802,21703.05,6172.09,PORT HURON HOSPITAL,0.0,0.0,0.84,0.28,0.0,0.093,0.093,0.0
4.23,2.57,43.63618,-84.26187,14760.58,7430.52,MIDMICHIGAN MEDICAL CENTER-MIDLAND,0.0,0.096,0.482,0.096,0.0,0.0,0.289,0.0
4.47,2.55,42.58900,-82.89799,15841.71,7317.12,MOUNT CLEMENS REGIONAL MEDICAL CENTER,0.0,0.066,0.596,0.331,0.0,0.066,0.066,0.0
6.90,2.69,42.73767,-84.51698,26646.17,7954.85,EDWARD W SPARROW HOSPITAL,0.0,0.339,0.484,0.097,0.0,0.0,0.0,0.242
5.23,2.66,42.85736,-85.71774,19227.36,7837.82,METRO HEALTH HOSPITAL,0.0,0.131,0.131,0.262,0.0,0.0,0.131,0.131
3.65,2.79,46.43131,-84.28107,12203.36,8406.00,CHIPPEWA COUNTY WAR MEMORIAL HOSPITAL,0.0,0.0,0.402,0.402,0.0,0.0,0.402,0.0
4.24,2.76,42.33215,-83.31195,14844.83,8271.10,GARDEN CITY HOSPITAL,0.0,0.117,0.235,0.0,0.0,0.0,0.117,0.0
6.53,2.36,42.67850,-83.14771,24970.17,6496.60,CRITTENTON HOSPITAL MEDICAL CENTER,0.0,0.189,0.944,0.0,0.0,0.0,0.094,0.094
8.19,2.42,42.61826,-83.09239,32351.18,6759.38,WILLIAM BEAUMONT HOSPITAL-TROY,0.0,0.414,0.451,0.338,0.0,0.0,0.038,0.038
5.47,2.51,42.59290,-83.49920,20270.85,7145.46,HURON VALLEY-SINAI HOSPITAL,0.0,0.406,0.271,0.271,0.0,0.135,0.135,0.406
5.67,2.20,42.53914,-83.40777,21148.68,5780.63,HENRY FORD WEST BLOOMFIELD HOSPITAL,0.0,0.323,0.646,1.507,0.0,0.0,0.108,0.323
6.07,2.51,45.01403,-93.32177,22920.62,7172.96,NORTH MEMORIAL MEDICAL CENTER,0.0,0.114,0.286,0.057,0.0,0.0,0.057,0.114
4.80,2.51,46.79380,-92.09573,17301.74,7157.32,ESSENTIA HEALTH ST MARY'S MEDICAL CENTER,0.0,0.356,0.64,0.0,0.0,0.0,0.0,0.071
4.70,2.90,44.02052,-92.48292,16860.76,8903.31,MAYO CLINIC - SAINT MARYS HOSPITAL,0.031,0.862,0.462,0.862,0.0,0.0,0.031,0.123
6.54,2.31,45.56696,-93.23046,25026.09,6256.09,CAMBRIDGE MEDICAL CENTER,0.0,0.0,0.445,0.445,0.0,0.0,0.0,0.0
5.38,2.75,45.57390,-94.16942,19884.48,8206.16,ST CLOUD HOSPITAL,0.0,0.599,0.23,0.23,0.0,0.0,0.046,0.184
7.57,2.43,44.94214,-93.10858,29609.31,6787.11,UNITED HOSPITAL,0.0,0.115,0.172,0.172,0.0,0.0,0.0,0.0
3.58,2.93,44.03521,-91.62181,11899.25,9013.67,WINONA HEALTH SERVICES,0.0,0.485,0.485,0.971,0.0,0.0,0.0,0.0
4.29,2.48,46.79634,-92.08793,15063.00,7003.43,ST LUKES HOSPITAL,0.0,0.318,0.318,0.425,0.0,0.0,0.106,0.0
2.85,2.32,44.93031,-93.36276,8654.00,6320.92,PARK NICOLLET METHODIST HOSPITAL,0.0,0.113,0.395,0.225,0.0,0.056,0.0,0.0
5.07,2.31,44.84294,-93.79336,18519.67,6280.67,RIDGEVIEW MEDICAL CENTER,0.0,0.0,0.272,0.543,0.0,0.0,0.0,0.0
7.42,2.86,44.95248,-93.26196,28946.53,8721.78,ABBOTT NORTHWESTERN HOSPITAL,0.0,0.036,0.434,0.723,0.0,0.036,0.0,0.0
6.60,2.47,44.94898,-93.10016,25281.00,6981.85,ST JOSEPH'S HOSPITAL,0.0,0.17,0.339,0.085,0.0,0.085,0.085,0.0
4.62,2.48,46.36166,-94.20573,16524.50,7031.00,ESSENTIA HEALTH ST JOSEPH'S MEDICAL CENTER,0.0,0.0,0.187,0.373,0.0,0.0,0.0,0.0
4.87,2.30,44.88645,-93.32693,17634.73,6207.73,FAIRVIEW SOUTHDALE HOSPITAL,0.0,0.161,0.241,0.805,0.0,0.0,0.08,0.08
6.12,3.01,44.96766,-93.23640,23145.33,9372.00,UNIVERSITY OF MINNESOTA  MEDICAL CENTER, FAIRVIEW,0.0,1.524,0.435,0.363,0.0,0.073,0.145,0.0
4.83,2.69,44.16396,-94.00412,17430.78,7955.44,MAYO CLINIC HEALTH SYSTEM - MANKATO,0.0,0.275,0.55,0.413,0.0,0.0,0.275,0.138
5.07,2.86,44.95570,-93.09429,18523.35,8683.62,REGIONS HOSPITAL,0.0,0.059,0.531,0.531,0.0,0.0,0.0,0.0
6.51,2.40,45.18355,-93.36789,24874.59,6651.09,MERCY HOSPITAL,0.0,0.067,0.266,0.266,0.0,0.0,0.0,0.133
4.79,2.33,44.74846,-93.27289,17279.00,6369.72,FAIRVIEW RIDGES HOSPITAL,0.0,0.178,1.065,0.0,0.0,0.0,0.0,0.0
4.69,2.63,45.02892,-93.03418,16831.12,7707.52,HEALTHEAST ST JOHN'S HOSPITAL,0.0,0.188,0.283,0.094,0.0,0.0,0.094,0.0
4.63,2.31,44.91542,-92.94757,16543.55,6247.00,HEALTHEAST WOODWINDS HOSPITAL,0.0,0.0,0.468,0.0,0.0,0.0,0.0,0.234
6.74,2.95,32.33069,-90.17030,25900.09,9101.73,UNIVERSITY OF MISSISSIPPI MED CENTER,0.0,1.097,0.337,1.687,0.0,0.0,0.506,0.337
4.71,2.36,34.24336,-88.71753,16895.71,6479.44,NORTH MISSISSIPPI MEDICAL CENTER,0.0,0.044,0.489,0.267,0.0,0.133,0.0,0.044
7.82,2.28,34.93596,-88.55955,30719.26,6138.42,MAGNOLIA REGIONAL HEALTH CENTER,0.0,0.0,1.107,0.123,0.0,0.123,0.0,0.0
10.30,2.64,30.36674,-89.11535,41721.00,7712.92,MEMORIAL HOSPITAL AT GULFPORT,0.0,0.233,1.01,0.311,0.0,0.0,0.311,0.0
5.74,2.34,34.34899,-89.52062,21468.36,6378.45,BAPTIST MEMORIAL HOSPITAL NORTH MS,0.0,0.124,0.249,2.115,0.0,0.0,0.0,0.249
8.40,2.26,30.37516,-88.53226,33283.48,6029.52,SINGING RIVER HOSPITAL,0.0,0.269,0.47,0.269,0.0,0.0,0.134,0.0
5.37,2.25,32.33616,-90.15652,19837.16,6008.27,ST DOMINIC-JACKSON MEMORIAL HOSPITAL,0.0,0.461,0.307,0.154,0.0,0.051,0.717,0.0
3.53,2.34,31.69405,-89.13061,11695.37,6396.58,SOUTH CENTRAL REG MED CTR,0.0,0.611,1.526,0.153,0.0,0.0,0.0,0.0
5.67,2.35,32.36983,-88.69702,21188.29,6429.29,RUSH FOUNDATION HOSPITAL,0.0,0.412,0.619,0.0,0.0,0.0,0.0,0.0
4.21,2.32,31.31872,-89.32955,14709.75,6326.17,FORREST GENERAL HOSPITAL,0.0,0.422,0.528,0.58,0.0,0.0,0.106,0.053
4.62,2.38,33.41099,-91.03479,16493.75,6589.50,DELTA REGIONAL MEDICAL CENTER,0.0,0.155,0.155,0.155,0.0,0.0,0.0,0.0
8.65,2.27,31.32573,-89.36670,34397.60,6098.00,WESLEY MEDICAL CENTER,0.0,0.591,0.355,0.118,0.118,0.118,0.0,0.0
3.70,2.37,31.24000,-90.45000,12449.42,6538.21,SOUTHWEST MS REGIONAL MEDICAL CENTER,0.0,0.0,0.35,0.0,0.0,0.0,0.0,0.35
5.71,2.57,33.51824,-90.19832,21340.19,7411.69,GREENWOOD LEFLORE HOSPITAL,0.0,0.487,0.487,0.162,0.0,0.0,0.162,0.0
4.84,2.34,33.52568,-88.42742,17483.00,6378.09,BAPTIST MEM HOSP/GOLDEN TRIANGLE INC,0.0,0.693,0.0,1.039,0.0,0.0,0.0,0.173
5.86,2.17,32.31643,-90.17922,22033.50,5638.17,MISSISSIPPI BAPTIST MEDICAL CENTER,0.0,0.312,0.989,0.312,0.0,0.104,0.208,0.052
5.59,2.26,32.37280,-88.69954,20830.78,6032.00,ANDERSON REGIONAL MEDICAL CENTER,0.0,0.105,0.738,0.0,0.0,0.0,0.105,0.0
6.44,2.38,34.96927,-89.99709,24596.35,6583.70,BAPTIST MEMORIAL HOSPITAL DESOTO,0.0,0.277,0.416,0.486,0.0,0.0,0.0,0.069
6.00,2.26,37.06032,-94.52747,22637.27,6047.18,ST JOHN'S REGIONAL MEDICAL CENTER,0.0,0.534,0.686,0.534,0.0,0.0,0.153,0.0
5.31,2.65,39.77393,-94.77089,19592.50,7792.50,HEARTLAND REGIONAL MEDICAL CENTER,0.0,0.286,0.571,0.343,0.0,0.057,0.057,0.0
4.94,2.08,38.57670,-92.17352,17942.86,5229.43,ST MARYS HEALTH CENTER,0.0,0.117,0.705,0.0,0.0,0.0,0.0,0.0
6.93,3.00,37.95144,-91.75940,26739.71,9305.07,PHELPS COUNTY REGIONAL MEDICAL CENTER,0.0,0.0,0.445,0.148,0.0,0.0,0.0,0.0
8.27,2.46,38.64281,-90.44448,32705.42,6943.81,MERCY HOSPITAL ST LOUIS,0.0,0.686,0.441,0.294,0.0,0.0,0.147,0.196
5.29,2.63,38.63524,-90.26508,19490.66,7664.60,BARNES JEWISH HOSPITAL,0.0,0.967,0.604,0.121,0.0,0.0,0.29,0.072
4.74,2.33,37.14560,-93.28037,17037.54,6334.29,COX MEDICAL CENTER,0.0,0.133,0.575,0.354,0.0,0.0,0.044,0.088
4.49,2.42,38.56571,-92.18204,15913.57,6769.64,CAPITAL REGION MEDICAL CENTER,0.0,0.135,0.405,0.135,0.0,0.0,0.0,0.0
7.34,2.30,39.24809,-94.64928,28567.27,6215.73,ST LUKES NORTHLAND HOSPITAL,0.0,0.0,0.251,0.251,0.0,0.0,0.0,0.0
5.88,2.34,37.17999,-93.27409,22085.32,6403.39,ST JOHN'S REGIONAL HEALTH CENTER,0.0,0.223,0.356,1.381,0.0,0.0,0.045,0.045
5.24,2.17,38.94903,-92.31563,19276.30,5635.40,BOONE HOSPITAL CENTER,0.0,0.114,0.513,0.057,0.0,0.057,0.0,0.0
5.42,2.42,38.50661,-90.38025,20078.59,6760.76,ST ANTHONY'S MEDICAL CENTER,0.0,1.359,1.15,0.627,0.0,0.0,0.209,0.0
5.39,2.37,36.73801,-91.87553,19918.75,6542.67,OZARKS MEDICAL CENTER,0.0,0.0,0.218,0.0,0.0,0.0,0.0,0.0
7.34,2.33,38.52738,-90.47501,28580.46,6362.62,SSM ST CLARE HEALTH CENTER,0.0,0.339,0.566,0.453,0.0,0.113,0.0,0.0
6.78,2.18,38.93592,-94.60376,26106.03,5701.81,ST JOSEPH MEDICAL CENTER,0.0,0.389,0.389,1.264,0.0,0.0,0.0,0.0
7.48,2.77,38.63268,-90.31089,29213.53,8293.40,SSM ST MARYS HEALTH CENTER,0.0,0.449,0.449,0.225,0.0,0.0,0.0,0.0
5.98,2.56,36.64970,-93.22138,22532.07,7370.93,SKAGGS REGIONAL MEDICAL CENTER,0.0,0.673,0.841,0.337,0.0,0.0,0.0,0.0
7.98,2.21,39.04749,-94.34105,31407.14,5833.43,CENTERPOINT MEDICAL CENTER OF INDEPENDENCE, LLC,0.0,0.09,0.358,0.358,0.0,0.0,0.09,0.0
6.89,2.19,39.14957,-94.55148,26580.75,5722.55,NORTH KANSAS CITY HOSPITAL,0.0,0.421,0.421,1.106,0.0,0.0,0.053,0.053
7.58,2.36,38.75097,-90.43255,29630.73,6509.00,SSM DEPAUL HEALTH CENTER,0.0,0.338,0.619,0.338,0.0,0.0,0.056,0.0
7.65,3.19,38.62280,-90.24049,29966.88,10152.00,ST LOUIS UNIVERSITY HOSPITAL,0.097,0.871,0.29,0.194,0.0,0.0,0.097,0.194
4.04,2.22,38.63702,-90.44699,13932.36,5866.18,MISSOURI BAPTIST MEDICAL CENTER,0.0,0.421,0.374,0.515,0.0,0.0,0.047,0.0
6.07,2.29,37.31072,-89.53990,22943.54,6182.00,SOUTHEAST MISSOURI HOSPITAL,0.0,0.324,0.757,0.0,0.0,0.108,0.0,0.0
9.64,2.37,36.78510,-90.42779,38779.53,6542.79,POPLAR BLUFF REGIONAL MEDICAL CENTER,0.0,0.43,0.323,0.215,0.0,0.215,0.108,0.0
6.80,2.39,37.05238,-94.52777,26193.07,6603.77,FREEMAN HEALTH SYSTEM - FREEMAN WEST,0.0,0.072,0.795,0.289,0.0,0.144,0.0,0.0
10.13,2.60,39.04761,-94.59037,40953.52,7557.22,ST LUKES HOSPITAL OF KANSAS CITY,0.062,0.248,0.311,0.373,0.0,0.0,0.124,0.124
5.59,2.70,38.95171,-92.33407,20804.00,8001.50,UNIVERSITY OF MISSOURI HEALTH CARE,0.0,0.245,0.327,0.245,0.0,0.0,0.327,0.164
3.67,2.15,38.67655,-90.46573,12310.27,5564.73,BARNES-JEWISH WEST COUNTY HOSPITAL,0.0,0.0,0.356,0.0,0.0,0.0,0.0,0.0
5.23,2.22,39.27591,-94.42572,19232.86,5884.57,LIBERTY HOSPITAL,0.0,0.264,0.527,0.176,0.0,0.088,0.088,0.0
5.60,2.78,38.65123,-90.50301,20854.89,8371.63,ST LUKES HOSPITAL,0.0,0.296,0.591,0.414,0.0,0.0,0.0,0.059
7.19,2.53,37.30401,-89.57190,27914.26,7261.22,ST FRANCIS MEDICAL CENTER,0.0,1.223,0.611,0.175,0.0,0.0,0.0,0.087
6.78,2.27,39.02539,-94.26453,26073.87,6101.93,ST MARY'S MEDICAL CENTER,0.0,0.231,0.231,0.694,0.0,0.231,0.0,0.0
7.63,2.36,38.94062,-94.37842,29881.33,6509.08,SAINT LUKE'S EAST LEE'S SUMMIT HOSPITAL,0.174,0.174,1.22,0.174,0.0,0.0,0.0,0.0
3.52,2.35,46.58297,-111.99684,11648.29,6438.00,ST PETER'S HOSPITAL,0.0,0.273,0.273,1.366,0.0,0.0,0.0,0.0
4.34,2.49,45.78958,-108.51283,15283.67,7084.14,BILLINGS CLINIC HOSPITAL,0.0,0.09,0.181,0.181,0.0,0.0,0.0,0.0
3.25,2.48,47.49139,-111.26255,10438.52,7033.71,BENEFIS HOSPITALS INC,0.0,0.689,0.574,0.689,0.0,0.0,0.0,0.23
4.19,2.21,46.87545,-114.00033,14595.55,5805.25,ST PATRICK HOSPITAL,0.0,0.445,0.593,0.148,0.0,0.0,0.0,0.0
4.82,2.49,46.84691,-114.04640,17398.24,7049.06,COMMUNITY MEDICAL CENTER INC,0.0,2.201,0.734,2.935,0.0,0.0,0.0,0.0
3.82,2.44,45.79337,-108.51928,12955.87,6843.53,ST VINCENT HEALTHCARE,0.0,0.0,0.313,0.104,0.0,0.0,0.104,0.0
4.32,2.43,48.21465,-114.32386,15180.76,6787.29,KALISPELL REGIONAL MEDICAL CENTER,0.0,0.0,0.531,0.531,0.0,0.0,0.0,0.0
3.45,2.15,45.66969,-111.01991,11319.73,5538.09,BOZEMAN DEACONESS HOSPITAL,0.0,0.0,0.284,0.284,0.0,0.0,0.0,0.0
5.07,2.37,40.78318,-96.63709,18498.00,6511.52,BRYANLGH MEDICAL CENTER,0.0,0.179,0.239,0.598,0.0,0.06,0.0,0.0
6.02,2.84,41.25522,-95.97892,22709.07,8600.63,THE NEBRASKA MEDICAL CENTER,0.0,1.192,0.65,0.433,0.0,0.0,0.433,0.054
5.34,2.33,40.80816,-96.62689,19697.69,6369.35,SAINT ELIZABETH REGIONAL MEDICAL CENTER,0.0,0.411,0.74,0.247,0.0,0.0,0.164,0.0
5.23,2.29,40.92425,-98.37053,19199.61,6193.22,ST FRANCIS MEDICAL CENTER,0.0,0.323,0.161,0.0,0.0,0.0,0.161,0.0
8.30,3.05,41.26509,-95.95494,32835.50,9568.12,CREIGHTON UNIVERSITY MEDICAL CENTER - SAINT JOSEPH,0.0,0.539,0.0,1.797,0.0,0.0,0.0,0.18
3.30,2.30,40.59160,-98.38755,10666.29,6210.64,MARY LANNING MEMORIAL HOSPITAL,0.0,0.264,0.791,0.0,0.0,0.264,0.0,0.0
7.84,2.26,41.25797,-96.04164,30794.03,6040.14,THE NEBRASKA METHODIST HOSPITAL,0.0,0.516,0.147,0.147,0.0,0.0,0.074,0.0
8.40,2.36,41.23897,-96.03162,33263.30,6474.55,ALEGENT HEALTH BERGAN MERCY MEDICAL CENTER,0.0,0.449,0.359,0.539,0.09,0.0,0.09,0.09
4.35,2.35,41.12081,-100.77062,15297.00,6455.18,GREAT PLAINS REGIONAL MEDICAL CENTER,0.0,0.241,0.0,0.962,0.0,0.0,0.0,0.0
6.06,2.59,41.45152,-96.49184,22902.44,7526.00,FREMONT AREA MEDICAL CENTER,0.0,0.244,1.463,0.0,0.0,0.0,0.0,0.0
7.36,2.45,41.32182,-96.02133,28674.32,6886.50,ALEGENT HEALTH IMMANUEL MEDICAL CENTER,0.0,0.329,0.988,1.152,0.0,0.0,0.0,0.0
4.56,2.58,42.03257,-97.45100,16230.65,7444.24,FAITH REGIONAL HEALTH SERVICES,0.0,0.236,1.653,0.944,0.0,0.0,0.0,0.0
9.19,2.48,39.52637,-119.79456,36763.60,7029.33,RENOWN REGIONAL MEDICAL CENTER,0.0,0.707,0.816,0.054,0.0,0.054,0.0,0.0
12.24,2.76,36.13459,-115.13576,50310.89,8244.29,SUNRISE HOSPITAL AND MEDICAL CENTER,0.0,0.636,0.445,0.064,0.0,0.0,1.59,0.0
8.87,3.05,36.15896,-115.16558,35349.73,9555.60,UMC OF SOUTHERN NEVADA,0.0,1.413,0.771,0.385,0.0,0.128,0.0,0.0
6.17,2.60,39.53066,-119.82067,23390.43,7564.86,SAINT MARY'S REGIONAL MEDICAL CENTER,0.0,0.444,0.296,0.0,0.0,0.0,0.0,0.296
12.26,2.68,36.03931,-114.98259,50402.71,7888.35,SAINT ROSE DOMINICAN HOSPITAL - DE LIMA,0.0,1.982,0.44,0.22,0.0,0.0,0.0,0.0
5.82,2.66,39.20247,-119.78446,21832.37,7838.03,CARSON TAHOE REGIONAL MEDICAL CENTER,0.0,0.344,0.344,0.0,0.0,0.115,0.229,0.115
13.59,2.76,36.21599,-115.25095,56316.88,8243.94,MOUNTAINVIEW HOSPITAL,0.0,0.832,0.681,0.076,0.0,0.0,0.076,0.151
14.86,2.52,36.16586,-115.32436,61938.38,7201.85,SUMMERLIN HOSPITAL MEDICAL CENTER,0.0,0.286,0.381,0.095,0.0,0.0,0.095,0.0
13.66,2.56,36.00527,-115.11618,56605.61,7355.09,SAINT ROSE DOMINICAN HOSPITAL - SIENA CAMPUS,0.0,1.499,0.583,0.333,0.0,0.167,0.333,0.0
14.56,2.63,36.09056,-115.24058,60611.60,7673.27,SPRING VALLEY HOSPITAL MEDICAL CENTER,0.0,0.471,0.353,0.236,0.0,0.0,0.0,0.0
9.72,2.36,36.05712,-115.27116,39140.00,6475.42,SAINT ROSE DOMINICAN HOSPITAL - SAN MARTIN CAMPUS,0.0,1.138,0.228,0.228,0.0,0.0,0.0,0.0
13.96,2.38,36.28588,-115.28772,57929.00,6565.91,CENTENNIAL HILLS HOSPITAL MEDICAL CENTER,0.0,1.113,1.78,0.0,0.0,0.0,0.445,0.0
4.90,2.32,43.19846,-71.56230,17754.21,6289.47,CONCORD HOSPITAL,0.0,0.539,0.449,0.449,0.0,0.09,0.0,0.0
5.42,2.96,43.67286,-72.27232,20061.45,9138.36,MARY HITCHCOCK MEMORIAL HOSPITAL,0.0,0.626,0.813,0.876,0.0,0.063,0.188,0.375
6.89,2.47,43.52835,-71.46291,26589.38,6988.05,LAKES REGION GENERAL HOSPITAL,0.0,0.512,0.768,0.256,0.0,0.0,0.0,0.0
5.60,2.52,42.75004,-71.48100,20878.39,7203.09,ST JOSEPH HOSPITAL,0.0,0.198,0.99,0.198,0.0,0.0,0.0,0.198
4.71,2.37,43.00792,-71.46807,16902.27,6535.13,ELLIOT HOSPITAL,0.0,0.478,0.597,0.239,0.0,0.0,0.119,0.119
4.75,2.29,43.29811,-70.96148,17093.90,6163.65,FRISBIE MEMORIAL HOSPITAL,0.0,0.279,1.114,0.279,0.0,0.0,0.0,0.0
5.16,2.38,43.21231,-70.87499,18923.12,6564.31,WENTWORTH-DOUGLASS HOSPITAL,0.0,0.0,0.292,1.022,0.0,0.292,0.0,0.0
4.96,2.55,42.75623,-71.46059,18041.45,7329.64,SOUTHERN NH MEDICAL CENTER,0.0,0.182,0.547,0.182,0.0,0.0,0.0,0.0
4.67,2.23,42.98369,-70.93511,16730.61,5920.65,EXETER HOSPITAL INC,0.0,0.0,0.499,0.499,0.0,0.0,0.0,0.0
6.82,2.51,43.06469,-70.78916,26264.26,7157.30,PORTSMOUTH REGIONAL HOSPITAL,0.0,0.349,0.349,0.873,0.0,0.0,0.0,0.0
5.33,2.28,42.99121,-71.47426,19680.03,6111.79,CATHOLIC MEDICAL CENTER,0.0,0.855,0.122,1.099,0.0,0.122,0.0,0.0
13.64,2.76,40.88346,-74.05564,56498.51,8280.00,HACKENSACK UNIVERSITY MEDICAL CENTER,0.0,0.758,0.528,0.099,0.0,0.033,0.066,0.0
20.11,3.68,40.71011,-74.21368,85202.19,12343.56,NEWARK BETH ISRAEL MEDICAL CENTER,0.0,1.684,0.146,0.366,0.0,0.0,0.952,0.146
10.59,2.53,40.35684,-74.66166,42975.92,7232.33,UNIVERSITY MEDICAL CENTER AT PRINCETON,0.0,0.756,0.189,0.567,0.0,0.094,0.094,0.0
6.84,2.38,39.08752,-74.81657,26346.60,6559.93,CAPE REGIONAL MEDICAL CENTER INC,0.0,0.791,0.594,0.198,0.0,0.0,0.0,0.0
9.12,2.56,40.98359,-74.10047,36478.15,7395.96,VALLEY HOSPITAL,0.0,0.323,0.575,0.144,0.0,0.0,0.0,0.0
11.62,3.03,39.94152,-75.11680,47555.19,9447.38,COOPER UNIVERSITY HOSPITAL,0.0,0.644,0.725,0.403,0.0,0.161,0.081,0.242
10.40,2.80,40.78883,-74.46620,42130.13,8444.34,MORRISTOWN MEMORIAL HOSPITAL,0.039,0.739,0.428,0.389,0.0,0.078,0.311,0.0
9.68,2.49,40.95858,-74.31000,38940.21,7082.87,CHILTON HOSPITAL,0.0,0.633,0.527,0.0,0.0,0.211,0.211,0.0
17.90,3.12,40.90215,-74.16634,75395.61,9874.56,ST JOSEPH'S REGIONAL MEDICAL CENTER,0.0,1.325,0.442,0.294,0.0,0.0,0.392,0.196
14.78,2.54,39.78261,-74.91670,61573.60,7266.81,VIRTUA WEST JERSEY HOSPITALS BERLIN,0.0,0.183,0.402,0.365,0.0,0.037,0.146,0.037
20.77,2.36,40.61288,-74.29092,88129.88,6501.76,ROBERT WOOD JOHNSON UNIVERSITY HOSPITAL AT RAHWAY,0.0,0.517,0.129,0.258,0.0,0.0,0.0,0.0
18.84,2.51,41.05754,-74.76857,79592.00,7165.00,NEWTON MEMORIAL HOSPITAL,0.0,0.0,0.138,0.688,0.0,0.0,0.275,0.0
12.24,2.72,39.92695,-75.09537,50318.41,8073.47,OUR LADY OF LOURDES MEDICAL CENTER,0.0,0.38,0.456,0.304,0.0,0.0,0.076,0.0
14.92,2.55,39.44743,-75.05838,62182.92,7341.58,SOUTH JERSEY HEALTHCARE REGIONAL MEDICAL CENTER,0.0,0.074,0.297,0.223,0.0,0.0,0.668,0.074
14.62,2.36,40.35309,-74.06484,60868.64,6499.73,RIVERVIEW MEDICAL CENTER,0.0,0.905,0.633,0.362,0.0,0.0,0.0,0.181
16.92,2.91,40.49581,-74.44980,71052.82,8946.18,ROBERT WOOD JOHNSON UNIVERSITY HOSPITAL,0.0,0.998,0.694,0.217,0.0,0.13,0.304,0.0
14.25,2.43,39.96484,-74.21708,59228.09,6782.00,COMMUNITY MEDICAL CENTER,0.0,0.096,0.767,0.32,0.0,0.032,0.256,0.096
15.98,2.78,40.90400,-73.96847,66879.54,8368.58,ENGLEWOOD HOSPITAL AND MEDICAL CENTER,0.0,0.254,0.254,0.254,0.0,0.0,0.0,0.0
14.49,2.35,39.31464,-74.59391,60283.62,6465.38,SHORE MEDICAL CENTER,0.0,0.3,0.3,0.1,0.0,0.0,0.2,0.0
22.30,2.61,40.56804,-74.59579,94911.64,7584.08,SOMERSET MEDICAL CENTER,0.0,0.336,0.605,0.336,0.0,0.0,0.135,0.0
12.79,2.51,40.89538,-74.46479,52756.14,7149.64,SAINT CLARE'S HOSPITAL,0.0,0.242,0.566,1.05,0.0,0.0,0.323,0.0
7.61,2.71,40.71264,-74.35460,29758.52,8061.30,OVERLOOK HOSPITAL,0.0,0.371,0.477,1.007,0.0,0.0,0.53,0.106
14.32,2.49,40.07832,-74.13009,59526.05,7081.32,OCEAN MEDICAL CENTER,0.0,0.185,0.802,0.432,0.0,0.0,0.308,0.062
14.15,2.88,39.98588,-74.79393,58766.13,8772.52,VIRTUA MEMORIAL HOSPITAL OF BURLINGTON COUNTY,0.0,0.461,0.593,0.132,0.066,0.0,0.79,0.0
14.84,2.37,40.04632,-74.88059,61830.50,6552.29,LOURDES MEDICAL CENTER OF BURLINGTON COUNTY,0.0,0.65,0.813,0.488,0.0,0.0,0.813,0.325
17.23,2.77,39.35775,-74.43449,72434.79,8306.37,ATLANTICARE REGIONAL MEDICAL CENTER - CITY DIV,0.0,0.321,0.275,0.138,0.0,0.0,0.046,0.138
19.70,2.97,40.50214,-74.46015,83382.69,9175.08,SAINT PETER'S UNIVERSITY HOSPITAL,0.0,0.8,0.711,0.089,0.0,0.089,0.0,0.089
15.83,2.62,40.21065,-74.03566,66214.13,7645.70,JERSEY SHORE UNIVERSITY MEDICAL CENTER,0.0,0.574,0.533,0.123,0.0,0.041,0.164,0.0
15.97,2.94,40.29563,-73.98518,66873.05,9064.19,MONMOUTH MEDICAL CENTER,0.0,0.624,0.936,1.248,0.0,0.0,0.104,0.104
12.66,2.98,40.76190,-74.30335,52154.16,9240.47,SAINT BARNABAS MEDICAL CENTER,0.0,1.419,0.405,0.558,0.0,0.0,0.203,0.101
12.41,2.42,39.84392,-75.14985,51041.76,6745.83,UNDERWOOD - MEMORIAL HOSPITAL,0.0,0.266,0.532,0.089,0.0,0.0,0.443,0.0
13.40,2.80,39.82811,-75.00895,55468.57,8441.91,KENNEDY UNIVERSITY HOSPITAL - STRATFORD DIV,0.0,0.241,0.762,0.08,0.0,0.0,0.321,0.04
13.52,2.81,40.55784,-74.34970,55980.25,8468.64,JFK MEDICAL CTR - ANTHONY M. YELENCSICS COMMUNITY,0.0,3.599,0.295,0.059,0.0,0.0,0.118,0.0
17.60,2.36,40.21575,-74.67273,74084.00,6502.00,ROBERT WOOD JOHNSON UNIVERSITY HOSPITAL HAMILTON,0.0,1.081,0.332,0.332,0.0,0.0,0.166,0.0
10.17,2.41,40.23861,-74.31289,41145.21,6720.75,CENTRASTATE MEDICAL CENTER,0.0,0.082,0.659,0.329,0.0,0.0,0.0,0.082
8.54,2.34,39.66213,-74.26392,33915.61,6399.35,SOUTHERN OCEAN MEDICAL CENTER,0.0,0.0,1.147,0.143,0.0,0.0,0.287,0.143
5.47,3.34,35.08838,-106.61590,20268.36,10839.55,UNM HOSPITAL,0.0,0.375,0.125,0.625,0.0,0.125,0.25,0.25
4.82,2.86,35.65960,-105.94578,17406.00,8708.00,ST VINCENT HOSPITAL,0.0,0.575,0.575,0.431,0.0,0.0,0.144,0.0
6.16,2.72,36.72387,-108.21749,23357.26,8097.63,SAN JUAN REGIONAL MEDICAL CENTER,0.0,0.25,0.876,0.0,0.0,0.125,0.0,0.0
6.19,2.46,35.08102,-106.63392,23466.74,6919.50,PRESBYTERIAN HOSPITAL,0.0,0.402,1.155,0.502,0.0,0.0,0.201,0.05
7.13,2.60,41.92720,-73.99535,27642.56,7559.78,KINGSTON HOSPITAL,0.0,0.231,0.231,0.231,0.0,0.0,0.0,0.0
3.88,2.69,42.87482,-78.84942,13225.36,7971.58,KALEIDA HEALTH,0.0,0.439,0.576,0.686,0.0,0.027,0.274,0.027
4.17,2.44,42.09299,-75.93704,14533.00,6829.60,OUR LADY OF LOURDES MEMORIAL HOSPITAL, INC,0.0,0.1,0.1,0.0,0.0,0.0,0.1,0.1
6.49,2.69,42.65345,-73.77543,24816.65,7954.50,ALBANY MEDICAL CENTER HOSPITAL,0.0,0.168,0.393,0.0,0.0,0.056,0.168,0.112
6.88,3.90,40.70141,-73.81630,26552.91,13318.36,JAMAICA HOSPITAL MEDICAL CENTER,0.0,0.0,0.195,0.293,0.0,0.0,0.391,0.0
12.14,2.95,41.69441,-73.93432,49846.41,9126.50,VASSAR BROTHERS MEDICAL CENTER,0.0,0.121,0.483,0.121,0.0,0.0,0.0,0.0
7.63,3.63,40.79041,-73.95386,29862.69,12102.57,MOUNT SINAI HOSPITAL,0.024,0.568,0.331,0.047,0.0,0.024,0.378,0.142
7.84,2.68,40.72567,-73.24189,30777.39,7912.78,SOUTHSIDE HOSPITAL,0.0,0.184,0.643,0.184,0.0,0.0,0.276,0.184
5.77,2.25,43.09840,-75.27819,21608.96,5995.85,FAXTON-ST LUKE'S HEALTHCARE,0.0,0.148,0.443,0.517,0.0,0.0,0.148,0.148
6.64,2.42,40.87946,-73.41621,25464.50,6764.92,HUNTINGTON HOSPITAL,0.061,0.121,0.303,0.061,0.0,0.0,0.0,0.061
9.38,3.69,40.80556,-73.96131,37603.62,12366.25,ST LUKE'S ROOSEVELT HOSPITAL,0.0,0.398,0.487,0.221,0.0,0.0,0.265,0.265
7.93,3.30,40.74722,-73.82521,31211.31,10660.97,NEW YORK HOSPITAL MEDICAL CENTER OF QUEENS,0.0,0.118,0.474,0.197,0.0,0.0,0.079,0.079
7.21,2.27,42.65583,-73.80372,27999.04,6086.29,ST PETER'S HOSPITAL,0.0,0.053,1.015,0.321,0.0,0.107,0.16,0.053
12.04,3.78,40.87987,-73.87996,49434.61,12770.74,MONTEFIORE MEDICAL CENTER,0.0,0.414,0.493,0.197,0.039,0.02,0.158,0.039
6.03,2.63,40.94161,-73.83650,22782.09,7689.18,LAWRENCE HOSPITAL CENTER,0.0,0.373,0.87,0.124,0.0,0.0,0.87,0.0
9.18,3.78,40.76487,-73.95398,36758.25,12776.35,NEW YORK-PRESBYTERIAN HOSPITAL,0.016,0.614,0.456,0.693,0.0,0.031,0.331,0.063
2.86,2.31,42.09049,-78.42780,8707.64,6250.00,OLEAN GENERAL HOSPITAL,0.0,0.0,0.492,0.656,0.0,0.0,0.0,0.0
13.24,3.37,40.77686,-73.70212,54743.29,10988.12,NORTH SHORE UNIVERSITY HOSPITAL,0.0,0.161,0.482,0.299,0.0,0.0,0.161,0.115
10.09,2.63,40.93376,-72.67383,40778.25,7705.20,PECONIC BAY MEDICAL CENTER,0.0,0.687,0.549,0.137,0.0,0.0,0.137,0.0
11.78,3.20,40.77362,-73.96093,48276.45,10202.00,LENOX HILL HOSPITAL,0.0,0.295,0.687,0.098,0.0,0.049,0.638,0.147
3.77,2.32,43.19244,-77.58590,12733.71,6300.19,ROCHESTER GENERAL HOSPITAL,0.0,0.267,0.667,0.044,0.0,0.089,0.667,0.133
10.46,2.59,41.44138,-74.36821,42412.67,7505.08,ORANGE REGIONAL MEDICAL CENTER,0.0,0.237,0.415,0.118,0.0,0.0,0.118,0.118
5.65,3.18,42.69590,-74.92278,21088.21,10144.42,MARY IMOGENE BASSETT HOSPITAL,0.0,0.12,0.36,0.12,0.0,0.0,0.0,0.0
4.29,2.57,43.05571,-76.14981,15036.87,7398.85,ST JOSEPH'S HOSPITAL HEALTH CENTER,0.044,0.618,0.751,1.458,0.0,0.0,0.486,0.088
10.55,3.89,40.68964,-73.99657,42804.64,13294.45,LONG ISLAND COLLEGE HOSPITAL,0,0,0,0,0,0,0,0
5.45,2.51,42.81963,-73.91653,20180.00,7143.81,ELLIS HOSPITAL,0.0,0.073,0.58,0.0,0.0,0.0,0.145,0.073
5.25,3.10,43.96519,-75.91511,19324.25,9750.00,SAMARITAN MEDICAL CENTER,0.0,0.179,0.714,0.0,0.0,0.0,0.0,0.0
12.13,2.77,41.11299,-74.13732,49831.40,8315.27,GOOD SAMARITAN HOSPITAL OF SUFFERN,0.0,0.302,0.302,0.101,0.0,0.0,0.0,0.0
4.48,2.40,43.00561,-76.17002,15869.76,6672.29,COMMUNITY-GENERAL HOSPITAL OF GREATER SYRACUSE,0,0,0,0,0,0,0,0
7.53,3.05,40.58440,-74.08507,29399.73,9541.73,STATEN ISLAND UNIVERSITY HOSPITAL,0.0,0.163,0.449,0.122,0.0,0.0,0.286,0.0
5.07,2.50,41.19677,-73.72572,18501.54,7108.31,NORTHERN WESTCHESTER HOSPITAL,0.0,0.281,0.141,0.0,0.0,0.141,0.0,0.141
2.84,2.31,43.13562,-77.60602,8638.33,6258.08,HIGHLAND HOSPITAL,0.0,0.557,0.743,0.093,0.0,0.278,0.093,0.186
9.73,3.08,40.74083,-73.64306,39160.65,9681.50,WINTHROP-UNIVERSITY HOSPITAL,0.0,0.079,0.473,0.236,0.0,0.039,0.709,0.079
12.53,3.79,40.73265,-73.98162,51579.88,12830.82,BETH ISRAEL MEDICAL CENTER,0.0,0.331,0.414,0.386,0.0,0.0,0.221,0.055
3.84,2.40,42.60884,-76.18764,13066.48,6671.88,CORTLAND REGIONAL MEDICAL CENTER, INC,0.0,0.493,0.739,2.464,0.0,0.0,0.739,0.0
7.88,2.75,40.87062,-73.62249,30963.00,8205.36,GLEN COVE HOSPITAL,0.0,0.0,0.473,0.0,0.0,0.0,0.355,0.0
7.77,2.51,40.80462,-73.67023,30474.10,7162.75,ST FRANCIS HOSPITAL, ROSLYN,0.0,0.043,0.384,0.341,0.0,0.0,0.128,0.0
7.28,2.45,40.94000,-73.05510,28300.05,6900.89,JOHN T MATHER MEMORIAL HOSPITAL  OF PORT JEFFERSON,0.0,0.523,0.523,0.0,0.0,0.0,0.174,0.087
4.59,2.45,43.30652,-73.64663,16377.83,6894.06,GLENS FALLS HOSPITAL,0.0,0.276,0.644,0.552,0.0,0.0,0.552,0.0
13.92,4.46,40.63937,-73.99851,57737.56,15783.06,MAIMONIDES MEDICAL CENTER,0.0,0.866,0.414,0.226,0.0,0.113,1.581,0.038
11.57,3.69,40.75332,-73.70899,47334.12,12386.38,LONG ISLAND JEWISH MEDICAL CENTER,0.0,0.657,0.482,0.35,0.0,0.044,0.175,0.088
6.80,2.71,40.65189,-73.63096,26200.21,8061.86,SOUTH NASSAU COMMUNITIES HOSPITAL,0.0,0.469,1.093,0.469,0.0,0.052,0.26,0.0
4.49,2.66,43.04139,-76.13803,15924.43,7819.81,CROUSE HOSPITAL,0.0,0.873,0.403,0.873,0.0,0.201,0.671,0.067
7.63,3.06,40.74335,-73.97408,29868.70,9577.30,NYU HOSPITALS CENTER,0.0,0.284,0.366,0.041,0.0,0.041,0.162,0.0
3.66,2.33,43.19054,-77.70177,12254.87,6372.87,UNITY HOSPITAL OF ROCHESTER,0.0,0.174,0.696,0.261,0.0,0.087,0.174,0.174
4.47,2.49,42.94136,-76.56474,15848.83,7070.92,AUBURN COMMUNITY HOSPITAL,0.0,0.0,0.196,0.0,0.0,0.0,0.196,0.0
6.60,3.55,40.66762,-73.97850,25293.57,11779.57,NEW YORK METHODIST HOSPITAL,0.0,0.048,0.335,0.144,0.0,0.048,0.431,0.048
6.06,3.19,43.04269,-76.14043,22913.08,10149.28,UNIVERSITY HOSPITAL S U N Y HEALTH SCIENCE CENTER,0.0,0.942,0.6,0.171,0.0,0.257,0.771,0.257
5.17,2.48,43.08176,-75.26587,18943.00,7019.94,ST ELIZABETH MEDICAL CENTER,0.0,0.172,0.344,0.172,0.0,0.172,0.258,0.0
3.99,2.85,44.70022,-73.47100,13729.61,8680.70,CHAMPLAIN VALLEY PHYSICIANS HOSPITAL MEDICAL CTR,0.0,0.42,0.42,0.524,0.0,0.105,0.0,0.105
9.86,2.62,41.29201,-73.89529,39759.62,7642.31,HUDSON VALLEY HOSPITAL CENTER,0.0,0.31,0.31,0.155,0.0,0.0,0.0,0.0
4.07,2.29,42.14073,-77.04745,14072.42,6194.92,CORNING HOSPITAL,0.0,0.0,0.771,0.0,0.0,0.257,0.771,0.0
3.91,2.28,42.84782,-78.81264,13369.81,6146.19,MERCY HOSPITAL,0.0,0.223,0.816,0.223,0.0,0.0,0.148,0.0
4.08,3.02,43.12266,-77.62360,14136.43,9399.13,STRONG MEMORIAL HOSPITAL,0.0,1.147,0.549,0.249,0.0,0.05,0.0,0.15
10.83,2.85,40.69327,-73.29412,44075.45,8680.18,GOOD SAMARITAN HOSPITAL MEDICAL CENTER,0.0,0.25,0.551,0.05,0.0,0.0,0.2,0.0
6.58,2.71,41.02614,-73.76978,25209.79,8028.33,WHITE PLAINS HOSPITAL CENTER,0.0,1.729,0.432,1.297,0.0,0.0,0.259,0.0
7.28,2.81,40.77481,-73.47968,28320.00,8504.60,PLAINVIEW HOSPITAL,0.0,0.377,0.679,0.226,0.0,0.0,0.151,0.075
11.75,3.07,40.88512,-72.38030,48152.92,9639.00,SOUTHAMPTON HOSPITAL,0.0,0.0,0.0,0.0,0.0,0.0,0.552,0.0
10.22,3.65,40.90922,-73.11520,41352.00,12199.91,UNIVERSITY HOSPITAL ( STONY BROOK ),0.0,1.247,0.208,0.364,0.0,0.0,0.052,0.104
4.35,2.45,42.11422,-75.95851,15293.58,6880.12,UNITED HEALTH SERVICES HOSPITALS, INC,0.0,0.075,0.451,0.226,0.0,0.15,0.226,0.226
13.68,3.11,40.85738,-73.18681,56708.00,9806.57,ST CATHERINE OF SIENA HOSPITAL,0.0,0.332,1.411,0.083,0.0,0.0,0.0,0.0
4.70,2.44,35.43754,-80.60147,16856.36,6821.26,CAROLINAS MEDICAL CENTER-NORTHEAST,0.0,0.095,0.382,0.334,0.0,0.0,0.048,0.048
4.49,2.46,35.57658,-82.54922,15934.02,6921.71,MEMORIAL MISSION HOSPITAL AND ASHEVILLE SURGERY CE,0.026,0.157,0.628,0.262,0.0,0.052,0.052,0.079
4.58,2.37,36.48826,-80.61222,16344.23,6520.69,NORTHERN HOSPITAL OF SURRY COUNTY,0.0,0.282,0.282,0.0,0.0,0.0,0.0,0.282
5.96,2.70,34.75124,-79.46789,22449.55,7985.09,SCOTLAND MEMORIAL HOSPITAL,0.0,0.178,0.0,0.178,0.0,0.0,0.0,0.0
4.31,2.67,35.39772,-77.95250,15153.47,7851.35,WAYNE MEMORIAL HOSPITAL,0.0,0.524,0.262,0.087,0.0,0.0,0.0,0.0
4.02,2.29,35.36251,-81.96692,13869.07,6176.07,RUTHERFORD HOSPITAL INC,0.0,0.182,0.546,0.0,0.0,0.0,0.182,0.0
4.32,2.57,36.07581,-80.29779,15188.57,7428.78,FORSYTH MEMORIAL HOSPITAL,0.0,1.353,0.819,0.392,0.0,0.0,0.036,0.107
4.56,2.35,35.68172,-80.47072,16261.83,6444.67,ROWAN REGIONAL MEDICAL CENTER,0.0,0.421,0.421,0.14,0.0,0.0,0.0,0.0
3.89,2.30,35.32080,-82.46812,13273.79,6220.28,MARGARET R PARDEE MEMORIAL HOSPITAL,0.0,0.0,0.61,0.488,0.0,0.122,0.244,0.244
6.28,2.20,35.46894,-79.18668,23857.29,5770.36,CENTRAL CAROLINA HOSPITAL,0.0,0.542,0.542,0.181,0.0,0.0,0.0,0.0
5.62,2.41,35.30288,-81.53571,20961.27,6706.57,CLEVELAND REGIONAL MEDICAL CENTER,0.0,0.327,0.327,0.218,0.0,0.0,0.0,0.109
5.25,2.31,35.38994,-82.48815,19327.08,6287.46,PARK RIDGE HEALTH,0.0,0.344,0.689,0.0,0.0,0.0,0.0,0.0
4.47,2.51,35.00670,-78.32412,15850.55,7133.27,SAMPSON REGIONAL MEDICAL CENTER,0.0,0.564,0.282,0.282,0.0,0.0,0.0,0.0
4.56,2.42,35.29053,-77.58307,16248.87,6752.83,LENOIR MEMORIAL HOSPITAL,0.0,0.419,0.209,0.105,0.0,0.0,0.105,0.105
7.21,2.69,35.03156,-78.93205,27998.04,7933.15,CAPE FEAR VALLEY MEDICAL CENTER,0.0,0.256,0.513,0.128,0.0,0.043,0.171,0.085
6.68,3.15,36.00850,-78.94006,25644.50,9974.65,DUKE UNIVERSITY HOSPITAL,0.0,0.531,0.425,0.708,0.0,0.035,0.496,0.106
4.96,2.53,35.27341,-81.13688,18023.27,7243.52,GASTON MEMORIAL HOSPITAL,0.0,0.197,0.442,0.59,0.0,0.0,0.0,0.049
5.22,2.22,35.79986,-80.87863,19173.59,5865.19,IREDELL MEMORIAL HOSPITAL INC,0.0,0.46,1.15,0.23,0.0,0.0,0.23,0.0
6.22,2.96,35.60726,-77.40477,23607.63,9149.81,PITT COUNTY MEMORIAL HOSPITAL,0.0,0.599,0.41,0.41,0.0,0.063,0.568,0.032
5.70,2.39,34.76273,-77.38582,21299.89,6613.11,ONSLOW MEMORIAL HOSPITAL,0.0,0.745,0.186,0.186,0.0,0.0,0.186,0.186
4.59,3.19,36.09062,-80.27161,16356.50,10183.60,NORTH CAROLINA BAPTIST HOSPITAL,0.0,0.638,0.567,0.425,0.0,0.0,0.284,0.071
6.75,2.66,34.63723,-79.01213,25946.94,7838.47,SOUTHEASTERN REGIONAL MEDICAL CENTER,0.0,0.077,0.232,0.772,0.0,0.0,0.0,0.154
4.20,2.62,36.19878,-81.65223,14654.33,7647.92,WATAUGA MEDICAL CENTER,0.0,0.0,0.754,0.188,0.0,0.0,0.188,0.0
5.40,2.42,35.22196,-80.83287,19966.11,6763.07,PRESBYTERIAN HOSPITAL,0.0,1.167,0.35,0.817,0.0,0.0,0.0,0.058
4.36,2.33,36.49464,-79.73929,15340.55,6355.55,MOREHEAD MEMORIAL HOSPITAL,0.0,0.209,0.0,0.836,0.0,0.0,0.418,0.0
3.86,3.18,35.90529,-79.04963,13135.37,10136.58,UNIVERSITY OF NORTH CAROLINA HOSPITAL,0.0,1.619,0.442,1.129,0.0,0.098,0.589,0.049
4.04,2.35,34.33747,-78.69425,13923.06,6439.31,COLUMBUS REGIONAL HEALTHCARE SYSTEM,0.0,0.176,0.352,0.0,0.0,0.0,0.0,0.0
5.93,2.59,35.78523,-78.58836,22312.51,7528.23,WAKEMED, RALEIGH CAMPUS,0.0,0.217,0.544,0.254,0.0,0.109,0.181,0.036
5.74,2.59,35.30715,-78.63474,21470.15,7505.00,BETSY JOHNSON REGIONAL  HOSPITAL,0.0,0.0,0.688,0.0,0.0,0.0,0.172,0.172
6.24,2.25,35.82915,-78.61922,23694.12,6020.81,DUKE HEALTH RALEIGH HOSPITAL,0.0,0.298,0.149,0.0,0.0,0.0,0.149,0.0
4.33,2.53,36.09251,-79.78855,15226.35,7248.37,MOSES H CONE MEMORIAL HOSPITAL, THE,0.0,0.085,0.569,0.085,0.0,0.0,0.057,0.028
4.59,2.27,36.26164,-80.83882,16357.67,6100.08,HUGH CHATHAM MEMORIAL HOSPITAL,0.0,0.0,0.506,0.0,0.0,0.0,0.0,0.0
5.53,2.33,35.21029,-80.82084,20530.55,6354.68,CAROLINAS MED CENTER-MERCY,0.0,0.317,1.11,2.141,0.0,0.0,0.079,0.159
4.77,2.48,36.28555,-76.99489,17158.59,7032.41,ROANOKE CHOWAN HOSPITAL,0.0,0.0,0.0,0.0,0.0,0.0,0.507,0.0
4.95,2.59,36.32690,-76.22370,17985.37,7514.84,ALBEMARLE HOSPITAL AUTHORITY,0.0,0.0,0.537,0.179,0.0,0.0,0.537,0.0
6.14,2.87,35.20397,-80.83908,23247.88,8756.29,CAROLINAS MEDICAL CENTER/BEHAV HEALTH,0.0,0.11,0.622,0.256,0.0,0.0,0.073,0.037
5.85,2.29,35.81801,-78.70283,21981.34,6191.41,REX HOSPITAL,0.0,0.261,0.627,0.574,0.0,0.0,0.0,0.104
4.51,2.34,35.20554,-79.45645,16005.16,6384.14,FIRSTHEALTH MOORE REGIONAL HOSPITAL,0.0,0.294,0.505,0.379,0.0,0.0,0.042,0.084
8.61,2.56,35.73751,-81.33702,34202.21,7375.95,FRYE REGIONAL MEDICAL CENTER,0.0,0.212,0.423,0.635,0.0,0.0,0.0,0.212
6.72,2.39,35.71850,-77.94518,25816.00,6627.31,WILSON MEDICAL CENTER,0.0,0.368,1.228,0.0,0.0,0.123,0.0,0.0
5.57,2.19,35.54775,-80.85563,20741.25,5715.08,LAKE NORMAN REGIONAL MEDICAL CENTER,0.0,0.0,0.883,0.221,0.0,0.0,0.0,0.0
4.43,2.50,34.97382,-80.52250,15659.36,7098.50,CAROLINAS MEDICAL CENTER-UNION,0.0,0.126,0.628,0.628,0.0,0.0,0.126,0.0
4.24,2.49,35.11420,-77.06568,14815.19,7050.14,CAROLINA EAST MEDICAL CENTER,0.0,0.276,0.344,0.207,0.0,0.0,0.069,0.0
4.60,2.49,36.32959,-78.39916,16432.20,7074.60,MARIA PARHAM MEDICAL CENTER,0.0,0.0,1.399,0.0,0.0,0.0,0.0,0.0
4.77,2.50,34.23786,-77.94764,17187.15,7096.51,NEW HANOVER REGIONAL MEDICAL CENTER,0.0,0.46,0.46,0.23,0.0,0.0,0.066,0.0
3.89,2.60,34.72615,-76.75452,13279.21,7536.84,CARTERET GENERAL HOSPITAL,0.0,0.151,0.302,0.151,0.0,0.0,0.151,0.0
5.20,2.43,35.71664,-81.26661,19083.29,6800.88,CATAWBA VALLEY MEDICAL CENTER,0.0,0.889,0.355,1.955,0.0,0.0,0.0,0.0
6.14,2.41,35.81875,-80.82896,23256.53,6701.53,DAVIS REGIONAL MEDICAL CENTER,0.0,0.298,1.19,0.0,0.0,0.0,0.0,0.0
6.09,2.43,35.47011,-81.23593,23041.18,6787.64,CAROLINAS MEDICAL CENTER-LINCOLN,0.0,0.317,0.952,0.952,0.0,0.0,0.635,0.317
5.29,2.63,35.97538,-77.85012,19463.25,7668.60,NASH GENERAL HOSPITAL,0.0,0.328,0.657,0.328,0.0,0.0,0.41,0.0
5.47,2.47,36.43295,-77.64729,20289.64,6962.36,HALIFAX REGIONAL MEDICAL CENTER INC,0.0,0.0,0.14,0.14,0.0,0.0,0.281,0.14
4.58,2.48,36.04960,-78.90617,16343.33,7020.62,DURHAM REGIONAL HOSPITAL,0.0,0.163,0.245,0.408,0.0,0.163,0.082,0.082
5.02,2.41,35.30611,-80.74708,18278.17,6709.78,CAROLINAS MED CTR-UNIVERSITY,0.0,0.598,0.299,0.898,0.0,0.0,0.0,0.0
5.08,2.40,35.11432,-80.71971,18545.79,6664.55,PRESBYTERIAN HOSPITAL MATTHEWS,0.0,0.879,0.293,0.293,0.0,0.0,0.0,0.0
6.46,2.26,35.74046,-78.78127,24658.00,6022.70,WAKEMED, CARY HOSPITAL,0.0,0.283,0.99,0.707,0.0,0.0,0.0,0.0
3.58,2.26,35.40634,-80.86005,11901.92,6025.31,PRESBYTERIAN HOSPITAL HUNTERSVILLE,0.0,0.52,0.26,0.26,0.0,0.0,0.78,0.26
4.42,2.25,35.52586,-82.94351,15610.73,5995.20,MEDWEST HAYWOOD,0.0,0.0,0.394,0.0,0.0,0.0,0.0,0.0
3.18,2.23,46.80739,-100.77773,10141.55,5896.64,ST ALEXIUS MEDICAL CENTER,0.0,0.25,0.25,0.125,0.0,0.0,0.0,0.125
4.18,2.35,48.23258,-101.28843,14579.68,6434.12,TRINITY HOSPITALS,0.0,0.567,0.709,0.425,0.0,0.0,0.0,0.0
3.96,2.46,46.88496,-96.78609,13597.81,6920.44,SANFORD MEDICAL CENTER FARGO,0.0,0.0,0.228,0.571,0.0,0.057,0.057,0.057
