size_charge,size_pay,lat,lon,charge,pay,name
5.80,2.20,36.18082,-94.13644,31120.05,6302.42,NW ARKANSAS HOSPITALS, LLC
4.62,2.15,34.46784,-93.06667,22951.22,5931.04,ST JOSEPHS MERCY HEALTH CENTER INC
2.98,2.06,36.34295,-92.39442,11646.70,5304.22,BAXTER REGIONAL MEDICAL CENTER
2.97,2.13,35.08546,-92.45774,11614.28,5793.50,CONWAY REGIONAL MEDICAL CENTER
3.66,2.13,34.77770,-92.12539,16326.78,5798.72,BAPTIST HEALTH MEDICAL CENTER NORTH LITTLE ROCK
3.54,2.12,35.37445,-94.41868,15487.88,5712.88,SPARKS REGIONAL MEDICAL CENTER
4.55,2.07,35.35395,-94.35262,22493.16,5395.36,ST EDWARD MERCY MEDICAL CENTER
3.37,2.14,34.57290,-92.58508,14324.47,5832.84,SALINE MEMORIAL HOSPITAL
4.35,2.18,34.74866,-92.35422,21074.87,6155.90,BAPTIST HEALTH MEDICAL CENTER-LITTLE ROCK
4.18,2.22,35.80838,-90.66658,19919.06,6424.18,NEA BAPTIST MEMORIAL HOSPITAL
5.04,2.40,35.76927,-91.63408,25873.86,7645.43,WHITE RIVER MEDICAL CENTER
6.11,2.38,40.78366,-124.14246,33213.00,7504.00,ST JOSEPH HOSPITAL
8.37,2.44,37.59283,-122.38249,48813.47,7912.79,PENINSULA MEDICAL CENTER
10.78,2.53,38.32472,-122.29671,65450.67,8573.07,QUEEN OF THE VALLEY MEDICAL CENTER
4.99,2.91,32.75426,-117.16592,25545.32,11190.32,UNIVERSITY OF CALIFORNIA SAN DIEGO MEDICAL CENTER
7.83,2.54,32.77495,-117.01467,45112.09,8642.03,GROSSMONT HOSPITAL
7.58,2.35,39.74221,-121.85000,43398.54,7326.46,ENLOE MEDICAL CENTER
11.00,2.88,37.82206,-122.26275,66981.94,10996.78,ALTA BATES SUMMIT MEDICAL CENTER
8.71,2.98,37.79100,-122.43125,51170.55,11642.15,CALIFORNIA PACIFIC MEDICAL CTR-PACIFIC CAMPUS HOSP
4.29,2.57,34.67486,-118.15771,20712.91,8802.23,ANTELOPE VALLEY HOSPITAL MED CENTER
7.05,2.54,36.32737,-119.29548,39703.70,8624.40,KAWEAH DELTA MEDICAL CENTER
6.96,2.78,36.73000,-119.78000,39125.44,10290.88,COMMUNITY REGIONAL MEDICAL CENTER
6.02,2.39,33.78036,-117.86495,32604.43,7581.29,ST JOSEPH HOSPITAL
11.03,2.61,37.96987,-121.28873,67161.20,9071.30,ST JOSEPHS MED CENTER OF STOCKTON
5.59,2.64,38.28820,-122.46533,29646.64,9334.45,SONOMA VALLEY HOSPITAL
6.84,2.41,36.83532,-119.76562,38278.37,7723.11,SAINT AGNES MEDICAL CENTER
6.33,2.29,34.10130,-117.63651,34771.18,6902.09,SAN ANTONIO COMMUNITY HOSPITAL
7.68,2.47,32.79949,-117.15394,44100.20,8140.05,SHARP MEMORIAL HOSPITAL
7.77,2.62,38.57155,-121.46874,44671.14,9196.36,SUTTER GENERAL HOSPITAL
8.92,2.55,34.02685,-118.48651,52658.00,8653.29,SANTA MONICA - UCLA MED CTR & ORTHOPAEDIC HOSPITAL
6.63,2.30,33.12535,-117.07336,36804.73,6987.64,PALOMAR MEDICAL CENTER
10.68,2.55,34.22014,-118.53410,64786.14,8699.64,NORTHRIDGE HOSPITAL MEDICAL CENTER
5.10,2.50,33.18402,-117.29661,26257.67,8361.00,TRI-CITY MEDICAL CENTER
9.32,2.57,38.25455,-122.63177,55401.83,8810.83,PETALUMA VALLEY HOSPITAL
8.18,2.64,36.57886,-121.91316,47504.42,9331.06,COMMUNITY HOSPITAL OF THE MONTEREY PENINSULA
5.76,2.34,39.22809,-121.04721,30854.33,7221.58,SIERRA NEVADA MEMORIAL HOSPITAL
6.46,2.32,33.89465,-117.92716,35693.25,7085.83,ST JUDE MEDICAL CENTER
9.42,2.62,38.44369,-122.70138,56090.60,9136.45,SANTA ROSA MEMORIAL HOSPITAL
9.27,2.46,37.51164,-120.83800,55022.58,8062.50,EMANUEL MEDICAL CENTER INC
13.03,2.60,37.91341,-122.04163,80959.69,9040.50,JOHN MUIR MEDICAL CENTER - WALNUT CREEK CAMPUS
12.53,2.78,37.55717,-121.98126,77522.85,10280.85,WASHINGTON HOSPITAL
4.87,2.33,33.62229,-117.92995,24705.79,7179.31,HOAG MEMORIAL HOSPITAL PRESBYTERIAN
14.36,2.34,39.75720,-121.57018,90143.83,7209.25,FEATHER RIVER HOSPITAL
6.81,2.47,34.13973,-118.03534,38075.50,8149.07,METHODIST HOSPITAL OF SOUTHERN CA
8.81,3.52,37.75676,-122.40461,51880.45,15400.18,SAN FRANCISCO GENERAL HOSPITAL
9.76,2.65,36.98999,-121.98357,58440.45,9371.73,DOMINICAN HOSPITAL
12.28,2.49,33.83862,-116.54557,75835.15,8248.65,DESERT REGIONAL MEDICAL CENTER
6.79,2.55,40.58654,-122.39168,37927.95,8666.95,MERCY MEDICAL CENTER REDDING
7.50,2.46,34.50107,-117.17285,42821.33,8074.08,ST MARY MEDICAL CENTER
5.36,2.47,39.15350,-123.20435,28058.33,8110.67,UKIAH VALLEY MEDICAL CENTER/HOSPITAL D
9.18,2.53,37.36934,-122.08047,54418.85,8537.50,EL CAMINO HOSPITAL
6.33,2.47,38.76514,-121.24979,34751.57,8106.04,SUTTER ROSEVILLE MEDICAL CENTER
7.91,2.63,32.88461,-117.22244,45648.53,9251.60,SCRIPPS MEMORIAL HOSPITAL LA JOLLA
16.07,2.41,38.12186,-121.28665,101957.58,7687.58,LODI MEMORIAL HOSPITAL
6.96,2.28,33.81131,-118.34364,39077.74,6819.58,TORRANCE MEMORIAL MEDICAL CENTER
6.74,2.34,33.83891,-118.35677,37575.83,7215.58,PROVIDENCE LITTLE COMPANY OF MARY MED CTR TORRANCE
11.81,2.72,37.94748,-122.53677,72544.45,9858.60,MARIN GENERAL HOSPITAL
20.00,2.94,38.26174,-122.04662,129078.14,11375.14,NORTHBAY MEDICAL CENTER
8.94,2.35,34.27459,-119.25812,52797.79,7272.71,COMMUNITY MEMORIAL HOSPITAL SAN BUENAVENTURA
5.96,2.42,34.42951,-119.72333,32225.66,7818.06,SANTA BARBARA COTTAGE HOSPITAL
4.20,2.36,32.89810,-117.24217,20074.38,7366.06,SCRIPPS GREEN HOSPITAL
8.59,2.47,34.13364,-118.15275,50377.12,8108.56,HUNTINGTON MEMORIAL HOSPITAL
12.91,3.26,37.43436,-122.18013,80135.42,13599.65,STANFORD HOSPITAL
7.56,2.62,37.34027,-120.46817,43263.83,9190.50,MERCY MEDICAL CENTER
5.93,2.61,35.64086,-117.67119,31973.25,9084.00,RIDGECREST REGIONAL HOSPITAL
8.09,3.27,37.76421,-122.45716,46881.22,13660.00,UCSF MEDICAL CENTER
16.49,2.65,37.66540,-120.99743,104853.17,9395.92,DOCTORS MEDICAL CENTER
16.56,2.71,34.20285,-118.62962,105335.82,9806.82,WEST HILLS HOSPITAL & MEDICAL CENTER
7.27,2.60,33.80861,-118.18661,41280.86,8997.79,LONG BEACH MEMORIAL MEDICAL CENTER
14.34,2.58,37.98396,-122.03464,90027.27,8903.00,JOHN MUIR MEDICAL CENTER - CONCORD CAMPUS
5.92,2.36,38.94514,-121.10174,31918.83,7405.08,SUTTER AUBURN FAITH HOSPITAL
7.31,2.41,33.03634,-117.28487,41554.87,7752.22,SCRIPPS MEMORIAL HOSPITAL - ENCINITAS
7.34,2.77,38.66956,-121.31378,41737.75,10176.25,MERCY SAN JUAN MEDICAL CENTER
8.65,2.46,34.20777,-118.88305,50794.67,8078.13,LOS ROBLES HOSPITAL & MEDICAL CENTER
8.95,2.42,37.66867,-120.97339,52842.33,7814.94,MEMORIAL  MEDICAL CENTER
10.09,2.54,33.56100,-117.66530,60677.76,8628.00,MISSION HOSPITAL REGIONAL MED CENTER
11.53,2.29,33.76335,-116.40628,70636.86,6920.67,EISENHOWER MEDICAL CENTER
9.25,3.07,38.55484,-121.45628,54896.63,12303.63,UNIVERSITY OF CALIFORNIA DAVIS MEDICAL CENTER
8.62,2.28,33.60883,-117.70881,50553.69,6810.31,SADDLEBACK MEMORIAL MEDICAL CENTER
8.05,2.52,34.24359,-119.01992,46629.07,8453.29,ST JOHNS PLEASANT VALLEY HOSPITAL
13.87,2.78,34.07664,-118.37955,86806.14,10301.61,CEDARS-SINAI MEDICAL CENTER
10.90,2.72,35.55536,-120.72067,66322.64,9845.64,TWIN CITIES COMMUNITY HOSPITAL
5.45,2.39,33.55876,-117.18329,28665.36,7588.64,SOUTHWEST HEALTHCARE SYSTEM
13.16,2.51,34.17067,-118.53200,81861.50,8412.21,PROVIDENCE TARZANA MEDICAL CENTER
4.58,2.32,40.41481,-104.70890,22671.43,7077.33,NORTH COLORADO MEDICAL CENTER
5.62,2.21,40.18134,-105.12769,29887.67,6366.00,LONGMONT UNITED HOSPITAL
3.18,2.23,38.48040,-107.86857,13054.44,6493.50,MONTROSE MEMORIAL HOSPITAL
3.35,2.35,37.47150,-105.88350,14209.42,7305.00,SAN LUIS VALLEY REGIONAL MEDICAL CENTER
4.92,2.21,39.76893,-105.09006,25034.62,6370.67,EXEMPLA LUTHERAN MEDICAL CENTER
4.59,2.25,40.57315,-105.05741,22778.30,6606.48,POUDRE VALLEY HOSPITAL
6.97,2.27,38.23421,-104.62292,39197.12,6754.88,CENTURA HEALTH-ST MARY CORWIN MEDICAL CENTER
4.77,2.44,37.23629,-107.82578,23987.00,7957.06,MERCY REGIONAL MEDICAL CENTER
4.71,2.37,38.45565,-105.23021,23620.83,7429.08,CENTURA HEALTH-ST THOMAS MORE HOSPITAL
5.44,2.24,38.28184,-104.61256,28591.60,6549.17,PARKVIEW MEDICAL CENTER INC
4.85,2.24,38.83903,-104.80024,24567.53,6526.22,MEMORIAL HOSPITAL CENTRAL
4.73,2.30,39.09046,-108.56190,23736.04,6995.38,ST MARYS HOSPITAL AND MEDICAL CENTER
4.99,2.75,39.74234,-104.84156,25496.77,10069.21,UNIVERSITY OF COLORADO HOSPITAL ANSCHUTZ INPATIENT
6.16,2.16,40.02615,-105.28391,33566.55,6017.52,BOULDER COMMUNITY HOSPITAL
3.49,2.15,40.41320,-105.05139,15146.00,5938.69,MCKEE MEDICAL CENTER
4.94,2.16,38.86559,-104.82182,25197.77,6024.95,CENTURA HEALTH-PENROSE ST FRANCIS HEALTH SERVICES
6.21,2.31,39.73231,-104.93396,33931.44,7057.76,ROSE MEDICAL CENTER
5.80,2.29,39.65399,-104.98116,31124.63,6862.07,SWEDISH MEDICAL CENTER
7.14,2.32,39.67005,-104.97490,40326.46,7098.08,CENTURA HEALTH-PORTER ADVENTIST HOSPITAL
3.43,2.19,38.74540,-108.04700,14768.68,6181.68,DELTA COUNTY MEMORIAL HOSPITAL
6.34,2.40,39.68859,-104.83205,34868.03,7623.34,MEDICAL CENTER OF AURORA, THE
6.13,2.30,39.84960,-105.01825,33410.57,6948.93,CENTURA HEALTH-ST ANTHONY NORTH HOSPITAL
5.87,2.17,39.52910,-104.87121,31581.10,6036.60,SKY RIDGE MEDICAL CENTER
5.92,2.30,39.57629,-104.98610,31959.48,6979.32,CENTURA HEALTH-LITTLETON ADVENTIST HOSPITAL
6.47,2.56,41.30978,-72.93806,35755.60,8783.32,HOSPITAL OF ST RAPHAEL
5.70,2.58,41.77507,-72.69941,30450.94,8883.62,ST FRANCIS HOSPITAL & MEDICAL CENTER
5.74,2.46,41.55959,-73.05941,30703.09,8052.45,WATERBURY HOSPITAL
5.41,2.50,41.05562,-73.55390,28401.45,8360.73,STAMFORD HOSPITAL
2.80,2.33,41.79153,-73.13382,10440.60,7187.07,CHARLOTTE HUNGERFORD HOSPITAL
3.26,2.67,41.55241,-73.03554,13596.92,9500.77,SAINT MARYS HOSPITAL
4.73,2.32,41.54874,-72.80148,23747.00,7121.20,MIDSTATE MEDICAL CENTER
5.44,2.35,41.03431,-73.63020,28647.00,7337.50,GREENWICH HOSPITAL ASSOCIATION
5.04,2.35,41.55473,-72.64872,25885.67,7339.74,MIDDLESEX HOSPITAL
3.59,2.60,41.71622,-72.22399,15852.96,9012.92,WINDHAM COMM MEM HOSP & HATCH HOSP
5.80,2.84,41.30400,-72.93502,31083.21,10672.17,YALE-NEW HAVEN HOSPITAL
4.32,2.39,41.54301,-72.08799,20886.08,7601.85,WILLIAM W BACKUS HOSPITAL
5.02,2.72,41.75412,-72.67927,25729.59,9863.03,HARTFORD HOSPITAL
4.22,2.31,41.78185,-72.52591,20229.50,7018.00,MANCHESTER MEMORIAL HOSPITAL
4.87,2.50,41.20049,-73.20281,24691.33,8336.83,ST VINCENT'S MEDICAL CENTER
4.14,2.61,41.40474,-73.44739,19635.95,9104.29,DANBURY HOSPITAL
5.63,2.62,41.11147,-73.42010,29950.87,9161.32,NORWALK HOSPITAL ASSOCIATION
5.48,2.54,41.66107,-72.78671,28899.69,8605.14,HOSPITAL OF CENTRAL CONNECTICUT, THE
4.16,2.47,39.69005,-75.68408,19823.75,8132.84,CHRISTIANA CARE HEALTH SERVICES, INC.
3.75,2.39,39.15135,-75.52309,16952.37,7566.00,BAYHEALTH - KENT GENERAL HOSPITAL
4.59,2.28,38.77159,-75.14210,22753.69,6837.75,BEEBE MEDICAL CENTER
5.73,2.63,38.90106,-77.05079,30657.34,9216.31,GEORGE WASHINGTON UNIV HOSPITAL
6.38,3.28,38.91770,-77.02193,35086.64,13713.18,HOWARD UNIVERSITY HOSPITAL
5.12,2.79,38.91221,-77.07588,26397.42,10342.89,GEORGETOWN UNIVERSITY HOSPITAL
4.02,2.17,38.93576,-77.10909,18835.81,6069.67,SIBLEY MEMORIAL HOSPITAL
4.68,2.60,38.94397,-76.99040,23401.36,9060.86,PROVIDENCE HOSPITAL
5.56,2.69,38.92944,-77.01473,29478.41,9640.32,WASHINGTON HOSPITAL CENTER
6.12,2.73,30.34913,-81.66391,33345.47,9934.32,SHANDS JACKSONVILLE MEDICAL CENTER
6.05,2.27,26.50479,-80.06979,32851.87,6786.13,BETHESDA MEMORIAL HOSPITAL
7.36,2.32,28.52517,-81.37729,41882.53,7106.31,ORLANDO HEALTH
6.54,2.39,28.57345,-81.36990,36185.90,7559.21,FLORIDA HOSPITAL
8.73,2.39,25.68309,-80.34038,51307.83,7587.62,BAPTIST HOSPITAL OF MIAMI INC
7.28,2.44,25.78846,-80.21644,41345.58,7932.75,UNIVERSITY OF MIAMI HOSPITAL
4.90,2.21,26.62849,-81.87423,24912.68,6309.40,LEE MEMORIAL HOSPITAL
3.98,2.07,29.01347,-80.94096,18575.25,5379.33,BERT FISH MEDICAL CENTER
4.39,2.23,29.20117,-81.05828,21394.52,6507.36,HALIFAX HEALTH MEDICAL CENTER
4.61,2.23,26.15053,-81.79919,22921.55,6464.43,NAPLES COMMUNITY HOSPITAL
4.91,2.18,28.08771,-80.61362,24935.90,6111.36,HOLMES REGIONAL MEDICAL CENTER
4.70,2.12,28.83363,-82.33561,23519.22,5740.83,CITRUS MEMORIAL HOSPITAL
4.02,2.48,30.47650,-87.21219,18839.69,8178.50,SACRED HEART HOSPITAL
9.30,2.44,25.86166,-80.21398,55251.73,7917.13,NORTH SHORE MEDICAL CENTER
6.31,2.38,27.76332,-82.64325,34608.41,7509.18,BAYFRONT MEDICAL CENTER INC
9.16,2.49,25.81317,-80.13996,54271.44,8254.56,MOUNT SINAI MEDICAL CENTER
5.21,2.23,27.49789,-82.56220,27039.33,6491.53,MANATEE MEMORIAL HOSPITAL
8.61,2.36,26.01867,-80.17981,50528.29,7352.06,MEMORIAL REGIONAL HOSPITAL
4.97,2.17,30.30835,-81.68919,25403.16,6069.96,ST VINCENT'S MEDICAL CENTER
5.58,2.16,27.19837,-80.24306,29622.52,5963.48,MARTIN MEMORIAL MEDICAL CENTER
6.11,2.14,28.26092,-82.18802,33273.58,5831.75,FLORIDA HOSPITAL ZEPHYRHILLS
6.20,2.16,26.94042,-82.04094,33870.41,5984.00,CHARLOTTE REGIONAL MEDICAL CENTER
7.50,2.23,28.55140,-81.72120,42833.58,6459.68,SOUTH LAKE HOSPITAL
5.48,2.24,28.02768,-81.72466,28903.48,6536.74,WINTER HAVEN HOSPITAL
5.05,2.29,28.82358,-81.71133,25950.38,6900.88,FLORIDA HOSPITAL WATERMAN
4.94,2.12,29.17594,-82.13898,25177.19,5711.85,MUNROE REGIONAL MEDICAL CENTER
4.66,2.06,27.78088,-82.65126,23246.08,5317.62,ST ANTHONY'S HOSPITAL
3.75,2.13,29.24333,-81.10760,16944.67,5821.00,FLORIDA HOSPITAL MEMORIAL MEDICAL CENTER
4.89,2.10,27.09043,-82.44499,24812.70,5605.93,VENICE REGIONAL MEDICAL CENTER
8.79,2.22,28.53906,-82.44193,51747.61,6408.33,BROOKSVILLE REGIONAL HOSPITAL
5.92,2.26,26.18711,-80.11941,31932.27,6683.73,HOLY CROSS HOSPITAL INC
5.59,2.29,27.98242,-82.49025,29666.14,6868.92,ST JOSEPH'S HOSPITAL
6.05,2.19,26.98905,-82.09559,32804.92,6196.42,PEACE RIVER REGIONAL MEDICAL CENTER
8.37,2.27,26.59805,-80.09271,48831.78,6719.86,JFK MEDICAL CENTER
4.44,2.19,28.80659,-81.86906,21718.57,6183.52,LEESBURG REGIONAL MEDICAL CENTER
4.46,2.21,27.31827,-82.53140,21838.85,6311.94,SARASOTA MEMORIAL HOSPITAL
6.03,2.24,30.31525,-81.66398,32690.59,6514.16,BAPTIST MEDICAL CENTER
6.10,2.47,29.86371,-81.31749,33182.50,8101.54,FLAGLER HOSPITAL
4.63,2.16,28.33522,-80.72319,23012.07,5981.00,WUESTHOFF MEDICAL CENTER  ROCKLEDGE
5.01,2.17,30.43066,-87.23191,25675.67,6054.58,BAPTIST HOSPITAL
3.71,2.21,27.65832,-80.39307,16709.70,6340.38,INDIAN RIVER MEDICAL CENTER
6.09,2.38,27.50001,-81.43962,33092.75,7484.05,FLORIDA HOSPITAL HEARTLAND MEDICAL CENTER
8.72,2.27,28.29946,-81.41021,51279.50,6756.20,OSCEOLA REGIONAL MEDICAL CENTER
5.02,2.83,29.64155,-82.34844,25734.07,10644.37,SHANDS HOSPITAL AT THE UNIVERSITY OF FLORIDA
5.16,2.10,30.27449,-81.40071,26660.72,5552.72,BAPTIST MEDICAL CENTER  BEACHES
8.66,2.48,25.47971,-80.43038,50811.69,8177.77,HOMESTEAD HOSPITAL
4.42,2.12,27.95192,-82.80379,21565.97,5722.55,MORTON PLANT HOSPITAL
8.15,2.60,27.93740,-82.45927,47345.89,9012.50,TAMPA GENERAL HOSPITAL
8.11,2.23,25.96994,-80.14533,47070.15,6475.23,AVENTURA HOSPITAL AND MEDICAL CENTER
5.70,2.20,28.01563,-82.13900,30428.31,6268.15,SOUTH FLORIDA BAPTIST HOSPITAL
5.61,2.27,30.45726,-84.26175,29811.54,6733.50,TALLAHASSEE MEMORIAL HEALTHCARE
5.06,2.15,30.65118,-81.44923,25980.80,5895.40,BAPTIST MEDICAL CENTER - NASSAU
3.27,2.43,30.26389,-81.44283,13675.00,7840.25,MAYO CLINIC
7.33,2.23,25.70328,-80.29391,41674.40,6489.33,SOUTH MIAMI HOSPITAL, INC
5.14,2.35,30.18340,-82.68783,26557.09,7303.00,LAKE CITY MEDICAL CENTER
5.11,2.16,28.06172,-81.95304,26356.43,6024.43,LAKELAND REGIONAL MEDICAL CENTER
4.87,2.16,26.35875,-80.10203,24725.62,5978.38,BOCA RATON REGIONAL HOSPITAL
7.25,2.84,28.07111,-82.42342,41115.40,10682.67,FLORIDA HOSPITAL TAMPA
6.71,2.18,26.83035,-80.08655,37381.13,6104.60,PALM BEACH GARDENS MEDICAL CENTER
8.31,2.28,30.28793,-81.60103,48409.64,6848.45,MEMORIAL HOSPITAL JACKSONVILLE
9.18,2.14,28.19342,-82.46987,54413.08,5846.33,MEDICAL CENTER OF TRINITY
8.87,2.20,29.66085,-82.41172,52258.74,6261.52,NORTH FLORIDA REGIONAL MEDICAL CENTER
7.10,2.14,29.17550,-82.13680,40056.21,5873.17,OCALA REGIONAL MEDICAL CENTER
6.63,2.12,27.48213,-82.62126,36851.94,5685.26,BLAKE MEDICAL CENTER
5.49,2.25,26.52735,-81.83337,28962.85,6608.21,GULF COAST MEDICAL CENTER LEE MEM HEALTH SYSTEM
8.85,2.23,30.45448,-86.63362,52161.39,6487.78,FORT WALTON BEACH MEDICAL CENTER
9.32,2.16,30.16550,-81.73775,55369.17,5965.78,ORANGE PARK MEDICAL CENTER
6.57,2.16,30.51624,-87.21856,36437.25,5990.46,WEST FLORIDA HOSPITAL
4.80,2.89,29.64481,-81.69431,24228.18,11036.64,PUTNAM COMMUNITY MEDICAL CENTER
8.60,2.09,26.98884,-82.09877,50460.24,5506.47,FAWCETT MEMORIAL HOSPITAL
9.80,2.26,27.93259,-82.28759,58700.39,6676.78,BRANDON REGIONAL HOSPITAL
4.38,2.11,26.63958,-81.94164,21318.25,5674.56,CAPE CORAL HOSPITAL
8.21,2.16,27.91458,-82.80382,47735.47,5987.13,LARGO MEDICAL CENTER
6.61,2.16,26.92138,-80.09708,36730.77,5973.64,JUPITER MEDICAL CENTER
9.25,2.09,28.36128,-82.68883,54943.94,5520.69,REGIONAL MEDICAL CENTER BAYONET POINT
6.58,2.14,26.43709,-80.12728,36508.53,5831.38,DELRAY MEDICAL CENTER
7.51,2.29,27.28861,-80.29431,42887.76,6860.97,ST LUCIE MEDICAL CENTER
9.93,2.10,28.53585,-82.53404,59574.33,5555.79,OAK HILL HOSPITAL
5.04,2.10,28.03957,-82.70875,25853.69,5613.69,MEASE COUNTRYSIDE HOSPITAL
5.84,2.23,26.35614,-80.19956,31382.77,6461.23,WEST BOCA MEDICAL CENTER
5.76,2.32,26.65230,-80.20504,30806.31,7131.62,WELLINGTON REGIONAL MEDICAL CENTER
6.64,2.09,26.01394,-80.30980,36892.07,5518.67,MEMORIAL HOSPITAL WEST
6.65,2.11,26.21388,-81.73257,36969.94,5679.39,PHYSICIANS REGIONAL MEDICAL CENTER - PINE RIDGE
6.36,2.27,26.70181,-80.05055,34998.85,6745.20,GOOD SAMARITAN MEDICAL CENTER
4.35,2.11,28.94952,-81.95843,21129.57,5651.41,VILLAGES REGIONAL HOSPITAL, THE
4.59,2.08,27.38993,-82.43343,22752.09,5429.55,LAKEWOOD RANCH MEDICAL CENTER
4.50,2.21,34.78963,-84.98398,22163.72,6348.28,HAMILTON MEDICAL CENTER
3.61,2.24,32.88710,-84.33393,15972.00,6575.25,UPSON REGIONAL MEDICAL CENTER
4.36,2.12,31.22516,-82.34898,21151.86,5687.71,SATILLA REGIONAL MEDICAL CENTER
5.52,2.25,34.17863,-84.13992,29176.19,6596.38,NORTHSIDE HOSPITAL FORSYTH
4.47,2.30,31.59023,-84.15756,21905.83,6961.42,PHOEBE PUTNEY MEMORIAL HOSPITAL
3.75,2.40,33.79230,-84.32107,16979.94,7622.03,EMORY UNIVERSITY HOSPITAL
4.07,2.20,33.56970,-85.07276,19172.06,6279.25,TANNER MEDICAL CENTER - CARROLLTON
3.62,2.22,33.03204,-85.05781,16065.89,6409.83,WEST GEORGIA MEDICAL CENTER
4.26,2.26,32.02825,-81.09977,20455.71,6686.53,CANDLER HOSPITAL
5.24,2.51,31.17425,-81.48459,27233.31,8386.14,SOUTHEAST GEORGIA HEALTH SYSTEM- BRUNSWICK CAMPUS
4.42,2.22,33.47096,-81.98176,21576.62,6416.33,UNIVERSITY HOSPITAL
5.50,2.23,34.30335,-83.81737,29025.94,6492.23,NORTHEAST GEORGIA MEDICAL CENTER, INC
5.94,2.21,33.23886,-84.26706,32104.64,6365.27,SPALDING REGIONAL MEDICAL CENTER
4.93,2.16,34.59332,-83.34788,25097.00,5968.38,STEPHENS COUNTY HOSPITAL
3.76,2.73,33.47091,-81.98988,17013.92,9918.83,MEDICAL COLLEGE OF GA HOSPITALS AND CLINICS
4.94,2.21,33.96770,-84.55011,25195.51,6341.61,WELLSTAR KENNESTONE HOSPITAL
3.94,2.39,32.03185,-81.09158,18274.81,7557.19,MEMORIAL HEALTH UNIV MED CEN, INC
4.24,2.16,30.82614,-83.97393,20350.54,5966.92,JOHN D ARCHBOLD MEMORIAL HOSPITAL
4.88,2.11,31.98515,-81.15475,24783.08,5666.42,ST JOSEPH'S HOSPITAL - SAVANNAH
3.10,2.17,34.88620,-83.96241,12504.73,6065.64,UNION GENERAL HOSPITAL
5.60,2.38,34.26000,-85.17000,29725.00,7543.93,FLOYD MEDICAL CENTER
4.02,2.44,32.46602,-84.98695,18823.09,7935.00,MEDICAL CENTER, THE
4.48,2.18,32.61642,-83.63065,21967.94,6164.00,HOUSTON MEDICAL CENTER
4.38,2.25,33.96117,-83.39832,21324.89,6618.50,ATHENS REGIONAL MEDICAL CENTER
3.97,2.33,33.78956,-84.28077,18510.56,7184.56,DEKALB MEDICAL CENTER
4.43,2.35,33.76810,-84.38616,21625.96,7307.78,EMORY UNIVERSITY HOSPITAL MIDTOWN
4.57,2.71,33.75205,-84.38272,22601.89,9777.84,GRADY MEMORIAL HOSPITAL
4.21,2.12,33.90877,-84.35180,20115.75,5747.67,SAINT JOSEPH'S HOSPITAL OF ATLANTA, INC
4.45,2.15,33.81003,-84.39568,21787.05,5909.05,PIEDMONT HOSPITAL
4.22,2.25,33.96351,-84.01769,20220.49,6621.57,GWINNETT MEDICAL CENTER
4.94,2.35,33.68072,-84.00200,25175.83,7298.61,ROCKDALE MEDICAL CENTER
5.24,2.23,31.47069,-83.50473,27230.08,6448.00,TIFT REGIONAL MEDICAL CENTER
3.41,2.11,31.97683,-83.78280,14588.56,5624.31,CRISP REGIONAL HOSPITAL
5.50,2.34,32.83041,-83.63476,29025.12,7251.35,MEDICAL CENTER OF CENTRAL GEORGIA
4.59,2.21,30.86250,-83.28630,22760.31,6314.62,SOUTH GEORGIA MEDICAL CENTER
5.17,2.34,32.54026,-82.95741,26787.20,7261.60,FAIRVIEW PARK HOSPITAL
3.40,2.15,32.50679,-84.95933,14564.53,5952.73,ST FRANCIS HOSPITAL, INC
5.07,2.39,33.85638,-84.60446,26076.39,7573.04,WELLSTAR COBB HOSPITAL
5.93,2.24,33.08014,-83.23210,32028.09,6571.00,OCONEE REGIONAL MEDICAL CENTER
5.20,2.22,32.84705,-83.61823,26970.41,6414.73,COLISEUM MEDICAL CENTER
5.48,2.35,33.57843,-84.38897,28875.65,7327.95,SOUTHERN REGIONAL MEDICAL CENTER
5.17,2.22,34.25704,-85.16467,26727.76,6389.82,REDMOND REGIONAL MEDICAL CENTER
3.79,2.23,33.51144,-84.22200,17236.18,6464.18,HENRY MEDICAL CENTER, INC
10.67,2.29,34.06334,-84.31976,64698.88,6893.41,NORTH FULTON REGIONAL HOSPITAL
5.05,2.15,32.86625,-83.69421,25908.62,5934.85,COLISEUM NORTHSIDE HOSPITAL
4.84,2.16,33.45252,-84.50697,24497.60,6016.60,PIEDMONT FAYETTE HOSPITAL
11.76,2.45,33.68000,-84.42685,72249.33,8011.00,SOUTH FULTON MEDICAL CENTER
4.04,2.89,21.30780,-157.85505,18937.62,11030.92,THE QUEENS MEDICAL CENTER
3.14,2.17,42.59072,-114.49627,12768.81,6080.00,ST LUKES MAGIC VALLEY RMC
3.35,2.22,43.61218,-116.19234,14216.33,6435.00,ST LUKES REGIONAL MEDICAL CENTER
3.50,2.16,43.61359,-116.25484,15262.00,6000.53,ST ALPHONSUS REGIONAL MEDICAL CENTER
3.86,2.21,43.65510,-116.69360,17715.45,6358.45,WEST VALLEY MEDICAL CENTER
3.82,2.22,43.46987,-111.99208,17416.07,6397.07,EASTERN IDAHO REGIONAL MEDICAL CENTER
3.36,2.50,42.87331,-112.42180,14246.71,8361.14,PORTNEUF MEDICAL CENTER
3.33,2.25,47.69645,-116.79476,14036.06,6602.75,KOOTENAI MEDICAL CENTER
7.42,2.25,41.52896,-88.13550,42301.67,6643.83,PROVENA ST JOSEPH MEDICAL CENTER
4.83,2.46,42.06550,-87.68428,24394.16,8049.51,EVANSTON HOSPITAL
3.78,2.16,37.80207,-89.02660,17178.45,5984.00,HERRIN HOSPITAL
5.18,2.37,39.93563,-91.39833,26843.44,7432.06,BLESSING HOSPITAL
5.75,2.87,41.86011,-87.69571,30755.83,10902.42,MT SINAI HOSPITAL MEDICAL CENTER
7.25,2.28,41.72930,-88.26976,41138.15,6797.77,COPLEY MEMORIAL HOSPITAL
6.53,2.35,42.07012,-88.33180,36135.22,7308.74,SHERMAN HOSPITAL
3.33,2.11,39.12680,-88.55059,14079.25,5679.55,ST ANTHONYS MEMORIAL HOSPITAL
5.94,2.19,41.80160,-89.69714,32079.69,6209.23,CGH MEDICAL CENTER
3.78,2.11,38.32292,-88.91026,17139.46,5667.23,GOOD SAMARITAN REGIONAL HLTH CENTER
4.85,2.32,41.72636,-87.56727,24570.18,7091.91,ADVOCATE TRINITY HOSPITAL
5.09,2.50,41.89141,-87.77618,26234.54,8321.38,WEST SUBURBAN MEDICAL CENTER
6.18,2.43,42.05624,-87.74012,33716.67,7868.40,SKOKIE HOSPITAL
3.95,2.27,39.80726,-89.64496,18348.72,6769.75,ST JOHNS HOSPITAL
5.10,2.41,41.83195,-87.79266,26307.12,7701.62,MACNEAL  HOSPITAL
6.23,2.24,41.66900,-87.81414,34058.09,6565.57,PALOS COMMUNITY HOSPITAL
5.26,2.45,40.98818,-90.36374,27380.64,8012.21,ST MARY MEDICAL CENTER
5.46,2.30,41.79660,-87.88627,28783.04,6990.38,ADVENTIST LA GRANGE MEMORIAL HOSPITAL
5.69,2.48,40.70200,-89.59222,30373.25,8236.11,SAINT FRANCIS MEDICAL CENTER
6.31,2.55,42.02578,-87.68371,34661.00,8660.42,RHC ST FRANCIS HOSPITAL
7.94,2.33,42.37840,-87.83329,45866.50,7193.17,VISTA MEDICAL CENTER EAST
5.74,2.93,41.78829,-87.60485,30671.41,11281.45,THE UNIVERSITY OF CHICAGO MEDICAL CENTER
6.71,2.59,40.11696,-88.21506,37371.03,8939.97,CARLE FOUNDATION HOSPITAL
6.74,2.18,40.13811,-87.64569,37582.00,6166.91,PROVENA UNITED SAMARITANS MEDCTR-LOGAN
5.70,2.42,41.36897,-88.42537,30410.94,7798.94,MORRIS HOSPITAL & HEALTHCARE CENTERS
4.97,2.26,40.11739,-88.22714,25364.90,6653.67,PROVENA COVENANT MEDICAL CENTER- URBANA
7.37,2.51,41.97532,-87.69958,41960.73,8399.87,SWEDISH COVENANT HOSPITAL
6.22,2.17,42.31832,-88.27920,33993.24,6093.82,CENTEGRA HEALTH SYSTEM - MC HENRY HOSPITAL
6.03,2.39,41.98743,-87.81440,32672.05,7565.05,RESURRECTION MEDICAL CENTER
5.13,2.52,41.65880,-87.67729,26495.82,8497.41,METROSOUTH MEDICAL CENTER
5.77,2.78,41.87497,-87.66927,30922.28,10267.36,RUSH UNIVERSITY MEDICAL CENTER
5.49,2.15,40.56211,-89.63314,28951.79,5914.21,PEKIN MEMORIAL HOSPITAL
5.41,2.26,41.80555,-87.92059,28405.29,6672.71,HINSDALE HOSPITAL
3.81,3.05,41.87381,-87.67421,17359.20,12167.47,JOHN H STROGER JR HOSPITAL
4.08,2.24,40.49639,-88.99106,19274.58,6527.67,BROMENN HEALTHCARE
5.29,2.17,42.25244,-87.86528,27609.06,6060.38,LAKE FOREST HOSPITAL
5.00,2.50,41.76946,-87.69239,25613.54,8325.62,HOLY CROSS HOSPITAL
4.24,2.18,39.86644,-88.96090,20374.47,6163.92,DECATUR MEMORIAL HOSPITAL
3.99,2.29,39.80893,-89.65530,18625.95,6925.57,MEMORIAL MEDICAL CENTER
5.08,3.08,41.86927,-87.67052,26119.25,12333.58,UNIVERSITY OF ILLINOIS HOSPITAL
3.60,2.71,41.84639,-87.62345,15920.14,9755.90,MERCY HOSPITAL AND MEDICAL CENTER
3.57,2.15,37.72790,-89.22058,15722.31,5898.08,MEMORIAL HOSPITAL OF CARBONDALE
5.64,2.49,41.52283,-87.71111,30023.83,8299.08,FRANCISCAN ST JAMES HEALTH
6.26,2.30,41.78566,-88.32886,34289.56,6936.44,PROVENA MERCY MEDICAL CENTER
5.90,2.36,42.27597,-88.40019,31815.38,7398.69,CENTEGRA HEALTH SYSTEM - WOODSTOCK HOSPITAL
5.74,2.23,41.72094,-87.69220,30728.86,6489.94,LITTLE COMPANY OF MARY HOSPITAL
7.09,2.91,41.90414,-87.68254,39978.47,11153.33,ST MARY & ELIZABETH MED CTR-DIVISION CAMPUS
5.48,2.89,41.93641,-87.65295,28876.05,11006.29,ADVOCATE ILLINOIS MASONIC MEDICAL CENTER
5.34,2.24,38.55020,-90.02146,27904.74,6557.79,MEMORIAL HOSPITAL
5.04,2.33,41.12572,-87.88526,25872.17,7153.10,RIVERSIDE MEDICAL CENTER
3.86,2.16,39.48849,-88.27581,17717.77,6019.50,SARAH BUSH LINCOLN HEALTH CENTER
4.94,2.26,41.60726,-87.66060,25146.44,6687.33,INGALLS MEMORIAL HOSPITAL
6.37,2.18,41.86362,-87.93567,35040.06,6162.21,ELMHURST MEMORIAL HOSPITAL
7.66,2.26,42.27447,-87.95764,43911.42,6718.00,ADVOCATE CONDELL MEDICAL CENTER
5.54,2.56,41.72031,-87.73249,29284.53,8728.97,ADVOCATE CHRIST HOSPITAL & MEDICAL CENTER
5.15,2.29,40.70065,-89.59505,26641.60,6877.68,METHODIST MEDICAL CENTER OF ILLINOIS
6.67,2.19,41.88566,-88.34311,37109.59,6188.18,DELNOR COMMUNITY HOSPITAL
5.15,2.25,41.54446,-87.98379,26616.88,6597.38,SILVER CROSS HOSPITAL  AND MEDICAL CENTERS
5.66,2.58,42.03837,-87.84820,30153.16,8908.32,ADVOCATE LUTHERAN GENERAL HOSPITAL
5.03,2.36,42.26584,-89.07428,25819.79,7345.58,SWEDISH AMERICAN HOSPITAL
5.62,2.25,41.76076,-88.15016,29899.28,6596.16,EDWARD HOSPITAL
4.84,2.13,42.26634,-89.00900,24512.93,5792.86,SAINT ANTHONY MEDICAL CENTER
4.19,2.32,42.29844,-89.09897,19981.18,7129.36,ROCKFORD MEMORIAL HOSPITAL
6.49,2.36,41.87269,-88.15684,35845.98,7380.48,CENTRAL DUPAGE HOSPITAL
4.95,2.56,41.56720,-87.69566,25210.20,8757.15,ADVOCATE SOUTH SUBURBAN HOSPITAL
5.77,2.44,42.06732,-87.99368,30912.64,7919.10,NORTHWEST COMMUNITY HOSPITAL
6.62,2.20,42.00413,-88.01745,36796.91,6294.41,ALEXIAN BROTHERS MEDICAL CENTER
3.61,2.15,41.49581,-90.41871,16001.09,5922.45,GENESIS MEDICAL CENTER ILLINI CAMPUS
3.97,2.68,41.86110,-87.83404,18473.57,9607.53,LOYOLA UNIVERSITY MEDICAL CENTER
3.41,2.14,41.48200,-90.57158,14603.78,5870.22,TRINITY ROCK ISLAND
4.88,2.64,41.89477,-87.62131,24771.35,9315.47,NORTHWESTERN MEMORIAL HOSPITAL
5.93,2.18,41.96185,-88.72130,32014.36,6154.43,KISHWAUKEE COMMUNITY HOSPITAL
3.60,2.10,38.73818,-89.94728,15957.26,5573.00,ANDERSON HOSPITAL
6.41,2.24,42.05260,-88.14173,35347.94,6531.56,ST ALEXIUS MEDICAL CENTER
4.60,2.39,42.19586,-88.17286,22862.00,7563.86,ADVOCATE GOOD SHEPHERD HOSPITAL
4.10,2.35,41.59920,-87.35764,19410.89,7325.21,METHODIST HOSPITALS INC
3.65,2.15,40.42687,-86.88197,16268.20,5926.35,FRANCISCAN ST ELIZABETH HEALTH - LAFAYETTE CENTRAL
3.70,2.14,39.76255,-86.50165,16647.08,5871.12,HENDRICKS REGIONAL HEALTH
5.30,2.34,41.61055,-86.72511,27635.64,7262.45,INDIANA UNIVERSITY HEALTH LA PORTE HOSPITAL
3.34,2.01,40.44665,-86.12707,14158.69,4947.92,HOWARD REGIONAL HEALTH SYSTEM
4.12,2.23,38.28244,-85.74923,19492.29,6511.52,CLARK MEMORIAL HOSPITAL
4.10,2.19,40.56435,-85.66576,19412.26,6167.95,MARION GENERAL HOSPITAL
4.34,2.47,41.70877,-86.17026,21056.53,8119.65,SAINT JOSEPH REGIONAL MEDICAL CENTER
4.72,2.21,41.03874,-85.24876,23659.04,6368.08,LUTHERAN HOSPITAL OF INDIANA
3.68,2.22,41.70568,-85.93404,16468.67,6383.67,ELKHART GENERAL HOSPITAL
4.30,2.23,41.04659,-85.10906,20740.56,6511.92,PARKVIEW REGIONAL MEDICAL CENTER
5.28,2.29,39.48518,-87.40893,27527.10,6892.79,UNION HOSPITAL INC
2.98,2.68,39.78091,-86.17629,11643.55,9559.45,WILLIAM N WISHARD MEMORIAL HOSPITAL
5.20,2.18,41.56352,-85.83039,26990.41,6159.65,IU HEALTH GOSHEN HOSPITAL
4.61,2.16,39.72432,-86.10055,22910.71,6027.82,FRANCISCAN ST FRANCIS HEALTH - BEECH GROVE
4.95,2.22,41.51266,-87.26125,25237.15,6421.69,ST MARY MEDICAL CENTER INC
5.52,2.20,41.46729,-87.05130,29146.46,6265.68,PORTER VALPARAISO HOSPITAL
2.76,2.16,39.79490,-85.76770,10106.82,5980.45,HANCOCK REGIONAL HOSPITAL
3.76,2.11,38.67313,-87.53370,17018.73,5658.18,GOOD SAMARITAN HOSPITAL
4.01,2.11,38.30195,-85.83409,18779.92,5674.92,FLOYD MEMORIAL HOSPITAL AND HEALTH SERVICES
3.35,2.38,39.86405,-84.88413,14223.77,7498.31,REID HOSPITAL & HEALTH CARE SERVICES
3.52,2.21,39.16006,-86.54038,15385.52,6361.38,INDIANA UNIVERSITY HEALTH BLOOMINGTON HOSPITAL
5.84,2.89,39.79009,-86.16260,31406.38,11014.21,INDIANA UNIVERSITY HEALTH
4.61,2.27,41.68479,-86.25217,22931.47,6763.06,MEMORIAL HOSPITAL OF SOUTH BEND
4.01,2.23,40.04526,-86.02297,18741.06,6483.22,RIVERVIEW HOSPITAL
3.24,2.28,38.95542,-85.89223,13479.36,6848.09,SCHNECK MEDICAL CENTER
3.69,2.26,38.73589,-85.37996,16575.09,6706.09,KING'S DAUGHTERS' HOSPITAL AND HEALTH SERVICES,THE
4.44,2.29,39.78704,-86.07673,21705.73,6914.27,COMMUNITY HOSPITAL EAST
4.41,2.15,37.98293,-87.57072,21522.73,5920.73,DEACONESS HOSPITAL INC
4.92,2.36,39.91001,-86.19660,25020.05,7371.70,ST VINCENT HOSPITAL & HEALTH SERVICES
5.01,2.17,40.09594,-85.68152,25634.08,6056.67,SAINT JOHN'S HEALTH SYSTEM
5.86,2.32,40.19679,-85.41573,31506.36,7080.07,INDIANA UNIVERSITY HEALTH BALL MEMORIAL HOSPITAL
3.82,2.22,39.52494,-85.78113,17420.79,6423.57,MAJOR HOSPITAL
4.04,2.17,37.96320,-87.50292,18951.09,6051.09,ST MARY'S MEDICAL CENTER OF EVANSVILLE INC
3.40,2.21,39.21585,-85.89683,14520.12,6344.84,COLUMBUS REGIONAL HOSPITAL
3.52,2.20,40.12998,-85.69436,15405.73,6279.00,COMMUNITY HOSPITAL OF ANDERSON AND MADISON COUNTY
4.02,2.21,41.55065,-87.50619,18805.05,6373.70,COMMUNITY HOSPITAL
4.55,2.22,41.39576,-87.36689,22507.86,6416.73,FRANCISCAN ST ANTHONY HEALTH - CROWN POINT
4.47,2.13,39.63776,-86.13260,21936.82,5786.27,COMMUNITY HOSPITAL SOUTH
4.82,2.16,39.78047,-86.34084,24316.92,6016.25,IU HEALTH WEST HOSPITAL
4.98,2.25,39.64935,-86.07960,25423.19,6601.69,FRANCISCAN ST FRANCIS HEALTH - INDIANAPOLIS
3.86,2.19,39.90060,-86.04218,17735.25,6200.00,COMMUNITY HOSPITAL NORTH
3.25,2.41,42.04855,-92.90625,13507.83,7724.75,MARSHALLTOWN MEDICAL & SURGICAL CENTER
4.04,2.19,42.49388,-94.18926,18978.23,6235.92,TRINITY REGIONAL MEDICAL CENTER
4.19,2.28,41.60051,-93.61086,20000.54,6849.15,IOWA LUTHERAN HOSPITAL
3.70,2.14,41.66411,-91.52841,16623.60,5876.84,MERCY HOSPITAL
3.77,2.15,42.03321,-93.61164,17089.83,5910.71,MARY GREELEY MEDICAL CENTER
3.51,2.14,41.54190,-90.55691,15310.63,5834.07,GENESIS MEDICAL CENTER-DAVENPORT
4.33,2.21,41.98570,-91.66093,20943.43,6321.68,ST LUKES HOSPITAL
4.71,2.17,41.26786,-95.83505,23574.92,6033.00,JENNIE EDMUNDSON HOSPITAL
4.11,2.19,40.81009,-91.17356,19459.42,6169.33,GREAT RIVER MEDICAL CENTER
4.17,2.69,41.66092,-91.54800,19869.37,9651.17,UNIVERSITY OF IOWA HOSPITAL & CLINICS
4.12,2.21,43.15063,-93.21718,19496.12,6354.46,MERCY MEDICAL CENTER-NORTH IOWA
3.50,2.22,42.46407,-92.34532,15236.43,6392.95,COVENANT MEDICAL CENTER
3.60,2.09,42.49227,-90.67404,15961.11,5507.68,MERCY MEDICAL CENTER-DUBUQUE
3.77,2.08,41.97864,-91.65507,17101.25,5420.00,MERCY MEDICAL CENTER - CEDAR RAPIDS
4.97,2.29,41.58955,-93.63248,25404.05,6883.02,IOWA METHODIST MEDICAL CENTER
3.90,2.30,41.59886,-93.62344,17995.79,6962.23,MERCY MEDICAL CENTER-DES MOINES
2.82,2.12,42.52665,-92.33957,10578.34,5734.10,ALLEN MEMORIAL HOSPITAL
3.63,2.07,42.49632,-90.68587,16150.87,5354.80,THE FINLEY HOSPITAL
4.71,2.17,42.49250,-96.39975,23571.40,6045.67,MERCY MEDICAL CENTER-SIOUX CITY
4.01,2.24,38.83324,-97.61028,18757.00,6538.60,SALINA REGIONAL HEALTH CENTER
5.19,2.38,38.87847,-99.29923,26866.38,7494.00,HAYS MEDICAL CENTER
3.63,2.12,39.05660,-95.69599,16126.06,5703.89,ST FRANCIS HEALTH CENTER INC
4.87,2.29,38.07731,-97.89183,24697.65,6891.83,HUTCHINSON REGIONAL MEDICAL CENTER INC
6.85,2.63,39.05583,-94.60912,38322.12,9220.56,UNIVERSITY OF KANSAS HOSPITAL
4.52,2.12,38.85279,-94.82413,22264.19,5686.00,OLATHE MEDICAL CENTER
5.09,2.21,39.05128,-95.69572,26177.04,6346.88,STORMONT-VAIL HEALTHCARE
5.65,2.10,38.99549,-94.69061,30092.16,5569.52,SHAWNEE MISSION MEDICAL CENTER
5.64,2.31,37.70405,-97.31386,29974.65,7009.10,VIA CHRISTI HOSPITALS WICHITA INC
6.89,2.35,37.69556,-97.29785,38619.50,7281.19,WESLEY MEDICAL CENTER
3.33,2.24,38.97848,-95.24771,14041.00,6514.17,LAWRENCE MEMORIAL HOSPITAL
2.94,2.11,39.20164,-96.60003,11380.09,5657.45,MERCY REGIONAL HEALTH CENTER
6.74,2.16,38.90355,-94.66966,37618.38,5965.15,SAINT LUKE'S SOUTH HOSPITAL
4.19,2.22,38.47021,-82.63498,19987.03,6406.10,KING'S DAUGHTERS' MEDICAL CENTER
3.60,2.11,38.03140,-84.52194,15917.29,5633.00,SAINT JOSEPH HOSPITAL
4.75,2.24,37.11784,-84.10910,23890.13,6564.13,SAINT JOSEPH HOSPITAL LONDON
2.80,2.13,37.71183,-85.87623,10445.08,5805.24,HARDIN MEMORIAL HOSPITAL
3.81,2.29,36.99641,-86.43006,17405.45,6912.83,THE MEDICAL CENTER AT BOWLING GREEN
3.30,2.26,37.01079,-85.90342,13877.91,6680.64,T J SAMSON COMMUNITY HOSPITAL
3.14,2.12,36.60798,-88.30957,12746.00,5712.42,MURRAY-CALLOWAY COUNTY HOSPITAL
4.69,2.22,39.06704,-84.49946,23473.20,6392.47,ST ELIZABETH MEDICAL CENTER NORTH
3.07,2.34,37.76518,-87.10197,12244.58,7214.67,OWENSBORO MEDICAL HEALTH SYSTEM
4.10,2.31,38.24927,-85.75081,19404.68,7033.71,JEWISH HOSPITAL & ST MARY'S HEALTHCARE
6.56,2.37,37.47264,-82.52605,36367.85,7433.31,PIKEVILLE MEDICAL CENTER
4.19,2.32,37.64378,-84.77272,19991.12,7116.56,EPHRAIM MCDOWELL REGIONAL MEDICAL CENTER
3.98,2.12,36.86034,-87.49528,18583.64,5697.36,JENNIE STUART MEDICAL CENTER
5.37,2.80,38.03282,-84.50674,28113.44,10414.67,UNIVERSITY OF KENTUCKY HOSPITAL
5.26,2.29,38.24806,-85.75125,27405.17,6878.24,NORTON HOSPITALS, INC
3.84,2.17,37.33959,-87.48988,17595.81,6044.06,REGIONAL MEDICAL CENTER OF HOPKINS COUNTY
4.08,2.25,38.01849,-84.51236,19207.69,6597.49,CENTRAL BAPTIST HOSPITAL
3.13,2.11,37.07404,-88.62685,12698.81,5657.00,WESTERN BAPTIST HOSPITAL
4.64,2.15,36.96603,-86.43639,23138.45,5948.91,GREENVIEW REGIONAL HOSPITAL
3.96,2.09,38.23898,-85.63941,18386.94,5522.60,BAPTIST HOSPITAL EAST
4.55,2.26,37.08724,-84.61828,22484.05,6655.18,LAKE CUMBERLAND REGIONAL HOSPITAL
5.70,2.60,38.24802,-85.74464,30400.75,9027.33,UNIVERSITY OF LOUISVILLE HOSPITAL
4.62,2.21,30.20227,-92.01906,22941.77,6350.69,LAFAYETTE GENERAL MEDICAL CENTER
4.61,2.08,29.77956,-90.80568,22868.92,5460.15,THIBODAUX REGIONAL MEDICAL CENTER
3.61,2.17,29.59851,-90.71397,15998.80,6042.60,TERREBONNE GENERAL MEDICAL CENTER
7.97,2.31,30.46813,-90.45814,46062.12,7009.81,NORTH OAKS MEDICAL CENTER, LLC
4.42,2.16,31.28258,-92.46060,21569.12,5990.91,CHRISTUS ST FRANCES CABRINI HOSPITAL
5.77,2.44,31.31451,-92.44997,30894.31,7917.56,RAPIDES REGIONAL MEDICAL CENTER
4.99,2.45,30.21521,-93.22682,25531.73,8023.13,CHRISTUS ST PATRICK HOSPITAL
3.92,2.35,30.01875,-90.19452,18157.65,7317.12,OCHSNER FOUNDATION HOSPITAL
5.87,2.15,30.28456,-89.77038,31617.20,5931.47,SLIDELL MEMORIAL HOSPITAL AND MEDICAL CENTER
5.93,2.26,32.49443,-93.75011,31983.88,6692.46,CHRISTUS SCHUMPERT HEALTH SYSTEM
5.00,2.46,30.20458,-93.19774,25584.35,8092.59,LAKE CHARLES MEMORIAL HOSPITAL
4.05,2.22,30.40118,-91.11160,19050.97,6425.97,OUR LADY OF THE LAKE REGIONAL MEDICAL CENTER
3.59,2.32,30.45015,-91.15273,15891.19,7090.88,BATON ROUGE GENERAL MEDICAL CENTER
3.83,2.34,30.15052,-92.03698,17482.69,7216.92,OUR LADY OF LOURDES REGIONAL MEDICAL CENTER, INC
5.12,2.19,32.48393,-93.77884,26431.13,6233.35,WILLIS KNIGHTON MEDICAL CENTER
5.20,2.22,32.49997,-92.11359,27001.58,6427.73,ST FRANCIS MEDICAL CENTER
4.57,2.31,32.61700,-93.28566,22656.82,7019.64,MINDEN MEDICAL CENTER
4.74,2.20,30.01438,-90.18155,23768.67,6274.44,EAST JEFFERSON GENERAL HOSPITAL
5.61,2.19,32.51315,-92.15713,29787.26,6191.47,GLENWOOD REGIONAL MEDICAL CENTER
4.58,2.10,32.55761,-93.71874,22722.18,5574.18,WILLIS KNIGHTON BOSSIER HEALTH CENTER
3.35,2.16,44.81469,-68.77153,14208.83,6029.50,ST JOSEPH HOSPITAL
4.25,2.21,43.65159,-70.26482,20388.64,6358.18,MERCY HOSPITAL
3.92,2.40,43.65325,-70.27533,18149.46,7676.76,MAINE MEDICAL CENTER
3.98,2.21,43.90901,-69.89611,18532.00,6371.18,MID COAST HOSPITAL
3.70,2.30,44.80988,-68.74929,16646.77,6985.32,EASTERN MAINE MEDICAL CENTER
3.90,2.26,45.25378,-69.44547,18025.07,6694.79,MAINE GENERAL MEDICAL CENTER
2.67,2.60,39.62183,-77.68219,9508.20,9040.42,MERITUS MEDICAL CENTER
2.98,2.87,39.28817,-76.62438,11620.15,10922.92,UNIVERSITY OF MARYLAND MEDICAL CENTER
3.04,2.93,38.93090,-76.92161,12048.67,11325.83,PRINCE GEORGES HOSPITAL CENTER
2.29,2.25,39.01578,-77.03591,6915.05,6619.14,HOLY CROSS HOSPITAL
2.73,2.65,39.42366,-77.41386,9949.51,9352.55,FREDERICK MEMORIAL HOSPITAL
2.57,2.49,39.54345,-76.09153,8831.33,8301.39,HARFORD MEMORIAL HOSPITAL
2.52,2.44,39.38813,-76.61068,8452.33,7945.26,SAINT JOSEPH MEDICAL CENTER
3.08,2.97,39.29297,-76.61314,12353.64,11612.36,MERCY MEDICAL CENTER INC
3.29,3.18,39.29688,-76.59242,13802.67,13000.86,JOHNS HOPKINS HOSPITAL, THE
2.80,2.71,39.27352,-76.67219,10391.92,9768.35,SAINT AGNES HOSPITAL
2.83,2.74,39.35262,-76.66196,10602.94,9998.14,SINAI HOSPITAL OF BALTIMORE
2.86,2.78,39.35169,-76.47919,10796.67,10266.03,FRANKLIN SQUARE HOSPITAL CENTER
3.08,2.97,38.98482,-77.00139,12309.00,11570.47,WASHINGTON ADVENTIST HOSPITAL
2.83,2.75,39.15402,-77.05431,10629.64,10037.24,MONTGOMERY GENERAL HOSPITAL INC
2.90,2.81,38.36248,-75.59799,11079.78,10455.58,PENINSULA REGIONAL MEDICAL CENTER
2.53,2.47,38.99743,-77.11048,8549.08,8124.82,SUBURBAN HOSPITAL
2.50,2.44,38.99014,-76.53398,8315.56,7926.00,ANNE ARUNDEL MEDICAL CENTER
2.91,2.81,39.32930,-76.61432,11139.44,10492.64,UNION MEMORIAL HOSPITAL
2.87,2.78,39.64928,-78.73206,10898.51,10244.56,WESTERN MARYLAND REGIONAL MEDICAL CENTER
2.65,2.57,38.29124,-76.63579,9369.88,8807.69,SAINT MARY'S HOSPITAL
2.69,2.61,39.29100,-76.54623,9652.97,9121.35,JOHNS HOPKINS BAYVIEW MEDICAL CENTER
3.36,3.23,39.21770,-76.06494,14266.83,13410.92,CHESTER RIVER HOSPITAL CENTER
3.09,3.00,39.55808,-76.99107,12380.89,11808.89,CARROLL HOSPITAL CENTER
2.69,2.61,39.25189,-76.61399,9672.00,9091.64,HARBOR HOSPITAL
2.53,2.46,38.52905,-76.97068,8580.32,8065.42,CIVISTA MEDICAL CENTER
2.80,2.71,38.76970,-76.07697,10399.95,9776.00,MEMORIAL HOSPITAL AT EASTON
2.38,2.31,38.55963,-76.59455,7483.19,7049.25,CALVERT MEMORIAL HOSPITAL
3.22,3.10,39.35852,-76.78208,13299.34,12501.41,NORTHWEST HOSPITAL CENTER
2.79,2.70,39.13732,-76.62228,10371.11,9748.79,BALTIMORE WASHINGTON  MEDICAL CENTER
2.79,2.72,39.39017,-76.62216,10375.47,9830.00,GREATER BALTIMORE MEDICAL CENTER
2.46,2.41,39.21273,-76.88526,8037.73,7701.48,HOWARD COUNTY GENERAL HOSPITAL
2.50,2.44,39.51870,-76.34688,8371.61,7904.84,UPPER CHESAPEAKE MEDICAL CENTER
2.56,2.48,38.96851,-76.86203,8746.31,8221.62,DOCTORS'  COMMUNITY HOSPITAL
2.94,2.84,38.74827,-76.87590,11403.78,10719.48,SOUTHERN MARYLAND HOSPITAL CENTER
2.66,2.58,39.35962,-76.58851,9438.19,8871.88,GOOD SAMARITAN HOSPITAL
2.76,2.67,39.09796,-77.19799,10107.46,9500.96,SHADY GROVE ADVENTIST HOSPITAL
2.22,2.16,38.33876,-75.21128,6392.82,6009.35,ATLANTIC GENERAL HOSPITAL
3.65,2.47,42.37441,-71.13378,16292.43,8165.57,MOUNT AUBURN HOSPITAL
3.74,2.35,41.94236,-71.27364,16862.62,7330.92,STURDY MEMORIAL HOSPITAL
3.39,2.45,42.70912,-71.14877,14448.75,7973.25,LAWRENCE GENERAL HOSPITAL
3.52,2.65,42.37451,-71.10418,15347.00,9359.58,CAMBRIDGE HEALTH ALLIANCE
3.20,2.48,41.65298,-70.27484,13146.28,8203.91,CAPE COD HOSPITAL
3.23,2.11,42.33185,-72.65422,13357.19,5646.62,COOLEY DICKINSON HOSPITAL INC,THE
2.87,2.26,42.20038,-72.62762,10921.82,6719.55,HOLYOKE MEDICAL CENTER
2.97,2.27,42.81476,-70.89068,11551.46,6751.23,ANNA JAQUES HOSPITAL
3.07,2.89,42.35843,-71.05977,12304.26,11054.70,BOSTON MEDICAL CENTER CORPORATION
3.09,2.35,42.56407,-70.87543,12385.66,7277.45,BEVERLY HOSPITAL CORPORATION
4.60,2.32,42.51078,-70.90712,22801.04,7072.78,NORTH SHORE MEDICAL CENTER
3.05,2.67,42.34896,-71.14768,12166.82,9527.91,ST ELIZABETH'S MEDICAL CENTER
3.18,2.49,51.46599,-1.28140,13060.87,8248.07,BERKSHIRE MEDICAL CENTER INC
3.39,2.44,42.03597,-71.09792,14500.83,7929.67,SIGNATURE HEALTHCARE BROCKTON HOSPITAL
3.01,2.32,41.94445,-70.64511,11858.96,7100.80,JORDAN HOSPITAL INC
3.29,2.40,42.64636,-71.34118,13757.35,7676.94,LOWELL GENERAL HOSPITAL
3.17,2.30,42.11449,-72.59502,12988.05,6973.53,MERCY MEDICAL CENTER
7.87,3.06,42.36227,-71.06941,45423.38,12170.91,MASSACHUSETTS GENERAL HOSPITAL
2.63,2.29,41.90456,-71.09562,9219.09,6924.36,MORTON HOSPITAL
3.62,2.41,41.70928,-71.14519,16096.99,7721.82,SOUTHCOAST HOSPITAL GROUP, INC
3.30,2.52,42.12077,-72.60525,13867.77,8508.34,BAYSTATE MEDICAL CENTER
3.40,2.12,42.43082,-71.37554,14550.08,5712.46,EMERSON HOSPITAL
3.60,2.87,42.33719,-71.10939,15938.67,10863.38,BETH ISRAEL DEACONESS MEDICAL CENTER
3.66,2.29,42.13234,-71.52825,16377.67,6870.14,MILFORD REGIONAL MEDICAL CENTER
3.59,2.21,42.17644,-70.95398,15889.17,6349.19,SOUTH SHORE HOSPITAL
3.77,2.14,42.33149,-71.24568,17085.58,5856.17,NEWTON-WELLESLEY HOSPITAL
2.60,2.21,42.46581,-71.12210,9015.00,6325.60,WINCHESTER HOSPITAL
5.42,2.62,42.33600,-71.10704,28510.49,9184.18,BRIGHAM AND WOMEN'S HOSPITAL
2.85,2.36,42.09864,-71.06607,10746.13,7372.40,GOOD SAMARITAN MEDICAL CENTER
4.01,2.86,42.34951,-71.06331,18742.82,10802.73,TUFTS MEDICAL CENTER
3.15,2.41,42.30049,-71.12771,12838.07,7737.80,FAULKNER HOSPITAL
3.39,2.25,42.18869,-71.20197,14474.83,6607.67,NORWOOD HOSPITAL
3.11,2.30,41.56412,-70.62200,12550.08,6986.50,FALMOUTH HOSPITAL
4.75,2.77,42.27720,-71.75922,23884.31,10207.79,UMASS MEMORIAL MEDICAL CENTER INC
3.02,2.35,42.48585,-71.20686,11942.00,7292.80,LAHEY CLINIC HOSPITAL
3.64,2.20,42.39466,-83.40537,16185.46,6246.00,ST MARY MERCY HOSPITAL
2.87,2.25,43.20588,-86.20839,10918.86,6628.50,MERCY HEALTH PARTNERS, MERCY CAMPUS
4.37,2.46,42.28551,-85.58042,21256.51,8084.66,BRONSON METHODIST HOSPITAL
4.26,2.42,42.45741,-83.20513,20500.16,7769.63,PROVIDENCE HOSPITAL AND MEDICAL CENTERS
4.81,2.71,42.29077,-83.21504,24288.44,9765.60,OAKWOOD HOSPITAL AND MEDICAL CENTER
3.02,2.30,42.08955,-86.47781,11895.17,6949.41,LAKELAND HOSPITAL, ST JOSEPH
3.77,2.55,42.41911,-83.18228,17136.88,8670.69,SINAI-GRACE HOSPITAL
3.81,2.51,42.61425,-83.27602,17410.96,8431.67,ST JOSEPH MERCY OAKLAND
4.55,2.35,45.07773,-83.45146,22507.22,7321.33,ALPENA REGIONAL MEDICAL CENTER
3.36,2.46,42.96881,-85.66649,14292.59,8068.52,SPECTRUM HEALTH - BUTTERWORTH CAMPUS
4.90,2.25,43.58941,-83.86908,24900.62,6642.62,MCLAREN BAY REGION
4.11,2.73,42.28388,-83.72960,19470.88,9959.43,UNIVERSITY OF MICHIGAN HEALTH SYSTEM
3.40,2.26,42.61490,-82.96060,14582.98,6677.61,HENRY FORD MACOMB HOSPITAL
3.93,2.69,42.36762,-83.08461,18229.38,9663.42,HENRY FORD HOSPITAL
2.70,2.27,46.54758,-87.39560,9754.14,6729.07,MARQUETTE GENERAL HOSPITAL
3.03,2.39,42.95817,-85.66253,11974.82,7551.36,SAINT MARY'S HEALTH CARE
4.58,2.29,43.42857,-83.95556,22666.12,6923.44,COVENANT MEDICAL CENTER, INC
3.41,2.21,42.77487,-86.11378,14599.86,6329.43,HOLLAND COMMUNITY HOSPITAL
3.91,2.27,43.42612,-83.94185,18086.86,6727.29,ST MARY'S OF MICHIGAN MEDICAL CENTER
3.19,2.27,44.24532,-85.38950,13116.07,6719.86,MERCY HOSPITAL - CADILLAC
4.07,2.25,42.38392,-82.91480,19144.25,6615.92,BEAUMONT HOSPITAL, GROSSE POINTE
5.36,2.21,42.25117,-84.39240,28053.86,6372.23,ALLEGIANCE HEALTH
2.63,2.17,44.26333,-84.24625,9221.13,6063.20,WEST BRANCH REGIONAL MEDICAL CENTER
3.85,2.43,44.76156,-85.64143,17673.10,7827.97,MUNSON MEDICAL CENTER
4.19,2.19,41.91643,-83.39771,20006.89,6228.11,MERCY MEMORIAL HOSPITAL SYSTEM
4.55,2.31,45.74575,-87.10106,22467.07,7009.00,ST FRANCIS HOSPITAL
3.85,2.90,42.35230,-83.05676,17632.14,11125.71,HARPER UNIVERSITY HOSPITAL
3.22,2.28,45.37209,-84.97065,13337.26,6810.13,NORTHERN MICHIGAN REGIONAL HOSPITAL
4.57,2.30,42.30489,-85.56152,22596.35,6988.27,BORGESS MEDICAL CENTER
5.41,2.46,42.51418,-83.19259,28403.31,8039.24,WILLIAM BEAUMONT HOSPITAL
4.29,2.42,43.01399,-83.73250,20705.42,7823.35,MCLAREN FLINT
4.26,2.28,42.27424,-83.36580,20478.20,6837.33,OAKWOOD ANNAPOLIS HOSPITAL
3.95,2.27,42.21065,-83.14861,18334.43,6757.26,HENRY FORD WYANDOTTE HOSPITAL
3.79,2.64,42.46176,-83.37629,17218.74,9299.26,BOTSFORD HOSPITAL
4.04,2.34,42.26181,-83.66003,18947.98,7226.24,ST JOSEPH MERCY HOSPITAL
4.72,2.59,42.41975,-82.91442,23659.94,8936.17,ST JOHN HOSPITAL AND MEDICAL CENTER
4.66,2.37,42.70417,-84.55488,23255.04,7452.52,MCLAREN - GREATER LANSING
4.82,2.32,42.50514,-83.00422,24342.58,7083.77,ST JOHN MACOMB-OAKLAND HOSPITAL-MACOMB CENTER
4.31,2.50,42.89254,-83.63621,20861.41,8342.24,GENESYS REGIONAL MEDICAL CENTER - HEALTH PARK
4.44,2.19,42.98625,-82.42802,21703.05,6172.09,PORT HURON HOSPITAL
3.43,2.37,43.63618,-84.26187,14760.58,7430.52,MIDMICHIGAN MEDICAL CENTER-MIDLAND
3.59,2.35,42.58900,-82.89799,15841.71,7317.12,MOUNT CLEMENS REGIONAL MEDICAL CENTER
5.15,2.44,42.73767,-84.51698,26646.17,7954.85,EDWARD W SPARROW HOSPITAL
4.08,2.43,42.85736,-85.71774,19227.36,7837.82,METRO HEALTH HOSPITAL
3.06,2.51,46.43131,-84.28107,12203.36,8406.00,CHIPPEWA COUNTY WAR MEMORIAL HOSPITAL
3.44,2.49,42.33215,-83.31195,14844.83,8271.10,GARDEN CITY HOSPITAL
4.91,2.23,42.67850,-83.14771,24970.17,6496.60,CRITTENTON HOSPITAL MEDICAL CENTER
5.98,2.27,42.61826,-83.09239,32351.18,6759.38,WILLIAM BEAUMONT HOSPITAL-TROY
4.23,2.33,42.59290,-83.49920,20270.85,7145.46,HURON VALLEY-SINAI HOSPITAL
4.36,2.13,42.53914,-83.40777,21148.68,5780.63,HENRY FORD WEST BLOOMFIELD HOSPITAL
4.61,2.33,45.01403,-93.32177,22920.62,7172.96,NORTH MEMORIAL MEDICAL CENTER
3.80,2.33,46.79380,-92.09573,17301.74,7157.32,ESSENTIA HEALTH ST MARY'S MEDICAL CENTER
3.73,2.58,44.02052,-92.48292,16860.76,8903.31,MAYO CLINIC - SAINT MARYS HOSPITAL
4.92,2.20,45.56696,-93.23046,25026.09,6256.09,CAMBRIDGE MEDICAL CENTER
4.17,2.48,45.57390,-94.16942,19884.48,8206.16,ST CLOUD HOSPITAL
5.58,2.27,44.94214,-93.10858,29609.31,6787.11,UNITED HOSPITAL
3.02,2.60,44.03521,-91.62181,11899.25,9013.67,WINONA HEALTH SERVICES
3.47,2.31,46.79634,-92.08793,15063.00,7003.43,ST LUKES HOSPITAL
2.55,2.21,44.93031,-93.36276,8654.00,6320.92,PARK NICOLLET METHODIST HOSPITAL
3.98,2.20,44.84294,-93.79336,18519.67,6280.67,RIDGEVIEW MEDICAL CENTER
5.49,2.56,44.95248,-93.26196,28946.53,8721.78,ABBOTT NORTHWESTERN HOSPITAL
4.96,2.30,44.94898,-93.10016,25281.00,6981.85,ST JOSEPH'S HOSPITAL
3.69,2.31,46.36166,-94.20573,16524.50,7031.00,ESSENTIA HEALTH ST JOSEPH'S MEDICAL CENTER
3.85,2.19,44.88645,-93.32693,17634.73,6207.73,FAIRVIEW SOUTHDALE HOSPITAL
4.65,2.65,44.96766,-93.23640,23145.33,9372.00,UNIVERSITY OF MINNESOTA  MEDICAL CENTER, FAIRVIEW
3.82,2.44,44.16396,-94.00412,17430.78,7955.44,MAYO CLINIC HEALTH SYSTEM - MANKATO
3.98,2.55,44.95570,-93.09429,18523.35,8683.62,REGIONS HOSPITAL
4.90,2.26,45.18355,-93.36789,24874.59,6651.09,MERCY HOSPITAL
3.80,2.21,44.74846,-93.27289,17279.00,6369.72,FAIRVIEW RIDGES HOSPITAL
3.73,2.41,45.02892,-93.03418,16831.12,7707.52,HEALTHEAST ST JOHN'S HOSPITAL
3.69,2.20,44.91542,-92.94757,16543.55,6247.00,HEALTHEAST WOODWINDS HOSPITAL
5.05,2.61,32.33069,-90.17030,25900.09,9101.73,UNIVERSITY OF MISSISSIPPI MED CENTER
3.74,2.23,34.24336,-88.71753,16895.71,6479.44,NORTH MISSISSIPPI MEDICAL CENTER
5.74,2.18,34.93596,-88.55955,30719.26,6138.42,MAGNOLIA REGIONAL HEALTH CENTER
7.34,2.41,30.36674,-89.11535,41721.00,7712.92,MEMORIAL HOSPITAL AT GULFPORT
4.40,2.22,34.34899,-89.52062,21468.36,6378.45,BAPTIST MEMORIAL HOSPITAL NORTH MS
6.12,2.16,30.37516,-88.53226,33283.48,6029.52,SINGING RIVER HOSPITAL
4.17,2.16,32.33616,-90.15652,19837.16,6008.27,ST DOMINIC-JACKSON MEMORIAL HOSPITAL
2.99,2.22,31.69405,-89.13061,11695.37,6396.58,SOUTH CENTRAL REG MED CTR
4.36,2.22,32.36983,-88.69702,21188.29,6429.29,RUSH FOUNDATION HOSPITAL
3.42,2.21,31.31872,-89.32955,14709.75,6326.17,FORREST GENERAL HOSPITAL
3.68,2.25,33.41099,-91.03479,16493.75,6589.50,DELTA REGIONAL MEDICAL CENTER
6.28,2.17,31.32573,-89.36670,34397.60,6098.00,WESLEY MEDICAL CENTER
3.10,2.24,31.24000,-90.45000,12449.42,6538.21,SOUTHWEST MS REGIONAL MEDICAL CENTER
4.38,2.37,33.51824,-90.19832,21340.19,7411.69,GREENWOOD LEFLORE HOSPITAL
3.83,2.22,33.52568,-88.42742,17483.00,6378.09,BAPTIST MEM HOSP/GOLDEN TRIANGLE INC
4.48,2.11,32.31643,-90.17922,22033.50,5638.17,MISSISSIPPI BAPTIST MEDICAL CENTER
4.31,2.17,32.37280,-88.69954,20830.78,6032.00,ANDERSON REGIONAL MEDICAL CENTER
4.86,2.25,34.96927,-89.99709,24596.35,6583.70,BAPTIST MEMORIAL HOSPITAL DESOTO
4.57,2.17,37.06032,-94.52747,22637.27,6047.18,ST JOHN'S REGIONAL MEDICAL CENTER
4.13,2.42,39.77393,-94.77089,19592.50,7792.50,HEARTLAND REGIONAL MEDICAL CENTER
3.89,2.05,38.57670,-92.17352,17942.86,5229.43,ST MARYS HEALTH CENTER
5.17,2.64,37.95144,-91.75940,26739.71,9305.07,PHELPS COUNTY REGIONAL MEDICAL CENTER
6.03,2.30,38.64281,-90.44448,32705.42,6943.81,MERCY HOSPITAL ST LOUIS
4.12,2.40,38.63524,-90.26508,19490.66,7664.60,BARNES JEWISH HOSPITAL
3.76,2.21,37.14560,-93.28037,17037.54,6334.29,COX MEDICAL CENTER
3.60,2.27,38.56571,-92.18204,15913.57,6769.64,CAPITAL REGION MEDICAL CENTER
5.43,2.19,39.24809,-94.64928,28567.27,6215.73,ST LUKES NORTHLAND HOSPITAL
4.49,2.22,37.17999,-93.27409,22085.32,6403.39,ST JOHN'S REGIONAL HEALTH CENTER
4.09,2.11,38.94903,-92.31563,19276.30,5635.40,BOONE HOSPITAL CENTER
4.20,2.27,38.50661,-90.38025,20078.59,6760.76,ST ANTHONY'S MEDICAL CENTER
4.18,2.24,36.73801,-91.87553,19918.75,6542.67,OZARKS MEDICAL CENTER
5.43,2.21,38.52738,-90.47501,28580.46,6362.62,SSM ST CLARE HEALTH CENTER
5.07,2.12,38.93592,-94.60376,26106.03,5701.81,ST JOSEPH MEDICAL CENTER
5.53,2.49,38.63268,-90.31089,29213.53,8293.40,SSM ST MARYS HEALTH CENTER
4.56,2.36,36.64970,-93.22138,22532.07,7370.93,SKAGGS REGIONAL MEDICAL CENTER
5.84,2.14,39.04749,-94.34105,31407.14,5833.43,CENTERPOINT MEDICAL CENTER OF INDEPENDENCE, LLC
5.14,2.12,39.14957,-94.55148,26580.75,5722.55,NORTH KANSAS CITY HOSPITAL
5.59,2.23,38.75097,-90.43255,29630.73,6509.00,SSM DEPAUL HEALTH CENTER
5.63,2.76,38.62280,-90.24049,29966.88,10152.00,ST LOUIS UNIVERSITY HOSPITAL
3.31,2.14,38.63702,-90.44699,13932.36,5866.18,MISSOURI BAPTIST MEDICAL CENTER
4.62,2.19,37.31072,-89.53990,22943.54,6182.00,SOUTHEAST MISSOURI HOSPITAL
6.91,2.24,36.78510,-90.42779,38779.53,6542.79,POPLAR BLUFF REGIONAL MEDICAL CENTER
5.09,2.25,37.05238,-94.52777,26193.07,6603.77,FREEMAN HEALTH SYSTEM - FREEMAN WEST
7.23,2.39,39.04761,-94.59037,40953.52,7557.22,ST LUKES HOSPITAL OF KANSAS CITY
4.31,2.45,38.95171,-92.33407,20804.00,8001.50,UNIVERSITY OF MISSOURI HEALTH CARE
3.08,2.10,38.67655,-90.46573,12310.27,5564.73,BARNES-JEWISH WEST COUNTY HOSPITAL
4.08,2.14,39.27591,-94.42572,19232.86,5884.57,LIBERTY HOSPITAL
4.31,2.50,38.65123,-90.50301,20854.89,8371.63,ST LUKES HOSPITAL
5.34,2.34,37.30401,-89.57190,27914.26,7261.22,ST FRANCIS MEDICAL CENTER
5.07,2.18,39.02539,-94.26453,26073.87,6101.93,ST MARY'S MEDICAL CENTER
5.62,2.23,38.94062,-94.37842,29881.33,6509.08,SAINT LUKE'S EAST LEE'S SUMMIT HOSPITAL
2.98,2.22,46.58297,-111.99684,11648.29,6438.00,ST PETER'S HOSPITAL
3.51,2.32,45.78958,-108.51283,15283.67,7084.14,BILLINGS CLINIC HOSPITAL
2.80,2.31,47.49139,-111.26255,10438.52,7033.71,BENEFIS HOSPITALS INC
3.41,2.13,46.87545,-114.00033,14595.55,5805.25,ST PATRICK HOSPITAL
3.81,2.31,46.84691,-114.04640,17398.24,7049.06,COMMUNITY MEDICAL CENTER INC
3.17,2.28,45.79337,-108.51928,12955.87,6843.53,ST VINCENT HEALTHCARE
3.49,2.27,48.21465,-114.32386,15180.76,6787.29,KALISPELL REGIONAL MEDICAL CENTER
2.93,2.09,45.66969,-111.01991,11319.73,5538.09,BOZEMAN DEACONESS HOSPITAL
3.97,2.23,40.78318,-96.63709,18498.00,6511.52,BRYANLGH MEDICAL CENTER
4.58,2.54,41.25522,-95.97892,22709.07,8600.63,THE NEBRASKA MEDICAL CENTER
4.15,2.21,40.80816,-96.62689,19697.69,6369.35,SAINT ELIZABETH REGIONAL MEDICAL CENTER
4.07,2.19,40.92425,-98.37053,19199.61,6193.22,ST FRANCIS MEDICAL CENTER
6.05,2.68,41.26509,-95.95494,32835.50,9568.12,CREIGHTON UNIVERSITY MEDICAL CENTER - SAINT JOSEPH
2.84,2.19,40.59160,-98.38755,10666.29,6210.64,MARY LANNING MEMORIAL HOSPITAL
5.75,2.17,41.25797,-96.04164,30794.03,6040.14,THE NEBRASKA METHODIST HOSPITAL
6.11,2.23,41.23897,-96.03162,33263.30,6474.55,ALEGENT HEALTH BERGAN MERCY MEDICAL CENTER
3.51,2.23,41.12081,-100.77062,15297.00,6455.18,GREAT PLAINS REGIONAL MEDICAL CENTER
4.61,2.38,41.45152,-96.49184,22902.44,7526.00,FREMONT AREA MEDICAL CENTER
5.45,2.29,41.32182,-96.02133,28674.32,6886.50,ALEGENT HEALTH IMMANUEL MEDICAL CENTER
3.64,2.37,42.03257,-97.45100,16230.65,7444.24,FAITH REGIONAL HEALTH SERVICES
6.62,2.31,39.52637,-119.79456,36763.60,7029.33,RENOWN REGIONAL MEDICAL CENTER
8.58,2.49,36.13459,-115.13576,50310.89,8244.29,SUNRISE HOSPITAL AND MEDICAL CENTER
6.41,2.68,36.15896,-115.16558,35349.73,9555.60,UMC OF SOUTHERN NEVADA
4.68,2.39,39.53066,-119.82067,23390.43,7564.86,SAINT MARY'S REGIONAL MEDICAL CENTER
8.60,2.43,36.03931,-114.98259,50402.71,7888.35,SAINT ROSE DOMINICAN HOSPITAL - DE LIMA
4.46,2.43,39.20247,-119.78446,21832.37,7838.03,CARSON TAHOE REGIONAL MEDICAL CENTER
9.45,2.49,36.21599,-115.25095,56316.88,8243.94,MOUNTAINVIEW HOSPITAL
10.27,2.33,36.16586,-115.32436,61938.38,7201.85,SUMMERLIN HOSPITAL MEDICAL CENTER
9.50,2.36,36.00527,-115.11618,56605.61,7355.09,SAINT ROSE DOMINICAN HOSPITAL - SIENA CAMPUS
10.08,2.40,36.09056,-115.24058,60611.60,7673.27,SPRING VALLEY HOSPITAL MEDICAL CENTER
6.96,2.23,36.05712,-115.27116,39140.00,6475.42,SAINT ROSE DOMINICAN HOSPITAL - SAN MARTIN CAMPUS
9.69,2.24,36.28588,-115.28772,57929.00,6565.91,CENTENNIAL HILLS HOSPITAL MEDICAL CENTER
3.86,2.20,43.19846,-71.56230,17754.21,6289.47,CONCORD HOSPITAL
4.20,2.62,43.67286,-72.27232,20061.45,9138.36,MARY HITCHCOCK MEMORIAL HOSPITAL
5.14,2.30,43.52835,-71.46291,26589.38,6988.05,LAKES REGION GENERAL HOSPITAL
4.32,2.34,42.75004,-71.48100,20878.39,7203.09,ST JOSEPH HOSPITAL
3.74,2.24,43.00792,-71.46807,16902.27,6535.13,ELLIOT HOSPITAL
3.77,2.18,43.29811,-70.96148,17093.90,6163.65,FRISBIE MEMORIAL HOSPITAL
4.03,2.24,43.21231,-70.87499,18923.12,6564.31,WENTWORTH-DOUGLASS HOSPITAL
3.91,2.35,42.75623,-71.46059,18041.45,7329.64,SOUTHERN NH MEDICAL CENTER
3.72,2.15,42.98369,-70.93511,16730.61,5920.65,EXETER HOSPITAL INC
5.10,2.33,43.06469,-70.78916,26264.26,7157.30,PORTSMOUTH REGIONAL HOSPITAL
4.14,2.18,42.99121,-71.47426,19680.03,6111.79,CATHOLIC MEDICAL CENTER
9.48,2.49,40.88346,-74.05564,56498.51,8280.00,HACKENSACK UNIVERSITY MEDICAL CENTER
13.64,3.08,40.71011,-74.21368,85202.19,12343.56,NEWARK BETH ISRAEL MEDICAL CENTER
7.52,2.34,40.35684,-74.66166,42975.92,7232.33,UNIVERSITY MEDICAL CENTER AT PRINCETON
5.11,2.24,39.08752,-74.81657,26346.60,6559.93,CAPE REGIONAL MEDICAL CENTER INC
6.58,2.36,40.98359,-74.10047,36478.15,7395.96,VALLEY HOSPITAL
8.18,2.66,39.94152,-75.11680,47555.19,9447.38,COOPER UNIVERSITY HOSPITAL
7.40,2.51,40.78883,-74.46620,42130.13,8444.34,MORRISTOWN MEMORIAL HOSPITAL
6.94,2.32,40.95858,-74.31000,38940.21,7082.87,CHILTON HOSPITAL
12.22,2.72,40.90215,-74.16634,75395.61,9874.56,ST JOSEPH'S REGIONAL MEDICAL CENTER
10.22,2.34,39.78261,-74.91670,61573.60,7266.81,VIRTUA WEST JERSEY HOSPITALS BERLIN
14.06,2.23,40.61288,-74.29092,88129.88,6501.76,ROBERT WOOD JOHNSON UNIVERSITY HOSPITAL AT RAHWAY
12.83,2.33,41.05754,-74.76857,79592.00,7165.00,NEWTON MEMORIAL HOSPITAL
8.58,2.46,39.92695,-75.09537,50318.41,8073.47,OUR LADY OF LOURDES MEDICAL CENTER
10.30,2.36,39.44743,-75.05838,62182.92,7341.58,SOUTH JERSEY HEALTHCARE REGIONAL MEDICAL CENTER
10.11,2.23,40.35309,-74.06484,60868.64,6499.73,RIVERVIEW MEDICAL CENTER
11.59,2.59,40.49581,-74.44980,71052.82,8946.18,ROBERT WOOD JOHNSON UNIVERSITY HOSPITAL
9.88,2.27,39.96484,-74.21708,59228.09,6782.00,COMMUNITY MEDICAL CENTER
10.98,2.50,40.90400,-73.96847,66879.54,8368.58,ENGLEWOOD HOSPITAL AND MEDICAL CENTER
10.03,2.23,39.31464,-74.59391,60283.62,6465.38,SHORE MEDICAL CENTER
15.05,2.39,40.56804,-74.59579,94911.64,7584.08,SOMERSET MEDICAL CENTER
8.94,2.33,40.89538,-74.46479,52756.14,7149.64,SAINT CLARE'S HOSPITAL
5.60,2.46,40.71264,-74.35460,29758.52,8061.30,OVERLOOK HOSPITAL
9.92,2.32,40.07832,-74.13009,59526.05,7081.32,OCEAN MEDICAL CENTER
9.81,2.56,39.98588,-74.79393,58766.13,8772.52,VIRTUA MEMORIAL HOSPITAL OF BURLINGTON COUNTY
10.25,2.24,40.04632,-74.88059,61830.50,6552.29,LOURDES MEDICAL CENTER OF BURLINGTON COUNTY
11.79,2.49,39.35775,-74.43449,72434.79,8306.37,ATLANTICARE REGIONAL MEDICAL CENTER - CITY DIV
13.38,2.62,40.50214,-74.46015,83382.69,9175.08,SAINT PETER'S UNIVERSITY HOSPITAL
10.89,2.40,40.21065,-74.03566,66214.13,7645.70,JERSEY SHORE UNIVERSITY MEDICAL CENTER
10.98,2.60,40.29563,-73.98518,66873.05,9064.19,MONMOUTH MEDICAL CENTER
8.85,2.63,40.76190,-74.30335,52154.16,9240.47,SAINT BARNABAS MEDICAL CENTER
8.69,2.27,39.84392,-75.14985,51041.76,6745.83,UNDERWOOD - MEMORIAL HOSPITAL
9.33,2.51,39.82811,-75.00895,55468.57,8441.91,KENNEDY UNIVERSITY HOSPITAL - STRATFORD DIV
9.40,2.52,40.55784,-74.34970,55980.25,8468.64,JFK MEDICAL CTR - ANTHONY M. YELENCSICS COMMUNITY
12.03,2.23,40.21575,-74.67273,74084.00,6502.00,ROBERT WOOD JOHNSON UNIVERSITY HOSPITAL HAMILTON
7.25,2.27,40.23861,-74.31289,41145.21,6720.75,CENTRASTATE MEDICAL CENTER
6.21,2.22,39.66213,-74.26392,33915.61,6399.35,SOUTHERN OCEAN MEDICAL CENTER
4.23,2.86,35.08838,-106.61590,20268.36,10839.55,UNM HOSPITAL
3.81,2.55,35.65960,-105.94578,17406.00,8708.00,ST VINCENT HOSPITAL
4.68,2.46,36.72387,-108.21749,23357.26,8097.63,SAN JUAN REGIONAL MEDICAL CENTER
4.69,2.29,35.08102,-106.63392,23466.74,6919.50,PRESBYTERIAN HOSPITAL
5.30,2.39,41.92720,-73.99535,27642.56,7559.78,KINGSTON HOSPITAL
3.21,2.45,42.87482,-78.84942,13225.36,7971.58,KALEIDA HEALTH
3.40,2.28,42.09299,-75.93704,14533.00,6829.60,OUR LADY OF LOURDES MEMORIAL HOSPITAL, INC
4.89,2.44,42.65345,-73.77543,24816.65,7954.50,ALBANY MEDICAL CENTER HOSPITAL
5.14,3.22,40.70141,-73.81630,26552.91,13318.36,JAMAICA HOSPITAL MEDICAL CENTER
8.52,2.61,41.69441,-73.93432,49846.41,9126.50,VASSAR BROTHERS MEDICAL CENTER
5.62,3.05,40.79041,-73.95386,29862.69,12102.57,MOUNT SINAI HOSPITAL
5.75,2.44,40.72567,-73.24189,30777.39,7912.78,SOUTHSIDE HOSPITAL
4.42,2.16,43.09840,-75.27819,21608.96,5995.85,FAXTON-ST LUKE'S HEALTHCARE
4.98,2.27,40.87946,-73.41621,25464.50,6764.92,HUNTINGTON HOSPITAL
6.74,3.08,40.80556,-73.96131,37603.62,12366.25,ST LUKE'S ROOSEVELT HOSPITAL
5.81,2.84,40.74722,-73.82521,31211.31,10660.97,NEW YORK HOSPITAL MEDICAL CENTER OF QUEENS
5.35,2.17,42.65583,-73.80372,27999.04,6086.29,ST PETER'S HOSPITAL
8.46,3.14,40.87987,-73.87996,49434.61,12770.74,MONTEFIORE MEDICAL CENTER
4.59,2.41,40.94161,-73.83650,22782.09,7689.18,LAWRENCE HOSPITAL CENTER
6.62,3.14,40.76487,-73.95398,36758.25,12776.35,NEW YORK-PRESBYTERIAN HOSPITAL
2.55,2.20,42.09049,-78.42780,8707.64,6250.00,OLEAN GENERAL HOSPITAL
9.23,2.88,40.77686,-73.70212,54743.29,10988.12,NORTH SHORE UNIVERSITY HOSPITAL
7.20,2.41,40.93376,-72.67383,40778.25,7705.20,PECONIC BAY MEDICAL CENTER
8.29,2.77,40.77362,-73.96093,48276.45,10202.00,LENOX HILL HOSPITAL
3.14,2.20,43.19244,-77.58590,12733.71,6300.19,ROCHESTER GENERAL HOSPITAL
7.44,2.38,41.44138,-74.36821,42412.67,7505.08,ORANGE REGIONAL MEDICAL CENTER
4.35,2.76,42.69590,-74.92278,21088.21,10144.42,MARY IMOGENE BASSETT HOSPITAL
3.47,2.36,43.05571,-76.14981,15036.87,7398.85,ST JOSEPH'S HOSPITAL HEALTH CENTER
7.50,3.22,40.68964,-73.99657,42804.64,13294.45,LONG ISLAND COLLEGE HOSPITAL
4.22,2.33,42.81963,-73.91653,20180.00,7143.81,ELLIS HOSPITAL
4.09,2.70,43.96519,-75.91511,19324.25,9750.00,SAMARITAN MEDICAL CENTER
8.51,2.50,41.11299,-74.13732,49831.40,8315.27,GOOD SAMARITAN HOSPITAL OF SUFFERN
3.59,2.26,43.00561,-76.17002,15869.76,6672.29,COMMUNITY-GENERAL HOSPITAL OF GREATER SYRACUSE
5.55,2.67,40.58440,-74.08507,29399.73,9541.73,STATEN ISLAND UNIVERSITY HOSPITAL
3.97,2.32,41.19677,-73.72572,18501.54,7108.31,NORTHERN WESTCHESTER HOSPITAL
2.54,2.20,43.13562,-77.60602,8638.33,6258.08,HIGHLAND HOSPITAL
6.97,2.69,40.74083,-73.64306,39160.65,9681.50,WINTHROP-UNIVERSITY HOSPITAL
8.77,3.15,40.73265,-73.98162,51579.88,12830.82,BETH ISRAEL MEDICAL CENTER
3.18,2.26,42.60884,-76.18764,13066.48,6671.88,CORTLAND REGIONAL MEDICAL CENTER, INC
5.78,2.48,40.87062,-73.62249,30963.00,8205.36,GLEN COVE HOSPITAL
5.71,2.33,40.80462,-73.67023,30474.10,7162.75,ST FRANCIS HOSPITAL, ROSLYN
5.39,2.29,40.94000,-73.05510,28300.05,6900.89,JOHN T MATHER MEMORIAL HOSPITAL  OF PORT JEFFERSON
3.66,2.29,43.30652,-73.64663,16377.83,6894.06,GLENS FALLS HOSPITAL
9.66,3.58,40.63937,-73.99851,57737.56,15783.06,MAIMONIDES MEDICAL CENTER
8.15,3.09,40.75332,-73.70899,47334.12,12386.38,LONG ISLAND JEWISH MEDICAL CENTER
5.09,2.46,40.65189,-73.63096,26200.21,8061.86,SOUTH NASSAU COMMUNITIES HOSPITAL
3.60,2.42,43.04139,-76.13803,15924.43,7819.81,CROUSE HOSPITAL
5.62,2.68,40.74335,-73.97408,29868.70,9577.30,NYU HOSPITALS CENTER
3.07,2.21,43.19054,-77.70177,12254.87,6372.87,UNITY HOSPITAL OF ROCHESTER
3.59,2.32,42.94136,-76.56474,15848.83,7070.92,AUBURN COMMUNITY HOSPITAL
4.96,3.00,40.66762,-73.97850,25293.57,11779.57,NEW YORK METHODIST HOSPITAL
4.61,2.76,43.04269,-76.14043,22913.08,10149.28,UNIVERSITY HOSPITAL S U N Y HEALTH SCIENCE CENTER
4.04,2.31,43.08176,-75.26587,18943.00,7019.94,ST ELIZABETH MEDICAL CENTER
3.28,2.55,44.70022,-73.47100,13729.61,8680.70,CHAMPLAIN VALLEY PHYSICIANS HOSPITAL MEDICAL CTR
7.05,2.40,41.29201,-73.89529,39759.62,7642.31,HUDSON VALLEY HOSPITAL CENTER
3.33,2.19,42.14073,-77.04745,14072.42,6194.92,CORNING HOSPITAL
3.23,2.18,42.84782,-78.81264,13369.81,6146.19,MERCY HOSPITAL
3.34,2.65,43.12266,-77.62360,14136.43,9399.13,STRONG MEMORIAL HOSPITAL
7.68,2.55,40.69327,-73.29412,44075.45,8680.18,GOOD SAMARITAN HOSPITAL MEDICAL CENTER
4.95,2.45,41.02614,-73.76978,25209.79,8028.33,WHITE PLAINS HOSPITAL CENTER
5.40,2.52,40.77481,-73.47968,28320.00,8504.60,PLAINVIEW HOSPITAL
8.27,2.69,40.88512,-72.38030,48152.92,9639.00,SOUTHAMPTON HOSPITAL
7.28,3.06,40.90922,-73.11520,41352.00,12199.91,UNIVERSITY HOSPITAL ( STONY BROOK )
3.51,2.29,42.11422,-75.95851,15293.58,6880.12,UNITED HEALTH SERVICES HOSPITALS, INC
9.51,2.71,40.85738,-73.18681,56708.00,9806.57,ST CATHERINE OF SIENA HOSPITAL
3.73,2.28,35.43754,-80.60147,16856.36,6821.26,CAROLINAS MEDICAL CENTER-NORTHEAST
3.60,2.29,35.57658,-82.54922,15934.02,6921.71,MEMORIAL MISSION HOSPITAL AND ASHEVILLE SURGERY CE
3.66,2.24,36.48826,-80.61222,16344.23,6520.69,NORTHERN HOSPITAL OF SURRY COUNTY
4.54,2.45,34.75124,-79.46789,22449.55,7985.09,SCOTLAND MEMORIAL HOSPITAL
3.49,2.43,35.39772,-77.95250,15153.47,7851.35,WAYNE MEMORIAL HOSPITAL
3.30,2.19,35.36251,-81.96692,13869.07,6176.07,RUTHERFORD HOSPITAL INC
3.49,2.37,36.07581,-80.29779,15188.57,7428.78,FORSYTH MEMORIAL HOSPITAL
3.65,2.23,35.68172,-80.47072,16261.83,6444.67,ROWAN REGIONAL MEDICAL CENTER
3.21,2.19,35.32080,-82.46812,13273.79,6220.28,MARGARET R PARDEE MEMORIAL HOSPITAL
4.75,2.13,35.46894,-79.18668,23857.29,5770.36,CENTRAL CAROLINA HOSPITAL
4.33,2.26,35.30288,-81.53571,20961.27,6706.57,CLEVELAND REGIONAL MEDICAL CENTER
4.09,2.20,35.38994,-82.48815,19327.08,6287.46,PARK RIDGE HEALTH
3.59,2.32,35.00670,-78.32412,15850.55,7133.27,SAMPSON REGIONAL MEDICAL CENTER
3.65,2.27,35.29053,-77.58307,16248.87,6752.83,LENOIR MEMORIAL HOSPITAL
5.35,2.44,35.03156,-78.93205,27998.04,7933.15,CAPE FEAR VALLEY MEDICAL CENTER
5.01,2.74,36.00850,-78.94006,25644.50,9974.65,DUKE UNIVERSITY HOSPITAL
3.90,2.34,35.27341,-81.13688,18023.27,7243.52,GASTON MEMORIAL HOSPITAL
4.07,2.14,35.79986,-80.87863,19173.59,5865.19,IREDELL MEMORIAL HOSPITAL INC
4.71,2.62,35.60726,-77.40477,23607.63,9149.81,PITT COUNTY MEMORIAL HOSPITAL
4.38,2.25,34.76273,-77.38582,21299.89,6613.11,ONSLOW MEMORIAL HOSPITAL
3.66,2.77,36.09062,-80.27161,16356.50,10183.60,NORTH CAROLINA BAPTIST HOSPITAL
5.05,2.43,34.63723,-79.01213,25946.94,7838.47,SOUTHEASTERN REGIONAL MEDICAL CENTER
3.42,2.40,36.19878,-81.65223,14654.33,7647.92,WATAUGA MEDICAL CENTER
4.18,2.27,35.22196,-80.83287,19966.11,6763.07,PRESBYTERIAN HOSPITAL
3.51,2.21,36.49464,-79.73929,15340.55,6355.55,MOREHEAD MEMORIAL HOSPITAL
3.19,2.76,35.90529,-79.04963,13135.37,10136.58,UNIVERSITY OF NORTH CAROLINA HOSPITAL
3.31,2.22,34.33747,-78.69425,13923.06,6439.31,COLUMBUS REGIONAL HEALTHCARE SYSTEM
4.53,2.38,35.78523,-78.58836,22312.51,7528.23,WAKEMED, RALEIGH CAMPUS
4.40,2.38,35.30715,-78.63474,21470.15,7505.00,BETSY JOHNSON REGIONAL  HOSPITAL
4.73,2.16,35.82915,-78.61922,23694.12,6020.81,DUKE HEALTH RALEIGH HOSPITAL
3.50,2.34,36.09251,-79.78855,15226.35,7248.37,MOSES H CONE MEMORIAL HOSPITAL, THE
3.66,2.18,36.26164,-80.83882,16357.67,6100.08,HUGH CHATHAM MEMORIAL HOSPITAL
4.27,2.21,35.21029,-80.82084,20530.55,6354.68,CAROLINAS MED CENTER-MERCY
3.78,2.31,36.28555,-76.99489,17158.59,7032.41,ROANOKE CHOWAN HOSPITAL
3.90,2.38,36.32690,-76.22370,17985.37,7514.84,ALBEMARLE HOSPITAL AUTHORITY
4.66,2.56,35.20397,-80.83908,23247.88,8756.29,CAROLINAS MEDICAL CENTER/BEHAV HEALTH
4.48,2.19,35.81801,-78.70283,21981.34,6191.41,REX HOSPITAL
3.61,2.22,35.20554,-79.45645,16005.16,6384.14,FIRSTHEALTH MOORE REGIONAL HOSPITAL
6.25,2.36,35.73751,-81.33702,34202.21,7375.95,FRYE REGIONAL MEDICAL CENTER
5.03,2.25,35.71850,-77.94518,25816.00,6627.31,WILSON MEDICAL CENTER
4.30,2.12,35.54775,-80.85563,20741.25,5715.08,LAKE NORMAN REGIONAL MEDICAL CENTER
3.56,2.32,34.97382,-80.52250,15659.36,7098.50,CAROLINAS MEDICAL CENTER-UNION
3.44,2.31,35.11420,-77.06568,14815.19,7050.14,CAROLINA EAST MEDICAL CENTER
3.67,2.32,36.32959,-78.39916,16432.20,7074.60,MARIA PARHAM MEDICAL CENTER
3.78,2.32,34.23786,-77.94764,17187.15,7096.51,NEW HANOVER REGIONAL MEDICAL CENTER
3.22,2.38,34.72615,-76.75452,13279.21,7536.84,CARTERET GENERAL HOSPITAL
4.06,2.28,35.71664,-81.26661,19083.29,6800.88,CATAWBA VALLEY MEDICAL CENTER
4.66,2.26,35.81875,-80.82896,23256.53,6701.53,DAVIS REGIONAL MEDICAL CENTER
4.63,2.27,35.47011,-81.23593,23041.18,6787.64,CAROLINAS MEDICAL CENTER-LINCOLN
4.11,2.40,35.97538,-77.85012,19463.25,7668.60,NASH GENERAL HOSPITAL
4.23,2.30,36.43295,-77.64729,20289.64,6962.36,HALIFAX REGIONAL MEDICAL CENTER INC
3.66,2.31,36.04960,-78.90617,16343.33,7020.62,DURHAM REGIONAL HOSPITAL
3.94,2.26,35.30611,-80.74708,18278.17,6709.78,CAROLINAS MED CTR-UNIVERSITY
3.98,2.26,35.11432,-80.71971,18545.79,6664.55,PRESBYTERIAN HOSPITAL MATTHEWS
4.87,2.16,35.74046,-78.78127,24658.00,6022.70,WAKEMED, CARY HOSPITAL
3.02,2.16,35.40634,-80.86005,11901.92,6025.31,PRESBYTERIAN HOSPITAL HUNTERSVILLE
3.55,2.16,35.52586,-82.94351,15610.73,5995.20,MEDWEST HAYWOOD
2.76,2.15,46.80739,-100.77773,10141.55,5896.64,ST ALEXIUS MEDICAL CENTER
3.40,2.22,48.23258,-101.28843,14579.68,6434.12,TRINITY HOSPITALS
3.26,2.29,46.88496,-96.78609,13597.81,6920.44,SANFORD MEDICAL CENTER FARGO
2.75,2.32,46.80798,-100.78229,10064.92,7098.75,MEDCENTER ONE
3.97,2.31,47.91045,-97.06742,18476.85,7055.31,ALTRU HOSPITAL
3.40,2.22,46.83250,-96.82805,14560.42,6416.17,ESSENTIA HEALTH-FARGO
3.53,2.18,39.08582,-84.34886,15456.16,6164.42,MERCY HOSPITAL ANDERSON
4.05,2.80,39.13707,-84.50392,19037.13,10422.00,UNIVERSITY HOSPITAL, INC
4.86,2.25,40.03064,-83.03440,24656.17,6601.38,RIVERSIDE METHODIST HOSPITAL
3.76,2.13,40.73578,-84.08630,17003.07,5786.64,LIMA MEMORIAL HEALTH SYSTEM
3.61,2.23,40.57098,-83.12972,16020.46,6504.92,MARION GENERAL HOSPITAL
3.03,2.25,40.11479,-82.94677,11998.59,6599.86,MOUNT CARMEL ST ANN'S HOSPITAL
4.04,2.26,39.20680,-84.38093,18948.94,6660.67,JEWISH HOSPITAL, LLC
4.98,2.42,39.96098,-82.99077,25435.06,7805.11,GRANT MEDICAL CENTER
6.05,2.49,41.08161,-81.50007,32840.10,8287.58,SUMMA HEALTH SYSTEMS HOSPITALS
3.80,2.19,41.44642,-82.70864,17329.44,6187.81,FIRELANDS REGIONAL MEDICAL CENTER
4.29,2.29,41.07747,-81.53042,20673.25,6869.88,AKRON GENERAL MEDICAL CENTER
2.95,2.28,39.95805,-83.02191,11442.35,6804.16,MOUNT CARMEL HEALTH
2.18,2.10,40.82041,-81.93422,6106.91,5584.55,WOOSTER COMMUNITY HOSPITAL
4.17,2.32,39.97510,-82.01812,19845.21,7117.36,GENESIS HEALTHCARE SYSTEM
4.46,2.22,40.39967,-82.44822,21841.45,6377.00,KNOX COMMUNITY HOSPITAL
3.30,2.08,41.38265,-81.73127,13856.78,5418.67,PARMA COMMUNITY GENERAL HOSPITAL
5.19,2.61,41.61788,-83.61632,26929.14,9076.71,UNIVERSITY OF TOLEDO MEDICAL CENTER
6.65,2.29,39.74547,-84.18523,36983.39,6876.16,MIAMI VALLEY HOSPITAL
7.19,2.30,39.78778,-84.23493,40705.78,6985.28,GOOD SAMARITAN HOSPITAL
3.46,2.20,38.84439,-82.23902,14964.55,6293.91,HOLZER MEDICAL CENTER
6.12,2.14,41.23549,-80.79865,33286.31,5876.38,TRUMBULL MEMORIAL HOSPITAL
5.00,2.63,39.31257,-84.51774,25618.07,9248.14,MERCY HOSPITAL FAIRFIELD
4.23,2.75,41.46088,-81.69763,20267.00,10055.25,METRO HEALTH MEDICAL CENTER
4.42,2.22,41.11441,-80.65565,21614.11,6437.72,ST ELIZABETH HEALTH CENTER
4.42,2.20,40.74115,-84.11804,21569.61,6289.00,ST RITA'S MEDICAL CENTER
6.54,2.30,41.67775,-83.59589,36212.88,6983.53,TOLEDO HOSPITAL THE
2.70,2.21,40.81219,-81.39625,9701.31,6327.48,MERCY MEDICAL CENTER
6.26,2.16,39.49896,-84.31496,34265.44,6002.81,ATRIUM MEDICAL CENTER
4.75,2.22,41.45013,-81.82397,23854.45,6402.73,FAIRVIEW HOSPITAL
4.73,2.18,41.17554,-81.24915,23739.80,6116.93,ROBINSON MEMORIAL HOSPITAL
4.47,2.19,39.69724,-84.19232,21914.84,6233.26,KETTERING MEDICAL CENTER
6.18,2.25,41.63639,-83.48640,33749.33,6615.08,MERCY ST CHARLES HOSPITAL
3.31,2.24,40.79609,-81.40360,13955.89,6532.42,AULTMAN HOSPITAL
5.40,2.59,39.99445,-83.01872,28364.03,8962.41,OHIO STATE UNIVERSITY HOSPITALS
4.37,2.29,39.92755,-83.81573,21248.38,6894.86,SPRINGFIELD REGIONAL MEDICAL CENTER
3.48,2.11,41.13762,-81.83820,15102.44,5629.06,MEDINA HOSPITAL
3.07,2.14,41.01785,-83.65165,12275.67,5859.07,BLANCHARD VALLEY HOSPITAL
4.86,2.10,41.66317,-81.24696,24637.03,5593.70,LAKE HEALTH
6.03,2.61,41.66810,-83.54275,32661.73,9079.77,MERCY ST VINCENT MEDICAL CENTER
4.00,2.05,39.13628,-84.60485,18705.73,5203.64,MERCY FRANCISCAN HOSPITAL WESTERN HILLS
4.34,2.16,40.75264,-82.52803,21025.89,5997.05,MEDCENTRAL HEALTH SYSTEM
3.58,2.20,41.43653,-81.94451,15776.20,6297.52,ST JOHN MEDICAL CENTER
6.96,2.45,39.13975,-84.52173,39142.16,7983.58,GOOD SAMARITAN HOSPITAL
5.20,2.73,41.50772,-81.60592,26960.42,9959.70,UNIVERSITY HOSPITALS OF CLEVELAND
5.02,2.11,41.42112,-81.59808,25711.33,5657.93,MARYMOUNT HOSPITAL
5.22,2.26,41.44829,-81.53736,27081.18,6693.91,SOUTH POINTE HOSPITAL
3.74,2.14,41.36649,-82.09708,16919.75,5835.46,EMH REGIONAL MEDICAL CENTER
4.27,2.10,39.43061,-81.46454,20523.00,5570.61,MARIETTA MEMORIAL HOSPITAL
5.64,2.62,39.95311,-83.13803,29996.92,9143.85,DOCTORS HOSPITAL
5.11,2.12,41.37028,-81.83189,26344.91,5742.23,SOUTHWEST GENERAL HEALTH CENTER
3.54,2.27,41.33913,-83.13441,15535.64,6771.91,MEMORIAL HOSPITAL
3.40,2.24,39.39463,-82.96979,14534.24,6528.71,ADENA REGIONAL MEDICAL CENTER
4.19,2.33,39.12105,-84.51059,19970.06,7187.00,CHRIST HOSPITAL
3.06,2.30,39.61034,-82.93633,12200.55,6946.27,BERGER HOSPITAL
4.47,2.18,41.43688,-82.23761,21959.81,6166.33,MERCY REGIONAL MEDICAL CENTER
5.15,2.14,40.08748,-84.22920,26600.43,5835.29,UPPER VALLEY MEDICAL CENTER
5.97,2.21,39.25076,-84.34341,32307.68,6337.14,BETHESDA NORTH HOSPITAL
5.63,2.46,41.50248,-81.62110,29944.67,8083.69,CLEVELAND CLINIC
3.24,2.15,40.90093,-80.83181,13458.92,5956.38,SALEM COMMUNITY HOSPITAL
3.25,2.30,40.04876,-82.45029,13511.77,6987.77,LICKING MEMORIAL HOSPITAL
4.52,2.11,41.52013,-81.43291,22283.30,5683.39,HILLCREST HOSPITAL
4.45,2.15,39.63778,-84.24864,21762.64,5895.18,KETTERING MEDICAL CENTER - SYCAMORE
3.80,2.13,40.99498,-80.66192,17276.76,5789.94,ST ELIZABETH BOARDMAN HEALTH CENTER
5.69,2.52,36.14687,-95.96841,30372.88,8488.44,HILLCREST MEDICAL CENTER
5.16,2.15,35.22999,-97.44074,26725.10,5909.87,NORMAN REGIONAL HEALTH SYSTEM
5.47,2.22,35.60735,-97.59693,28809.72,6406.44,MERCY HEALTH CENTER, INC
3.54,2.10,36.75199,-95.94089,15536.80,5559.53,JANE PHILLIPS MEDICAL CENTER
3.89,2.21,34.52030,-97.97604,17897.93,6372.93,DUNCAN REGIONAL HOSPITAL, INC
4.01,2.17,35.75351,-95.40612,18727.38,6074.71,MUSKOGEE REGIONAL MEDICAL CENTER
6.64,2.44,35.52960,-97.57496,36870.00,7950.00,INTEGRIS BAPTIST MEDICAL CENTER
4.74,2.17,35.52531,-97.58461,23803.58,6029.75,DEACONESS HOSPITAL
3.94,2.11,34.93621,-95.74888,18301.67,5659.75,MCALESTER REGIONAL HEALTH CENTER
3.64,2.17,34.60992,-98.43419,16184.50,6096.62,COMANCHE COUNTY MEMORIAL HOSPITAL
3.14,2.13,35.91530,-94.94996,12737.00,5780.83,TAHLEQUAH CITY HOSPITAL
4.04,2.29,36.06135,-95.95154,18974.14,6890.86,SAINT FRANCIS HOSPITAL, INC
5.45,2.59,35.48138,-97.49624,28726.71,8943.00,O U MEDICAL CENTER
5.86,2.30,35.42168,-97.53306,31555.20,6929.00,INTEGRIS SOUTHWEST MEDICAL CENTER
3.53,2.18,36.13393,-95.96718,15446.47,6108.21,ST JOHN MEDICAL CENTER, INC
4.74,2.19,36.03590,-95.86511,23769.69,6225.31,SOUTHCREST HOSPITAL
4.44,2.09,35.60901,-97.59429,21705.05,5538.95,OKLAHOMA HEART HOSPITAL
5.07,2.07,35.38969,-97.42688,26076.27,5392.27,OKLAHOMA HEART HOSPITAL SOUTH
4.18,2.54,45.58783,-121.16575,19898.08,8637.00,MID-COLUMBIA MEDICAL CENTER
3.77,2.29,42.42112,-123.34326,17074.21,6883.07,THREE RIVERS COMMUNITY HOSPITAL
3.96,2.65,45.50973,-122.77368,18415.60,9344.76,PROVIDENCE ST VINCENT MEDICAL CENTER
3.84,2.26,44.60322,-123.25312,17567.08,6714.08,GOOD SAMARITAN REGIONAL MEDICAL CENTER
4.31,2.47,42.31769,-122.83333,20802.35,8107.70,ROGUE VALLEY MEDICAL CENTER
2.92,2.72,44.28804,-121.16952,11262.45,9887.27,ST CHARLES MEDICAL CENTER - REDMOND
3.29,2.33,44.06773,-121.26817,13815.45,7198.74,ST CHARLES MEDICAL CENTER - BEND
4.37,2.32,44.93267,-123.03418,21241.54,7078.92,SALEM HOSPITAL
3.97,2.32,44.02542,-116.97678,18504.31,7115.15,ST ALPHONSUS MEDICAL CENTER - ONTARIO, INC
3.30,2.30,45.52677,-122.61469,13848.39,6947.61,PROVIDENCE PORTLAND MEDICAL CENTER
4.15,2.46,42.34086,-122.86108,19714.07,8092.86,PROVIDENCE MEDFORD MEDICAL CENTER
3.69,2.41,44.08146,-123.02694,16526.17,7706.17,SACRED HEART MEDICAL CENTER - RIVERBEND
4.97,2.09,40.25296,-76.92151,25404.82,5545.35,HOLY SPIRIT HOSPITAL
6.64,2.65,40.96789,-76.60506,36879.74,9372.31,GEISINGER MEDICAL CENTER
7.68,2.30,42.11102,-80.07912,44095.00,6969.07,SAINT VINCENT HEALTH CENTER
5.84,2.65,40.25092,-75.27204,31353.09,9391.91,LANSDALE HOSPITAL
2.87,2.11,40.97877,-76.88593,10861.64,5638.45,EVANGELICAL COMMUNITY HOSPITAL
9.85,2.32,40.07880,-75.21107,59035.41,7119.82,CHESTNUT HILL HOSPITAL
11.86,3.00,40.00504,-75.15155,72940.62,11779.85,TEMPLE UNIVERSITY HOSPITAL
2.87,2.21,40.68423,-76.18761,10894.43,6316.50,SCHUYLKILL MEDICAL CENTER - SOUTH JACKSON STREET
7.76,2.20,40.43850,-75.34895,44663.67,6288.00,ST LUKE'S QUAKERTOWN HOSPITAL
3.32,2.21,40.71251,-80.32136,13991.73,6330.27,HERITAGE VALLEY BEAVER
4.61,2.42,40.33271,-75.95020,22921.37,7781.33,READING HOSPITAL MEDICAL CENTER
3.79,2.22,41.24548,-77.01438,17250.18,6432.24,WILLIAMSPORT REGIONAL MEDICAL CENTER
3.43,2.45,39.94604,-76.71884,14751.76,7982.09,YORK HOSPITAL
3.53,2.19,40.61795,-77.56734,15473.61,6229.09,LEWISTOWN HOSPITAL
6.63,2.33,40.60811,-75.39260,36866.84,7148.33,ST LUKE'S HOSPITAL BETHLEHEM
5.58,2.32,40.36358,-75.32621,29599.87,7065.74,GRAND VIEW HOSPITAL
8.71,3.26,42.13338,-80.08703,51153.83,13606.52,UPMC HAMOT
3.36,2.20,39.82440,-77.23455,14288.88,6292.94,GETTYSBURG HOSPITAL
4.87,2.15,40.32799,-76.44588,24712.08,5912.62,GOOD SAMARITAN HOSPITAL
3.55,2.36,40.25661,-76.87572,15559.26,7404.74,PINNACLE HEALTH HOSPITALS
4.12,2.18,40.52204,-78.39824,19532.41,6122.76,ALTOONA REGIONAL HEALTH SYSTEM
8.09,2.22,40.00955,-75.78622,46928.00,6376.67,BRANDYWINE HOSPITAL
4.30,2.34,41.98012,-76.52072,20752.28,7246.97,ROBERT PACKER HOSPITAL
3.72,2.16,41.11492,-78.77515,16766.38,6010.85,DUBOIS REGIONAL MEDICAL CENTER
3.89,2.35,40.37587,-75.97750,17937.08,7273.31,ST JOSEPH MEDICAL CENTER
11.89,2.27,40.11139,-75.09250,73099.42,6769.83,HOLY REDEEMER HOSPITAL AND MEDICAL CENTER
4.66,2.22,40.04740,-76.30540,23213.32,6417.58,LANCASTER GENERAL HOSPITAL
5.41,2.47,40.48928,-79.89596,28450.77,8138.38,UPMC ST MARGARET
5.76,2.10,40.57319,-80.01455,30844.56,5588.39,UPMC PASSAVANT
3.80,2.31,40.32674,-78.92197,17303.52,7037.78,CONEMAUGH VALLEY MEMORIAL HOSPITAL
8.92,2.74,39.95045,-75.19259,52663.95,9996.70,HOSPITAL OF UNIV OF PENNSYLVANIA
4.21,2.21,41.64205,-80.14579,20137.45,6317.82,MEADVILLE MEDICAL CENTER
8.99,2.45,40.07160,-74.98341,53101.74,8024.19,ARIA HEALTH
8.31,2.17,40.12344,-75.51493,48453.73,6084.27,PHOENIXVILLE HOSPITAL
6.44,2.39,40.60000,-75.47000,35496.91,7588.84,LEHIGH VALLEY HOSPITAL
5.58,2.35,41.25860,-75.86729,29602.50,7290.78,WILKES-BARRE GENERAL HOSPITAL
8.42,2.25,40.01883,-75.32115,49176.55,6587.30,MAIN LINE HOSPITAL BRYN MAWR CAMPUS
6.12,2.98,40.03678,-75.14351,33347.95,11681.00,ALBERT EINSTEIN MEDICAL CENTER
3.58,2.08,40.30103,-79.55505,15788.18,5418.94,EXCELA HEALTH WESTMORELAND REGIONAL HOSPITAL
3.94,2.24,39.93492,-77.64744,18304.71,6518.33,CHAMBERSBURG HOSPITAL
7.84,2.16,40.04475,-75.50425,45171.79,5964.85,MAIN LINE HOSPITAL PAOLI
8.52,2.63,39.92871,-75.26873,49876.25,9243.55,MERCY FITZGERALD HOSPITAL
8.71,2.33,40.68708,-75.24272,51154.67,7164.42,EASTON HOSPITAL
8.04,2.62,40.44190,-79.96044,46597.09,9172.32,UPMC PRESBYTERIAN SHADYSIDE
7.43,2.92,39.94969,-75.15712,42340.81,11220.45,THOMAS JEFFERSON UNIVERSITY HOSPITAL
3.63,2.08,41.41133,-80.37169,16114.42,5443.25,UPMC HORIZON
4.99,2.20,39.97024,-75.60259,25526.29,6270.64,CHESTER COUNTY HOSPITAL
19.54,2.50,39.85598,-75.36791,125923.00,8325.25,CROZER CHESTER MEDICAL CENTER
8.59,2.60,39.98905,-75.27707,50385.95,9032.84,MAIN LINE HOSPITAL LANKENAU
4.54,2.42,40.99225,-75.17466,22418.85,7798.10,POCONO MEDICAL CENTER
5.76,2.20,40.30531,-75.14763,30835.46,6296.23,DOYLESTOWN HOSPITAL
8.08,2.44,39.91254,-75.43047,46834.23,7960.69,RIDDLE MEMORIAL HOSPITAL
5.47,2.15,40.18739,-76.18224,28850.81,5934.75,EPHRATA COMMUNITY HOSPITAL
9.11,2.52,39.94560,-75.15561,53979.13,8457.07,PENNSYLVANIA HOSP OF THE UNIV OF PA HEALTH SYS
3.83,2.04,40.37782,-80.06589,17539.25,5150.06,ST CLAIR MEMORIAL HOSPITAL
8.88,2.29,40.12077,-75.11818,52342.18,6875.34,ABINGTON MEMORIAL HOSPITAL
3.04,2.28,39.80858,-76.98306,12069.55,6792.55,HANOVER HOSPITAL
4.21,2.13,41.41276,-75.65399,20123.89,5775.50,REGIONAL HOSPITAL OF SCRANTON
3.85,2.60,40.26468,-76.67582,17655.89,9042.43,MILTON S HERSHEY MEDICAL CENTER
6.53,2.23,40.20064,-74.92952,36127.75,6477.09,ST MARY MEDICAL CENTER
6.66,2.26,40.64463,-75.40842,37043.39,6695.09,LEHIGH VALLEY HOSPITAL - MUHLENBERG
3.14,2.08,40.31802,-79.93494,12756.19,5427.33,JEFFERSON REGIONAL MEDICAL CENTER
4.03,2.17,40.42897,-79.74808,18896.92,6081.85,WESTERN PENNSYLVANIA HOSP FORBES REGIONAL CAMPUS
4.10,2.14,40.81936,-77.84273,19401.75,5836.65,MOUNT NITTANY MEDICAL CENTER
5.05,2.25,41.25855,-75.81041,25944.07,6622.43,GEISINGER WYOMING VALLEY MEDICAL CENTER
4.30,2.32,41.85574,-71.45945,20757.00,7113.36,ST JOSEPH HEALTH SERVICES OF RI
4.30,2.24,41.49735,-71.30619,20743.33,6522.33,NEWPORT HOSPITAL
5.41,2.68,41.81254,-71.40760,28391.68,9599.48,RHODE ISLAND HOSPITAL
5.08,2.33,41.85172,-71.39826,26175.53,7146.50,MIRIAM HOSPITAL
4.10,2.20,34.95535,-81.05137,19364.70,6277.50,PIEDMONT MEDICAL CENTER
3.72,2.79,32.78272,-79.94543,16772.85,10340.31,MUSC MEDICAL CENTER
4.40,2.33,34.96733,-81.94021,21431.50,7169.62,SPARTANBURG REGIONAL MEDICAL CENTER
4.38,2.17,34.69403,-82.98884,21327.53,6030.29,OCONEE MEDICAL CENTER
7.81,2.54,34.02839,-81.03539,44958.34,8616.62,PALMETTO HEALTH RICHLAND
5.87,2.19,34.83965,-82.42147,31601.69,6210.50,ST FRANCIS-DOWNTOWN
3.64,2.12,34.01469,-81.01343,16214.78,5697.93,SISTERS OF CHARITY PROVIDENCE HOSPITALS
5.59,2.29,34.51119,-82.64683,29645.25,6912.25,ANMED HEALTH
7.59,2.22,34.71787,-80.78844,43433.82,6404.82,SPRINGS MEMORIAL HOSPITAL
6.12,2.27,34.19543,-79.76256,33336.87,6720.35,MCLEOD REGIONAL MEDICAL CENTER-PEE DEE
4.97,2.19,34.18661,-79.32541,25382.55,6223.73,MARION REGIONAL HOSPITAL
5.43,2.24,32.80878,-80.04216,28521.31,6518.00,BON SECOURS-ST FRANCIS XAVIER HOSPITAL
4.31,2.30,32.33977,-80.68817,20810.55,6949.45,BEAUFORT COUNTY MEMORIAL HOSPITAL
4.87,2.32,33.62185,-80.74922,24666.00,7078.94,TRMC OF ORANGEBURG & CALHOUN
3.16,2.24,33.92320,-80.34308,12878.95,6574.26,TUOMEY HEALTHCARE SYSTEM
6.35,2.59,34.17571,-82.15791,34876.66,8991.66,SELF REGIONAL HEALTHCARE
5.41,2.15,34.00533,-81.11393,28423.11,5950.02,LEXINGTON MEDICAL CENTER
5.52,2.43,34.81904,-82.41308,29199.95,7888.37,GREENVILLE MEMORIAL HOSPITAL
5.79,2.55,32.97605,-80.07302,31038.65,8670.40,TRIDENT MEDICAL CENTER
4.43,2.48,32.22325,-80.71444,21688.47,8218.09,HILTON HEAD REGIONAL MEDICAL CENTER
7.04,2.50,34.94957,-81.93205,39684.46,8359.54,MARY BLACK MEMORIAL HOSPITAL
4.62,2.12,33.70704,-78.89487,22978.29,5712.23,GRAND STRAND REG MED CENTER
6.11,2.25,34.00754,-81.03270,33240.77,6590.31,PALMETTO HEALTH BAPTIST
5.33,2.20,32.78211,-79.95018,27842.35,6302.35,ROPER HOSPITAL
8.36,2.23,34.19543,-79.76256,48752.21,6453.86,CAROLINAS HOSPITAL SYSTEM
4.75,2.06,33.59553,-79.02412,23864.00,5327.50,WACCAMAW COMMUNITY HOSPITAL
3.14,2.23,44.91113,-97.12063,12728.91,6496.55,PRAIRIE LAKES HOSPITAL
4.19,2.30,42.87249,-97.40741,20021.17,6949.00,AVERA SACRED HEART HOSPITAL
4.09,2.28,43.71370,-98.00748,19325.75,6837.00,AVERA QUEEN OF PEACE
4.07,2.33,45.46141,-98.47929,19172.87,7192.27,AVERA ST LUKES
4.07,2.35,43.53460,-96.71136,19204.30,7331.94,AVERA MCKENNAN HOSPITAL & UNIVERSITY HEALTH CENTER
4.32,2.27,43.53562,-96.74305,20918.67,6758.88,SANFORD USD MEDICAL CENTER
4.19,2.59,44.05563,-103.22633,20022.05,8972.62,RAPID CITY REGIONAL HOSPITAL
4.55,2.16,43.49092,-96.78037,22483.33,5978.00,AVERA HEART HOSPITAL OF SOUTH DAKOTA LLC
3.05,2.22,35.63906,-88.83207,12161.14,6402.28,JACKSON-MADISON COUNTY GENERAL HOSPITAL
4.09,2.15,35.93917,-85.01865,19337.71,5934.94,CUMBERLAND MEDICAL CENTER
4.10,2.08,35.75588,-83.95808,19371.31,5424.75,BLOUNT MEMORIAL HOSPITAL
3.90,2.14,36.58587,-82.25703,18030.62,5861.85,WELLMONT BRISTOL REGIONAL MEDICAL CENTER
3.57,2.28,35.93985,-83.94326,15724.18,6797.00,UNIVERSITY OF TN MEMORIAL HOSPITAL
3.75,2.11,36.55401,-82.55483,16978.00,5622.35,WELLMONT HOLSTON VALLEY MEDICAL CENTER
4.92,2.11,36.34603,-82.24972,25045.82,5660.91,SYCAMORE SHOALS HOSPITAL
3.17,2.06,36.17561,-82.79033,12984.25,5305.17,LAUGHLIN MEMORIAL HOSPITAL, INC
3.02,2.09,35.91595,-86.81799,11898.29,5546.21,WILLIAMSON MEDICAL CENTER
3.10,2.00,35.98589,-84.28055,12448.85,4891.30,METHODIST MEDICAL CENTER OF OAK RIDGE
5.92,2.20,36.58199,-87.27050,31949.64,6245.82,GATEWAY MEDICAL CENTER
4.04,2.58,36.14316,-86.80048,18989.55,8912.75,VANDERBILT UNIVERSITY HOSPITAL
4.52,2.25,34.50579,-92.96678,22259.57,6612.36,HORIZON MEDICAL CENTER
5.04,2.22,35.12837,-89.86202,25870.16,6427.38,BAPTIST MEMORIAL HOSPITAL
4.84,2.43,35.13640,-90.01928,24493.66,7830.94,METHODIST HEALTHCARE MEMPHIS HOSPITALS
4.29,2.20,36.15127,-82.84593,20674.69,6291.15,TAKOMA REGIONAL HOSPITAL
3.95,2.14,35.86074,-86.42434,18363.22,5860.89,MIDDLE TENNESSEE MEDICAL CENTER INC
4.03,2.23,35.17733,-86.09081,18890.17,6474.08,SOUTHERN TENNESSEE MEDICAL CENTER
3.28,2.18,36.17121,-85.50938,13733.49,6141.09,COOKEVILLE REGIONAL MEDICAL CENTER
4.69,2.30,36.30767,-82.38497,23448.22,6943.50,JOHNSON CITY MEDICAL CENTER
2.98,2.12,35.60668,-87.06635,11679.36,5735.93,MAURY REGIONAL HOSPITAL
3.36,2.13,35.85418,-83.53731,14285.58,5783.17,LECONTE MEDICAL CENTER
3.75,2.12,36.12859,-86.84559,16985.22,5732.00,ST THOMAS HOSPITAL
4.60,2.13,35.04157,-85.26037,22834.96,5756.00,MEMORIAL HEALTHCARE SYSTEM, INC
4.05,2.36,35.05068,-85.28823,19008.72,7376.11,ERLANGER MEDICAL CENTER
3.99,2.09,35.99233,-83.92697,18610.08,5526.12,TENNOVA HEALTHCARE
3.37,2.07,35.95747,-83.93660,14331.42,5403.67,FORT SANDERS REGIONAL MEDICAL CENTER
4.07,2.19,36.15388,-86.80249,19196.14,6206.77,BAPTIST HOSPITAL
5.10,2.15,35.36202,-86.20943,26261.31,5903.08,HARTON REGIONAL MEDICAL CENTER
4.70,2.16,36.17752,-86.60840,23487.82,5966.47,SUMMIT MEDICAL CENTER
5.25,2.35,35.03467,-85.26735,27304.29,7294.71,PARKRIDGE MEDICAL CENTER
5.64,2.28,36.15310,-86.80910,30034.31,6824.50,CENTENNIAL MEDICAL CENTER
3.36,2.10,35.91765,-84.10080,14280.10,5582.74,PARKWEST MEDICAL CENTER
3.84,2.02,35.24230,-87.33474,17561.06,4998.31,CROCKETT HOSPITAL
7.97,2.66,35.09925,-89.86301,46053.69,9449.15,ST FRANCIS HOSPITAL
5.84,2.18,35.17731,-84.86873,31409.57,6112.43,SKYRIDGE MEDICAL CENTER
4.69,2.18,35.68445,-88.85461,23468.58,6147.33,REGIONAL HOSPITAL OF JACKSON
4.77,2.21,36.32443,-86.62304,24023.46,6319.92,HENDERSONVILLE MEDICAL CENTER
9.45,2.16,35.20713,-89.80059,56258.53,6010.20,SAINT FRANCIS BARTLETT MEDICAL CENTER
3.70,2.18,30.04413,-99.15217,16638.24,6125.94,PETERSON REGIONAL MEDICAL CENTER
5.82,2.27,33.90296,-98.50035,31278.56,6756.67,UNITED REGIONAL HEALTH CARE SYSTEM
6.43,2.26,30.65598,-96.34672,35456.66,6667.59,ST JOSEPH REGIONAL HEALTH CENTER
5.59,2.98,32.81043,-96.83699,29628.17,11625.67,PARKLAND HEALTH AND HOSPITAL SYSTEM
4.11,3.49,29.31233,-94.77317,19459.90,15138.19,UNIVERSITY OF TEXAS MEDICAL BRANCH GAL
4.55,2.48,32.78994,-96.78044,22483.82,8217.67,BAYLOR UNIVERSITY MEDICAL CENTER
4.98,2.10,28.81269,-96.97780,25482.92,5553.92,CITIZENS MEDICAL CENTER
5.84,2.18,30.08729,-94.13292,31372.73,6110.65,CHRISTUS HOSPITAL
6.94,2.66,29.74802,-95.36609,38951.55,9443.00,ST JOSEPH MEDICAL CENTER
5.28,2.19,32.50219,-94.73025,27512.00,6223.82,GOOD SHEPHERD MEDICAL CENTER
10.24,2.19,33.57524,-101.89272,61773.14,6183.29,COVENANT MEDICAL CENTER
4.53,2.11,31.51444,-97.19927,22340.58,5622.70,PROVIDENCE HEALTH CENTER
5.26,2.43,32.81224,-96.83795,27400.95,7832.47,UT SOUTHWESTERN UNIVERSITY HOSPITAL
7.53,2.28,27.77751,-97.39515,43058.38,6848.17,CHRISTUS SPOHN HOSPITAL CORPUS CHRISTI
5.27,2.57,32.76017,-96.82437,27434.08,8852.33,METHODIST DALLAS MEDICAL CENTER
3.99,2.46,31.07837,-97.36403,18644.26,8093.55,SCOTT & WHITE MEMORIAL HOSPITAL
6.61,2.19,30.30491,-97.74540,36707.94,6205.17,SETON MEDICAL CENTER AUSTIN
6.07,2.27,29.43360,-98.49265,32997.73,6769.47,BAPTIST MEDICAL CENTER
5.16,2.18,32.74944,-97.11630,26666.92,6118.00,TEXAS HEALTH ARLINGTON MEMORIAL HOSPITAL
7.12,2.89,29.71431,-95.39680,40212.85,11051.23,MEMORIAL HERMANN TEXAS MEDICAL CENTER
4.42,2.22,32.83520,-96.96101,21595.17,6430.92,BAYLOR MEDICAL CENTER AT IRVING
7.92,2.16,32.33824,-95.29122,45740.40,5976.27,EAST TEXAS MEDICAL CENTER
3.63,2.25,31.48969,-97.15613,16167.73,6628.36,HILLCREST BAPTIST MEDICAL CENTER
7.05,2.13,32.34280,-95.29201,39764.87,5798.70,MOTHER FRANCES HOSPITAL
4.19,2.21,29.56876,-97.94776,19992.23,6342.23,GUADALUPE REGIONAL MEDICAL CENTER
10.13,2.53,26.26353,-98.18455,60989.41,8557.53,SOUTH TEXAS HEALTH SYSTEM
4.80,2.32,31.84507,-102.37373,24196.81,7121.75,MEDICAL CENTER HOSPITAL
4.08,2.23,31.99616,-102.09950,19236.77,6509.85,MIDLAND MEMORIAL HOSPITAL
5.17,2.25,32.73780,-97.33899,26795.78,6634.35,TEXAS HEALTH HARRIS METHODIST FORT WORTH
4.76,2.38,32.73070,-97.34379,23959.36,7516.57,BAYLOR ALL SAINTS MEDICAL CENTER AT FW
8.65,2.22,28.80765,-96.99896,50778.25,6397.00,DETAR HOSPITAL NAVARRO
4.47,2.18,31.11326,-97.80076,21953.29,6124.24,METROPLEX HOSPITAL
5.05,2.39,29.81230,-95.43010,25925.59,7582.47,MEMORIAL HERMANN HOSPITAL SYSTEM
5.43,2.61,29.70719,-95.40048,28532.08,9087.88,ST LUKES EPISCOPAL HOSPITAL
4.18,2.23,33.65984,-95.54752,19955.72,6489.50,PARIS REGIONAL MEDICAL CENTER
7.86,2.14,32.74765,-97.78477,45336.73,5828.27,WEATHERFORD REGIONAL MEDICAL CENTER
6.85,2.09,31.33632,-94.74205,38369.36,5490.82,MEMORIAL HEALTH SYSTEM OF EAST TEXAS- LUFKIN
8.40,2.26,30.28473,-95.46714,49058.10,6684.00,CONROE REGIONAL MEDICAL CENTER
5.20,2.25,32.47171,-99.73315,26938.30,6645.65,HENDRICK MEDICAL CENTER
4.43,2.10,35.19533,-101.91907,21635.88,5576.37,BAPTIST ST ANTHONYS HEALTH SYSTEM-BAPTIST CAMPUS
5.19,2.59,29.42825,-98.49859,26922.96,8968.75,CHRISTUS SANTA ROSA HOSPITAL
4.92,2.49,32.91949,-96.66214,25022.81,8305.19,BAYLOR MEDICAL CENTER AT GARLAND
3.80,2.82,29.68674,-95.38652,17330.79,10573.64,HARRIS COUNTY HOSPITAL DISTRICT
4.92,2.24,33.71085,-96.58493,25012.10,6532.38,TEXOMA MEDICAL CENTER
5.19,2.21,31.42009,-100.47013,26874.64,6319.91,SAN ANGELO COMMUNITY MEDICAL CENTER
5.80,2.22,30.07104,-94.11927,31125.50,6410.42,MEMORIAL HERMANN BAPTIST BEAUMONT HOSPITAL
4.73,2.23,30.69934,-95.55927,23723.87,6493.60,HUNTSVILLE MEMORIAL HOSPITAL
4.34,2.26,33.12242,-96.12404,21020.74,6658.16,HUNT REGIONAL MEDICAL CENTER
6.91,2.40,29.71020,-95.39956,38761.88,7680.91,METHODIST HOSPITAL,THE
4.40,2.20,32.39611,-96.86404,21461.45,6245.64,BAYLOR MEDICAL CENTER AT WAXAHACHIE
7.00,2.31,29.50795,-98.57224,39364.22,7044.33,METHODIST HOSPITAL
9.86,2.21,32.17167,-95.84417,59133.91,6317.55,EAST TEXAS MEDICAL CENTER ATHENS
5.83,2.37,30.28957,-97.72584,31329.16,7451.19,ST DAVIDS MEDICAL CENTER
4.89,2.28,32.88076,-96.76226,24851.82,6849.52,TEXAS HEALTH PRESBYTERIAN HOSPITAL  DALLAS
9.87,2.17,32.40574,-99.76486,59179.62,6083.38,ABILENE REGIONAL MEDICAL CENTER
5.20,2.15,31.67746,-98.99374,26947.75,5905.81,BROWNWOOD REGIONAL MEDICAL CENTER
4.85,2.20,29.78143,-95.54541,24533.04,6248.38,MEMORIAL HERMANN MEMORIAL CITY MEDICAL CENTER
10.32,2.24,29.54043,-95.12730,62320.46,6553.25,CLEAR LAKE REGIONAL MEDICAL CENTER
6.35,2.16,32.83479,-97.12428,34930.84,5978.20,TEXAS HEALTH HARRIS METHODIST HURST-EULESS-BEDFORD
8.28,2.22,33.02168,-96.76621,48189.39,6390.67,MEDICAL CENTER OF PLANO
9.55,2.46,25.97780,-97.51442,56986.33,8039.08,VALLEY REGIONAL MEDICAL CENTER
9.46,2.22,31.77757,-106.48060,56385.31,6409.94,SIERRA MEDICAL CENTER
4.37,2.47,33.58838,-101.89214,21209.00,8157.95,UNIVERSITY MEDICAL CENTER
5.74,2.23,30.22723,-97.77447,30716.67,6478.38,ST DAVID'S SOUTH AUSTIN MEDICAL CENTER
5.65,2.29,32.64448,-96.87635,30069.91,6870.64,METHODIST CHARLTON MEDICAL CENTER
5.74,2.15,32.91839,-96.50863,30665.57,5914.07,LAKE POINTE MEDICAL CENTER
5.78,2.24,33.21746,-97.16488,30939.15,6520.62,TEXAS HEALTH PRESBYTERIAN HOSPITAL DENTON
6.74,2.17,33.04405,-96.83853,37611.25,6051.62,TEXAS HEALTH PRESBYTERIAN HOSPITAL PLANO
9.14,2.28,30.05004,-95.25454,54157.71,6807.00,KINGWOOD MEDICAL CENTER
6.20,2.28,27.69288,-97.34476,33893.45,6802.45,CORPUS CHRISTI MEDICAL CENTER,THE
5.23,2.08,33.46323,-94.07490,27177.16,5444.35,CHRISTUS ST MICHAEL HEALTH SYSTEM
5.96,2.28,30.41163,-97.70649,32202.74,6824.37,NORTH AUSTIN MEDICAL CENTER
6.81,2.20,29.58896,-95.63112,38061.23,6240.00,METHODIST SUGAR LAND HOSPITAL
5.24,2.24,29.78747,-95.78578,27219.17,6546.92,MEMORIAL HERMANN KATY HOSPITAL
5.87,2.19,30.20579,-95.45830,31578.36,6230.91,ST LUKE'S THE WOODLANDS HOSPITAL
4.82,2.13,33.01358,-96.78823,24326.56,5783.72,BAYLOR REGIONAL MEDICAL CENTER AT PLANO
3.40,2.25,40.24999,-111.66524,14562.73,6643.30,UTAH VALLEY REGIONAL MEDICAL CENTER
3.65,2.28,41.22300,-111.97383,16265.14,6818.23,MCKAY DEE HOSPITAL CENTER
4.11,2.17,41.16297,-111.97044,19448.20,6094.47,OGDEN REGIONAL MEDICAL CENTER
3.48,2.31,40.77848,-111.88062,15103.82,7025.64,LDS HOSPITAL
2.81,2.32,37.65268,-113.08129,10499.06,7132.00,VALLEY VIEW MEDICAL CENTER
3.38,2.59,40.77170,-111.83681,14378.58,8934.14,UNIVERSITY HEALTH CARE/UNIV HOSPITALS AND  CLINICS
3.92,2.39,40.65922,-111.89189,18130.04,7581.20,INTERMOUNTAIN MEDICAL CENTER
3.48,2.28,37.09986,-113.55271,15077.22,6840.26,DIXIE REGIONAL MEDICAL CENTER
3.72,2.33,40.38031,-111.76708,16742.85,7155.00,AMERICAN FORK HOSPITAL
3.37,2.16,41.09098,-111.99557,14319.07,6028.21,DAVIS HOSPITAL AND MEDICAL CENTER
4.93,2.14,40.88620,-111.86916,25135.32,5864.89,LAKEVIEW HOSPITAL
2.75,2.14,40.58008,-111.85530,10043.86,5871.93,ALTA VIEW HOSPITAL
3.94,2.22,40.68610,-111.85735,18278.56,6420.36,ST MARKS HOSPITAL
4.00,2.31,40.58979,-111.97499,18667.29,7040.64,JORDAN VALLEY MEDICAL CENTER
3.24,2.68,44.47966,-73.19412,13474.77,9580.74,FLETCHER ALLEN HOSPITAL OF VERMONT
4.01,2.54,43.59828,-72.95512,18744.15,8642.85,RUTLAND REGIONAL MEDICAL CENTER
2.91,2.24,42.87397,-73.20739,11148.75,6530.19,SOUTHWESTERN VERMONT MEDICAL CENTER
4.54,2.22,36.93195,-82.64382,22418.00,6384.08,NORTON COMMUNITY HOSPITAL
3.21,2.26,38.40552,-78.85730,13215.10,6661.86,ROCKINGHAM MEMORIAL HOSPITAL
3.25,2.22,39.19345,-78.19599,13503.84,6400.08,WINCHESTER MEDICAL CENTER INC
4.43,2.41,36.86268,-76.30355,21678.50,7722.92,SENTARA NORFOLK GENERAL HOSPITAL
4.42,2.76,38.02573,-78.51526,21559.06,10161.38,UNIVERSITY OF VIRGINIA MEDICAL CENTER
4.36,2.22,36.83716,-76.34786,21161.06,6388.06,BON SECOURS MARYVIEW MEDICAL CENTER
2.83,2.24,38.09436,-78.98659,10587.11,6561.78,AUGUSTA HEALTH
3.99,2.22,38.45568,-78.01359,18642.55,6412.73,CULPEPER REGIONAL HOSPITAL
2.82,2.16,37.41368,-79.16870,10546.22,5971.38,CENTRA  HEALTH, INC
5.28,2.41,38.31158,-77.48061,27525.18,7741.22,MARY WASHINGTON HOSPITAL, INC
4.65,2.44,38.71322,-77.80895,23187.22,7916.61,THE FAUQUIER HOSPITAL, INC
4.16,2.35,37.25129,-79.94125,19799.03,7313.41,CARILION ROANOKE MEMORIAL CENTER
6.27,3.31,37.54330,-77.42932,34353.50,13943.50,MEDICAL COLLEGE OF VIRGINIA HOSPITALS
4.06,2.51,38.82218,-77.10533,19075.85,8399.38,INOVA ALEXANDRIA HOSPITAL
3.94,2.23,37.09020,-80.50370,18279.47,6485.07,CARILION NEW RIVER VALLEY MEDICAL CENTER
3.71,2.23,39.07405,-77.47754,16659.35,6507.19,INOVA LOUDOUN HOSPITAL
5.24,2.16,36.77378,-76.57856,27255.94,6029.06,SENTARA OBICI HOSPITAL
3.98,2.10,36.85098,-76.18989,18565.11,5610.86,SENTARA LEIGH HOSPITAL
5.02,2.12,37.26336,-80.03166,25715.86,5722.38,LEWISGALE MEDICAL CENTER
3.29,2.29,38.88916,-77.12796,13808.31,6878.03,VIRGINIA HOSPITAL CENTER - ARLINGTON
4.03,2.47,37.06523,-76.48417,18929.11,8150.95,RIVERSIDE REGIONAL MEDICAL CENTER
4.17,2.04,36.72172,-81.91249,19868.70,5181.65,JOHNSTON MEMORIAL HOSPITAL
4.79,2.11,36.86449,-76.02844,24118.86,5621.95,SENTARA VIRGINIA BEACH GENERAL HOSPITAL
4.07,2.20,37.58440,-77.51252,19181.96,6286.78,BON SECOURS - ST MARYS HOSPITAL OF RICHMOND
5.12,2.13,37.09990,-81.79024,26395.23,5801.08,CLINCH VALLEY MEDICAL CENTER
3.79,2.47,38.85764,-77.22772,17223.93,8144.06,INOVA FAIRFAX HOSPITAL
3.86,2.05,37.33700,-76.74046,17730.00,5247.96,SENTARA WILLIAMSBURG REGIONAL MEDICAL CENTER
9.45,2.24,37.18253,-77.35957,56315.47,6555.05,SOUTHSIDE REGIONAL MEDICAL CENTER
4.60,2.28,37.62931,-77.38804,22823.89,6830.39,BON SECOURS - MEMORIAL REGIONAL MEDICAL
4.30,2.18,36.57812,-79.40453,20737.23,6150.54,DANVILLE REGIONAL MEDICAL CENTER
2.80,2.09,38.02176,-78.44530,10386.74,5524.44,MARTHA JEFFERSON HOSPITAL
4.82,2.30,36.69555,-79.86374,24369.38,6930.85,MEMORIAL HOSPITAL OF MARTINSVILLE & HENRY COUNTY
3.99,2.26,37.90065,-76.87966,18622.50,6681.17,RIVERSIDE TAPPAHANNOCK HOSPITAL
4.40,2.12,37.05580,-76.39048,21434.24,5710.65,SENTARA CAREPLEX HOSPITAL
3.89,2.42,38.88483,-77.37995,17937.06,7798.29,INOVA FAIR OAKS HOSPITAL
4.58,2.25,38.96206,-77.36489,22682.57,6588.93,RESTON HOSPITAL CENTER
7.53,2.31,37.51021,-77.59525,43014.52,7005.65,CJW MEDICAL CENTER
3.78,2.51,38.63463,-77.28361,17170.91,8387.18,SENTARA POTOMAC HOSPITAL
7.64,2.19,37.60459,-77.53929,43805.62,6226.69,HENRICO DOCTORS' HOSPITAL
4.38,2.15,36.77664,-76.09682,21321.62,5926.90,SENTARA PRINCESS ANNE HOSPITAL
3.65,2.16,36.74610,-76.24609,16275.97,6009.64,CHESAPEAKE REGIONAL MEDICAL CENTER
4.60,2.32,37.79106,-79.88263,22863.82,7113.00,LEWISGALE HOSPITAL ALLEGHANY
4.51,2.13,38.41411,-77.40700,22215.82,5764.00,STAFFORD HOSPITAL, LLC
4.61,2.27,47.71468,-122.33762,22927.94,6758.35,NORTHWEST HOSPITAL
4.66,2.34,48.41789,-122.32370,23253.73,7262.82,SKAGIT VALLEY HOSPITAL
3.18,2.49,47.60948,-122.32811,13011.18,8266.82,VIRGINIA MASON MEDICAL CENTER
3.04,2.28,48.50066,-122.61584,12036.08,6850.15,ISLAND HOSPITAL
3.71,2.94,47.64928,-122.30681,16698.38,11378.48,UNIVERSITY OF WASHINGTON MEDICAL CTR
4.20,2.42,47.45757,-122.34315,20070.92,7785.00,HIGHLINE MEDICAL CENTER
4.32,2.35,48.00091,-122.20600,20913.33,7272.67,PROVIDENCE REGIONAL MEDICAL CENTER EVERETT
4.26,2.35,47.40667,-120.32000,20459.04,7292.41,CENTRAL WASHINGTON HOSPITAL
6.41,2.34,47.15452,-122.50105,35302.40,7207.92,SAINT CLARE HOSPITAL
5.60,2.39,47.05286,-122.84707,29758.27,7573.55,PROVIDENCE ST PETER HOSPITAL
5.68,2.35,47.80329,-122.33420,30265.42,7278.11,SWEDISH EDMONDS HOSPITAL
5.61,2.46,47.60869,-122.32128,29784.36,8059.79,SWEDISH MEDICAL CENTER
5.16,2.52,48.77371,-122.47344,26699.50,8457.00,ST JOSEPH MEDICAL CENTER
4.05,2.43,46.59360,-120.54741,19031.82,7826.45,YAKIMA VALLEY MEMORIAL HOSPITAL
5.40,2.34,47.58295,-122.62506,28363.89,7256.85,HARRISON MEDICAL CENTER
4.28,2.38,46.13039,-122.94110,20637.27,7486.55,PEACHEALTH ST JOHN MEDICAL CENTER
5.93,2.38,45.62460,-122.58145,32013.42,7522.47,PEACEHEALTH SOUTHWEST MEDICAL CENTER
4.18,2.23,47.61943,-122.18605,19912.76,6448.03,OVERLAKE HOSPITAL MEDICAL CENTER
4.71,2.48,47.64936,-117.41194,23588.90,8198.59,PROVIDENCE SACRED HEART MEDICAL CENTER
4.10,2.29,46.28132,-119.28218,19387.73,6879.47,KADLEC REGIONAL MEDICAL CENTER
4.27,2.26,47.70969,-117.40722,20526.92,6674.76,PROVIDENCE HOLY FAMILY HOSPITAL
5.90,2.30,47.17742,-122.28943,31790.75,6966.80,MULTICARE GOOD SAMARITAN HOSPITAL
4.27,2.51,47.44243,-122.21392,20565.61,8406.56,VALLEY MEDICAL CENTER
6.36,2.42,47.24670,-122.44841,34945.53,7758.56,ST JOSEPH MEDICAL CENTER
4.35,2.30,47.67076,-117.23552,21137.47,6947.80,VALLEY HOSPITAL
5.18,2.30,47.71603,-122.17867,26854.46,6928.25,EVERGREEN HOSPITAL MEDICAL CENTER
5.46,2.63,47.25980,-122.45243,28793.50,9245.71,TACOMA GENERAL ALLENMORE HOSPITAL
5.54,2.42,47.29252,-122.32729,29318.11,7765.67,ST FRANCIS COMMUNITY HOSPITAL
4.68,2.35,45.72039,-122.64855,23364.00,7274.85,LEGACY SALMON CREEK MEDICAL CENTER
6.02,2.51,47.36373,-122.61353,32605.82,8383.06,ST ANTHONY HOSPITAL
4.00,2.55,39.65498,-79.95814,18658.27,8698.73,WEST VIRGINIA UNIVERSITY HOSPITALS
3.08,2.20,37.77324,-80.46826,12331.33,6291.67,GREENBRIER VALLEY MEDICAL CENTER
3.53,2.21,39.32836,-80.23964,15413.75,6326.83,UNITED HOSPITAL CENTER
3.16,2.18,38.43236,-82.40067,12874.63,6150.68,ST MARY'S MEDICAL CENTER
3.24,2.27,39.47923,-77.98177,13457.26,6772.95,CITY HOSPITAL
4.85,2.29,38.34739,-81.62600,24557.91,6861.41,CHARLESTON AREA MEDICAL CENTER
3.51,2.04,39.66383,-79.94681,15300.35,5143.65,MONONGALIA COUNTY GENERAL HOSPITAL
2.99,2.12,38.92594,-79.84673,11688.36,5706.36,DAVIS MEMORIAL HOSPITAL
2.91,2.14,37.36312,-81.11184,11200.29,5831.29,PRINCETON COMMUNITY HOSPITAL
3.76,2.12,39.48229,-80.16519,17054.08,5723.00,FAIRMONT GENERAL HOSPITAL
2.92,2.16,40.05809,-80.68471,11235.31,6003.00,WHEELING HOSPITAL
4.63,2.52,38.40959,-82.42708,23062.50,8452.50,CABELL-HUNTINGTON HOSPITAL INC
3.64,2.11,39.27035,-81.56026,16172.43,5663.43,CAMDEN CLARK MEDICAL CENTER
3.80,2.18,37.78754,-81.20183,17321.38,6120.33,RALEIGH GENERAL HOSPITAL
3.76,2.16,43.01152,-88.24308,17054.50,6008.35,WAUKESHA MEMORIAL HOSPITAL
4.06,2.33,44.79461,-91.51111,19081.42,7142.75,SACRED HEART HSPTL
4.52,2.30,45.63932,-89.37481,22266.06,6973.47,MINISTRY ST MARYS HOSPITAL
4.39,2.22,42.57776,-87.81939,21384.06,6418.00,UNITED HSPTL SYS
4.18,2.15,43.25993,-87.92418,19900.12,5934.12,COLUMBIA ST MARY'S HOSPITAL OZAUKEE, INC
3.91,2.31,44.96738,-89.66994,18081.45,7028.38,ASPIRUS WAUSAU HOSPITAL
3.61,2.38,44.67759,-90.17818,15971.19,7515.67,MINISTRY SAINT JOSEPH'S HOSPITAL
2.82,2.33,44.18700,-88.45431,10573.23,7178.92,THEDA CLARK MED CTR
3.17,2.20,44.50233,-88.01140,12946.65,6261.38,BELLIN MEMORIAL HSPTL
3.72,2.41,43.06195,-87.87861,16783.19,7729.33,COLUMBIA ST MARYS HSPTL  MILW (COL & MILW CAMPUS)
3.53,2.17,43.43840,-88.12382,15431.08,6054.00,ST JOSEPHS COM HSPTL WEST BEND
3.55,2.25,42.68685,-89.03244,15609.85,6591.67,MERCY HLTH SYS CORP
4.06,2.17,44.81192,-91.51352,19093.95,6054.05,MAYO CLINIC HEALTH SYSTEM EAU CLAIRE HOSPITAL
4.44,2.38,43.05867,-89.40269,21750.78,7495.11,ST MARY'S HOSPITAL
3.24,2.32,43.79515,-91.24798,13473.50,7080.07,GUNDERSEN LUTH MED CTR
3.77,2.44,43.06432,-89.40100,17071.23,7902.77,MERITER HSPTL
3.94,2.39,45.89438,-89.70190,18284.36,7588.18,HOWARD YOUNG MED CTR
3.33,2.31,42.73444,-87.82788,14056.97,6997.28,WHEATON FRANCISCAN HEALTHCARE- ALL SAINTS
4.84,2.19,42.54868,-89.00822,24492.29,6169.93,BELOIT MEM HSPTL
3.68,2.83,43.07633,-89.43133,16461.48,10597.97,UNIVERSITY OF WI  HOSPITALS & CLINICS AUTHORITY
3.64,2.20,42.66123,-88.49611,16201.55,6290.36,AURORA LAKELAND MED CTR
3.55,2.17,43.16402,-88.13829,15563.82,6041.71,COMMUNITY MEM HSPTL
3.27,2.16,44.09000,-87.66000,13667.46,5980.46,HOLY FAMILY MEMORIAL INC
3.64,2.24,45.07138,-87.61847,16239.25,6562.06,BAY AREA MED CTR
4.10,2.53,43.07393,-87.97612,19407.86,8519.71,WHEATON FRANCISCAN, INC- ST JOSEPH
5.50,2.50,42.98958,-87.95079,29008.51,8347.67,AURORA ST LUKES MEDICAL CENTER
4.62,2.21,43.00120,-88.02675,22991.13,6309.20,AURORA WEST ALLIS MEDICAL CENTER
2.38,2.19,44.27860,-88.39550,7530.93,6209.43,APPLETON MED CTR
4.20,2.70,43.04008,-88.02523,20084.91,9740.94,FROEDTERT MEM LUTHERAN HSPTL
4.61,2.31,42.56948,-87.93511,22870.19,7014.94,AURORA MED CTR KENOSHA
3.98,2.07,43.32426,-87.92776,18537.09,5404.27,AURORA MEDICAL CENTER
4.38,2.41,42.84802,-106.30851,21296.56,7701.66,WYOMING MEDICAL CENTER
4.33,2.62,41.14037,-104.81660,20961.36,9164.42,CHEYENNE REGIONAL MEDICAL CENTER
9.63,2.41,29.92585,-95.63108,57527.50,7734.14,NORTH CYPRESS MEDICAL CENTER
3.69,2.17,30.56344,-97.68455,16535.52,6063.48,SCOTT & WHITE HOSPITAL-ROUND ROCK
5.73,2.12,30.56899,-97.65104,30650.67,5714.50,SETON MEDICAL CENTER WILLIAMSON
7.90,2.20,31.79047,-106.26500,45580.91,6273.91,SIERRA PROVIDENCE EAST MEDICAL CENTER
5.69,2.22,29.61578,-98.47479,30377.00,6380.83,METHODIST STONE OAK HOSPITAL
4.72,2.16,31.21673,-85.36307,23680.30,6020.27,SOUTHEAST ALABAMA MEDICAL CENTER
4.66,2.10,34.80175,-87.67514,23228.43,5599.57,ELIZA COFFEE MEMORIAL HOSPITAL
