size,lat,lon,price,name
3.37,34.46784,-93.06667,22951.22,ST JOSEPHS MERCY HEALTH CENTER INC
2.45,36.34295,-92.39442,11646.70,BAXTER REGIONAL MEDICAL CENTER
2.76,35.37445,-94.41868,15487.88,SPARKS REGIONAL MEDICAL CENTER
3.22,34.74866,-92.35422,21074.87,BAPTIST HEALTH MEDICAL CENTER-LITTLE ROCK
3.12,35.80838,-90.66658,19919.06,NEA BAPTIST MEMORIAL HOSPITAL
3.61,35.76927,-91.63408,25873.86,WHITE RIVER MEDICAL CENTER
4.20,40.78366,-124.14246,33213.00,ST JOSEPH HOSPITAL
6.83,38.32472,-122.29671,65450.67,QUEEN OF THE VALLEY MEDICAL CENTER
5.66,37.79100,-122.43125,51170.55,CALIFORNIA PACIFIC MEDICAL CTR-PACIFIC CAMPUS HOSP
3.19,34.67486,-118.15771,20712.91,ANTELOPE VALLEY HOSPITAL MED CENTER
4.73,36.32737,-119.29548,39703.70,KAWEAH DELTA MEDICAL CENTER
4.15,33.78036,-117.86495,32604.43,ST JOSEPH HOSPITAL
6.96,37.96987,-121.28873,67161.20,ST JOSEPHS MED CENTER OF STOCKTON
3.91,38.28820,-122.46533,29646.64,SONOMA VALLEY HOSPITAL
4.62,36.83532,-119.76562,38278.37,SAINT AGNES MEDICAL CENTER
4.33,34.10130,-117.63651,34771.18,SAN ANTONIO COMMUNITY HOSPITAL
5.09,32.79949,-117.15394,44100.20,SHARP MEMORIAL HOSPITAL
5.14,38.57155,-121.46874,44671.14,SUTTER GENERAL HOSPITAL
5.79,34.02685,-118.48651,52658.00,SANTA MONICA - UCLA MED CTR & ORTHOPAEDIC HOSPITAL
3.64,33.18402,-117.29661,26257.67,TRI-CITY MEDICAL CENTER
6.01,38.25455,-122.63177,55401.83,PETALUMA VALLEY HOSPITAL
4.01,39.22809,-121.04721,30854.33,SIERRA NEVADA MEMORIAL HOSPITAL
6.06,38.44369,-122.70138,56090.60,SANTA ROSA MEMORIAL HOSPITAL
7.81,37.55717,-121.98126,77522.85,WASHINGTON HOSPITAL
3.51,33.62229,-117.92995,24705.79,HOAG MEMORIAL HOSPITAL PRESBYTERIAN
7.67,33.83862,-116.54557,75835.15,DESERT REGIONAL MEDICAL CENTER
4.59,40.58654,-122.39168,37927.95,MERCY MEDICAL CENTER REDDING
4.99,34.50107,-117.17285,42821.33,ST MARY MEDICAL CENTER
5.93,37.36934,-122.08047,54418.85,EL CAMINO HOSPITAL
4.33,38.76514,-121.24979,34751.57,SUTTER ROSEVILLE MEDICAL CENTER
5.22,32.88461,-117.22244,45648.53,SCRIPPS MEMORIAL HOSPITAL LA JOLLA
9.79,38.12186,-121.28665,101957.58,LODI MEMORIAL HOSPITAL
7.40,37.94748,-122.53677,72544.45,MARIN GENERAL HOSPITAL
12.00,38.26174,-122.04662,129078.14,NORTHBAY MEDICAL CENTER
3.14,32.89810,-117.24217,20074.38,SCRIPPS GREEN HOSPITAL
5.60,34.13364,-118.15275,50377.12,HUNTINGTON MEMORIAL HOSPITAL
8.02,37.43436,-122.18013,80135.42,STANFORD HOSPITAL
4.10,35.64086,-117.67119,31973.25,RIDGECREST REGIONAL HOSPITAL
5.32,37.76421,-122.45716,46881.22,UCSF MEDICAL CENTER
10.03,37.66540,-120.99743,104853.17,DOCTORS MEDICAL CENTER
10.07,34.20285,-118.62962,105335.82,WEST HILLS HOSPITAL & MEDICAL CENTER
5.63,34.20777,-118.88305,50794.67,LOS ROBLES HOSPITAL & MEDICAL CENTER
5.97,38.55484,-121.45628,54896.63,UNIVERSITY OF CALIFORNIA DAVIS MEDICAL CENTER
5.61,33.60883,-117.70881,50553.69,SADDLEBACK MEMORIAL MEDICAL CENTER
5.30,34.24359,-119.01992,46629.07,ST JOHNS PLEASANT VALLEY HOSPITAL
8.56,34.07664,-118.37955,86806.14,CEDARS-SINAI MEDICAL CENTER
8.16,34.17067,-118.53200,81861.50,PROVIDENCE TARZANA MEDICAL CENTER
3.93,40.18134,-105.12769,29887.67,LONGMONT UNITED HOSPITAL
2.66,37.47150,-105.88350,14209.42,SAN LUIS VALLEY REGIONAL MEDICAL CENTER
3.36,40.57315,-105.05741,22778.30,POUDRE VALLEY HOSPITAL
4.69,38.23421,-104.62292,39197.12,CENTURA HEALTH-ST MARY CORWIN MEDICAL CENTER
3.45,37.23629,-107.82578,23987.00,MERCY REGIONAL MEDICAL CENTER
3.83,38.28184,-104.61256,28591.60,PARKVIEW MEDICAL CENTER INC
3.58,39.74234,-104.84156,25496.77,UNIVERSITY OF COLORADO HOSPITAL ANSCHUTZ INPATIENT
4.23,40.02615,-105.28391,33566.55,BOULDER COMMUNITY HOSPITAL
2.74,40.41320,-105.05139,15146.00,MCKEE MEDICAL CENTER
3.55,38.86559,-104.82182,25197.77,CENTURA HEALTH-PENROSE ST FRANCIS HEALTH SERVICES
4.26,39.73231,-104.93396,33931.44,ROSE MEDICAL CENTER
4.03,39.65399,-104.98116,31124.63,SWEDISH MEDICAL CENTER
4.78,39.67005,-104.97490,40326.46,CENTURA HEALTH-PORTER ADVENTIST HOSPITAL
2.70,38.74540,-108.04700,14768.68,DELTA COUNTY MEMORIAL HOSPITAL
4.22,39.84960,-105.01825,33410.57,CENTURA HEALTH-ST ANTHONY NORTH HOSPITAL
4.07,39.52910,-104.87121,31581.10,SKY RIDGE MEDICAL CENTER
3.98,41.77507,-72.69941,30450.94,ST FRANCIS HOSPITAL & MEDICAL CENTER
4.00,41.55959,-73.05941,30703.09,WATERBURY HOSPITAL
3.81,41.05562,-73.55390,28401.45,STAMFORD HOSPITAL
2.35,41.79153,-73.13382,10440.60,CHARLOTTE HUNGERFORD HOSPITAL
2.61,41.55241,-73.03554,13596.92,SAINT MARYS HOSPITAL
3.43,41.54874,-72.80148,23747.00,MIDSTATE MEDICAL CENTER
3.83,41.03431,-73.63020,28647.00,GREENWICH HOSPITAL ASSOCIATION
2.79,41.71622,-72.22399,15852.96,WINDHAM COMM MEM HOSP & HATCH HOSP
3.20,41.54301,-72.08799,20886.08,WILLIAM W BACKUS HOSPITAL
3.60,41.75412,-72.67927,25729.59,HARTFORD HOSPITAL
3.15,41.78185,-72.52591,20229.50,MANCHESTER MEMORIAL HOSPITAL
3.51,41.20049,-73.20281,24691.33,ST VINCENT'S MEDICAL CENTER
3.10,41.40474,-73.44739,19635.95,DANBURY HOSPITAL
3.85,41.66107,-72.78671,28899.69,HOSPITAL OF CENTRAL CONNECTICUT, THE
2.88,39.15135,-75.52309,16952.37,BAYHEALTH - KENT GENERAL HOSPITAL
3.35,38.77159,-75.14210,22753.69,BEEBE MEDICAL CENTER
4.00,38.90106,-77.05079,30657.34,GEORGE WASHINGTON UNIV HOSPITAL
4.36,38.91770,-77.02193,35086.64,HOWARD UNIVERSITY HOSPITAL
3.65,38.91221,-77.07588,26397.42,GEORGETOWN UNIVERSITY HOSPITAL
3.04,38.93576,-77.10909,18835.81,SIBLEY MEMORIAL HOSPITAL
3.41,38.94397,-76.99040,23401.36,PROVIDENCE HOSPITAL
3.90,38.92944,-77.01473,29478.41,WASHINGTON HOSPITAL CENTER
4.22,30.34913,-81.66391,33345.47,SHANDS JACKSONVILLE MEDICAL CENTER
4.17,26.50479,-80.06979,32851.87,BETHESDA MEMORIAL HOSPITAL
4.91,28.52517,-81.37729,41882.53,ORLANDO HEALTH
5.68,25.68309,-80.34038,51307.83,BAPTIST HOSPITAL OF MIAMI INC
4.87,25.78846,-80.21644,41345.58,UNIVERSITY OF MIAMI HOSPITAL
3.24,29.20117,-81.05828,21394.52,HALIFAX HEALTH MEDICAL CENTER
3.37,26.15053,-81.79919,22921.55,NAPLES COMMUNITY HOSPITAL
3.42,28.83363,-82.33561,23519.22,CITRUS MEMORIAL HOSPITAL
3.04,30.47650,-87.21219,18839.69,SACRED HEART HOSPITAL
6.00,25.86166,-80.21398,55251.73,NORTH SHORE MEDICAL CENTER
5.92,25.81317,-80.13996,54271.44,MOUNT SINAI MEDICAL CENTER
5.61,26.01867,-80.17981,50528.29,MEMORIAL REGIONAL HOSPITAL
3.57,30.30835,-81.68919,25403.16,ST VINCENT'S MEDICAL CENTER
3.91,27.19837,-80.24306,29622.52,MARTIN MEMORIAL MEDICAL CENTER
4.21,28.26092,-82.18802,33273.58,FLORIDA HOSPITAL ZEPHYRHILLS
4.26,26.94042,-82.04094,33870.41,CHARLOTTE REGIONAL MEDICAL CENTER
4.99,28.55140,-81.72120,42833.58,SOUTH LAKE HOSPITAL
3.55,29.17594,-82.13898,25177.19,MUNROE REGIONAL MEDICAL CENTER
3.39,27.78088,-82.65126,23246.08,ST ANTHONY'S HOSPITAL
2.88,29.24333,-81.10760,16944.67,FLORIDA HOSPITAL MEMORIAL MEDICAL CENTER
3.52,27.09043,-82.44499,24812.70,VENICE REGIONAL MEDICAL CENTER
5.71,28.53906,-82.44193,51747.61,BROOKSVILLE REGIONAL HOSPITAL
4.10,26.18711,-80.11941,31932.27,HOLY CROSS HOSPITAL INC
4.17,26.98905,-82.09559,32804.92,PEACE RIVER REGIONAL MEDICAL CENTER
5.47,26.59805,-80.09271,48831.78,JFK MEDICAL CENTER
3.27,28.80659,-81.86906,21718.57,LEESBURG REGIONAL MEDICAL CENTER
4.16,30.31525,-81.66398,32690.59,BAPTIST MEDICAL CENTER
3.37,28.33522,-80.72319,23012.07,WUESTHOFF MEDICAL CENTER  ROCKLEDGE
3.59,30.43066,-87.23191,25675.67,BAPTIST HOSPITAL
2.86,27.65832,-80.39307,16709.70,INDIAN RIVER MEDICAL CENTER
3.60,29.64155,-82.34844,25734.07,SHANDS HOSPITAL AT THE UNIVERSITY OF FLORIDA
3.67,30.27449,-81.40071,26660.72,BAPTIST MEDICAL CENTER  BEACHES
3.98,28.01563,-82.13900,30428.31,SOUTH FLORIDA BAPTIST HOSPITAL
3.62,30.65118,-81.44923,25980.80,BAPTIST MEDICAL CENTER - NASSAU
2.62,30.26389,-81.44283,13675.00,MAYO CLINIC
4.89,25.70328,-80.29391,41674.40,SOUTH MIAMI HOSPITAL, INC
3.65,28.06172,-81.95304,26356.43,LAKELAND REGIONAL MEDICAL CENTER
4.50,27.48213,-82.62126,36851.94,BLAKE MEDICAL CENTER
3.47,29.64481,-81.69431,24228.18,PUTNAM COMMUNITY MEDICAL CENTER
6.28,27.93259,-82.28759,58700.39,BRANDON REGIONAL HOSPITAL
4.49,26.92138,-80.09708,36730.77,JUPITER MEDICAL CENTER
5.97,28.36128,-82.68883,54943.94,REGIONAL MEDICAL CENTER BAYONET POINT
4.47,26.43709,-80.12728,36508.53,DELRAY MEDICAL CENTER
4.99,27.28861,-80.29431,42887.76,ST LUCIE MEDICAL CENTER
6.35,28.53585,-82.53404,59574.33,OAK HILL HOSPITAL
3.61,28.03957,-82.70875,25853.69,MEASE COUNTRYSIDE HOSPITAL
4.06,26.35614,-80.19956,31382.77,WEST BOCA MEDICAL CENTER
4.50,26.01394,-80.30980,36892.07,MEMORIAL HOSPITAL WEST
4.51,26.21388,-81.73257,36969.94,PHYSICIANS REGIONAL MEDICAL CENTER - PINE RIDGE
4.35,26.70181,-80.05055,34998.85,GOOD SAMARITAN MEDICAL CENTER
3.35,27.38993,-82.43343,22752.09,LAKEWOOD RANCH MEDICAL CENTER
3.31,34.78963,-84.98398,22163.72,HAMILTON MEDICAL CENTER
2.80,32.88710,-84.33393,15972.00,UPSON REGIONAL MEDICAL CENTER
3.22,31.22516,-82.34898,21151.86,SATILLA REGIONAL MEDICAL CENTER
3.28,31.59023,-84.15756,21905.83,PHOEBE PUTNEY MEMORIAL HOSPITAL
2.88,33.79230,-84.32107,16979.94,EMORY UNIVERSITY HOSPITAL
2.81,33.03204,-85.05781,16065.89,WEST GEORGIA MEDICAL CENTER
3.17,32.02825,-81.09977,20455.71,CANDLER HOSPITAL
3.26,33.47096,-81.98176,21576.62,UNIVERSITY HOSPITAL
3.86,34.30335,-83.81737,29025.94,NORTHEAST GEORGIA MEDICAL CENTER, INC
2.89,33.47091,-81.98988,17013.92,MEDICAL COLLEGE OF GA HOSPITALS AND CLINICS
3.55,33.96770,-84.55011,25195.51,WELLSTAR KENNESTONE HOSPITAL
3.52,31.98515,-81.15475,24783.08,ST JOSEPH'S HOSPITAL - SAVANNAH
3.92,34.26000,-85.17000,29725.00,FLOYD MEDICAL CENTER
3.29,32.61642,-83.63065,21967.94,HOUSTON MEDICAL CENTER
3.24,33.96117,-83.39832,21324.89,ATHENS REGIONAL MEDICAL CENTER
3.01,33.78956,-84.28077,18510.56,DEKALB MEDICAL CENTER
3.26,33.76810,-84.38616,21625.96,EMORY UNIVERSITY HOSPITAL MIDTOWN
3.34,33.75205,-84.38272,22601.89,GRADY MEMORIAL HOSPITAL
3.14,33.90877,-84.35180,20115.75,SAINT JOSEPH'S HOSPITAL OF ATLANTA, INC
3.55,33.68072,-84.00200,25175.83,ROCKDALE MEDICAL CENTER
3.72,31.47069,-83.50473,27230.08,TIFT REGIONAL MEDICAL CENTER
2.69,31.97683,-83.78280,14588.56,CRISP REGIONAL HOSPITAL
3.86,32.83041,-83.63476,29025.12,MEDICAL CENTER OF CENTRAL GEORGIA
3.35,30.86250,-83.28630,22760.31,SOUTH GEORGIA MEDICAL CENTER
3.62,33.85638,-84.60446,26076.39,WELLSTAR COBB HOSPITAL
4.11,33.08014,-83.23210,32028.09,OCONEE REGIONAL MEDICAL CENTER
3.70,32.84705,-83.61823,26970.41,COLISEUM MEDICAL CENTER
3.85,33.57843,-84.38897,28875.65,SOUTHERN REGIONAL MEDICAL CENTER
2.91,33.51144,-84.22200,17236.18,HENRY MEDICAL CENTER, INC
6.76,34.06334,-84.31976,64698.88,NORTH FULTON REGIONAL HOSPITAL
3.61,32.86625,-83.69421,25908.62,COLISEUM NORTHSIDE HOSPITAL
3.50,33.45252,-84.50697,24497.60,PIEDMONT FAYETTE HOSPITAL
7.38,33.68000,-84.42685,72249.33,SOUTH FULTON MEDICAL CENTER
3.04,21.30780,-157.85505,18937.62,THE QUEENS MEDICAL CENTER
2.66,43.61218,-116.19234,14216.33,ST LUKES REGIONAL MEDICAL CENTER
2.94,43.65510,-116.69360,17715.45,WEST VALLEY MEDICAL CENTER
2.92,43.46987,-111.99208,17416.07,EASTERN IDAHO REGIONAL MEDICAL CENTER
3.49,42.06550,-87.68428,24394.16,EVANSTON HOSPITAL
3.69,39.93563,-91.39833,26843.44,BLESSING HOSPITAL
4.00,41.86011,-87.69571,30755.83,MT SINAI HOSPITAL MEDICAL CENTER
4.85,41.72930,-88.26976,41138.15,COPLEY MEMORIAL HOSPITAL
2.65,39.12680,-88.55059,14079.25,ST ANTHONYS MEMORIAL HOSPITAL
4.11,41.80160,-89.69714,32079.69,CGH MEDICAL CENTER
2.90,38.32292,-88.91026,17139.46,GOOD SAMARITAN REGIONAL HLTH CENTER
3.50,41.72636,-87.56727,24570.18,ADVOCATE TRINITY HOSPITAL
3.64,41.89141,-87.77618,26234.54,WEST SUBURBAN MEDICAL CENTER
4.25,42.05624,-87.74012,33716.67,SKOKIE HOSPITAL
3.00,39.80726,-89.64496,18348.72,ST JOHNS HOSPITAL
3.64,41.83195,-87.79266,26307.12,MACNEAL  HOSPITAL
4.27,41.66900,-87.81414,34058.09,PALOS COMMUNITY HOSPITAL
3.73,40.98818,-90.36374,27380.64,ST MARY MEDICAL CENTER
3.97,40.70200,-89.59222,30373.25,SAINT FRANCIS MEDICAL CENTER
5.23,42.37840,-87.83329,45866.50,VISTA MEDICAL CENTER EAST
4.00,41.78829,-87.60485,30671.41,THE UNIVERSITY OF CHICAGO MEDICAL CENTER
4.56,40.13811,-87.64569,37582.00,PROVENA UNITED SAMARITANS MEDCTR-LOGAN
3.98,41.36897,-88.42537,30410.94,MORRIS HOSPITAL & HEALTHCARE CENTERS
3.57,40.11739,-88.22714,25364.90,PROVENA COVENANT MEDICAL CENTER- URBANA
4.92,41.97532,-87.69958,41960.73,SWEDISH COVENANT HOSPITAL
4.27,42.31832,-88.27920,33993.24,CENTEGRA HEALTH SYSTEM - MC HENRY HOSPITAL
3.81,41.80555,-87.92059,28405.29,HINSDALE HOSPITAL
2.92,41.87381,-87.67421,17359.20,JOHN H STROGER JR HOSPITAL
3.07,40.49639,-88.99106,19274.58,BROMENN HEALTHCARE
3.59,41.76946,-87.69239,25613.54,HOLY CROSS HOSPITAL
3.63,41.86927,-87.67052,26119.25,UNIVERSITY OF ILLINOIS HOSPITAL
2.80,41.84639,-87.62345,15920.14,MERCY HOSPITAL AND MEDICAL CENTER
2.78,37.72790,-89.22058,15722.31,MEMORIAL HOSPITAL OF CARBONDALE
4.29,41.78566,-88.32886,34289.56,PROVENA MERCY MEDICAL CENTER
4.09,42.27597,-88.40019,31815.38,CENTEGRA HEALTH SYSTEM - WOODSTOCK HOSPITAL
4.00,41.72094,-87.69220,30728.86,LITTLE COMPANY OF MARY HOSPITAL
4.75,41.90414,-87.68254,39978.47,ST MARY & ELIZABETH MED CTR-DIVISION CAMPUS
3.61,41.12572,-87.88526,25872.17,RIVERSIDE MEDICAL CENTER
2.94,39.48849,-88.27581,17717.77,SARAH BUSH LINCOLN HEALTH CENTER
4.35,41.86362,-87.93567,35040.06,ELMHURST MEMORIAL HOSPITAL
5.07,42.27447,-87.95764,43911.42,ADVOCATE CONDELL MEDICAL CENTER
3.88,41.72031,-87.73249,29284.53,ADVOCATE CHRIST HOSPITAL & MEDICAL CENTER
4.52,41.88566,-88.34311,37109.59,DELNOR COMMUNITY HOSPITAL
3.96,42.03837,-87.84820,30153.16,ADVOCATE LUTHERAN GENERAL HOSPITAL
3.60,42.26584,-89.07428,25819.79,SWEDISH AMERICAN HOSPITAL
3.50,42.26634,-89.00900,24512.93,SAINT ANTHONY MEDICAL CENTER
3.13,42.29844,-89.09897,19981.18,ROCKFORD MEMORIAL HOSPITAL
3.55,41.56720,-87.69566,25210.20,ADVOCATE SOUTH SUBURBAN HOSPITAL
2.80,41.49581,-90.41871,16001.09,GENESIS MEDICAL CENTER ILLINI CAMPUS
2.69,41.48200,-90.57158,14603.78,TRINITY ROCK ISLAND
4.11,41.96185,-88.72130,32014.36,KISHWAUKEE COMMUNITY HOSPITAL
2.80,38.73818,-89.94728,15957.26,ANDERSON HOSPITAL
2.86,39.76255,-86.50165,16647.08,HENDRICKS REGIONAL HEALTH
3.75,41.61055,-86.72511,27635.64,INDIANA UNIVERSITY HEALTH LA PORTE HOSPITAL
2.65,40.44665,-86.12707,14158.69,HOWARD REGIONAL HEALTH SYSTEM
3.08,40.56435,-85.66576,19412.26,MARION GENERAL HOSPITAL
2.84,41.70568,-85.93404,16468.67,ELKHART GENERAL HOSPITAL
3.56,41.51266,-87.26125,25237.15,ST MARY MEDICAL CENTER INC
3.87,41.46729,-87.05130,29146.46,PORTER VALPARAISO HOSPITAL
4.06,39.79009,-86.16260,31406.38,INDIANA UNIVERSITY HEALTH
3.03,40.04526,-86.02297,18741.06,RIVERVIEW HOSPITAL
2.60,38.95542,-85.89223,13479.36,SCHNECK MEDICAL CENTER
3.27,39.78704,-86.07673,21705.73,COMMUNITY HOSPITAL EAST
3.25,37.98293,-87.57072,21522.73,DEACONESS HOSPITAL INC
3.54,39.91001,-86.19660,25020.05,ST VINCENT HOSPITAL & HEALTH SERVICES
3.59,40.09594,-85.68152,25634.08,SAINT JOHN'S HEALTH SYSTEM
4.07,40.19679,-85.41573,31506.36,INDIANA UNIVERSITY HEALTH BALL MEMORIAL HOSPITAL
2.92,39.52494,-85.78113,17420.79,MAJOR HOSPITAL
3.04,37.96320,-87.50292,18951.09,ST MARY'S MEDICAL CENTER OF EVANSVILLE INC
2.68,39.21585,-85.89683,14520.12,COLUMBUS REGIONAL HOSPITAL
3.57,39.64935,-86.07960,25423.19,FRANCISCAN ST FRANCIS HEALTH - INDIANAPOLIS
2.95,39.90060,-86.04218,17735.25,COMMUNITY HOSPITAL NORTH
2.60,42.04855,-92.90625,13507.83,MARSHALLTOWN MEDICAL & SURGICAL CENTER
3.05,42.49388,-94.18926,18978.23,TRINITY REGIONAL MEDICAL CENTER
2.86,41.66411,-91.52841,16623.60,MERCY HOSPITAL
2.75,41.54190,-90.55691,15310.63,GENESIS MEDICAL CENTER-DAVENPORT
3.21,41.98570,-91.66093,20943.43,ST LUKES HOSPITAL
3.42,41.26786,-95.83505,23574.92,JENNIE EDMUNDSON HOSPITAL
3.12,41.66092,-91.54800,19869.37,UNIVERSITY OF IOWA HOSPITAL & CLINICS
3.09,43.15063,-93.21718,19496.12,MERCY MEDICAL CENTER-NORTH IOWA
2.89,41.97864,-91.65507,17101.25,MERCY MEDICAL CENTER - CEDAR RAPIDS
2.97,41.59886,-93.62344,17995.79,MERCY MEDICAL CENTER-DES MOINES
2.82,42.49632,-90.68587,16150.87,THE FINLEY HOSPITAL
3.42,42.49250,-96.39975,23571.40,MERCY MEDICAL CENTER-SIOUX CITY
3.03,38.83324,-97.61028,18757.00,SALINA REGIONAL HEALTH CENTER
3.69,38.87847,-99.29923,26866.38,HAYS MEDICAL CENTER
2.81,39.05660,-95.69599,16126.06,ST FRANCIS HEALTH CENTER INC
3.31,38.85279,-94.82413,22264.19,OLATHE MEDICAL CENTER
4.64,37.69556,-97.29785,38619.50,WESLEY MEDICAL CENTER
2.65,38.97848,-95.24771,14041.00,LAWRENCE MEMORIAL HOSPITAL
4.56,38.90355,-94.66966,37618.38,SAINT LUKE'S SOUTH HOSPITAL
3.13,38.47021,-82.63498,19987.03,KING'S DAUGHTERS' MEDICAL CENTER
3.45,37.11784,-84.10910,23890.13,SAINT JOSEPH HOSPITAL LONDON
2.63,37.01079,-85.90342,13877.91,T J SAMSON COMMUNITY HOSPITAL
2.54,36.60798,-88.30957,12746.00,MURRAY-CALLOWAY COUNTY HOSPITAL
3.41,39.06704,-84.49946,23473.20,ST ELIZABETH MEDICAL CENTER NORTH
2.50,37.76518,-87.10197,12244.58,OWENSBORO MEDICAL HEALTH SYSTEM
4.46,37.47264,-82.52605,36367.85,PIKEVILLE MEDICAL CENTER
2.93,37.33959,-87.48988,17595.81,REGIONAL MEDICAL CENTER OF HOPKINS COUNTY
3.07,38.01849,-84.51236,19207.69,CENTRAL BAPTIST HOSPITAL
3.33,37.08724,-84.61828,22484.05,LAKE CUMBERLAND REGIONAL HOSPITAL
3.37,30.20227,-92.01906,22941.77,LAFAYETTE GENERAL MEDICAL CENTER
2.80,29.59851,-90.71397,15998.80,TERREBONNE GENERAL MEDICAL CENTER
5.25,30.46813,-90.45814,46062.12,NORTH OAKS MEDICAL CENTER, LLC
3.26,31.28258,-92.46060,21569.12,CHRISTUS ST FRANCES CABRINI HOSPITAL
4.02,31.31451,-92.44997,30894.31,RAPIDES REGIONAL MEDICAL CENTER
4.07,30.28456,-89.77038,31617.20,SLIDELL MEMORIAL HOSPITAL AND MEDICAL CENTER
3.58,30.20458,-93.19774,25584.35,LAKE CHARLES MEMORIAL HOSPITAL
3.05,30.40118,-91.11160,19050.97,OUR LADY OF THE LAKE REGIONAL MEDICAL CENTER
2.80,30.45015,-91.15273,15891.19,BATON ROUGE GENERAL MEDICAL CENTER
3.65,32.48393,-93.77884,26431.13,WILLIS KNIGHTON MEDICAL CENTER
3.35,32.61700,-93.28566,22656.82,MINDEN MEDICAL CENTER
3.44,30.01438,-90.18155,23768.67,EAST JEFFERSON GENERAL HOSPITAL
3.16,43.65159,-70.26482,20388.64,MERCY HOSPITAL
2.98,43.65325,-70.27533,18149.46,MAINE MEDICAL CENTER
2.28,39.62183,-77.68219,9508.20,MERITUS MEDICAL CENTER
2.45,39.28817,-76.62438,11620.15,UNIVERSITY OF MARYLAND MEDICAL CENTER
2.48,38.93090,-76.92161,12048.67,PRINCE GEORGES HOSPITAL CENTER
2.07,39.01578,-77.03591,6915.05,HOLY CROSS HOSPITAL
2.31,39.42366,-77.41386,9949.51,FREDERICK MEMORIAL HOSPITAL
2.22,39.54345,-76.09153,8831.33,HARFORD MEMORIAL HOSPITAL
2.19,39.38813,-76.61068,8452.33,SAINT JOSEPH MEDICAL CENTER
2.63,39.29688,-76.59242,13802.67,JOHNS HOPKINS HOSPITAL, THE
2.35,39.27352,-76.67219,10391.92,SAINT AGNES HOSPITAL
2.37,39.35262,-76.66196,10602.94,SINAI HOSPITAL OF BALTIMORE
2.38,39.35169,-76.47919,10796.67,FRANKLIN SQUARE HOSPITAL CENTER
2.37,39.15402,-77.05431,10629.64,MONTGOMERY GENERAL HOSPITAL INC
2.40,38.36248,-75.59799,11079.78,PENINSULA REGIONAL MEDICAL CENTER
2.18,38.99014,-76.53398,8315.56,ANNE ARUNDEL MEDICAL CENTER
2.41,39.32930,-76.61432,11139.44,UNION MEMORIAL HOSPITAL
2.27,38.29124,-76.63579,9369.88,SAINT MARY'S HOSPITAL
2.51,39.55808,-76.99107,12380.89,CARROLL HOSPITAL CENTER
2.20,38.52905,-76.97068,8580.32,CIVISTA MEDICAL CENTER
2.35,38.76970,-76.07697,10399.95,MEMORIAL HOSPITAL AT EASTON
2.11,38.55963,-76.59455,7483.19,CALVERT MEMORIAL HOSPITAL
2.58,39.35852,-76.78208,13299.34,NORTHWEST HOSPITAL CENTER
2.35,39.13732,-76.62228,10371.11,BALTIMORE WASHINGTON  MEDICAL CENTER
2.16,39.21273,-76.88526,8037.73,HOWARD COUNTY GENERAL HOSPITAL
2.18,39.51870,-76.34688,8371.61,UPPER CHESAPEAKE MEDICAL CENTER
2.43,38.74827,-76.87590,11403.78,SOUTHERN MARYLAND HOSPITAL CENTER
2.27,39.35962,-76.58851,9438.19,GOOD SAMARITAN HOSPITAL
2.33,39.09796,-77.19799,10107.46,SHADY GROVE ADVENTIST HOSPITAL
2.02,38.33876,-75.21128,6392.82,ATLANTIC GENERAL HOSPITAL
2.83,42.37441,-71.13378,16292.43,MOUNT AUBURN HOSPITAL
2.68,42.70912,-71.14877,14448.75,LAWRENCE GENERAL HOSPITAL
2.39,42.20038,-72.62762,10921.82,HOLYOKE MEDICAL CENTER
2.44,42.81476,-70.89068,11551.46,ANNA JAQUES HOSPITAL
2.51,42.56407,-70.87543,12385.66,BEVERLY HOSPITAL CORPORATION
3.36,42.51078,-70.90712,22801.04,NORTH SHORE MEDICAL CENTER
2.49,42.34896,-71.14768,12166.82,ST ELIZABETH'S MEDICAL CENTER
2.68,42.03597,-71.09792,14500.83,SIGNATURE HEALTHCARE BROCKTON HOSPITAL
2.47,41.94445,-70.64511,11858.96,JORDAN HOSPITAL INC
2.62,42.64636,-71.34118,13757.35,LOWELL GENERAL HOSPITAL
5.20,42.36227,-71.06941,45423.38,MASSACHUSETTS GENERAL HOSPITAL
2.25,41.90456,-71.09562,9219.09,MORTON HOSPITAL
2.81,41.70928,-71.14519,16096.99,SOUTHCOAST HOSPITAL GROUP, INC
2.63,42.12077,-72.60525,13867.77,BAYSTATE MEDICAL CENTER
2.69,42.43082,-71.37554,14550.08,EMERSON HOSPITAL
2.80,42.17644,-70.95398,15889.17,SOUTH SHORE HOSPITAL
3.82,42.33600,-71.10704,28510.49,BRIGHAM AND WOMEN'S HOSPITAL
2.38,42.09864,-71.06607,10746.13,GOOD SAMARITAN MEDICAL CENTER
3.03,42.34951,-71.06331,18742.82,TUFTS MEDICAL CENTER
2.68,42.18869,-71.20197,14474.83,NORWOOD HOSPITAL
2.52,41.56412,-70.62200,12550.08,FALMOUTH HOSPITAL
2.39,43.20588,-86.20839,10918.86,MERCY HEALTH PARTNERS, MERCY CAMPUS
3.17,42.45741,-83.20513,20500.16,PROVIDENCE HOSPITAL AND MEDICAL CENTERS
3.48,42.29077,-83.21504,24288.44,OAKWOOD HOSPITAL AND MEDICAL CENTER
2.92,42.61425,-83.27602,17410.96,ST JOSEPH MERCY OAKLAND
2.67,42.96881,-85.66649,14292.59,SPECTRUM HEALTH - BUTTERWORTH CAMPUS
3.53,43.58941,-83.86908,24900.62,MCLAREN BAY REGION
2.69,42.61490,-82.96060,14582.98,HENRY FORD MACOMB HOSPITAL
2.99,42.36762,-83.08461,18229.38,HENRY FORD HOSPITAL
3.35,43.42857,-83.95556,22666.12,COVENANT MEDICAL CENTER, INC
2.69,42.77487,-86.11378,14599.86,HOLLAND COMMUNITY HOSPITAL
2.97,43.42612,-83.94185,18086.86,ST MARY'S OF MICHIGAN MEDICAL CENTER
3.78,42.25117,-84.39240,28053.86,ALLEGIANCE HEALTH
2.25,44.26333,-84.24625,9221.13,WEST BRANCH REGIONAL MEDICAL CENTER
3.33,45.74575,-87.10106,22467.07,ST FRANCIS HOSPITAL
2.99,42.21065,-83.14861,18334.43,HENRY FORD WYANDOTTE HOSPITAL
3.39,42.70417,-84.55488,23255.04,MCLAREN - GREATER LANSING
3.20,42.89254,-83.63621,20861.41,GENESYS REGIONAL MEDICAL CENTER - HEALTH PARK
3.27,42.98625,-82.42802,21703.05,PORT HURON HOSPITAL
2.50,46.43131,-84.28107,12203.36,CHIPPEWA COUNTY WAR MEMORIAL HOSPITAL
2.71,42.33215,-83.31195,14844.83,GARDEN CITY HOSPITAL
3.53,42.67850,-83.14771,24970.17,CRITTENTON HOSPITAL MEDICAL CENTER
4.13,42.61826,-83.09239,32351.18,WILLIAM BEAUMONT HOSPITAL-TROY
3.15,42.59290,-83.49920,20270.85,HURON VALLEY-SINAI HOSPITAL
3.22,42.53914,-83.40777,21148.68,HENRY FORD WEST BLOOMFIELD HOSPITAL
2.91,46.79380,-92.09573,17301.74,ESSENTIA HEALTH ST MARY'S MEDICAL CENTER
3.12,45.57390,-94.16942,19884.48,ST CLOUD HOSPITAL
2.47,44.03521,-91.62181,11899.25,WINONA HEALTH SERVICES
2.73,46.79634,-92.08793,15063.00,ST LUKES HOSPITAL
3.86,44.95248,-93.26196,28946.53,ABBOTT NORTHWESTERN HOSPITAL
2.85,46.36166,-94.20573,16524.50,ESSENTIA HEALTH ST JOSEPH'S MEDICAL CENTER
2.94,44.88645,-93.32693,17634.73,FAIRVIEW SOUTHDALE HOSPITAL
3.01,44.95570,-93.09429,18523.35,REGIONS HOSPITAL
3.53,45.18355,-93.36789,24874.59,MERCY HOSPITAL
2.91,44.74846,-93.27289,17279.00,FAIRVIEW RIDGES HOSPITAL
2.88,34.24336,-88.71753,16895.71,NORTH MISSISSIPPI MEDICAL CENTER
3.25,34.34899,-89.52062,21468.36,BAPTIST MEMORIAL HOSPITAL NORTH MS
2.52,31.24000,-90.45000,12449.42,SOUTHWEST MS REGIONAL MEDICAL CENTER
3.24,33.51824,-90.19832,21340.19,GREENWOOD LEFLORE HOSPITAL
2.93,33.52568,-88.42742,17483.00,BAPTIST MEM HOSP/GOLDEN TRIANGLE INC
3.30,32.31643,-90.17922,22033.50,MISSISSIPPI BAPTIST MEDICAL CENTER
3.20,32.37280,-88.69954,20830.78,ANDERSON REGIONAL MEDICAL CENTER
3.34,37.06032,-94.52747,22637.27,ST JOHN'S REGIONAL MEDICAL CENTER
3.68,37.95144,-91.75940,26739.71,PHELPS COUNTY REGIONAL MEDICAL CENTER
3.09,38.63524,-90.26508,19490.66,BARNES JEWISH HOSPITAL
3.30,37.17999,-93.27409,22085.32,ST JOHN'S REGIONAL HEALTH CENTER
3.07,38.94903,-92.31563,19276.30,BOONE HOSPITAL CENTER
3.14,38.50661,-90.38025,20078.59,ST ANTHONY'S MEDICAL CENTER
3.12,36.73801,-91.87553,19918.75,OZARKS MEDICAL CENTER
3.88,38.63268,-90.31089,29213.53,SSM ST MARYS HEALTH CENTER
3.34,36.64970,-93.22138,22532.07,SKAGGS REGIONAL MEDICAL CENTER
4.06,39.04749,-94.34105,31407.14,CENTERPOINT MEDICAL CENTER OF INDEPENDENCE, LLC
3.91,38.75097,-90.43255,29630.73,SSM DEPAUL HEALTH CENTER
3.94,38.62280,-90.24049,29966.88,ST LOUIS UNIVERSITY HOSPITAL
3.37,37.31072,-89.53990,22943.54,SOUTHEAST MISSOURI HOSPITAL
4.66,36.78510,-90.42779,38779.53,POPLAR BLUFF REGIONAL MEDICAL CENTER
3.63,37.05238,-94.52777,26193.07,FREEMAN HEALTH SYSTEM - FREEMAN WEST
4.83,39.04761,-94.59037,40953.52,ST LUKES HOSPITAL OF KANSAS CITY
3.20,38.95171,-92.33407,20804.00,UNIVERSITY OF MISSOURI HEALTH CARE
2.50,38.67655,-90.46573,12310.27,BARNES-JEWISH WEST COUNTY HOSPITAL
3.07,39.27591,-94.42572,19232.86,LIBERTY HOSPITAL
3.93,38.94062,-94.37842,29881.33,SAINT LUKE'S EAST LEE'S SUMMIT HOSPITAL
2.45,46.58297,-111.99684,11648.29,ST PETER'S HOSPITAL
3.35,41.25522,-95.97892,22709.07,THE NEBRASKA MEDICAL CENTER
3.11,40.80816,-96.62689,19697.69,SAINT ELIZABETH REGIONAL MEDICAL CENTER
3.06,40.92425,-98.37053,19199.61,ST FRANCIS MEDICAL CENTER
4.17,41.26509,-95.95494,32835.50,CREIGHTON UNIVERSITY MEDICAL CENTER - SAINT JOSEPH
2.37,40.59160,-98.38755,10666.29,MARY LANNING MEMORIAL HOSPITAL
4.01,41.25797,-96.04164,30794.03,THE NEBRASKA METHODIST HOSPITAL
2.75,41.12081,-100.77062,15297.00,GREAT PLAINS REGIONAL MEDICAL CENTER
3.37,41.45152,-96.49184,22902.44,FREMONT AREA MEDICAL CENTER
2.82,42.03257,-97.45100,16230.65,FAITH REGIONAL HEALTH SERVICES
5.59,36.13459,-115.13576,50310.89,SUNRISE HOSPITAL AND MEDICAL CENTER
3.41,39.53066,-119.82067,23390.43,SAINT MARY'S REGIONAL MEDICAL CENTER
5.60,36.03931,-114.98259,50402.71,SAINT ROSE DOMINICAN HOSPITAL - DE LIMA
3.28,39.20247,-119.78446,21832.37,CARSON TAHOE REGIONAL MEDICAL CENTER
6.08,36.21599,-115.25095,56316.88,MOUNTAINVIEW HOSPITAL
6.54,36.16586,-115.32436,61938.38,SUMMERLIN HOSPITAL MEDICAL CENTER
6.11,36.00527,-115.11618,56605.61,SAINT ROSE DOMINICAN HOSPITAL - SIENA CAMPUS
6.21,36.28588,-115.28772,57929.00,CENTENNIAL HILLS HOSPITAL MEDICAL CENTER
2.95,43.19846,-71.56230,17754.21,CONCORD HOSPITAL
3.13,43.67286,-72.27232,20061.45,MARY HITCHCOCK MEMORIAL HOSPITAL
3.67,43.52835,-71.46291,26589.38,LAKES REGION GENERAL HOSPITAL
3.20,42.75004,-71.48100,20878.39,ST JOSEPH HOSPITAL
2.88,43.00792,-71.46807,16902.27,ELLIOT HOSPITAL
3.04,43.21231,-70.87499,18923.12,WENTWORTH-DOUGLASS HOSPITAL
2.97,42.75623,-71.46059,18041.45,SOUTHERN NH MEDICAL CENTER
2.86,42.98369,-70.93511,16730.61,EXETER HOSPITAL INC
3.64,43.06469,-70.78916,26264.26,PORTSMOUTH REGIONAL HOSPITAL
6.10,40.88346,-74.05564,56498.51,HACKENSACK UNIVERSITY MEDICAL CENTER
8.43,40.71011,-74.21368,85202.19,NEWARK BETH ISRAEL MEDICAL CENTER
5.00,40.35684,-74.66166,42975.92,UNIVERSITY MEDICAL CENTER AT PRINCETON
3.65,39.08752,-74.81657,26346.60,CAPE REGIONAL MEDICAL CENTER INC
4.47,40.98359,-74.10047,36478.15,VALLEY HOSPITAL
5.37,39.94152,-75.11680,47555.19,COOPER UNIVERSITY HOSPITAL
4.93,40.78883,-74.46620,42130.13,MORRISTOWN MEMORIAL HOSPITAL
6.51,39.78261,-74.91670,61573.60,VIRTUA WEST JERSEY HOSPITALS BERLIN
8.67,40.61288,-74.29092,88129.88,ROBERT WOOD JOHNSON UNIVERSITY HOSPITAL AT RAHWAY
6.56,39.44743,-75.05838,62182.92,SOUTH JERSEY HEALTHCARE REGIONAL MEDICAL CENTER
6.45,40.35309,-74.06484,60868.64,RIVERVIEW MEDICAL CENTER
6.94,40.90400,-73.96847,66879.54,ENGLEWOOD HOSPITAL AND MEDICAL CENTER
5.79,40.89538,-74.46479,52756.14,SAINT CLARE'S HOSPITAL
3.92,40.71264,-74.35460,29758.52,OVERLOOK HOSPITAL
6.34,40.07832,-74.13009,59526.05,OCEAN MEDICAL CENTER
6.53,40.04632,-74.88059,61830.50,LOURDES MEDICAL CENTER OF BURLINGTON COUNTY
7.39,39.35775,-74.43449,72434.79,ATLANTICARE REGIONAL MEDICAL CENTER - CITY DIV
5.74,40.76190,-74.30335,52154.16,SAINT BARNABAS MEDICAL CENTER
6.06,40.55784,-74.34970,55980.25,JFK MEDICAL CTR - ANTHONY M. YELENCSICS COMMUNITY
7.53,40.21575,-74.67273,74084.00,ROBERT WOOD JOHNSON UNIVERSITY HOSPITAL HAMILTON
2.92,35.65960,-105.94578,17406.00,ST VINCENT HOSPITAL
3.40,36.72387,-108.21749,23357.26,SAN JUAN REGIONAL MEDICAL CENTER
3.75,41.92720,-73.99535,27642.56,KINGSTON HOSPITAL
2.58,42.87482,-78.84942,13225.36,KALEIDA HEALTH
2.69,42.09299,-75.93704,14533.00,OUR LADY OF LOURDES MEMORIAL HOSPITAL, INC
3.52,42.65345,-73.77543,24816.65,ALBANY MEDICAL CENTER HOSPITAL
3.66,40.70141,-73.81630,26552.91,JAMAICA HOSPITAL MEDICAL CENTER
5.56,41.69441,-73.93432,49846.41,VASSAR BROTHERS MEDICAL CENTER
3.93,40.79041,-73.95386,29862.69,MOUNT SINAI HOSPITAL
3.26,43.09840,-75.27819,21608.96,FAXTON-ST LUKE'S HEALTHCARE
4.56,40.80556,-73.96131,37603.62,ST LUKE'S ROOSEVELT HOSPITAL
4.04,40.74722,-73.82521,31211.31,NEW YORK HOSPITAL MEDICAL CENTER OF QUEENS
3.78,42.65583,-73.80372,27999.04,ST PETER'S HOSPITAL
2.21,42.09049,-78.42780,8707.64,OLEAN GENERAL HOSPITAL
5.96,40.77686,-73.70212,54743.29,NORTH SHORE UNIVERSITY HOSPITAL
4.82,40.93376,-72.67383,40778.25,PECONIC BAY MEDICAL CENTER
2.54,43.19244,-77.58590,12733.71,ROCHESTER GENERAL HOSPITAL
4.95,41.44138,-74.36821,42412.67,ORANGE REGIONAL MEDICAL CENTER
2.73,43.05571,-76.14981,15036.87,ST JOSEPH'S HOSPITAL HEALTH CENTER
3.14,42.81963,-73.91653,20180.00,ELLIS HOSPITAL
3.01,41.19677,-73.72572,18501.54,NORTHERN WESTCHESTER HOSPITAL
2.21,43.13562,-77.60602,8638.33,HIGHLAND HOSPITAL
5.70,40.73265,-73.98162,51579.88,BETH ISRAEL MEDICAL CENTER
2.57,42.60884,-76.18764,13066.48,CORTLAND REGIONAL MEDICAL CENTER, INC
3.98,40.80462,-73.67023,30474.10,ST FRANCIS HOSPITAL, ROSLYN
2.84,43.30652,-73.64663,16377.83,GLENS FALLS HOSPITAL
5.35,40.75332,-73.70899,47334.12,LONG ISLAND JEWISH MEDICAL CENTER
3.63,40.65189,-73.63096,26200.21,SOUTH NASSAU COMMUNITIES HOSPITAL
3.93,40.74335,-73.97408,29868.70,NYU HOSPITALS CENTER
2.50,43.19054,-77.70177,12254.87,UNITY HOSPITAL OF ROCHESTER
2.79,42.94136,-76.56474,15848.83,AUBURN COMMUNITY HOSPITAL
3.56,40.66762,-73.97850,25293.57,NEW YORK METHODIST HOSPITAL
3.37,43.04269,-76.14043,22913.08,UNIVERSITY HOSPITAL S U N Y HEALTH SCIENCE CENTER
2.59,42.84782,-78.81264,13369.81,MERCY HOSPITAL
5.09,40.69327,-73.29412,44075.45,GOOD SAMARITAN HOSPITAL MEDICAL CENTER
5.42,40.88512,-72.38030,48152.92,SOUTHAMPTON HOSPITAL
2.75,42.11422,-75.95851,15293.58,UNITED HEALTH SERVICES HOSPITALS, INC
6.11,40.85738,-73.18681,56708.00,ST CATHERINE OF SIENA HOSPITAL
2.80,35.57658,-82.54922,15934.02,MEMORIAL MISSION HOSPITAL AND ASHEVILLE SURGERY CE
3.33,34.75124,-79.46789,22449.55,SCOTLAND MEMORIAL HOSPITAL
2.74,36.07581,-80.29779,15188.57,FORSYTH MEMORIAL HOSPITAL
2.83,35.68172,-80.47072,16261.83,ROWAN REGIONAL MEDICAL CENTER
2.58,35.32080,-82.46812,13273.79,MARGARET R PARDEE MEMORIAL HOSPITAL
3.21,35.30288,-81.53571,20961.27,CLEVELAND REGIONAL MEDICAL CENTER
2.82,35.29053,-77.58307,16248.87,LENOIR MEMORIAL HOSPITAL
3.59,36.00850,-78.94006,25644.50,DUKE UNIVERSITY HOSPITAL
3.06,35.79986,-80.87863,19173.59,IREDELL MEMORIAL HOSPITAL INC
3.42,35.60726,-77.40477,23607.63,PITT COUNTY MEMORIAL HOSPITAL
3.24,34.76273,-77.38582,21299.89,ONSLOW MEMORIAL HOSPITAL
2.83,36.09062,-80.27161,16356.50,NORTH CAROLINA BAPTIST HOSPITAL
3.13,35.22196,-80.83287,19966.11,PRESBYTERIAN HOSPITAL
2.57,35.90529,-79.04963,13135.37,UNIVERSITY OF NORTH CAROLINA HOSPITAL
2.64,34.33747,-78.69425,13923.06,COLUMBUS REGIONAL HEALTHCARE SYSTEM
3.32,35.78523,-78.58836,22312.51,WAKEMED, RALEIGH CAMPUS
2.74,36.09251,-79.78855,15226.35,MOSES H CONE MEMORIAL HOSPITAL, THE
3.17,35.21029,-80.82084,20530.55,CAROLINAS MED CENTER-MERCY
2.90,36.28555,-76.99489,17158.59,ROANOKE CHOWAN HOSPITAL
2.97,36.32690,-76.22370,17985.37,ALBEMARLE HOSPITAL AUTHORITY
3.60,35.71850,-77.94518,25816.00,WILSON MEDICAL CENTER
3.19,35.54775,-80.85563,20741.25,LAKE NORMAN REGIONAL MEDICAL CENTER
2.78,34.97382,-80.52250,15659.36,CAROLINAS MEDICAL CENTER-UNION
2.84,36.32959,-78.39916,16432.20,MARIA PARHAM MEDICAL CENTER
2.58,34.72615,-76.75452,13279.21,CARTERET GENERAL HOSPITAL
3.06,35.71664,-81.26661,19083.29,CATAWBA VALLEY MEDICAL CENTER
3.15,36.43295,-77.64729,20289.64,HALIFAX REGIONAL MEDICAL CENTER INC
2.83,36.04960,-78.90617,16343.33,DURHAM REGIONAL HOSPITAL
3.01,35.11432,-80.71971,18545.79,PRESBYTERIAN HOSPITAL MATTHEWS
2.47,35.40634,-80.86005,11901.92,PRESBYTERIAN HOSPITAL HUNTERSVILLE
2.77,35.52586,-82.94351,15610.73,MEDWEST HAYWOOD
2.33,46.80739,-100.77773,10141.55,ST ALEXIUS MEDICAL CENTER
2.69,48.23258,-101.28843,14579.68,TRINITY HOSPITALS
2.61,46.88496,-96.78609,13597.81,SANFORD MEDICAL CENTER FARGO
2.32,46.80798,-100.78229,10064.92,MEDCENTER ONE
3.01,47.91045,-97.06742,18476.85,ALTRU HOSPITAL
2.69,46.83250,-96.82805,14560.42,ESSENTIA HEALTH-FARGO
2.76,39.08582,-84.34886,15456.16,MERCY HOSPITAL ANDERSON
3.05,39.13707,-84.50392,19037.13,UNIVERSITY HOSPITAL, INC
3.51,40.03064,-83.03440,24656.17,RIVERSIDE METHODIST HOSPITAL
2.89,40.73578,-84.08630,17003.07,LIMA MEMORIAL HEALTH SYSTEM
3.04,39.20680,-84.38093,18948.94,JEWISH HOSPITAL, LLC
3.57,39.96098,-82.99077,25435.06,GRANT MEDICAL CENTER
2.91,41.44642,-82.70864,17329.44,FIRELANDS REGIONAL MEDICAL CENTER
3.18,41.07747,-81.53042,20673.25,AKRON GENERAL MEDICAL CENTER
2.00,40.82041,-81.93422,6106.91,WOOSTER COMMUNITY HOSPITAL
3.28,40.39967,-82.44822,21841.45,KNOX COMMUNITY HOSPITAL
2.63,41.38265,-81.73127,13856.78,PARMA COMMUNITY GENERAL HOSPITAL
3.69,41.61788,-83.61632,26929.14,UNIVERSITY OF TOLEDO MEDICAL CENTER
4.51,39.74547,-84.18523,36983.39,MIAMI VALLEY HOSPITAL
4.81,39.78778,-84.23493,40705.78,GOOD SAMARITAN HOSPITAL
2.72,38.84439,-82.23902,14964.55,HOLZER MEDICAL CENTER
3.59,39.31257,-84.51774,25618.07,MERCY HOSPITAL FAIRFIELD
2.29,40.81219,-81.39625,9701.31,MERCY MEDICAL CENTER
3.43,41.17554,-81.24915,23739.80,ROBINSON MEMORIAL HOSPITAL
4.25,41.63639,-83.48640,33749.33,MERCY ST CHARLES HOSPITAL
3.81,39.99445,-83.01872,28364.03,OHIO STATE UNIVERSITY HOSPITALS
2.50,41.01785,-83.65165,12275.67,BLANCHARD VALLEY HOSPITAL
3.51,41.66317,-81.24696,24637.03,LAKE HEALTH
4.16,41.66810,-83.54275,32661.73,MERCY ST VINCENT MEDICAL CENTER
3.21,40.75264,-82.52803,21025.89,MEDCENTRAL HEALTH SYSTEM
2.79,41.43653,-81.94451,15776.20,ST JOHN MEDICAL CENTER
3.59,41.42112,-81.59808,25711.33,MARYMOUNT HOSPITAL
2.88,41.36649,-82.09708,16919.75,EMH REGIONAL MEDICAL CENTER
3.17,39.43061,-81.46454,20523.00,MARIETTA MEMORIAL HOSPITAL
3.65,41.37028,-81.83189,26344.91,SOUTHWEST GENERAL HEALTH CENTER
2.77,41.33913,-83.13441,15535.64,MEMORIAL HOSPITAL
3.29,41.43688,-82.23761,21959.81,MERCY REGIONAL MEDICAL CENTER
3.94,41.50248,-81.62110,29944.67,CLEVELAND CLINIC
2.60,40.90093,-80.83181,13458.92,SALEM COMMUNITY HOSPITAL
3.32,41.52013,-81.43291,22283.30,HILLCREST HOSPITAL
2.91,40.99498,-80.66192,17276.76,ST ELIZABETH BOARDMAN HEALTH CENTER
2.77,36.75199,-95.94089,15536.80,JANE PHILLIPS MEDICAL CENTER
3.03,35.75351,-95.40612,18727.38,MUSKOGEE REGIONAL MEDICAL CENTER
3.44,35.52531,-97.58461,23803.58,DEACONESS HOSPITAL
2.54,35.91530,-94.94996,12737.00,TAHLEQUAH CITY HOSPITAL
2.76,36.13393,-95.96718,15446.47,ST JOHN MEDICAL CENTER, INC
3.44,36.03590,-95.86511,23769.69,SOUTHCREST HOSPITAL
3.27,35.60901,-97.59429,21705.05,OKLAHOMA HEART HOSPITAL
3.12,45.58783,-121.16575,19898.08,MID-COLUMBIA MEDICAL CENTER
2.89,42.42112,-123.34326,17074.21,THREE RIVERS COMMUNITY HOSPITAL
2.93,44.60322,-123.25312,17567.08,GOOD SAMARITAN REGIONAL MEDICAL CENTER
3.20,42.31769,-122.83333,20802.35,ROGUE VALLEY MEDICAL CENTER
2.42,44.28804,-121.16952,11262.45,ST CHARLES MEDICAL CENTER - REDMOND
2.63,44.06773,-121.26817,13815.45,ST CHARLES MEDICAL CENTER - BEND
3.23,44.93267,-123.03418,21241.54,SALEM HOSPITAL
2.63,45.52677,-122.61469,13848.39,PROVIDENCE PORTLAND MEDICAL CENTER
3.11,42.34086,-122.86108,19714.07,PROVIDENCE MEDFORD MEDICAL CENTER
4.50,40.96789,-76.60506,36879.74,GEISINGER MEDICAL CENTER
5.09,42.11102,-80.07912,44095.00,SAINT VINCENT HEALTH CENTER
2.39,40.97877,-76.88593,10861.64,EVANGELICAL COMMUNITY HOSPITAL
6.30,40.07880,-75.21107,59035.41,CHESTNUT HILL HOSPITAL
5.14,40.43850,-75.34895,44663.67,ST LUKE'S QUAKERTOWN HOSPITAL
2.64,40.71251,-80.32136,13991.73,HERITAGE VALLEY BEAVER
2.91,41.24548,-77.01438,17250.18,WILLIAMSPORT REGIONAL MEDICAL CENTER
2.76,40.61795,-77.56734,15473.61,LEWISTOWN HOSPITAL
3.91,40.36358,-75.32621,29599.87,GRAND VIEW HOSPITAL
5.66,42.13338,-80.08703,51153.83,UPMC HAMOT
3.09,40.52204,-78.39824,19532.41,ALTOONA REGIONAL HEALTH SYSTEM
2.87,41.11492,-78.77515,16766.38,DUBOIS REGIONAL MEDICAL CENTER
3.39,40.04740,-76.30540,23213.32,LANCASTER GENERAL HOSPITAL
3.82,40.48928,-79.89596,28450.77,UPMC ST MARGARET
5.79,39.95045,-75.19259,52663.95,HOSPITAL OF UNIV OF PENNSYLVANIA
3.14,41.64205,-80.14579,20137.45,MEADVILLE MEDICAL CENTER
5.82,40.07160,-74.98341,53101.74,ARIA HEALTH
4.39,40.60000,-75.47000,35496.91,LEHIGH VALLEY HOSPITAL
2.79,40.30103,-79.55505,15788.18,EXCELA HEALTH WESTMORELAND REGIONAL HOSPITAL
2.99,39.93492,-77.64744,18304.71,CHAMBERSBURG HOSPITAL
5.18,40.04475,-75.50425,45171.79,MAIN LINE HOSPITAL PAOLI
5.56,39.92871,-75.26873,49876.25,MERCY FITZGERALD HOSPITAL
5.66,40.68708,-75.24272,51154.67,EASTON HOSPITAL
4.95,39.94969,-75.15712,42340.81,THOMAS JEFFERSON UNIVERSITY HOSPITAL
2.81,41.41133,-80.37169,16114.42,UPMC HORIZON
3.58,39.97024,-75.60259,25526.29,CHESTER COUNTY HOSPITAL
11.74,39.85598,-75.36791,125923.00,CROZER CHESTER MEDICAL CENTER
3.33,40.99225,-75.17466,22418.85,POCONO MEDICAL CENTER
3.85,40.18739,-76.18224,28850.81,EPHRATA COMMUNITY HOSPITAL
2.93,40.37782,-80.06589,17539.25,ST CLAIR MEMORIAL HOSPITAL
5.76,40.12077,-75.11818,52342.18,ABINGTON MEMORIAL HOSPITAL
2.48,39.80858,-76.98306,12069.55,HANOVER HOSPITAL
4.44,40.20064,-74.92952,36127.75,ST MARY MEDICAL CENTER
2.54,40.31802,-79.93494,12756.19,JEFFERSON REGIONAL MEDICAL CENTER
3.04,40.42897,-79.74808,18896.92,WESTERN PENNSYLVANIA HOSP FORBES REGIONAL CAMPUS
3.08,40.81936,-77.84273,19401.75,MOUNT NITTANY MEDICAL CENTER
3.61,41.25855,-75.81041,25944.07,GEISINGER WYOMING VALLEY MEDICAL CENTER
3.19,41.85574,-71.45945,20757.00,ST JOSEPH HEALTH SERVICES OF RI
3.81,41.81254,-71.40760,28391.68,RHODE ISLAND HOSPITAL
3.63,41.85172,-71.39826,26175.53,MIRIAM HOSPITAL
3.25,34.96733,-81.94021,21431.50,SPARTANBURG REGIONAL MEDICAL CENTER
3.24,34.69403,-82.98884,21327.53,OCONEE MEDICAL CENTER
5.16,34.02839,-81.03539,44958.34,PALMETTO HEALTH RICHLAND
5.04,34.71787,-80.78844,43433.82,SPRINGS MEMORIAL HOSPITAL
4.21,34.19543,-79.76256,33336.87,MCLEOD REGIONAL MEDICAL CENTER-PEE DEE
3.57,34.18661,-79.32541,25382.55,MARION REGIONAL HOSPITAL
3.51,33.62185,-80.74922,24666.00,TRMC OF ORANGEBURG & CALHOUN
4.34,34.17571,-82.15791,34876.66,SELF REGIONAL HEALTHCARE
3.88,34.81904,-82.41308,29199.95,GREENVILLE MEMORIAL HOSPITAL
4.03,32.97605,-80.07302,31038.65,TRIDENT MEDICAL CENTER
3.27,32.22325,-80.71444,21688.47,HILTON HEAD REGIONAL MEDICAL CENTER
3.37,33.70704,-78.89487,22978.29,GRAND STRAND REG MED CENTER
4.21,34.00754,-81.03270,33240.77,PALMETTO HEALTH BAPTIST
3.77,32.78211,-79.95018,27842.35,ROPER HOSPITAL
3.44,33.59553,-79.02412,23864.00,WACCAMAW COMMUNITY HOSPITAL
2.54,44.91113,-97.12063,12728.91,PRAIRIE LAKES HOSPITAL
3.13,42.87249,-97.40741,20021.17,AVERA SACRED HEART HOSPITAL
3.07,43.71370,-98.00748,19325.75,AVERA QUEEN OF PEACE
3.06,45.46141,-98.47929,19172.87,AVERA ST LUKES
3.07,43.53460,-96.71136,19204.30,AVERA MCKENNAN HOSPITAL & UNIVERSITY HEALTH CENTER
3.20,43.53562,-96.74305,20918.67,SANFORD USD MEDICAL CENTER
2.49,35.63906,-88.83207,12161.14,JACKSON-MADISON COUNTY GENERAL HOSPITAL
3.08,35.93917,-85.01865,19337.71,CUMBERLAND MEDICAL CENTER
2.97,36.58587,-82.25703,18030.62,WELLMONT BRISTOL REGIONAL MEDICAL CENTER
2.88,36.55401,-82.55483,16978.00,WELLMONT HOLSTON VALLEY MEDICAL CENTER
2.56,36.17561,-82.79033,12984.25,LAUGHLIN MEMORIAL HOSPITAL, INC
2.52,35.98589,-84.28055,12448.85,METHODIST MEDICAL CENTER OF OAK RIDGE
4.10,36.58199,-87.27050,31949.64,GATEWAY MEDICAL CENTER
3.31,34.50579,-92.96678,22259.57,HORIZON MEDICAL CENTER
3.61,35.12837,-89.86202,25870.16,BAPTIST MEMORIAL HOSPITAL
3.00,35.86074,-86.42434,18363.22,MIDDLE TENNESSEE MEDICAL CENTER INC
3.04,35.17733,-86.09081,18890.17,SOUTHERN TENNESSEE MEDICAL CENTER
2.62,36.17121,-85.50938,13733.49,COOKEVILLE REGIONAL MEDICAL CENTER
3.41,36.30767,-82.38497,23448.22,JOHNSON CITY MEDICAL CENTER
2.67,35.85418,-83.53731,14285.58,LECONTE MEDICAL CENTER
2.88,36.12859,-86.84559,16985.22,ST THOMAS HOSPITAL
3.05,35.05068,-85.28823,19008.72,ERLANGER MEDICAL CENTER
3.02,35.99233,-83.92697,18610.08,TENNOVA HEALTHCARE
2.67,35.95747,-83.93660,14331.42,FORT SANDERS REGIONAL MEDICAL CENTER
3.06,36.15388,-86.80249,19196.14,BAPTIST HOSPITAL
3.72,35.03467,-85.26735,27304.29,PARKRIDGE MEDICAL CENTER
2.66,35.91765,-84.10080,14280.10,PARKWEST MEDICAL CENTER
2.93,35.24230,-87.33474,17561.06,CROCKETT HOSPITAL
5.25,35.09925,-89.86301,46053.69,ST FRANCIS HOSPITAL
4.06,35.17731,-84.86873,31409.57,SKYRIDGE MEDICAL CENTER
3.41,35.68445,-88.85461,23468.58,REGIONAL HOSPITAL OF JACKSON
3.46,36.32443,-86.62304,24023.46,HENDERSONVILLE MEDICAL CENTER
6.08,35.20713,-89.80059,56258.53,SAINT FRANCIS BARTLETT MEDICAL CENTER
2.86,30.04413,-99.15217,16638.24,PETERSON REGIONAL MEDICAL CENTER
4.05,33.90296,-98.50035,31278.56,UNITED REGIONAL HEALTH CARE SYSTEM
4.39,30.65598,-96.34672,35456.66,ST JOSEPH REGIONAL HEALTH CENTER
3.91,32.81043,-96.83699,29628.17,PARKLAND HEALTH AND HOSPITAL SYSTEM
3.09,29.31233,-94.77317,19459.90,UNIVERSITY OF TEXAS MEDICAL BRANCH GAL
3.33,32.78994,-96.78044,22483.82,BAYLOR UNIVERSITY MEDICAL CENTER
3.58,28.81269,-96.97780,25482.92,CITIZENS MEDICAL CENTER
4.67,29.74802,-95.36609,38951.55,ST JOSEPH MEDICAL CENTER
3.74,32.50219,-94.73025,27512.00,GOOD SHEPHERD MEDICAL CENTER
6.53,33.57524,-101.89272,61773.14,COVENANT MEDICAL CENTER
3.32,31.51444,-97.19927,22340.58,PROVIDENCE HEALTH CENTER
3.73,32.81224,-96.83795,27400.95,UT SOUTHWESTERN UNIVERSITY HOSPITAL
3.73,32.76017,-96.82437,27434.08,METHODIST DALLAS MEDICAL CENTER
3.02,31.07837,-97.36403,18644.26,SCOTT & WHITE MEMORIAL HOSPITAL
4.19,29.43360,-98.49265,32997.73,BAPTIST MEDICAL CENTER
3.67,32.74944,-97.11630,26666.92,TEXAS HEALTH ARLINGTON MEMORIAL HOSPITAL
4.77,29.71431,-95.39680,40212.85,MEMORIAL HERMANN TEXAS MEDICAL CENTER
3.26,32.83520,-96.96101,21595.17,BAYLOR MEDICAL CENTER AT IRVING
3.13,29.56876,-97.94776,19992.23,GUADALUPE REGIONAL MEDICAL CENTER
6.46,26.26353,-98.18455,60989.41,SOUTH TEXAS HEALTH SYSTEM
3.07,31.99616,-102.09950,19236.77,MIDLAND MEMORIAL HOSPITAL
3.68,32.73780,-97.33899,26795.78,TEXAS HEALTH HARRIS METHODIST FORT WORTH
5.63,28.80765,-96.99896,50778.25,DETAR HOSPITAL NAVARRO
3.29,31.11326,-97.80076,21953.29,METROPLEX HOSPITAL
3.61,29.81230,-95.43010,25925.59,MEMORIAL HERMANN HOSPITAL SYSTEM
3.82,29.70719,-95.40048,28532.08,ST LUKES EPISCOPAL HOSPITAL
5.49,30.28473,-95.46714,49058.10,CONROE REGIONAL MEDICAL CENTER
3.26,35.19533,-101.91907,21635.88,BAPTIST ST ANTHONYS HEALTH SYSTEM-BAPTIST CAMPUS
2.91,29.68674,-95.38652,17330.79,HARRIS COUNTY HOSPITAL DISTRICT
3.54,33.71085,-96.58493,25012.10,TEXOMA MEDICAL CENTER
3.69,31.42009,-100.47013,26874.64,SAN ANGELO COMMUNITY MEDICAL CENTER
3.43,30.69934,-95.55927,23723.87,HUNTSVILLE MEMORIAL HOSPITAL
3.21,33.12242,-96.12404,21020.74,HUNT REGIONAL MEDICAL CENTER
3.25,32.39611,-96.86404,21461.45,BAYLOR MEDICAL CENTER AT WAXAHACHIE
4.70,29.50795,-98.57224,39364.22,METHODIST HOSPITAL
6.31,32.17167,-95.84417,59133.91,EAST TEXAS MEDICAL CENTER ATHENS
6.32,32.40574,-99.76486,59179.62,ABILENE REGIONAL MEDICAL CENTER
3.50,29.78143,-95.54541,24533.04,MEMORIAL HERMANN MEMORIAL CITY MEDICAL CENTER
5.42,33.02168,-96.76621,48189.39,MEDICAL CENTER OF PLANO
6.14,25.97780,-97.51442,56986.33,VALLEY REGIONAL MEDICAL CENTER
3.23,33.58838,-101.89214,21209.00,UNIVERSITY MEDICAL CENTER
4.00,30.22723,-97.77447,30716.67,ST DAVID'S SOUTH AUSTIN MEDICAL CENTER
3.95,32.64448,-96.87635,30069.91,METHODIST CHARLTON MEDICAL CENTER
4.26,27.69288,-97.34476,33893.45,CORPUS CHRISTI MEDICAL CENTER,THE
4.12,30.41163,-97.70649,32202.74,NORTH AUSTIN MEDICAL CENTER
4.60,29.58896,-95.63112,38061.23,METHODIST SUGAR LAND HOSPITAL
3.72,29.78747,-95.78578,27219.17,MEMORIAL HERMANN KATY HOSPITAL
4.07,30.20579,-95.45830,31578.36,ST LUKE'S THE WOODLANDS HOSPITAL
3.48,33.01358,-96.78823,24326.56,BAYLOR REGIONAL MEDICAL CENTER AT PLANO
2.69,40.24999,-111.66524,14562.73,UTAH VALLEY REGIONAL MEDICAL CENTER
2.73,40.77848,-111.88062,15103.82,LDS HOSPITAL
2.36,37.65268,-113.08129,10499.06,VALLEY VIEW MEDICAL CENTER
2.73,37.09986,-113.55271,15077.22,DIXIE REGIONAL MEDICAL CENTER
2.86,40.38031,-111.76708,16742.85,AMERICAN FORK HOSPITAL
2.67,41.09098,-111.99557,14319.07,DAVIS HOSPITAL AND MEDICAL CENTER
3.02,40.58979,-111.97499,18667.29,JORDAN VALLEY MEDICAL CENTER
2.60,44.47966,-73.19412,13474.77,FLETCHER ALLEN HOSPITAL OF VERMONT
3.03,43.59828,-72.95512,18744.15,RUTLAND REGIONAL MEDICAL CENTER
2.58,38.40552,-78.85730,13215.10,ROCKINGHAM MEMORIAL HOSPITAL
2.60,39.19345,-78.19599,13503.84,WINCHESTER MEDICAL CENTER INC
3.27,36.86268,-76.30355,21678.50,SENTARA NORFOLK GENERAL HOSPITAL
3.26,38.02573,-78.51526,21559.06,UNIVERSITY OF VIRGINIA MEDICAL CENTER
3.22,36.83716,-76.34786,21161.06,BON SECOURS MARYVIEW MEDICAL CENTER
2.36,38.09436,-78.98659,10587.11,AUGUSTA HEALTH
2.36,37.41368,-79.16870,10546.22,CENTRA  HEALTH, INC
3.39,38.71322,-77.80895,23187.22,THE FAUQUIER HOSPITAL, INC
3.11,37.25129,-79.94125,19799.03,CARILION ROANOKE MEMORIAL CENTER
4.30,37.54330,-77.42932,34353.50,MEDICAL COLLEGE OF VIRGINIA HOSPITALS
3.05,38.82218,-77.10533,19075.85,INOVA ALEXANDRIA HOSPITAL
2.99,37.09020,-80.50370,18279.47,CARILION NEW RIVER VALLEY MEDICAL CENTER
2.86,39.07405,-77.47754,16659.35,INOVA LOUDOUN HOSPITAL
3.72,36.77378,-76.57856,27255.94,SENTARA OBICI HOSPITAL
3.01,36.85098,-76.18989,18565.11,SENTARA LEIGH HOSPITAL
3.04,37.06523,-76.48417,18929.11,RIVERSIDE REGIONAL MEDICAL CENTER
3.65,37.09990,-81.79024,26395.23,CLINCH VALLEY MEDICAL CENTER
2.90,38.85764,-77.22772,17223.93,INOVA FAIRFAX HOSPITAL
2.95,37.33700,-76.74046,17730.00,SENTARA WILLIAMSBURG REGIONAL MEDICAL CENTER
6.08,37.18253,-77.35957,56315.47,SOUTHSIDE REGIONAL MEDICAL CENTER
3.36,37.62931,-77.38804,22823.89,BON SECOURS - MEMORIAL REGIONAL MEDICAL
2.35,38.02176,-78.44530,10386.74,MARTHA JEFFERSON HOSPITAL
3.49,36.69555,-79.86374,24369.38,MEMORIAL HOSPITAL OF MARTINSVILLE & HENRY COUNTY
3.25,37.05580,-76.39048,21434.24,SENTARA CAREPLEX HOSPITAL
2.96,38.88483,-77.37995,17937.06,INOVA FAIR OAKS HOSPITAL
2.90,38.63463,-77.28361,17170.91,SENTARA POTOMAC HOSPITAL
3.24,36.77664,-76.09682,21321.62,SENTARA PRINCESS ANNE HOSPITAL
3.36,37.79106,-79.88263,22863.82,LEWISGALE HOSPITAL ALLEGHANY
3.37,47.71468,-122.33762,22927.94,NORTHWEST HOSPITAL
2.48,48.50066,-122.61584,12036.08,ISLAND HOSPITAL
3.81,47.58295,-122.62506,28363.89,HARRISON MEDICAL CENTER
3.18,46.13039,-122.94110,20637.27,PEACHEALTH ST JOHN MEDICAL CENTER
4.11,45.62460,-122.58145,32013.42,PEACEHEALTH SOUTHWEST MEDICAL CENTER
3.42,47.64936,-117.41194,23588.90,PROVIDENCE SACRED HEART MEDICAL CENTER
3.08,46.28132,-119.28218,19387.73,KADLEC REGIONAL MEDICAL CENTER
3.17,47.70969,-117.40722,20526.92,PROVIDENCE HOLY FAMILY HOSPITAL
4.09,47.17742,-122.28943,31790.75,MULTICARE GOOD SAMARITAN HOSPITAL
3.18,47.44243,-122.21392,20565.61,VALLEY MEDICAL CENTER
3.84,47.25980,-122.45243,28793.50,TACOMA GENERAL ALLENMORE HOSPITAL
3.89,47.29252,-122.32729,29318.11,ST FRANCIS COMMUNITY HOSPITAL
4.15,47.36373,-122.61353,32605.82,ST ANTHONY HOSPITAL
3.02,39.65498,-79.95814,18658.27,WEST VIRGINIA UNIVERSITY HOSPITALS
2.51,37.77324,-80.46826,12331.33,GREENBRIER VALLEY MEDICAL CENTER
2.76,39.32836,-80.23964,15413.75,UNITED HOSPITAL CENTER
2.55,38.43236,-82.40067,12874.63,ST MARY'S MEDICAL CENTER
3.50,38.34739,-81.62600,24557.91,CHARLESTON AREA MEDICAL CENTER
2.75,39.66383,-79.94681,15300.35,MONONGALIA COUNTY GENERAL HOSPITAL
2.45,38.92594,-79.84673,11688.36,DAVIS MEMORIAL HOSPITAL
2.89,39.48229,-80.16519,17054.08,FAIRMONT GENERAL HOSPITAL
2.82,39.27035,-81.56026,16172.43,CAMDEN CLARK MEDICAL CENTER
2.91,37.78754,-81.20183,17321.38,RALEIGH GENERAL HOSPITAL
3.31,45.63932,-89.37481,22266.06,MINISTRY ST MARYS HOSPITAL
2.36,44.18700,-88.45431,10573.23,THEDA CLARK MED CTR
2.56,44.50233,-88.01140,12946.65,BELLIN MEMORIAL HSPTL
2.87,43.06195,-87.87861,16783.19,COLUMBIA ST MARYS HSPTL  MILW (COL & MILW CAMPUS)
2.77,42.68685,-89.03244,15609.85,MERCY HLTH SYS CORP
3.06,44.81192,-91.51352,19093.95,MAYO CLINIC HEALTH SYSTEM EAU CLAIRE HOSPITAL
2.99,45.89438,-89.70190,18284.36,HOWARD YOUNG MED CTR
2.65,42.73444,-87.82788,14056.97,WHEATON FRANCISCAN HEALTHCARE- ALL SAINTS
3.50,42.54868,-89.00822,24492.29,BELOIT MEM HSPTL
2.84,43.07633,-89.43133,16461.48,UNIVERSITY OF WI  HOSPITALS & CLINICS AUTHORITY
2.82,42.66123,-88.49611,16201.55,AURORA LAKELAND MED CTR
3.08,43.07393,-87.97612,19407.86,WHEATON FRANCISCAN, INC- ST JOSEPH
3.86,42.98958,-87.95079,29008.51,AURORA ST LUKES MEDICAL CENTER
3.37,43.00120,-88.02675,22991.13,AURORA WEST ALLIS MEDICAL CENTER
2.12,44.27860,-88.39550,7530.93,APPLETON MED CTR
3.14,43.04008,-88.02523,20084.91,FROEDTERT MEM LUTHERAN HSPTL
3.01,43.32426,-87.92776,18537.09,AURORA MEDICAL CENTER
3.24,42.84802,-106.30851,21296.56,WYOMING MEDICAL CENTER
3.21,41.14037,-104.81660,20961.36,CHEYENNE REGIONAL MEDICAL CENTER
4.00,30.56899,-97.65104,30650.67,SETON MEDICAL CENTER WILLIAMSON
5.21,31.79047,-106.26500,45580.91,SIERRA PROVIDENCE EAST MEDICAL CENTER
3.97,29.61578,-98.47479,30377.00,METHODIST STONE OAK HOSPITAL
2.55,34.36605,-86.42127,12814.00,MARSHALL MEDICAL CENTER NORTH
3.03,33.59616,-86.66750,18820.06,ST VINCENT'S EAST
4.06,33.25607,-86.81035,31418.06,SHELBY BAPTIST MEDICAL CENTER
2.50,34.74649,-87.69895,12212.00,HELEN KELLER MEMORIAL HOSPITAL
2.55,32.63806,-85.40413,12835.93,EAST ALABAMA MEDICAL CENTER AND SNF
2.95,33.50619,-86.80210,17814.43,UNIVERSITY OF ALABAMA HOSPITAL
2.59,34.66171,-86.04665,13421.86,HIGHLANDS MEDICAL CENTER
3.00,33.65640,-85.82284,18422.67,NORTHEAST ALABAMA REGIONAL MED CENTER
4.12,30.42700,-87.68386,32166.85,SOUTH BALDWIN REGIONAL MEDICAL CENTER
3.36,33.20521,-87.52546,22809.38,D C H REGIONAL MEDICAL CENTER
4.21,33.49854,-86.84633,33272.80,BAPTIST MEDICAL CENTER-PRINCETON
3.84,32.46417,-86.45177,28721.36,PRATTVILLE BAPTIST HOSPITAL
3.64,32.43020,-87.05515,26316.55,VAUGHAN REG MED CENTER PARKWAY CAMPUS
7.22,33.46420,-86.77409,70293.38,BROOKWOOD MEDICAL CENTER
2.87,30.68546,-88.13170,16814.30,SPRINGHILL MEDICAL CENTER
3.64,32.38797,-86.17576,26329.33,BAPTIST MEDICAL CENTER EAST
3.47,33.16547,-86.25380,24225.53,COOSA VALLEY MEDICAL CENTER
4.40,60.94901,-149.17033,35672.65,PROVIDENCE ALASKA MEDICAL CENTER
3.23,32.25294,-110.88135,21234.32,TUCSON MEDICAL CENTER
2.92,34.56017,-112.48217,17407.13,YAVAPAI REGIONAL MEDICAL CENTER
3.72,32.88123,-111.71067,27236.33,CASA GRANDE REGIONAL MEDICAL CENTER
4.32,35.20923,-111.64486,34691.89,FLAGSTAFF MEDICAL CENTER
3.62,33.48885,-111.92387,26006.41,SCOTTSDALE HEALTHCARE-OSBORN MEDICAL CENTER
5.84,33.29750,-111.87461,53374.70,CHANDLER REGIONAL MEDICAL CENTER
3.16,31.55116,-110.27248,20369.26,SIERRA VISTA REGIONAL HEALTH CENTER INC
3.45,35.22024,-114.03585,23905.00,KINGMAN REGIONAL MEDICAL CENTER
5.02,33.60432,-112.28378,43232.59,BANNER BOSWELL MEDICAL CENTER
3.62,34.20195,-110.01913,26011.80,SUMMIT HEALTHCARE REGIONAL MEDICAL CENTER
4.06,33.39097,-111.87638,31460.28,BANNER DESERT MEDICAL CENTER
3.28,32.82248,-109.73476,21828.64,MT GRAHAM REGIONAL MEDICAL CENTER
4.71,34.47988,-114.33938,39444.43,HAVASU REGIONAL MEDICAL CENTER
4.51,33.41128,-111.68916,36933.89,BANNER BAYWOOD MEDICAL CENTER
4.20,33.60949,-112.18129,33196.00,BANNER THUNDERBIRD MEDICAL CENTER
4.37,33.66596,-112.11618,35229.25,JOHN C LINCOLN DEER VALLEY HOSPITAL
4.27,33.65965,-112.37283,34064.49,BANNER DEL E WEBB MEDICAL CENTER
4.43,33.41128,-111.68579,36021.20,BANNER HEART HOSPITAL
2.78,34.58822,-112.33095,15713.23,YAVAPAI REGIONAL MEDICAL CENTER-EAST
5.12,33.28686,-111.75246,44521.05,MERCY GILBERT MEDICAL CENTER
3.70,33.67102,-111.92184,26968.00,SCOTTSDALE HEALTHCARE-THOMPSON PEAK HOSPITAL
3.31,36.10940,-94.16036,22229.80,WASHINGTON REGIONAL MED CTR AT NORTH HILLS
3.12,34.75031,-92.33897,19820.21,ST VINCENT INFIRMARY MEDICAL CENTER
2.59,36.31007,-94.18471,13352.61,MERCY MEDICAL CENTER
3.17,36.23579,-93.10717,20531.29,NORTH ARKANSAS REGIONAL MEDICAL CENTER
2.25,35.83746,-90.70386,9222.72,ST BERNARDS MEDICAL CTR
