size,lat,lon,price,name
3.96,34.46784,-93.06667,16529.83,ST JOSEPHS MERCY HEALTH CENTER INC
2.18,36.34295,-92.39442,5649.21,BAXTER REGIONAL MEDICAL CENTER
4.22,35.28275,-93.14901,18135.30,ST MARYS REGIONAL MEDICAL CENTER
3.65,34.18894,-92.01886,14656.18,JEFFERSON REGIONAL MEDICAL CENTER
3.38,34.74866,-92.35422,13006.76,BAPTIST HEALTH MEDICAL CENTER-LITTLE ROCK
4.06,35.76927,-91.63408,17140.09,WHITE RIVER MEDICAL CENTER
6.24,38.57053,-121.45216,30526.56,MERCY GENERAL HOSPITAL
5.47,39.50528,-121.54100,25784.00,OROVILLE HOSPITAL
7.09,35.38736,-119.01690,35706.67,BAKERSFIELD MEMORIAL HOSPITAL
4.36,34.67486,-118.15771,18998.23,ANTELOPE VALLEY HOSPITAL MED CENTER
4.79,36.32737,-119.29548,21626.90,KAWEAH DELTA MEDICAL CENTER
6.59,34.12834,-118.25777,32655.47,GLENDALE MEM HOSPITAL & HLTH CENTER
4.81,33.78036,-117.86495,21755.69,ST JOSEPH HOSPITAL
7.31,37.96987,-121.28873,37012.52,ST JOSEPHS MED CENTER OF STOCKTON
4.32,36.83532,-119.76562,18761.40,SAINT AGNES MEDICAL CENTER
5.60,34.10130,-117.63651,26580.92,SAN ANTONIO COMMUNITY HOSPITAL
5.91,34.04932,-118.21746,28454.36,WHITE MEMORIAL MEDICAL CENTER
5.55,34.95099,-120.41322,26268.19,MARIAN MEDICAL CENTER
5.22,34.07558,-118.28424,24282.83,TEMPLE COMMUNITY HOSPITAL
6.61,34.02685,-118.48651,32739.06,SANTA MONICA - UCLA MED CTR & ORTHOPAEDIC HOSPITAL
5.54,36.32362,-119.66726,26209.44,ADVENTIST MEDICAL CENTER
12.00,37.36257,-121.84974,65729.27,REGIONAL MEDICAL CENTER OF SAN JOSE
5.94,34.19494,-118.46319,28655.08,VALLEY PRESBYTERIAN HOSPITAL
4.67,33.18402,-117.29661,20903.00,TRI-CITY MEDICAL CENTER
5.49,39.13822,-121.59436,25885.68,RIDEOUT MEMORIAL HOSPITAL
8.60,37.32710,-121.93863,44926.33,O'CONNOR HOSPITAL
6.22,38.44369,-122.70138,30363.85,SANTA ROSA MEMORIAL HOSPITAL
8.43,37.55717,-121.98126,43916.21,WASHINGTON HOSPITAL
7.56,34.58305,-118.14490,38550.00,PALMDALE REGIONAL MEDICAL CENTER
7.61,32.61972,-117.02278,38907.38,SHARP CHULA VISTA MEDICAL CENTER
3.57,33.62229,-117.92995,14170.35,HOAG MEMORIAL HOSPITAL PRESBYTERIAN
6.61,35.27882,-120.65047,32749.64,FRENCH HOSPITAL MEDICAL CENTER
9.29,34.15601,-118.32834,49153.71,PROVIDENCE SAINT JOSEPH MEDICAL CTR
7.95,33.83862,-116.54557,40962.40,DESERT REGIONAL MEDICAL CENTER
6.34,36.06956,-119.02748,31088.67,SIERRA VIEW DISTRICT HOSPITAL
4.89,34.03721,-117.20474,22215.71,REDLANDS COMMUNITY HOSPITAL
6.34,37.69502,-121.88095,31105.18,VALLEYCARE MEDICAL CENTER
4.92,34.03009,-118.47833,22423.62,SAINT JOHN'S HEALTH CENTER
5.13,34.50107,-117.17285,23679.44,ST MARY MEDICAL CENTER
5.40,37.85593,-122.25730,25355.25,ALTA BATES SUMMIT MEDICAL CENTER - ALTA BATES CAMP
6.38,37.36934,-122.08047,31339.25,EL CAMINO HOSPITAL
5.28,38.76514,-121.24979,24611.56,SUTTER ROSEVILLE MEDICAL CENTER
4.54,33.87236,-117.56809,20092.29,CORONA REGIONAL MEDICAL CENTER
10.22,38.12186,-121.28665,54855.46,LODI MEMORIAL HOSPITAL
3.78,34.01501,-118.10064,15423.18,BEVERLY HOSPITAL
4.59,36.22008,-119.33764,20391.68,TULARE REGIONAL MEDICAL CENTER
7.50,37.25153,-121.94684,38212.53,GOOD SAMARITAN HOSPITAL
4.20,33.75117,-116.96028,18000.71,HEMET VALLEY MEDICAL CENTER
7.40,33.93530,-118.13030,37621.36,DOWNEY REGIONAL MEDICAL CENTER
4.83,37.79569,-122.40930,21858.20,CHINESE HOSPITAL
4.81,34.13364,-118.15275,21747.73,HUNTINGTON MEMORIAL HOSPITAL
10.97,37.43436,-122.18013,59441.17,STANFORD HOSPITAL
6.60,35.38338,-119.01969,32706.06,SAN JOAQUIN COMMUNITY HOSPITAL
8.13,34.05336,-118.26558,42037.67,GOOD SAMARITAN HOSPITAL
7.16,34.20285,-118.62962,36146.73,WEST HILLS HOSPITAL & MEDICAL CENTER
6.33,37.69824,-122.08730,31022.35,EDEN MEDICAL CENTER
5.24,34.06389,-118.27347,24408.47,SAINT VINCENT MEDICAL CENTER
7.47,35.29188,-120.66635,38033.21,SIERRA VISTA REGIONAL MEDICAL CENTER
7.00,34.20777,-118.88305,35164.97,LOS ROBLES HOSPITAL & MEDICAL CENTER
6.73,33.80441,-118.06665,33487.57,LOS ALAMITOS MEDICAL CENTER
4.77,33.60883,-117.70881,21535.18,SADDLEBACK MEMORIAL MEDICAL CENTER
5.70,34.24359,-119.01992,27190.38,ST JOHNS PLEASANT VALLEY HOSPITAL
9.44,34.07664,-118.37955,50047.51,CEDARS-SINAI MEDICAL CENTER
8.95,34.06760,-118.12291,47059.92,GARFIELD MEDICAL CENTER
6.59,33.95076,-118.34828,32660.61,CENTINELA HOSPITAL MEDICAL CENTER
7.50,34.05723,-118.36025,38199.06,OLYMPIA MEDICAL CENTER
7.57,34.17067,-118.53200,38644.80,PROVIDENCE TARZANA MEDICAL CENTER
5.33,40.58532,-122.38702,24915.94,SHASTA REGIONAL MEDICAL CENTER
4.02,40.18134,-105.12769,16946.55,LONGMONT UNITED HOSPITAL
3.57,40.57315,-105.05741,14170.05,POUDRE VALLEY HOSPITAL
4.82,38.23421,-104.62292,21819.82,CENTURA HEALTH-ST MARY CORWIN MEDICAL CENTER
4.33,38.28184,-104.61256,18806.17,PARKVIEW MEDICAL CENTER INC
4.01,40.02615,-105.28391,16878.07,BOULDER COMMUNITY HOSPITAL
4.28,38.86559,-104.82182,18488.05,CENTURA HEALTH-PENROSE ST FRANCIS HEALTH SERVICES
5.66,39.65399,-104.98116,26939.00,SWEDISH MEDICAL CENTER
4.64,39.67005,-104.97490,20713.18,CENTURA HEALTH-PORTER ADVENTIST HOSPITAL
3.48,38.74540,-108.04700,13628.12,DELTA COUNTY MEMORIAL HOSPITAL
5.32,39.52910,-104.87121,24892.62,SKY RIDGE MEDICAL CENTER
4.01,41.77507,-72.69941,16853.12,ST FRANCIS HOSPITAL & MEDICAL CENTER
3.74,41.55959,-73.05941,15227.25,WATERBURY HOSPITAL
4.63,41.05562,-73.55390,20652.50,STAMFORD HOSPITAL
2.99,41.33722,-72.10380,10644.84,LAWRENCE & MEMORIAL HOSPITAL
4.49,41.18881,-73.16645,19821.15,BRIDGEPORT HOSPITAL
2.76,41.79153,-73.13382,9219.76,CHARLOTTE HUNGERFORD HOSPITAL
2.75,41.55241,-73.03554,9144.21,SAINT MARYS HOSPITAL
3.96,41.54874,-72.80148,16545.83,MIDSTATE MEDICAL CENTER
4.35,41.03431,-73.63020,18918.62,GREENWICH HOSPITAL ASSOCIATION
3.29,41.40474,-73.44739,12461.82,DANBURY HOSPITAL
2.82,41.54301,-72.08799,9583.55,WILLIAM W BACKUS HOSPITAL
3.91,41.75412,-72.67927,16256.16,HARTFORD HOSPITAL
3.15,41.78185,-72.52591,11580.33,MANCHESTER MEMORIAL HOSPITAL
3.24,41.20049,-73.20281,12147.63,ST VINCENT'S MEDICAL CENTER
3.76,41.66107,-72.78671,15359.37,HOSPITAL OF CENTRAL CONNECTICUT, THE
3.88,39.74954,-75.56662,16068.48,ST FRANCIS HOSPITAL
3.66,39.15135,-75.52309,14707.94,BAYHEALTH - KENT GENERAL HOSPITAL
4.09,38.77159,-75.14210,17353.83,BEEBE MEDICAL CENTER
4.59,38.90106,-77.05079,20393.31,GEORGE WASHINGTON UNIV HOSPITAL
4.24,38.91770,-77.02193,18256.00,HOWARD UNIVERSITY HOSPITAL
4.67,38.91221,-77.07588,20919.38,GEORGETOWN UNIVERSITY HOSPITAL
3.76,38.93576,-77.10909,15348.79,SIBLEY MEMORIAL HOSPITAL
3.67,38.94397,-76.99040,14792.59,PROVIDENCE HOSPITAL
3.66,38.92944,-77.01473,14740.37,WASHINGTON HOSPITAL CENTER
5.13,26.50479,-80.06979,23685.53,BETHESDA MEMORIAL HOSPITAL
5.05,28.52517,-81.37729,23226.21,ORLANDO HEALTH
6.21,25.68309,-80.34038,30329.65,BAPTIST HOSPITAL OF MIAMI INC
6.76,25.78846,-80.21644,33658.63,UNIVERSITY OF MIAMI HOSPITAL
3.41,29.20117,-81.05828,13178.67,HALIFAX HEALTH MEDICAL CENTER
4.30,26.15053,-81.79919,18644.39,NAPLES COMMUNITY HOSPITAL
4.93,25.79143,-80.21250,22514.78,JACKSON MEMORIAL HOSPITAL
4.77,28.83363,-82.33561,21489.44,CITRUS MEMORIAL HOSPITAL
2.69,30.47650,-87.21219,8803.92,SACRED HEART HOSPITAL
3.50,30.15963,-85.64818,13727.97,BAY MEDICAL CENTER
7.08,25.86166,-80.21398,35634.31,NORTH SHORE MEDICAL CENTER
5.43,25.81317,-80.13996,25557.41,MOUNT SINAI MEDICAL CENTER
4.75,26.01867,-80.17981,21377.06,MEMORIAL REGIONAL HOSPITAL
3.79,30.30835,-81.68919,15524.61,ST VINCENT'S MEDICAL CENTER
4.52,27.19837,-80.24306,19957.38,MARTIN MEMORIAL MEDICAL CENTER
3.95,29.04263,-81.31635,16485.12,FLORIDA HOSPITAL DELAND
5.35,28.26092,-82.18802,25032.11,FLORIDA HOSPITAL ZEPHYRHILLS
4.61,26.94042,-82.04094,20549.75,CHARLOTTE REGIONAL MEDICAL CENTER
4.12,28.13321,-82.75839,17549.00,HELEN ELLIS MEMORIAL HOSPITAL
3.56,29.17594,-82.13898,14088.71,MUNROE REGIONAL MEDICAL CENTER
4.13,27.78088,-82.65126,17568.43,ST ANTHONY'S HOSPITAL
3.46,29.24333,-81.10760,13496.25,FLORIDA HOSPITAL MEMORIAL MEDICAL CENTER
3.86,27.09043,-82.44499,15958.80,VENICE REGIONAL MEDICAL CENTER
9.47,28.53906,-82.44193,50229.58,BROOKSVILLE REGIONAL HOSPITAL
4.54,26.18711,-80.11941,20111.14,HOLY CROSS HOSPITAL INC
6.18,26.98905,-82.09559,30160.92,PEACE RIVER REGIONAL MEDICAL CENTER
6.17,26.59805,-80.09271,30095.52,JFK MEDICAL CENTER
3.82,28.80659,-81.86906,15712.05,LEESBURG REGIONAL MEDICAL CENTER
4.61,30.31525,-81.66398,20554.26,BAPTIST MEDICAL CENTER
3.99,28.33522,-80.72319,16723.27,WUESTHOFF MEDICAL CENTER  ROCKLEDGE
2.49,27.65832,-80.39307,7542.11,INDIAN RIVER MEDICAL CENTER
3.54,29.64155,-82.34844,13960.75,SHANDS HOSPITAL AT THE UNIVERSITY OF FLORIDA
4.07,30.27449,-81.40071,17227.38,BAPTIST MEDICAL CENTER  BEACHES
4.33,27.75214,-82.73951,18842.33,PALMS OF PASADENA HOSPITAL
4.13,30.65118,-81.44923,17565.43,BAPTIST MEDICAL CENTER - NASSAU
2.86,30.78675,-85.24189,9833.81,JACKSON HOSPITAL
7.29,25.70328,-80.29391,36944.81,SOUTH MIAMI HOSPITAL, INC
4.75,28.06172,-81.95304,21397.79,LAKELAND REGIONAL MEDICAL CENTER
4.25,27.30187,-82.45428,18339.08,DOCTORS HOSPITAL OF SARASOTA
8.14,27.80541,-82.72694,42115.17,ST PETERSBURG GENERAL HOSPITAL
6.49,26.26259,-80.20292,32015.92,NORTHWEST MEDICAL CENTER
4.32,27.93758,-82.48933,18745.83,MEMORIAL HOSPITAL OF TAMPA
7.19,25.73195,-80.38580,36293.45,KENDALL REGIONAL MEDICAL CENTER
5.49,27.48213,-82.62126,25898.06,BLAKE MEDICAL CENTER
5.28,26.12354,-80.25951,24639.18,WESTSIDE REGIONAL MEDICAL CENTER
3.49,29.64481,-81.69431,13677.39,PUTNAM COMMUNITY MEDICAL CENTER
7.32,27.93259,-82.28759,37111.64,BRANDON REGIONAL HOSPITAL
7.61,27.43392,-80.34350,38871.68,LAWNWOOD REGIONAL MEDICAL CENTER & HEART INSTITUTE
4.15,26.92138,-80.09708,17737.91,JUPITER MEDICAL CENTER
7.68,28.36128,-82.68883,39287.39,REGIONAL MEDICAL CENTER BAYONET POINT
6.96,26.43709,-80.12728,34900.90,DELRAY MEDICAL CENTER
6.88,27.71350,-82.36512,34406.40,SOUTH BAY HOSPITAL
6.51,27.28861,-80.29431,32130.21,ST LUCIE MEDICAL CENTER
3.82,28.03957,-82.70875,15722.33,MEASE COUNTRYSIDE HOSPITAL
5.76,26.94996,-82.32651,27550.19,ENGLEWOOD COMMUNITY HOSPITAL
4.48,26.35614,-80.19956,19713.65,WEST BOCA MEDICAL CENTER
6.60,26.68337,-80.25269,32695.88,PALMS WEST HOSPITAL
5.19,26.01394,-80.30980,24096.66,MEMORIAL HOSPITAL WEST
4.88,26.70181,-80.05055,22183.90,GOOD SAMARITAN MEDICAL CENTER
3.12,31.22516,-82.34898,11407.40,SATILLA REGIONAL MEDICAL CENTER
3.87,31.59023,-84.15756,15998.83,PHOEBE PUTNEY MEMORIAL HOSPITAL
4.81,34.24569,-84.49068,21727.50,NORTHSIDE HOSPITAL CHEROKEE
4.17,34.51192,-84.92579,17850.38,GORDON HOSPITAL
4.02,32.02825,-81.09977,16911.91,CANDLER HOSPITAL
2.78,33.47096,-81.98176,9357.43,UNIVERSITY HOSPITAL
3.25,34.30335,-83.81737,12188.53,NORTHEAST GEORGIA MEDICAL CENTER, INC
2.91,33.47091,-81.98988,10130.55,MEDICAL COLLEGE OF GA HOSPITALS AND CLINICS
3.68,33.96770,-84.55011,14810.57,WELLSTAR KENNESTONE HOSPITAL
4.09,31.98515,-81.15475,17377.21,ST JOSEPH'S HOSPITAL - SAVANNAH
3.28,32.61642,-83.63065,12370.72,HOUSTON MEDICAL CENTER
3.35,33.96117,-83.39832,12811.38,ATHENS REGIONAL MEDICAL CENTER
2.52,33.78956,-84.28077,7763.33,DEKALB MEDICAL CENTER
2.80,33.76810,-84.38616,9446.57,EMORY UNIVERSITY HOSPITAL MIDTOWN
4.23,33.75205,-84.38272,18211.24,GRADY MEMORIAL HOSPITAL
3.58,33.90877,-84.35180,14243.95,SAINT JOSEPH'S HOSPITAL OF ATLANTA, INC
3.10,33.68072,-84.00200,11278.74,ROCKDALE MEDICAL CENTER
3.64,32.83041,-83.63476,14603.25,MEDICAL CENTER OF CENTRAL GEORGIA
7.35,33.76372,-84.37315,37296.21,ATLANTA MEDICAL CENTER
3.32,30.86250,-83.28630,12644.78,SOUTH GEORGIA MEDICAL CENTER
3.06,31.60200,-81.89172,11047.91,WAYNE MEMORIAL HOSPITAL
4.54,33.85638,-84.60446,20096.73,WELLSTAR COBB HOSPITAL
3.14,32.84705,-83.61823,11506.67,COLISEUM MEDICAL CENTER
4.18,33.57843,-84.38897,17918.21,SOUTHERN REGIONAL MEDICAL CENTER
4.85,33.48259,-82.09038,22010.93,DOCTORS HOSPITAL
3.35,33.51144,-84.22200,12842.28,HENRY MEDICAL CENTER, INC
7.28,34.06334,-84.31976,36868.36,NORTH FULTON REGIONAL HOSPITAL
4.00,33.45252,-84.50697,16820.15,PIEDMONT FAYETTE HOSPITAL
3.11,33.70365,-84.14697,11325.94,DEKALB MEDICAL CENTER AT HILLANDALE
2.96,21.30780,-157.85505,10405.65,THE QUEENS MEDICAL CENTER
3.37,21.32239,-157.85662,12934.33,KUAKINI MEDICAL CENTER
4.06,43.61218,-116.19234,17179.00,ST LUKES REGIONAL MEDICAL CENTER
3.59,43.46987,-111.99208,14288.43,EASTERN IDAHO REGIONAL MEDICAL CENTER
4.06,42.06550,-87.68428,17170.44,EVANSTON HOSPITAL
3.72,40.75318,-89.59321,15088.30,PROCTOR HOSPITAL
4.29,39.93563,-91.39833,18598.53,BLESSING HOSPITAL
5.22,41.72930,-88.26976,24248.25,COPLEY MEMORIAL HOSPITAL
3.12,38.52908,-89.11604,11428.45,ST MARYS HOSPITAL
6.54,40.95560,-90.36618,32326.54,GALESBURG COTTAGE HOSPITAL
3.82,41.80160,-89.69714,15688.86,CGH MEDICAL CENTER
3.71,38.32292,-88.91026,15005.77,GOOD SAMARITAN REGIONAL HLTH CENTER
4.61,41.72636,-87.56727,20544.68,ADVOCATE TRINITY HOSPITAL
4.87,41.89141,-87.77618,22142.69,WEST SUBURBAN MEDICAL CENTER
3.72,42.05624,-87.74012,15071.40,SKOKIE HOSPITAL
3.50,39.80726,-89.64496,13727.42,ST JOHNS HOSPITAL
4.31,41.66900,-87.81414,18669.97,PALOS COMMUNITY HOSPITAL
3.67,40.98818,-90.36374,14758.82,ST MARY MEDICAL CENTER
4.84,40.70200,-89.59222,21961.46,SAINT FRANCIS MEDICAL CENTER
5.07,42.37840,-87.83329,23341.06,VISTA MEDICAL CENTER EAST
3.23,40.44791,-90.66578,12070.56,MC DONOUGH DISTRICT HOSPITAL
6.05,40.13811,-87.64569,29336.67,PROVENA UNITED SAMARITANS MEDCTR-LOGAN
4.49,41.36897,-88.42537,19782.00,MORRIS HOSPITAL & HEALTHCARE CENTERS
3.91,41.77813,-87.63330,16233.00,ST BERNARD HOSPITAL
4.78,41.97532,-87.69958,21592.29,SWEDISH COVENANT HOSPITAL
3.96,42.31832,-88.27920,16556.44,CENTEGRA HEALTH SYSTEM - MC HENRY HOSPITAL
3.15,41.87381,-87.67421,11586.85,JOHN H STROGER JR HOSPITAL
7.46,38.70148,-90.14382,37986.12,GATEWAY REGIONAL MEDICAL CENTER
3.03,40.49639,-88.99106,10877.25,BROMENN HEALTHCARE
4.11,41.76946,-87.69239,17494.57,HOLY CROSS HOSPITAL
4.98,41.86927,-87.67052,22771.25,UNIVERSITY OF ILLINOIS HOSPITAL
4.74,41.12049,-87.87187,21342.09,PROVENA ST MARYS HOSPITAL
3.21,41.84639,-87.62345,11973.54,MERCY HOSPITAL AND MEDICAL CENTER
3.97,42.29592,-89.63773,16619.64,FHN MEMORIAL HOSPITAL
4.22,42.27597,-88.40019,18148.50,CENTEGRA HEALTH SYSTEM - WOODSTOCK HOSPITAL
3.86,41.72094,-87.69220,15951.61,LITTLE COMPANY OF MARY HOSPITAL
4.89,41.90414,-87.68254,22246.44,ST MARY & ELIZABETH MED CTR-DIVISION CAMPUS
3.24,39.48849,-88.27581,12148.04,SARAH BUSH LINCOLN HEALTH CENTER
5.06,41.86362,-87.93567,23273.04,ELMHURST MEMORIAL HOSPITAL
5.06,42.27447,-87.95764,23303.62,ADVOCATE CONDELL MEDICAL CENTER
3.65,41.72031,-87.73249,14631.28,ADVOCATE CHRIST HOSPITAL & MEDICAL CENTER
5.12,41.88566,-88.34311,23655.22,DELNOR COMMUNITY HOSPITAL
3.58,42.03837,-87.84820,14214.79,ADVOCATE LUTHERAN GENERAL HOSPITAL
4.83,41.93418,-87.63579,21853.90,SAINT JOSEPH HOSPITAL
3.63,42.26584,-89.07428,14550.12,SWEDISH AMERICAN HOSPITAL
4.38,42.26634,-89.00900,19130.78,SAINT ANTHONY MEDICAL CENTER
3.37,42.29844,-89.09897,12943.12,ROCKFORD MEMORIAL HOSPITAL
3.80,41.56720,-87.69566,15557.17,ADVOCATE SOUTH SUBURBAN HOSPITAL
4.64,41.94560,-87.76897,20722.53,OUR LADY OF THE RESURRECTION MED CTR
2.59,41.48200,-90.57158,8186.45,TRINITY ROCK ISLAND
4.45,41.96185,-88.72130,19532.04,KISHWAUKEE COMMUNITY HOSPITAL
3.42,41.81791,-88.00907,13226.90,ADVOCATE GOOD SAMARITAN HOSPITAL
4.30,41.61055,-86.72511,18630.33,INDIANA UNIVERSITY HEALTH LA PORTE HOSPITAL
3.20,41.63466,-87.44901,11900.59,ST CATHERINE HOSPITAL INC
2.73,40.56435,-85.66576,9053.55,MARION GENERAL HOSPITAL
2.94,41.70639,-86.89936,10284.39,FRANCISCAN ST ANTHONY HEALTH - MICHIGAN CITY
3.58,41.70568,-85.93404,14231.83,ELKHART GENERAL HOSPITAL
4.35,39.94340,-85.36306,18929.31,HENRY COUNTY MEMORIAL HOSPITAL
3.69,41.51266,-87.26125,14875.35,ST MARY MEDICAL CENTER INC
4.02,41.46729,-87.05130,16892.15,PORTER VALPARAISO HOSPITAL
4.46,39.79009,-86.16260,19622.69,INDIANA UNIVERSITY HEALTH
3.51,37.98293,-87.57072,13812.16,DEACONESS HOSPITAL INC
3.75,39.91001,-86.19660,15254.74,ST VINCENT HOSPITAL & HEALTH SERVICES
3.89,40.09594,-85.68152,16115.24,SAINT JOHN'S HEALTH SYSTEM
4.72,40.19679,-85.41573,21192.50,INDIANA UNIVERSITY HEALTH BALL MEMORIAL HOSPITAL
3.34,37.96320,-87.50292,12775.07,ST MARY'S MEDICAL CENTER OF EVANSVILLE INC
3.01,39.21585,-85.89683,10749.36,COLUMBUS REGIONAL HOSPITAL
3.40,41.24786,-85.82927,13115.00,KOSCIUSKO COMMUNITY HOSPITAL
3.73,39.64935,-86.07960,15139.18,FRANCISCAN ST FRANCIS HEALTH - INDIANAPOLIS
2.85,39.90060,-86.04218,9776.69,COMMUNITY HOSPITAL NORTH
4.30,40.40296,-86.80885,18625.35,INDIANA UNIVERSITY HEALTH ARNETT HOSPITAL
2.50,42.04855,-92.90625,7652.08,MARSHALLTOWN MEDICAL & SURGICAL CENTER
3.13,42.49388,-94.18926,11505.95,TRINITY REGIONAL MEDICAL CENTER
2.76,41.54190,-90.55691,9219.48,GENESIS MEDICAL CENTER-DAVENPORT
3.35,41.66411,-91.52841,12816.06,MERCY HOSPITAL
3.24,41.98570,-91.66093,12144.00,ST LUKES HOSPITAL
5.19,41.66092,-91.54800,24063.05,UNIVERSITY OF IOWA HOSPITAL & CLINICS
3.34,43.15063,-93.21718,12758.85,MERCY MEDICAL CENTER-NORTH IOWA
3.34,41.97864,-91.65507,12758.92,MERCY MEDICAL CENTER - CEDAR RAPIDS
3.22,41.86141,-90.18921,12000.94,MERCY MEDICAL CENTER-CLINTON
3.81,41.59886,-93.62344,15632.47,MERCY MEDICAL CENTER-DES MOINES
2.76,43.14994,-95.14317,9218.50,SPENCER MUNICIPAL HOSPITAL
3.08,42.51846,-96.40581,11169.64,ST LUKES REGIONAL MEDICAL CENTER
3.23,38.41149,-96.19524,12069.47,NEWMAN REGIONAL HEALTH
2.80,39.05660,-95.69599,9459.62,ST FRANCIS HEALTH CENTER INC
4.34,37.81826,-96.85834,18868.00,SUSAN B ALLEN MEMORIAL HOSPITAL
3.16,38.85279,-94.82413,11646.46,OLATHE MEDICAL CENTER
4.10,37.69556,-97.29785,17416.92,WESLEY MEDICAL CENTER
3.59,39.12677,-94.78643,14300.17,PROVIDENCE MEDICAL CENTER
4.72,38.90355,-94.66966,21206.64,SAINT LUKE'S SOUTH HOSPITAL
3.23,39.07816,-84.46695,12068.36,ST ELIZABETH FT THOMAS
3.57,38.47021,-82.63498,14161.04,KING'S DAUGHTERS' MEDICAL CENTER
2.94,37.11784,-84.10910,10294.45,SAINT JOSEPH HOSPITAL LONDON
2.76,38.63961,-83.80820,9204.93,MEADOWVIEW REGIONAL MEDICAL CENTER
3.13,36.60798,-88.30957,11497.76,MURRAY-CALLOWAY COUNTY HOSPITAL
3.54,37.27729,-83.22802,13988.05,HAZARD ARH REGIONAL MEDICAL CENTER
2.95,39.06704,-84.49946,10347.81,ST ELIZABETH MEDICAL CENTER NORTH
2.43,37.76518,-87.10197,7181.21,OWENSBORO MEDICAL HEALTH SYSTEM
4.38,37.47264,-82.52605,19147.36,PIKEVILLE MEDICAL CENTER
7.92,37.81455,-82.81102,40761.53,PAUL B HALL REGIONAL MEDICAL CENTER
3.22,38.01849,-84.51236,12004.20,CENTRAL BAPTIST HOSPITAL
3.79,37.08724,-84.61828,15491.95,LAKE CUMBERLAND REGIONAL HOSPITAL
2.90,38.39635,-85.37324,10083.07,BAPTIST HOSPITAL NORTHEAST
4.00,37.56166,-83.37202,16809.14,KENTUCKY RIVER MEDICAL CENTER
3.93,30.20227,-92.01906,16374.14,LAFAYETTE GENERAL MEDICAL CENTER
4.55,29.59851,-90.71397,20191.58,TERREBONNE GENERAL MEDICAL CENTER
5.97,30.46813,-90.45814,28849.53,NORTH OAKS MEDICAL CENTER, LLC
3.44,30.54354,-92.07608,13378.13,OPELOUSAS GENERAL HEALTH SYSTEM
3.59,31.28258,-92.46060,14314.96,CHRISTUS ST FRANCES CABRINI HOSPITAL
4.00,30.65001,-91.13821,16775.92,LANE REGIONAL MEDICAL CENTER
4.43,31.31451,-92.44997,19421.44,RAPIDES REGIONAL MEDICAL CENTER
2.35,30.22762,-92.36253,6733.31,AMERICAN LEGION HOSPITAL
5.22,30.20458,-93.19774,24279.13,LAKE CHARLES MEMORIAL HOSPITAL
3.05,30.40118,-91.11160,10989.18,OUR LADY OF THE LAKE REGIONAL MEDICAL CENTER
2.98,30.45015,-91.15273,10530.81,BATON ROUGE GENERAL MEDICAL CENTER
5.06,32.51544,-92.63343,23308.83,NORTHERN LOUISIANA MEDICAL CENTER
3.75,32.48393,-93.77884,15268.57,WILLIS KNIGHTON MEDICAL CENTER
3.25,32.61700,-93.28566,12216.00,MINDEN MEDICAL CENTER
3.59,30.01438,-90.18155,14304.77,EAST JEFFERSON GENERAL HOSPITAL
4.82,31.13861,-93.26892,21793.63,BYRD REGIONAL HOSPITAL
3.61,30.68494,-92.26601,14385.38,MERCY REGIONAL MEDICAL CENTER
4.79,30.07331,-90.51602,21651.17,RIVER PARISHES HOSPITAL
2.67,43.65325,-70.27533,8644.30,MAINE MEDICAL CENTER
2.19,39.62183,-77.68219,5731.78,MERITUS MEDICAL CENTER
2.87,39.28817,-76.62438,9892.79,UNIVERSITY OF MARYLAND MEDICAL CENTER
2.31,39.01578,-77.03591,6485.02,HOLY CROSS HOSPITAL
2.38,39.42366,-77.41386,6907.72,FREDERICK MEMORIAL HOSPITAL
2.25,39.54345,-76.09153,6086.26,HARFORD MEMORIAL HOSPITAL
2.31,39.38813,-76.61068,6443.60,SAINT JOSEPH MEDICAL CENTER
3.32,39.29688,-76.59242,12649.42,JOHNS HOPKINS HOSPITAL, THE
2.37,39.27352,-76.67219,6817.93,SAINT AGNES HOSPITAL
2.51,39.35262,-76.66196,7705.35,SINAI HOSPITAL OF BALTIMORE
2.30,39.35169,-76.47919,6376.48,FRANKLIN SQUARE HOSPITAL CENTER
2.49,39.41339,-79.40103,7553.79,GARRETT COUNTY MEMORIAL HOSPITAL
2.46,39.15402,-77.05431,7364.50,MONTGOMERY GENERAL HOSPITAL INC
2.39,38.36248,-75.59799,6958.22,PENINSULA REGIONAL MEDICAL CENTER
2.06,38.99014,-76.53398,4957.10,ANNE ARUNDEL MEDICAL CENTER
2.61,39.32930,-76.61432,8270.33,UNION MEMORIAL HOSPITAL
2.00,38.29124,-76.63579,4564.05,SAINT MARY'S HOSPITAL
2.19,39.60859,-75.83201,5719.38,UNION HOSPITAL OF CECIL COUNTY
2.64,39.55808,-76.99107,8485.67,CARROLL HOSPITAL CENTER
2.08,38.52905,-76.97068,5040.64,CIVISTA MEDICAL CENTER
2.34,38.76970,-76.07697,6650.92,MEMORIAL HOSPITAL AT EASTON
2.22,38.55963,-76.59455,5936.97,CALVERT MEMORIAL HOSPITAL
2.37,39.35852,-76.78208,6824.40,NORTHWEST HOSPITAL CENTER
2.54,39.13732,-76.62228,7894.68,BALTIMORE WASHINGTON  MEDICAL CENTER
2.14,39.21273,-76.88526,5434.05,HOWARD COUNTY GENERAL HOSPITAL
2.16,39.51870,-76.34688,5549.20,UPPER CHESAPEAKE MEDICAL CENTER
2.28,38.74827,-76.87590,6272.40,SOUTHERN MARYLAND HOSPITAL CENTER
2.65,39.35962,-76.58851,8532.68,GOOD SAMARITAN HOSPITAL
2.15,39.09796,-77.19799,5495.14,SHADY GROVE ADVENTIST HOSPITAL
2.10,38.72818,-76.99214,5169.00,FORT WASHINGTON HOSPITAL
2.16,38.33876,-75.21128,5545.83,ATLANTIC GENERAL HOSPITAL
2.87,42.37441,-71.13378,9896.71,MOUNT AUBURN HOSPITAL
3.00,42.70912,-71.14877,10656.31,LAWRENCE GENERAL HOSPITAL
2.79,42.07708,-72.04298,9401.67,HARRINGTON MEMORIAL HOSPITAL
2.98,41.69217,-71.16474,10553.82,SAINT ANNE'S HOSPITAL
2.64,42.20038,-72.62762,8451.62,HOLYOKE MEDICAL CENTER
2.53,42.81476,-70.89068,7818.67,ANNA JAQUES HOSPITAL
2.28,42.56407,-70.87543,6279.18,BEVERLY HOSPITAL CORPORATION
3.78,42.51078,-70.90712,15422.26,NORTH SHORE MEDICAL CENTER
3.20,42.35375,-71.55485,11919.26,MARLBOROUGH HOSPITAL
3.05,42.03597,-71.09792,10962.92,SIGNATURE HEALTHCARE BROCKTON HOSPITAL
2.32,41.94445,-70.64511,6497.00,JORDAN HOSPITAL INC
2.68,42.64636,-71.34118,8718.75,LOWELL GENERAL HOSPITAL
3.03,42.46049,-71.06203,10890.24,HALLMARK HEALTH SYSTEM
5.13,42.36227,-71.06941,23728.51,MASSACHUSETTS GENERAL HOSPITAL
2.16,41.90456,-71.09562,5553.96,MORTON HOSPITAL
2.92,41.70928,-71.14519,10203.30,SOUTHCOAST HOSPITAL GROUP, INC
3.17,42.12077,-72.60525,11750.70,BAYSTATE MEDICAL CENTER
3.03,42.72846,-71.16830,10846.00,HOLY FAMILY HOSPITAL
2.36,42.64529,-71.30052,6751.64,SAINTS  MEDICAL CENTER INC
3.17,42.17644,-70.95398,11748.30,SOUTH SHORE HOSPITAL
5.11,42.33600,-71.10704,23588.61,BRIGHAM AND WOMEN'S HOSPITAL
2.37,42.09864,-71.06607,6798.33,GOOD SAMARITAN MEDICAL CENTER
3.22,42.34951,-71.06331,12011.44,TUFTS MEDICAL CENTER
2.78,42.28385,-71.41896,9329.29,METROWEST MEDICAL CENTER
2.94,43.20588,-86.20839,10315.33,MERCY HEALTH PARTNERS, MERCY CAMPUS
3.55,42.45741,-83.20513,14064.00,PROVIDENCE HOSPITAL AND MEDICAL CENTERS
4.07,42.29077,-83.21504,17255.68,OAKWOOD HOSPITAL AND MEDICAL CENTER
3.19,42.61425,-83.27602,11847.21,ST JOSEPH MERCY OAKLAND
2.63,42.96881,-85.66649,8388.58,SPECTRUM HEALTH - BUTTERWORTH CAMPUS
3.11,43.58941,-83.86908,11376.83,MCLAREN BAY REGION
2.95,42.61490,-82.96060,10366.05,HENRY FORD MACOMB HOSPITAL
2.48,43.22169,-86.24283,7510.73,MERCY HEALTH PARTNERS, HACKLEY CAMPUS
3.63,43.42857,-83.95556,14505.53,COVENANT MEDICAL CENTER, INC
3.00,42.33111,-85.17817,10685.07,BRONSON BATTLE CREEK HOSPITAL
2.77,43.42612,-83.94185,9298.88,ST MARY'S OF MICHIGAN MEDICAL CENTER
3.65,43.59935,-84.76097,14648.00,CENTRAL MICHIGAN COMMUNITY HOSPITAL
3.25,42.25117,-84.39240,12225.14,ALLEGIANCE HEALTH
2.56,44.26333,-84.24625,8003.81,WEST BRANCH REGIONAL MEDICAL CENTER
4.57,45.74575,-87.10106,20285.36,ST FRANCIS HOSPITAL
2.59,43.46517,-85.95072,8167.62,SPECTRUM HEALTH GERBER MEMORIAL
2.71,42.21065,-83.14861,8912.90,HENRY FORD WYANDOTTE HOSPITAL
3.74,42.70417,-84.55488,15206.25,MCLAREN - GREATER LANSING
3.90,42.11695,-83.21365,16182.25,OAKWOOD SOUTHSHORE MEDICAL CENTER
2.98,42.98625,-82.42802,10568.64,PORT HURON HOSPITAL
2.83,42.33215,-83.31195,9634.46,GARDEN CITY HOSPITAL
3.54,42.67850,-83.14771,13976.47,CRITTENTON HOSPITAL MEDICAL CENTER
4.18,42.61826,-83.09239,17927.25,WILLIAM BEAUMONT HOSPITAL-TROY
5.50,42.35295,-83.05447,26000.18,DETROIT RECEIVING HOSPITAL & UNIV HEALTH CENTER
2.99,42.53914,-83.40777,10630.45,HENRY FORD WEST BLOOMFIELD HOSPITAL
3.41,46.79380,-92.09573,13173.56,ESSENTIA HEALTH ST MARY'S MEDICAL CENTER
3.17,45.57390,-94.16942,11712.88,ST CLOUD HOSPITAL
3.41,44.03521,-91.62181,13188.13,WINONA HEALTH SERVICES
3.98,44.95248,-93.26196,16697.27,ABBOTT NORTHWESTERN HOSPITAL
3.16,46.36166,-94.20573,11647.21,ESSENTIA HEALTH ST JOSEPH'S MEDICAL CENTER
4.19,45.18355,-93.36789,17959.36,MERCY HOSPITAL
3.15,44.74846,-93.27289,11577.11,FAIRVIEW RIDGES HOSPITAL
3.37,34.49648,-89.03326,12943.67,BAPTIST MEMORIAL HOSPITAL UNION COUNTY
5.74,32.28805,-90.25566,27449.15,CENTRAL MISSISSIPPI MEDICAL CENTER
4.04,33.74750,-90.71908,17037.44,BOLIVAR MEDICAL CENTER
2.87,31.24000,-90.45000,9879.62,SOUTHWEST MS REGIONAL MEDICAL CENTER
3.51,33.51824,-90.19832,13807.31,GREENWOOD LEFLORE HOSPITAL
3.39,32.31643,-90.17922,13037.30,MISSISSIPPI BAPTIST MEDICAL CENTER
3.47,32.37280,-88.69954,13542.04,ANDERSON REGIONAL MEDICAL CENTER
6.93,31.56044,-91.40317,34748.46,NATCHEZ COMMUNITY HOSPITAL/SWING BED
3.80,37.06032,-94.52747,15557.56,ST JOHN'S REGIONAL MEDICAL CENTER
3.81,37.95144,-91.75940,15639.31,PHELPS COUNTY REGIONAL MEDICAL CENTER
2.57,38.16498,-90.38082,8066.92,JEFFERSON REGIONAL MEDICAL CENTER
6.32,39.00717,-94.55925,30959.82,RESEARCH MEDICAL CENTER
3.75,38.63524,-90.26508,15290.53,BARNES JEWISH HOSPITAL
3.05,39.08401,-94.57591,11010.92,TRUMAN MEDICAL CENTER HOSPITAL HILL
2.97,39.73178,-94.23067,10510.91,CAMERON REGIONAL MEDICAL CENTER
2.90,39.17288,-91.87692,10040.64,AUDRAIN MEDICAL CENTER
3.46,37.17999,-93.27409,13514.77,ST JOHN'S REGIONAL HEALTH CENTER
2.93,38.94903,-92.31563,10240.41,BOONE HOSPITAL CENTER
3.43,36.23683,-89.74020,13289.82,PEMISCOT MEMORIAL HOSPITAL
6.45,39.42385,-92.41354,31753.00,MOBERLY REGIONAL MEDICAL CENTER
2.64,38.50661,-90.38025,8466.74,ST ANTHONY'S MEDICAL CENTER
3.89,38.63268,-90.31089,16154.56,SSM ST MARYS HEALTH CENTER
5.10,39.04749,-94.34105,23532.16,CENTERPOINT MEDICAL CENTER OF INDEPENDENCE, LLC
3.54,38.75097,-90.43255,14007.27,SSM DEPAUL HEALTH CENTER
6.13,38.62280,-90.24049,29805.08,ST LOUIS UNIVERSITY HOSPITAL
4.23,37.31072,-89.53990,18186.08,SOUTHEAST MISSOURI HOSPITAL
3.04,37.79962,-90.44045,10932.73,MINERAL AREA REGIONAL MEDICAL CENTER
5.86,36.78510,-90.42779,28154.26,POPLAR BLUFF REGIONAL MEDICAL CENTER
3.68,37.05238,-94.52777,14828.05,FREEMAN HEALTH SYSTEM - FREEMAN WEST
4.05,39.04761,-94.59037,17084.81,ST LUKES HOSPITAL OF KANSAS CITY
3.29,38.95171,-92.33407,12424.09,UNIVERSITY OF MISSOURI HEALTH CARE
3.02,37.78031,-90.43967,10794.27,PARKLAND HEALTH CENTER
3.71,38.38829,-93.77115,15009.59,GOLDEN VALLEY MEMORIAL HOSPITAL
3.26,39.27591,-94.42572,12295.60,LIBERTY HOSPITAL
3.37,38.77576,-90.23906,12952.55,CHRISTIAN HOSPITAL NORTHEAST
3.35,38.12027,-92.68146,12828.29,LAKE REGIONAL HEALTH SYSTEM
4.94,38.94062,-94.37842,22557.57,SAINT LUKE'S EAST LEE'S SUMMIT HOSPITAL
3.55,40.70646,-99.08136,14045.53,GOOD SAMARITAN HOSPITAL
3.55,41.25522,-95.97892,14017.65,THE NEBRASKA MEDICAL CENTER
3.06,40.80816,-96.62689,11069.19,SAINT ELIZABETH REGIONAL MEDICAL CENTER
4.39,41.25797,-96.04164,19204.71,THE NEBRASKA METHODIST HOSPITAL
3.71,41.88690,-103.66400,15022.83,REGIONAL WEST MEDICAL CENTER
6.68,36.13459,-115.13576,33188.44,SUNRISE HOSPITAL AND MEDICAL CENTER
3.21,39.47582,-118.76547,11936.82,BANNER CHURCHILL COMMUNITY HOSPITAL
4.23,40.82334,-115.73159,18197.36,NORTHEASTERN NEVADA REGIONAL HOSPITAL
6.65,36.16380,-115.16574,32991.04,VALLEY HOSPITAL MEDICAL CENTER
6.07,36.21599,-115.25095,29439.72,MOUNTAINVIEW HOSPITAL
7.50,36.16586,-115.32436,38198.43,SUMMERLIN HOSPITAL MEDICAL CENTER
5.78,36.00527,-115.11618,27691.13,SAINT ROSE DOMINICAN HOSPITAL - SIENA CAMPUS
6.46,36.28588,-115.28772,31834.00,CENTENNIAL HILLS HOSPITAL MEDICAL CENTER
3.72,43.19846,-71.56230,15105.97,CONCORD HOSPITAL
3.21,42.98369,-70.93511,11956.79,EXETER HOSPITAL INC
6.48,40.88346,-74.05564,31980.45,HACKENSACK UNIVERSITY MEDICAL CENTER
7.74,40.71011,-74.21368,39672.11,NEWARK BETH ISRAEL MEDICAL CENTER
6.40,40.79576,-73.99575,31483.74,PALISADES MEDICAL CTR-NY PRESBYTERIAN HEALTHCARE S
3.89,40.53142,-74.86080,16097.74,HUNTERDON MEDICAL CENTER
4.29,40.88275,-74.01021,18564.69,HOLY NAME MEDICAL CENTER
5.11,40.35684,-74.66166,23603.09,UNIVERSITY MEDICAL CENTER AT PRINCETON
3.95,39.08752,-74.81657,16521.44,CAPE REGIONAL MEDICAL CENTER INC
4.82,40.98359,-74.10047,21819.15,VALLEY HOSPITAL
9.07,39.94152,-75.11680,47819.96,COOPER UNIVERSITY HOSPITAL
5.59,40.78883,-74.46620,26522.02,MORRISTOWN MEMORIAL HOSPITAL
9.82,40.73417,-74.04977,52419.61,CHRIST HOSPITAL
7.32,39.78261,-74.91670,37080.16,VIRTUA WEST JERSEY HOSPITALS BERLIN
10.06,40.61288,-74.29092,53868.91,ROBERT WOOD JOHNSON UNIVERSITY HOSPITAL AT RAHWAY
5.79,39.44743,-75.05838,27760.91,SOUTH JERSEY HEALTHCARE REGIONAL MEDICAL CENTER
6.12,40.35309,-74.06484,29779.86,RIVERVIEW MEDICAL CENTER
6.72,40.51891,-74.28183,33443.71,RARITAN BAY MEDICAL CENTER
9.85,40.29209,-74.80327,52555.14,CAPITAL HEALTH MEDICAL CENTER - HOPEWELL
6.27,40.90400,-73.96847,30703.72,ENGLEWOOD HOSPITAL AND MEDICAL CENTER
6.96,40.89538,-74.46479,34889.29,SAINT CLARE'S HOSPITAL
4.14,40.71264,-74.35460,17682.40,OVERLOOK HOSPITAL
7.09,40.07832,-74.13009,35669.91,OCEAN MEDICAL CENTER
5.49,40.81058,-74.20459,25881.14,MOUNTAINSIDE HOSPITAL
7.41,40.04632,-74.88059,37645.55,LOURDES MEDICAL CENTER OF BURLINGTON COUNTY
10.54,39.35775,-74.43449,56799.67,ATLANTICARE REGIONAL MEDICAL CENTER - CITY DIV
6.81,40.76190,-74.30335,34004.66,SAINT BARNABAS MEDICAL CENTER
6.91,40.75402,-74.21335,34592.10,EAST ORANGE GENERAL HOSPITAL
6.36,40.07503,-74.21832,31227.04,KIMBALL MEDICAL CENTER
9.52,40.23629,-74.75256,50570.18,CAPITAL HEALTH SYSTEM-FULD CAMPUS
5.95,40.55784,-74.34970,28749.96,JFK MEDICAL CTR - ANTHONY M. YELENCSICS COMMUNITY
9.03,40.21575,-74.67273,47570.04,ROBERT WOOD JOHNSON UNIVERSITY HOSPITAL HAMILTON
10.24,40.78621,-74.07568,54990.44,MEADOWLANDS HOSPITAL MEDICAL CENTER
3.38,35.65960,-105.94578,13011.07,ST VINCENT HOSPITAL
2.88,36.72387,-108.21749,9970.80,SAN JUAN REGIONAL MEDICAL CENTER
5.69,33.42340,-104.52748,27150.09,EASTERN NEW MEXICO MEDICAL CENTER
4.11,34.41937,-103.23173,17498.53,PLAINS REGIONAL MEDICAL CENTER  CLOVIS
3.45,32.32310,-106.72900,13444.00,MOUNTAIN VIEW REGIONAL MEDICAL CENTER
4.20,41.92720,-73.99535,17994.36,KINGSTON HOSPITAL
2.48,42.87482,-78.84942,7474.87,KALEIDA HEALTH
2.41,40.92963,-73.89840,7082.81,ST JOSEPH'S MEDICAL CENTER
2.55,42.09299,-75.93704,7910.42,OUR LADY OF LOURDES MEMORIAL HOSPITAL, INC
4.15,42.65345,-73.77543,17713.29,ALBANY MEDICAL CENTER HOSPITAL
3.16,40.70141,-73.81630,11653.88,JAMAICA HOSPITAL MEDICAL CENTER
4.41,41.69441,-73.93432,19287.42,VASSAR BROTHERS MEDICAL CENTER
4.13,40.79041,-73.95386,17591.00,MOUNT SINAI HOSPITAL
4.06,40.63588,-74.10556,17178.64,RICHMOND UNIVERSITY MEDICAL CENTER
3.98,43.09840,-75.27819,16670.82,FAXTON-ST LUKE'S HEALTHCARE
4.88,40.80556,-73.96131,22210.12,ST LUKE'S ROOSEVELT HOSPITAL
5.42,40.74722,-73.82521,25506.11,NEW YORK HOSPITAL MEDICAL CENTER OF QUEENS
3.82,40.68983,-73.97794,15726.62,BROOKLYN HOSPITAL CENTER AT DOWNTOWN CAMPUS
3.66,42.65583,-73.80372,14743.30,ST PETER'S HOSPITAL
5.62,41.71846,-73.92710,26730.92,ST FRANCIS HOSPITAL
2.50,42.45748,-75.05244,7618.75,AURELIA OSBORN FOX MEMORIAL HOSPITAL
4.23,41.11039,-72.36128,18198.00,EASTERN LONG ISLAND HOSPITAL
2.74,42.10076,-76.82800,9114.57,ARNOT OGDEN MEDICAL CENTER
2.84,42.24595,-73.77855,9680.67,COLUMBIA MEMORIAL HOSPITAL
2.42,42.09049,-78.42780,7161.05,OLEAN GENERAL HOSPITAL
5.34,41.09642,-73.92501,24997.17,NYACK HOSPITAL
5.58,40.77686,-73.70212,26444.97,NORTH SHORE UNIVERSITY HOSPITAL
4.75,40.93376,-72.67383,21374.68,PECONIC BAY MEDICAL CENTER
2.81,43.19244,-77.58590,9548.86,ROCHESTER GENERAL HOSPITAL
4.37,41.44138,-74.36821,19037.88,ORANGE REGIONAL MEDICAL CENTER
4.25,41.36763,-74.68150,18309.45,BON SECOURS COMMUNITY HOSPITAL
2.77,43.05571,-76.14981,9287.18,ST JOSEPH'S HOSPITAL HEALTH CENTER
5.85,40.78000,-72.97763,28082.31,BROOKHAVEN MEMORIAL HOSPITAL MEDICAL CENTER
3.16,42.81963,-73.91653,11679.12,ELLIS HOSPITAL
2.81,41.19677,-73.72572,9517.70,NORTHERN WESTCHESTER HOSPITAL
5.10,40.73265,-73.98162,23507.62,BETH ISRAEL MEDICAL CENTER
3.39,42.73354,-73.67249,13079.75,SAMARITAN HOSPITAL
4.45,40.80462,-73.67023,19529.31,ST FRANCIS HOSPITAL, ROSLYN
3.15,40.91276,-73.78720,11616.92,SOUND SHORE MEDICAL CENTER OF WESTSCHESTER
2.99,43.30652,-73.64663,10590.93,GLENS FALLS HOSPITAL
3.84,40.75543,-73.81532,15799.25,FLUSHING HOSPITAL MEDICAL CENTER
6.01,40.75332,-73.70899,29088.48,LONG ISLAND JEWISH MEDICAL CENTER
4.36,40.65189,-73.63096,18975.77,SOUTH NASSAU COMMUNITIES HOSPITAL
4.82,40.65957,-73.93378,21833.54,KINGSBROOK JEWISH MEDICAL CENTER
3.92,40.96967,-73.88447,16310.84,ST JOHN'S RIVERSIDE HOSPITAL
5.26,40.74335,-73.97408,24516.55,NYU HOSPITALS CENTER
5.21,40.70419,-73.91754,24190.10,WYCKOFF HEIGHTS MEDICAL CENTER
2.74,44.93579,-74.90736,9077.83,MASSENA MEMORIAL HOSPITAL
4.66,40.59411,-73.65106,20854.58,LONG BEACH MEDICAL CENTER
3.45,40.65533,-73.91221,13429.62,BROOKDALE HOSPITAL MEDICAL CENTER
7.02,41.08773,-73.80395,35296.75,WESTCHESTER MEDICAL CENTER
3.15,42.94136,-76.56474,11616.56,AUBURN COMMUNITY HOSPITAL
3.74,40.66762,-73.97850,15196.34,NEW YORK METHODIST HOSPITAL
2.62,42.08997,-79.23058,8359.14,WOMAN'S CHRISTIAN ASSOCIATION
3.28,40.81477,-73.94027,12378.36,HARLEM HOSPITAL CENTER
3.67,43.04269,-76.14043,14769.11,UNIVERSITY HOSPITAL S U N Y HEALTH SCIENCE CENTER
5.29,40.94779,-73.06033,24671.73,ST CHARLES HOSPITAL
4.52,41.10880,-73.86355,19990.08,PHELPS MEMORIAL HOSPITAL ASSN
4.89,41.50307,-74.01517,22255.67,ST LUKE'S CORNWALL HOSPITAL
6.26,40.69327,-73.29412,30623.41,GOOD SAMARITAN HOSPITAL MEDICAL CENTER
2.98,40.64666,-74.02049,10559.62,LUTHERAN MEDICAL CENTER
2.39,42.47286,-76.53849,6976.27,CAYUGA MEDICAL CENTER AT ITHACA
4.06,40.83778,-73.85417,17147.23,NEW YORK WESTCHESTER SQUARE MEDICAL CENTER
4.39,40.72593,-73.47844,19210.61,ST JOSEPH HOSPITAL
4.32,40.88512,-72.38030,18757.06,SOUTHAMPTON HOSPITAL
3.12,40.65508,-73.94521,11387.12,UNIVERSITY HOSPITAL OF BROOKLYN ( DOWNSTATE )
2.98,42.11422,-75.95851,10560.35,UNITED HEALTH SERVICES HOSPITALS, INC
5.46,40.59803,-73.75296,25720.90,ST JOHN'S EPISCOPAL HOSPITAL AT SOUTH SHORE
5.97,40.85738,-73.18681,28816.23,ST CATHERINE OF SIENA HOSPITAL
3.11,35.57658,-82.54922,11341.64,MEMORIAL MISSION HOSPITAL AND ASHEVILLE SURGERY CE
3.61,35.95000,-80.00000,14412.50,HIGH POINT REGIONAL HOSPITAL
2.92,34.75124,-79.46789,10210.18,SCOTLAND MEMORIAL HOSPITAL
2.69,36.07581,-80.29779,8806.38,FORSYTH MEMORIAL HOSPITAL
3.16,35.30288,-81.53571,11663.07,CLEVELAND REGIONAL MEDICAL CENTER
2.96,35.29053,-77.58307,10437.75,LENOIR MEMORIAL HOSPITAL
6.59,36.00850,-78.94006,32646.60,DUKE UNIVERSITY HOSPITAL
3.57,35.60726,-77.40477,14161.37,PITT COUNTY MEMORIAL HOSPITAL
3.74,34.76273,-77.38582,15228.81,ONSLOW MEMORIAL HOSPITAL
2.92,36.09062,-80.27161,10218.17,NORTH CAROLINA BAPTIST HOSPITAL
3.34,35.22196,-80.83287,12787.00,PRESBYTERIAN HOSPITAL
2.85,34.33747,-78.69425,9761.78,COLUMBUS REGIONAL HEALTHCARE SYSTEM
4.27,35.78523,-78.58836,18438.32,WAKEMED, RALEIGH CAMPUS
2.76,36.06347,-79.50208,9231.20,ALAMANCE REGIONAL MEDICAL CENTER
2.69,36.09251,-79.78855,8811.81,MOSES H CONE MEMORIAL HOSPITAL, THE
2.93,36.28555,-76.99489,10236.94,ROANOKE CHOWAN HOSPITAL
4.31,36.32690,-76.22370,18673.36,ALBEMARLE HOSPITAL AUTHORITY
2.89,35.71177,-79.81489,10011.91,RANDOLPH HOSPITAL
4.33,35.71850,-77.94518,18811.30,WILSON MEDICAL CENTER
4.21,35.54775,-80.85563,18098.62,LAKE NORMAN REGIONAL MEDICAL CENTER
2.60,34.97382,-80.52250,8225.33,CAROLINAS MEDICAL CENTER-UNION
3.25,36.32959,-78.39916,12188.00,MARIA PARHAM MEDICAL CENTER
4.79,35.83976,-77.07310,21640.39,MARTIN GENERAL HOSPITAL
2.96,34.72615,-76.75452,10459.48,CARTERET GENERAL HOSPITAL
3.11,36.43295,-77.64729,11367.33,HALIFAX REGIONAL MEDICAL CENTER INC
3.36,36.04960,-78.90617,12876.46,DURHAM REGIONAL HOSPITAL
2.60,46.88496,-96.78609,8222.00,SANFORD MEDICAL CENTER FARGO
2.64,46.83250,-96.82805,8491.14,ESSENTIA HEALTH-FARGO
2.91,39.08582,-84.34886,10110.33,MERCY HOSPITAL ANDERSON
3.74,39.13707,-84.50392,15194.09,UNIVERSITY HOSPITAL, INC
3.93,40.03064,-83.03440,16369.70,RIVERSIDE METHODIST HOSPITAL
3.34,38.75320,-82.97800,12751.75,SOUTHERN OHIO MEDICAL CENTER
2.43,40.51393,-81.45644,7214.33,UNION HOSPITAL
3.77,39.20680,-84.38093,15379.42,JEWISH HOSPITAL, LLC
3.64,39.96098,-82.99077,14624.76,GRANT MEDICAL CENTER
4.85,41.01476,-81.58913,22011.63,SUMMA HEALTH SYSTEM BARBERTON HOSPITAL
3.53,41.44642,-82.70864,13897.40,FIRELANDS REGIONAL MEDICAL CENTER
3.43,41.07747,-81.53042,13295.45,AKRON GENERAL MEDICAL CENTER
2.74,41.38265,-81.73127,9083.85,PARMA COMMUNITY GENERAL HOSPITAL
4.13,41.61788,-83.61632,17596.83,UNIVERSITY OF TOLEDO MEDICAL CENTER
4.52,39.74547,-84.18523,19983.95,MIAMI VALLEY HOSPITAL
5.60,39.78778,-84.23493,26594.61,GOOD SAMARITAN HOSPITAL
3.12,38.84439,-82.23902,11420.59,HOLZER MEDICAL CENTER
3.51,39.31257,-84.51774,13825.14,MERCY HOSPITAL FAIRFIELD
3.11,41.22570,-82.60491,11348.88,FISHER-TITUS HOSPITAL
2.45,39.71750,-82.57772,7329.50,FAIRFIELD MEDICAL CENTER
3.23,41.17554,-81.24915,12098.87,ROBINSON MEMORIAL HOSPITAL
4.80,41.63639,-83.48640,21687.93,MERCY ST CHARLES HOSPITAL
3.48,41.59825,-81.54884,13646.45,EUCLID HOSPITAL
4.87,39.99445,-83.01872,22103.97,OHIO STATE UNIVERSITY HOSPITALS
2.89,41.55725,-83.68141,10013.94,ST LUKE'S HOSPITAL
3.25,41.01785,-83.65165,12220.87,BLANCHARD VALLEY HOSPITAL
3.57,41.66317,-81.24696,14139.71,LAKE HEALTH
5.14,41.66810,-83.54275,23799.11,MERCY ST VINCENT MEDICAL CENTER
3.41,41.39496,-81.53484,13202.33,UHHS BEDFORD MEDICAL CENTER
3.33,40.75264,-82.52803,12669.71,MEDCENTRAL HEALTH SYSTEM
3.01,41.36649,-82.09708,10756.35,EMH REGIONAL MEDICAL CENTER
2.90,39.43061,-81.46454,10081.71,MARIETTA MEMORIAL HOSPITAL
5.32,41.37028,-81.83189,24862.80,SOUTHWEST GENERAL HEALTH CENTER
3.25,41.33913,-83.13441,12202.00,MEMORIAL HOSPITAL
3.70,41.43688,-82.23761,14991.07,MERCY REGIONAL MEDICAL CENTER
3.97,41.50248,-81.62110,16606.11,CLEVELAND CLINIC
3.95,41.52013,-81.43291,16472.29,HILLCREST HOSPITAL
5.49,41.69195,-83.62455,25936.55,MERCY ST ANNE HOSPITAL
3.16,40.99498,-80.66192,11637.20,ST ELIZABETH BOARDMAN HEALTH CENTER
4.51,34.00655,-96.39398,19921.81,MEDICAL CENTER OF SOUTHEASTERN OKLAHOMA
4.48,35.41174,-99.42511,19705.00,GREAT PLAINS REGIONAL MEDICAL CENTER
3.25,34.63509,-99.31700,12212.85,JACKSON COUNTY MEMORIAL HOSPITAL
3.72,35.75351,-95.40612,15091.87,MUSKOGEE REGIONAL MEDICAL CENTER
4.92,36.39385,-97.87094,22429.55,ST MARY'S REGIONAL MEDICAL CENTER
4.00,35.52531,-97.58461,16778.65,DEACONESS HOSPITAL
3.72,34.18908,-97.14128,15094.07,MERCY MEMORIAL HEALTH CENTER
4.92,35.46721,-97.39370,22436.19,MIDWEST REGIONAL MEDICAL CENTER
2.88,36.58133,-94.75864,9967.37,INTEGRIS GROVE HOSPITAL
2.86,36.13393,-95.96718,9834.67,ST JOHN MEDICAL CENTER, INC
2.34,36.28917,-97.29952,6644.54,PERRY MEMORIAL HOSPITAL
3.61,44.06773,-121.26817,14435.36,ST CHARLES MEDICAL CENTER - BEND
2.66,45.52677,-122.61469,8617.36,PROVIDENCE PORTLAND MEDICAL CENTER
2.95,42.34086,-122.86108,10393.67,PROVIDENCE MEDFORD MEDICAL CENTER
3.74,41.40075,-75.64594,15236.50,COMMUNITY MEDICAL CENTER
5.01,40.96789,-76.60506,22999.44,GEISINGER MEDICAL CENTER
3.39,42.11102,-80.07912,13077.73,SAINT VINCENT HEALTH CENTER
2.88,41.01409,-80.35398,9968.07,JAMESON MEMORIAL HOSPITAL
7.72,40.07880,-75.21107,39563.70,CHESTNUT HILL HOSPITAL
3.07,40.69101,-76.18682,11106.00,SCHUYLKILL MEDICAL CENTER - EAST NORWEGIAN STREET
2.50,40.71251,-80.32136,7644.17,HERITAGE VALLEY BEAVER
2.59,39.90180,-79.73854,8186.62,UNIONTOWN HOSPITAL
2.60,40.18302,-80.24767,8256.18,WASHINGTON HOSPITAL, THE
3.36,41.74508,-77.30043,12869.75,SOLDIERS AND SAILORS MEMORIAL HOSPITAL
7.75,40.10226,-74.86338,39732.28,LOWER BUCKS HOSPITAL
2.96,40.52204,-78.39824,10456.00,ALTOONA REGIONAL HEALTH SYSTEM
3.53,40.04740,-76.30540,13945.83,LANCASTER GENERAL HOSPITAL
4.04,40.48928,-79.89596,17025.12,UPMC ST MARGARET
6.20,40.07160,-74.98341,30245.05,ARIA HEALTH
5.70,40.13916,-75.31510,27182.81,MERCY SUBURBAN HOSPITAL
3.70,41.41107,-75.65091,14988.08,MOSES TAYLOR HOSPITAL
6.01,40.24397,-75.61364,29114.56,POTTSTOWN MEMORIAL MEDICAL CENTER
4.22,40.60000,-75.47000,18160.64,LEHIGH VALLEY HOSPITAL
2.68,40.30103,-79.55505,8693.14,EXCELA HEALTH WESTMORELAND REGIONAL HOSPITAL
2.98,39.93492,-77.64744,10545.90,CHAMBERSBURG HOSPITAL
6.63,40.04475,-75.50425,32890.93,MAIN LINE HOSPITAL PAOLI
7.84,39.92871,-75.26873,40302.33,MERCY FITZGERALD HOSPITAL
7.65,40.68708,-75.24272,39152.21,EASTON HOSPITAL
5.26,39.94969,-75.15712,24488.11,THOMAS JEFFERSON UNIVERSITY HOSPITAL
3.62,39.97024,-75.60259,14500.46,CHESTER COUNTY HOSPITAL
10.12,39.85598,-75.36791,54257.58,CROZER CHESTER MEDICAL CENTER
3.87,42.07400,-80.09368,15998.85,MILLCREEK COMMUNITY HOSPITAL
4.98,40.99225,-75.17466,22775.71,POCONO MEDICAL CENTER
6.80,39.82191,-75.88683,33893.74,JENNERSVILLE REGIONAL HOSPITAL
3.41,40.37782,-80.06589,13166.17,ST CLAIR MEMORIAL HOSPITAL
5.96,40.12077,-75.11818,28805.07,ABINGTON MEMORIAL HOSPITAL
4.85,40.20064,-74.92952,21981.07,ST MARY MEDICAL CENTER
2.43,40.31802,-79.93494,7195.56,JEFFERSON REGIONAL MEDICAL CENTER
5.25,41.25855,-75.81041,24416.83,GEISINGER WYOMING VALLEY MEDICAL CENTER
11.34,39.95658,-75.16249,61701.41,HAHNEMANN UNIVERSITY HOSPITAL
4.52,41.81254,-71.40760,19958.31,RHODE ISLAND HOSPITAL
3.14,34.96733,-81.94021,11523.88,SPARTANBURG REGIONAL MEDICAL CENTER
3.29,34.69403,-82.98884,12423.86,OCONEE MEDICAL CENTER
3.88,34.02839,-81.03539,16034.47,PALMETTO HEALTH RICHLAND
6.12,34.71787,-80.78844,29777.60,SPRINGS MEMORIAL HOSPITAL
3.36,34.24654,-80.60702,12878.06,KERSHAW HEALTH
3.68,33.78555,-79.00178,14825.54,CONWAY MEDICAL CENTER
5.02,34.19543,-79.76256,23008.97,MCLEOD REGIONAL MEDICAL CENTER-PEE DEE
4.00,34.18661,-79.32541,16823.73,MARION REGIONAL HOSPITAL
3.27,33.62185,-80.74922,12312.47,TRMC OF ORANGEBURG & CALHOUN
3.22,33.69516,-80.21091,12028.62,CLARENDON MEMORIAL HOSPITAL
3.45,34.81904,-82.41308,13423.67,GREENVILLE MEMORIAL HOSPITAL
4.05,32.97605,-80.07302,17089.96,TRIDENT MEDICAL CENTER
3.71,32.22325,-80.71444,15040.74,HILTON HEAD REGIONAL MEDICAL CENTER
4.47,33.70704,-78.89487,19675.70,GRAND STRAND REG MED CENTER
4.37,34.00754,-81.03270,19074.82,PALMETTO HEALTH BAPTIST
4.87,32.78211,-79.95018,22107.57,ROPER HOSPITAL
3.30,33.59553,-79.02412,12509.96,WACCAMAW COMMUNITY HOSPITAL
2.57,44.91113,-97.12063,8037.50,PRAIRIE LAKES HOSPITAL
2.95,45.46141,-98.47929,10366.08,AVERA ST LUKES
3.56,43.53460,-96.71136,14123.73,AVERA MCKENNAN HOSPITAL & UNIVERSITY HEALTH CENTER
3.91,43.53562,-96.74305,16223.03,SANFORD USD MEDICAL CENTER
2.54,35.63906,-88.83207,7879.00,JACKSON-MADISON COUNTY GENERAL HOSPITAL
3.50,35.93917,-85.01865,13731.80,CUMBERLAND MEDICAL CENTER
3.12,36.58587,-82.25703,11425.81,WELLMONT BRISTOL REGIONAL MEDICAL CENTER
2.90,36.55401,-82.55483,10061.00,WELLMONT HOLSTON VALLEY MEDICAL CENTER
4.04,36.58199,-87.27050,17048.49,GATEWAY MEDICAL CENTER
3.99,35.12837,-89.86202,16753.53,BAPTIST MEMORIAL HOSPITAL
3.51,35.86074,-86.42434,13808.73,MIDDLE TENNESSEE MEDICAL CENTER INC
3.30,35.17733,-86.09081,12500.86,SOUTHERN TENNESSEE MEDICAL CENTER
2.94,36.17121,-85.50938,10294.31,COOKEVILLE REGIONAL MEDICAL CENTER
3.88,36.30767,-82.38497,16083.00,JOHNSON CITY MEDICAL CENTER
3.59,36.12859,-86.84559,14274.59,ST THOMAS HOSPITAL
3.87,35.99233,-83.92697,15999.62,TENNOVA HEALTHCARE
2.49,35.95747,-83.93660,7555.33,FORT SANDERS REGIONAL MEDICAL CENTER
2.88,36.15388,-86.80249,9942.38,BAPTIST HOSPITAL
4.79,35.03467,-85.26735,21636.17,PARKRIDGE MEDICAL CENTER
2.51,35.91765,-84.10080,7682.29,PARKWEST MEDICAL CENTER
5.56,35.09925,-89.86301,26322.24,ST FRANCIS HOSPITAL
5.69,35.17731,-84.86873,27109.48,SKYRIDGE MEDICAL CENTER
4.36,35.20713,-89.80059,19016.00,SAINT FRANCIS BARTLETT MEDICAL CENTER
6.96,31.77031,-106.50085,34904.08,PROVIDENCE MEMORIAL HOSPITAL
3.15,30.04413,-99.15217,11573.50,PETERSON REGIONAL MEDICAL CENTER
4.04,33.90296,-98.50035,17028.33,UNITED REGIONAL HEALTH CARE SYSTEM
4.54,30.65598,-96.34672,20080.09,ST JOSEPH REGIONAL HEALTH CENTER
3.83,32.78994,-96.78044,15774.49,BAYLOR UNIVERSITY MEDICAL CENTER
4.35,28.81269,-96.97780,18965.55,CITIZENS MEDICAL CENTER
5.25,27.53249,-99.47808,24417.68,LAREDO MEDICAL CENTER
4.28,26.17446,-97.67014,18522.25,VHS HARLINGEN HOSPITAL COMPANY LLC
3.42,29.74802,-95.36609,13234.09,ST JOSEPH MEDICAL CENTER
3.98,32.50219,-94.73025,16664.74,GOOD SHEPHERD MEDICAL CENTER
4.67,32.72621,-97.32659,20880.73,JPS HEALTH NETWORK
7.12,33.57524,-101.89272,35857.63,COVENANT MEDICAL CENTER
4.34,32.81224,-96.83795,18870.07,UT SOUTHWESTERN UNIVERSITY HOSPITAL
4.81,32.76017,-96.82437,21750.92,METHODIST DALLAS MEDICAL CENTER
4.20,29.43360,-98.49265,17996.62,BAPTIST MEDICAL CENTER
3.56,32.74944,-97.11630,14107.88,TEXAS HEALTH ARLINGTON MEMORIAL HOSPITAL
4.59,32.83520,-96.96101,20380.21,BAYLOR MEDICAL CENTER AT IRVING
7.23,29.66575,-95.18131,36582.73,BAYSHORE MEDICAL CENTER
3.27,29.56876,-97.94776,12311.07,GUADALUPE REGIONAL MEDICAL CENTER
5.20,31.76998,-106.49897,24148.59,LAS PALMAS MEDICAL CENTER
6.49,26.26353,-98.18455,32024.27,SOUTH TEXAS HEALTH SYSTEM
4.01,31.99616,-102.09950,16887.22,MIDLAND MEMORIAL HOSPITAL
3.45,32.73780,-97.33899,13420.57,TEXAS HEALTH HARRIS METHODIST FORT WORTH
8.40,28.80765,-96.99896,43688.69,DETAR HOSPITAL NAVARRO
3.45,26.19665,-98.31409,13429.86,MISSION REGIONAL MEDICAL CENTER
4.68,29.81230,-95.43010,20967.81,MEMORIAL HERMANN HOSPITAL SYSTEM
4.92,29.70719,-95.40048,22412.28,ST LUKES EPISCOPAL HOSPITAL
5.74,30.28473,-95.46714,27411.17,CONROE REGIONAL MEDICAL CENTER
3.71,35.19533,-101.91907,15031.19,BAPTIST ST ANTHONYS HEALTH SYSTEM-BAPTIST CAMPUS
4.09,33.71085,-96.58493,17337.81,TEXOMA MEDICAL CENTER
4.86,29.57653,-95.77057,22033.62,OAKBEND MEDICAL CENTER
4.44,33.12242,-96.12404,19489.00,HUNT REGIONAL MEDICAL CENTER
4.25,29.50795,-98.57224,18331.45,METHODIST HOSPITAL
4.54,32.17167,-95.84417,20125.71,EAST TEXAS MEDICAL CENTER ATHENS
5.24,31.32794,-94.75614,24395.21,WOODLAND HEIGHTS MEDICAL CENTER
4.84,29.93570,-93.98900,21945.89,THE MEDICAL CENTER OF SOUTHEAST TEXAS
7.14,32.40574,-99.76486,36011.36,ABILENE REGIONAL MEDICAL CENTER
2.92,31.46574,-100.43466,10204.67,SHANNON MEDICAL CENTER
4.73,31.32376,-95.43900,21292.15,EAST TEXAS MEDICAL CENTER CROCKETT
3.46,30.26290,-98.88017,13508.64,HILL COUNTRY MEMORIAL HOSPITAL INC
4.61,29.78143,-95.54541,20535.02,MEMORIAL HERMANN MEMORIAL CITY MEDICAL CENTER
5.48,33.17345,-97.11382,25855.05,DENTON REGIONAL MEDICAL CENTER
5.02,30.01994,-95.44379,23013.67,HOUSTON NORTHWEST MEDICAL CENTER
5.85,29.72913,-95.59429,28129.82,WEST HOUSTON MEDICAL CENTER
5.55,33.02168,-96.76621,26270.38,MEDICAL CENTER OF PLANO
6.91,25.97780,-97.51442,34614.47,VALLEY REGIONAL MEDICAL CENTER
4.92,30.08682,-95.62403,22400.12,TOMBALL REGIONAL MEDICAL CENTER
5.45,32.73563,-97.34483,25646.29,PLAZA MEDICAL CENTER OF FORT WORTH
5.34,32.67614,-97.32079,24974.09,HUGULEY HEALTH SYSTEM
3.95,33.58838,-101.89214,16491.00,UNIVERSITY MEDICAL CENTER
4.25,30.22723,-97.77447,18341.15,ST DAVID'S SOUTH AUSTIN MEDICAL CENTER
4.25,32.64448,-96.87635,18307.04,METHODIST CHARLTON MEDICAL CENTER
6.66,27.69288,-97.34476,33038.26,CORPUS CHRISTI MEDICAL CENTER,THE
4.89,29.58896,-95.63112,22237.79,METHODIST SUGAR LAND HOSPITAL
4.52,29.96603,-95.55127,20007.42,METHODIST WILLOWBROOK HOSPITAL
4.31,29.78747,-95.78578,18692.33,MEMORIAL HERMANN KATY HOSPITAL
2.84,37.09986,-113.55271,9698.82,DIXIE REGIONAL MEDICAL CENTER
2.83,44.47966,-73.19412,9650.94,FLETCHER ALLEN HOSPITAL OF VERMONT
3.78,42.84340,-72.56527,15428.27,BRATTLEBORO MEMORIAL HOSPITAL
2.27,39.19345,-78.19599,6197.30,WINCHESTER MEDICAL CENTER INC
4.85,38.02573,-78.51526,22013.19,UNIVERSITY OF VIRGINIA MEDICAL CENTER
2.76,36.89933,-76.28157,9242.73,BON SECOURS - DEPAUL MEDICAL CENTER
2.46,37.41368,-79.16870,7360.81,CENTRA  HEALTH, INC
2.82,37.25129,-79.94125,9589.64,CARILION ROANOKE MEMORIAL CENTER
4.07,37.54330,-77.42932,17228.26,MEDICAL COLLEGE OF VIRGINIA HOSPITALS
3.54,38.82218,-77.10533,13958.30,INOVA ALEXANDRIA HOSPITAL
3.42,37.14463,-76.51197,13277.50,MARY IMMACULATE HOSPITAL
3.05,39.07405,-77.47754,11007.33,INOVA LOUDOUN HOSPITAL
3.44,36.77378,-76.57856,13365.64,SENTARA OBICI HOSPITAL
3.18,36.85098,-76.18989,11796.79,SENTARA LEIGH HOSPITAL
3.43,37.06523,-76.48417,13286.92,RIVERSIDE REGIONAL MEDICAL CENTER
4.78,37.09990,-81.79024,21542.64,CLINCH VALLEY MEDICAL CENTER
3.25,38.85764,-77.22772,12209.71,INOVA FAIRFAX HOSPITAL
2.82,37.33700,-76.74046,9585.08,SENTARA WILLIAMSBURG REGIONAL MEDICAL CENTER
6.06,37.18253,-77.35957,29410.83,SOUTHSIDE REGIONAL MEDICAL CENTER
3.52,37.62931,-77.38804,13863.72,BON SECOURS - MEMORIAL REGIONAL MEDICAL
2.70,38.02176,-78.44530,8840.31,MARTHA JEFFERSON HOSPITAL
3.69,36.69555,-79.86374,14893.50,MEMORIAL HOSPITAL OF MARTINSVILLE & HENRY COUNTY
3.51,37.05580,-76.39048,13792.87,SENTARA CAREPLEX HOSPITAL
3.47,38.63463,-77.28361,13541.74,SENTARA POTOMAC HOSPITAL
3.02,38.74009,-77.07732,10795.83,INOVA MOUNT VERNON HOSPITAL
4.07,46.71265,-122.98504,17216.33,PROVIDENCE CENTRALIA HOSPITAL
3.87,47.58295,-122.62506,15986.91,HARRISON MEDICAL CENTER
2.68,48.11504,-123.41519,8706.95,OLYMPIC MEDICAL CENTER
4.89,47.17742,-122.28943,22268.74,MULTICARE GOOD SAMARITAN HOSPITAL
3.43,47.44243,-122.21392,13309.56,VALLEY MEDICAL CENTER
4.42,47.25980,-122.45243,19350.43,TACOMA GENERAL ALLENMORE HOSPITAL
5.16,47.29252,-122.32729,23890.77,ST FRANCIS COMMUNITY HOSPITAL
4.44,47.36373,-122.61353,19494.29,ST ANTHONY HOSPITAL
3.04,39.65498,-79.95814,10939.28,WEST VIRGINIA UNIVERSITY HOSPITALS
2.72,39.32836,-80.23964,8954.27,UNITED HOSPITAL CENTER
2.40,38.43236,-82.40067,7037.33,ST MARY'S MEDICAL CENTER
3.21,38.34739,-81.62600,11993.70,CHARLESTON AREA MEDICAL CENTER
2.64,40.39520,-80.52796,8471.18,WEIRTON MEDICAL CENTER
3.27,39.66383,-79.94681,12333.88,MONONGALIA COUNTY GENERAL HOSPITAL
2.55,39.04775,-80.49240,7923.55,STONEWALL JACKSON MEM HOSP
3.53,37.84674,-81.99565,13895.68,LOGAN REGIONAL MEDICAL CENTER
3.52,39.27035,-81.56026,13890.97,CAMDEN CLARK MEDICAL CENTER
2.26,37.78754,-81.20183,6130.70,RALEIGH GENERAL HOSPITAL
3.45,42.68685,-89.03244,13452.18,MERCY HLTH SYS CORP
3.14,44.81192,-91.51352,11562.09,MAYO CLINIC HEALTH SYSTEM EAU CLAIRE HOSPITAL
3.43,43.28300,-89.72072,13336.83,SAUK PRAIRIE MEM HSPTL
3.41,42.73444,-87.82788,13190.23,WHEATON FRANCISCAN HEALTHCARE- ALL SAINTS
2.67,44.53265,-88.06664,8633.18,ST MARYS HSPTL MED CTR
3.32,43.07633,-89.43133,12609.39,UNIVERSITY OF WI  HOSPITALS & CLINICS AUTHORITY
4.67,42.54868,-89.00822,20872.31,BELOIT MEM HSPTL
4.49,42.98958,-87.95079,19793.67,AURORA ST LUKES MEDICAL CENTER
4.21,43.00120,-88.02675,18061.75,AURORA WEST ALLIS MEDICAL CENTER
3.50,43.04008,-88.02523,13743.47,FROEDTERT MEM LUTHERAN HSPTL
3.68,42.84802,-106.30851,14832.33,WYOMING MEDICAL CENTER
3.59,41.14037,-104.81660,14292.32,CHEYENNE REGIONAL MEDICAL CENTER
4.94,30.56899,-97.65104,22529.16,SETON MEDICAL CENTER WILLIAMSON
4.26,29.61578,-98.47479,18397.00,METHODIST STONE OAK HOSPITAL
2.19,34.36605,-86.42127,5725.64,MARSHALL MEDICAL CENTER NORTH
3.42,33.59616,-86.66750,13277.91,ST VINCENT'S EAST
5.10,33.25607,-86.81035,23555.61,SHELBY BAPTIST MEDICAL CENTER
3.24,34.74649,-87.69895,12136.05,HELEN KELLER MEMORIAL HOSPITAL
3.61,33.50619,-86.80210,14430.85,UNIVERSITY OF ALABAMA HOSPITAL
5.58,33.66767,-85.83420,26440.45,STRINGFELLOW MEMORIAL HOSPITAL
9.28,34.00941,-85.97078,49074.26,GADSDEN REGIONAL MEDICAL CENTER
4.09,34.00426,-86.00339,17348.21,RIVERVIEW REGIONAL MEDICAL CENTER
2.80,32.94573,-85.98570,9485.17,RUSSELL HOSPITAL
3.36,33.65640,-85.82284,12868.65,NORTHEAST ALABAMA REGIONAL MED CENTER
6.03,30.42700,-87.68386,29238.52,SOUTH BALDWIN REGIONAL MEDICAL CENTER
3.92,33.20521,-87.52546,16284.34,D C H REGIONAL MEDICAL CENTER
2.69,31.12918,-87.07279,8809.92,D W MCMILLAN MEMORIAL HOSPITAL
4.25,33.49854,-86.84633,18328.45,BAPTIST MEDICAL CENTER-PRINCETON
2.48,32.43516,-88.32614,7500.63,BRYAN W WHITFIELD MEM HOSP INC
3.92,32.43020,-87.05515,16284.78,VAUGHAN REG MED CENTER PARKWAY CAMPUS
8.01,33.46420,-86.77409,41300.62,BROOKWOOD MEDICAL CENTER
3.15,32.38797,-86.17576,11579.31,BAPTIST MEDICAL CENTER EAST
3.64,33.16547,-86.25380,14585.69,COOSA VALLEY MEDICAL CENTER
5.41,61.56297,-149.25782,25400.43,MAT-SU REGIONAL MEDICAL CENTER
4.53,33.46514,-112.05797,20059.17,BANNER GOOD SAMARITAN MEDICAL CENTER
4.09,32.25294,-110.88135,17370.88,TUCSON MEDICAL CENTER
3.48,34.56017,-112.48217,13607.12,YAVAPAI REGIONAL MEDICAL CENTER
4.17,32.88123,-111.71067,17827.18,CASA GRANDE REGIONAL MEDICAL CENTER
5.09,35.20923,-111.64486,23484.00,FLAGSTAFF MEDICAL CENTER
4.36,35.22024,-114.03585,18976.94,KINGMAN REGIONAL MEDICAL CENTER
4.38,33.60432,-112.28378,19148.37,BANNER BOSWELL MEDICAL CENTER
4.55,33.39097,-111.87638,20150.43,BANNER DESERT MEDICAL CENTER
4.66,34.47988,-114.33938,20819.74,HAVASU REGIONAL MEDICAL CENTER
4.19,33.41128,-111.68916,17951.17,BANNER BAYWOOD MEDICAL CENTER
4.01,33.60949,-112.18129,16882.06,BANNER THUNDERBIRD MEDICAL CENTER
4.35,33.65965,-112.37283,18951.24,BANNER DEL E WEBB MEDICAL CENTER
9.73,35.11068,-114.55505,51849.86,WESTERN ARIZONA REGIONAL MEDICAL CTR
3.38,36.10940,-94.16036,12977.81,WASHINGTON REGIONAL MED CTR AT NORTH HILLS
3.74,34.75031,-92.33897,15199.87,ST VINCENT INFIRMARY MEDICAL CENTER
3.05,36.31007,-94.18471,10958.00,MERCY MEDICAL CENTER
3.22,35.25046,-91.70056,12043.11,WHITE COUNTY MEDICAL CENTER
3.33,36.23579,-93.10717,12709.75,NORTH ARKANSAS REGIONAL MEDICAL CENTER
2.24,35.83746,-90.70386,6029.00,ST BERNARDS MEDICAL CTR
