size_charge,size_pay,lat,lon,charge,pay,name
6.13,2.31,36.18082,-94.13644,17664.00,4411.19,NW ARKANSAS HOSPITALS, LLC
5.81,2.21,34.46784,-93.06667,16529.83,4070.88,ST JOSEPHS MERCY HEALTH CENTER INC
2.67,2.11,36.34295,-92.39442,5649.21,3710.47,BAXTER REGIONAL MEDICAL CENTER
3.76,2.18,35.08546,-92.45774,9418.73,3949.64,CONWAY REGIONAL MEDICAL CENTER
4.25,2.16,34.77770,-92.12539,11133.73,3872.91,BAPTIST HEALTH MEDICAL CENTER NORTH LITTLE ROCK
6.27,2.27,35.28275,-93.14901,18135.30,4281.00,ST MARYS REGIONAL MEDICAL CENTER
5.49,2.61,35.14320,-90.18837,15430.57,5463.64,CRITTENDEN MEMORIAL HOSPITAL
4.98,2.18,35.35395,-94.35262,13669.28,3957.11,ST EDWARD MERCY MEDICAL CENTER
5.27,2.36,34.18894,-92.01886,14656.18,4586.45,JEFFERSON REGIONAL MEDICAL CENTER
3.62,2.16,34.57290,-92.58508,8948.27,3892.67,SALINE MEMORIAL HOSPITAL
6.48,2.24,33.22053,-92.67102,18848.14,4158.50,MEDICAL CENTER SOUTH ARKANSAS
4.79,2.25,34.74866,-92.35422,13006.76,4186.62,BAPTIST HEALTH MEDICAL CENTER-LITTLE ROCK
5.98,2.28,35.76927,-91.63408,17140.09,4321.27,WHITE RIVER MEDICAL CENTER
9.84,2.71,38.57053,-121.45216,30526.56,5804.06,MERCY GENERAL HOSPITAL
4.68,3.39,34.06505,-118.23913,12633.77,8141.46,PACIFIC ALLIANCE MEDICAL CENTER
10.06,2.75,33.97659,-117.38184,31283.18,5931.82,RIVERSIDE COMMUNITY HOSPITAL
8.26,2.52,32.77495,-117.01467,25029.54,5121.85,GROSSMONT HOSPITAL
8.48,2.59,39.50528,-121.54100,25784.00,5390.82,OROVILLE HOSPITAL
11.34,2.68,35.38736,-119.01690,35706.67,5702.86,BAKERSFIELD MEMORIAL HOSPITAL
10.72,3.17,37.82206,-122.26275,33572.54,7385.21,ALTA BATES SUMMIT MEDICAL CENTER
8.89,2.80,32.78037,-115.56848,27215.31,6122.25,EL CENTRO REGIONAL MEDICAL CENTER
6.52,2.79,34.67486,-118.15771,18998.23,6081.46,ANTELOPE VALLEY HOSPITAL MED CENTER
7.28,2.63,36.32737,-119.29548,21626.90,5514.00,KAWEAH DELTA MEDICAL CENTER
10.46,2.93,34.12834,-118.25777,32655.47,6555.24,GLENDALE MEM HOSPITAL & HLTH CENTER
9.60,3.13,36.73000,-119.78000,29661.85,7234.33,COMMUNITY REGIONAL MEDICAL CENTER
12.34,3.35,34.09643,-118.29103,39182.07,8007.00,HOLLYWOOD PRESBYTERIAN MEDICAL CENTER
7.31,2.53,33.78036,-117.86495,21755.69,5176.46,ST JOSEPH HOSPITAL
10.58,2.99,32.75143,-117.16083,33074.45,6764.29,SCRIPPS MERCY HOSPITAL
7.67,2.75,34.21674,-119.15631,22990.25,5917.94,ST JOHNS REGIONAL MEDICAL CENTER
11.72,2.88,37.96987,-121.28873,37012.52,6386.24,ST JOSEPHS MED CENTER OF STOCKTON
6.45,2.55,36.83532,-119.76562,18761.40,5242.50,SAINT AGNES MEDICAL CENTER
8.71,2.47,34.10130,-117.63651,26580.92,4973.54,SAN ANTONIO COMMUNITY HOSPITAL
9.25,3.27,34.04932,-118.21746,28454.36,7735.36,WHITE MEMORIAL MEDICAL CENTER
8.62,2.66,34.95099,-120.41322,26268.19,5605.94,MARIAN MEDICAL CENTER
8.04,2.93,34.07558,-118.28424,24282.83,6574.00,TEMPLE COMMUNITY HOSPITAL
10.48,2.93,34.02685,-118.48651,32739.06,6547.44,SANTA MONICA - UCLA MED CTR & ORTHOPAEDIC HOSPITAL
6.98,2.50,33.12535,-117.07336,20598.33,5058.00,PALOMAR MEDICAL CENTER
8.07,2.74,34.22014,-118.53410,24366.00,5901.06,NORTHRIDGE HOSPITAL MEDICAL CENTER
8.60,2.61,36.32362,-119.66726,26209.44,5454.19,ADVENTIST MEDICAL CENTER
6.26,2.37,34.20495,-118.21589,18083.64,4622.45,VERDUGO HILLS HOSPITAL
20.00,4.70,37.36257,-121.84974,65729.27,12710.18,REGIONAL MEDICAL CENTER OF SAN JOSE
9.30,2.94,34.19494,-118.46319,28655.08,6598.50,VALLEY PRESBYTERIAN HOSPITAL
7.07,2.55,33.18402,-117.29661,20903.00,5223.06,TRI-CITY MEDICAL CENTER
11.92,2.88,34.10081,-118.10588,37723.08,6387.08,SAN GABRIEL VALLEY MEDICAL CENTER
8.51,2.63,39.13822,-121.59436,25885.68,5517.04,RIDEOUT MEMORIAL HOSPITAL
11.77,2.65,36.57886,-121.91316,37190.79,5588.00,COMMUNITY HOSPITAL OF THE MONTEREY PENINSULA
15.15,3.12,37.78963,-122.41700,48934.36,7202.27,SAINT FRANCIS MEMORIAL HOSPITAL
14.00,3.11,37.32710,-121.93863,44926.33,7193.08,O'CONNOR HOSPITAL
9.80,2.83,38.44369,-122.70138,30363.85,6209.31,SANTA ROSA MEMORIAL HOSPITAL
10.40,2.70,37.51164,-120.83800,32464.30,5762.00,EMANUEL MEDICAL CENTER INC
18.40,2.65,37.91341,-122.04163,60182.45,5592.00,JOHN MUIR MEDICAL CENTER - WALNUT CREEK CAMPUS
16.31,3.28,36.92821,-121.79360,52939.77,7781.77,WATSONVILLE COMMUNITY HOSPITAL
13.71,3.06,37.55717,-121.98126,43916.21,7017.74,WASHINGTON HOSPITAL
12.16,2.58,34.58305,-118.14490,38550.00,5361.10,PALMDALE REGIONAL MEDICAL CENTER
12.26,2.89,32.61972,-117.02278,38907.38,6431.46,SHARP CHULA VISTA MEDICAL CENTER
5.13,2.41,33.62229,-117.92995,14170.35,4762.50,HOAG MEMORIAL HOSPITAL PRESBYTERIAN
14.56,4.05,37.75676,-122.40461,46883.57,10439.71,SAN FRANCISCO GENERAL HOSPITAL
10.49,2.42,35.27882,-120.65047,32749.64,4801.07,FRENCH HOSPITAL MEDICAL CENTER
15.22,2.59,34.15601,-118.32834,49153.71,5375.67,PROVIDENCE SAINT JOSEPH MEDICAL CTR
7.42,2.61,34.13973,-118.03534,22111.77,5444.50,METHODIST HOSPITAL OF SOUTHERN CA
11.41,2.91,36.98999,-121.98357,35955.06,6488.12,DOMINICAN HOSPITAL
12.86,2.63,33.83862,-116.54557,40962.40,5513.93,DESERT REGIONAL MEDICAL CENTER
10.01,2.75,36.06956,-119.02748,31088.67,5918.33,SIERRA VIEW DISTRICT HOSPITAL
7.45,2.45,34.03721,-117.20474,22215.71,4907.43,REDLANDS COMMUNITY HOSPITAL
14.28,2.66,34.27915,-118.46006,45886.23,5625.45,PROVIDENCE HOLY CROSS MEDICAL CENTER
10.01,3.00,37.69502,-121.88095,31105.18,6812.18,VALLEYCARE MEDICAL CENTER
7.51,2.50,34.03009,-118.47833,22423.62,5052.08,SAINT JOHN'S HEALTH CENTER
8.25,2.43,35.37279,-119.02817,24982.00,4825.47,MERCY HOSPITAL
7.87,2.59,34.50107,-117.17285,23679.44,5390.31,ST MARY MEDICAL CENTER
8.35,3.27,37.85593,-122.25730,25355.25,7727.00,ALTA BATES SUMMIT MEDICAL CENTER - ALTA BATES CAMP
10.08,2.69,37.36934,-122.08047,31339.25,5740.00,EL CAMINO HOSPITAL
8.14,2.55,38.76514,-121.24979,24611.56,5233.00,SUTTER ROSEVILLE MEDICAL CENTER
6.83,2.67,33.87236,-117.56809,20092.29,5655.00,CORONA REGIONAL MEDICAL CENTER
7.98,3.04,36.65910,-121.64630,24048.81,6955.00,SALINAS VALLEY MEMORIAL HOSPITAL
16.86,2.59,38.12186,-121.28665,54855.46,5377.54,LODI MEMORIAL HOSPITAL
5.49,2.76,34.01501,-118.10064,15423.18,5970.82,BEVERLY HOSPITAL
13.32,2.45,33.81131,-118.34364,42590.08,4895.44,TORRANCE MEMORIAL MEDICAL CENTER
13.59,2.53,33.83891,-118.35677,43503.41,5181.93,PROVIDENCE LITTLE COMPANY OF MARY MED CTR TORRANCE
6.92,2.74,36.22008,-119.33764,20391.68,5904.00,TULARE REGIONAL MEDICAL CENTER
12.06,2.76,37.25153,-121.94684,38212.53,5968.60,GOOD SAMARITAN HOSPITAL
7.80,2.97,34.08802,-117.89341,23444.04,6710.45,CITRUS VALLEY MEDICAL CENTER-IC CAMPUS
6.23,2.56,33.75117,-116.96028,18000.71,5275.29,HEMET VALLEY MEDICAL CENTER
11.89,2.77,33.93530,-118.13030,37621.36,5992.86,DOWNEY REGIONAL MEDICAL CENTER
6.74,2.57,34.42951,-119.72333,19758.92,5321.92,SANTA BARBARA COTTAGE HOSPITAL
7.34,2.79,37.79569,-122.40930,21858.20,6058.00,CHINESE HOSPITAL
8.79,2.62,33.38091,-117.24446,26880.57,5486.00,FALLBROOK HOSPITAL
7.31,2.62,34.13364,-118.15275,21747.73,5472.23,HUNTINGTON MEMORIAL HOSPITAL
18.19,3.77,37.43436,-122.18013,59441.17,9452.50,STANFORD HOSPITAL
8.87,2.88,37.34027,-120.46817,27137.56,6389.68,MERCY MEDICAL CENTER
10.47,2.69,35.38338,-119.01969,32706.06,5728.78,SAN JOAQUIN COMMUNITY HOSPITAL
13.17,2.96,34.05336,-118.26558,42037.67,6676.24,GOOD SAMARITAN HOSPITAL
11.47,2.37,34.20285,-118.62962,36146.73,4632.32,WEST HILLS HOSPITAL & MEDICAL CENTER
6.67,2.73,33.80861,-118.18661,19538.77,5863.08,LONG BEACH MEMORIAL MEDICAL CENTER
9.99,2.90,37.69824,-122.08730,31022.35,6463.12,EDEN MEDICAL CENTER
8.51,2.49,36.83863,-119.66183,25913.12,5028.75,CLOVIS COMMUNITY MEDICAL CENTER
8.08,3.03,34.06389,-118.27347,24408.47,6919.47,SAINT VINCENT MEDICAL CENTER
12.01,2.53,35.29188,-120.66635,38033.21,5180.14,SIERRA VISTA REGIONAL MEDICAL CENTER
10.73,2.73,38.66956,-121.31378,33612.06,5864.33,MERCY SAN JUAN MEDICAL CENTER
10.89,2.90,33.68179,-116.23394,34134.91,6457.00,JOHN F KENNEDY MEMORIAL HOSPITAL, INC
11.18,2.94,34.20777,-118.88305,35164.97,6605.95,LOS ROBLES HOSPITAL & MEDICAL CENTER
10.70,2.42,33.80441,-118.06665,33487.57,4784.74,LOS ALAMITOS MEDICAL CENTER
11.43,2.53,37.66867,-120.97339,36020.88,5162.71,MEMORIAL  MEDICAL CENTER
9.65,2.41,33.56100,-117.66530,29849.46,4749.04,MISSION HOSPITAL REGIONAL MED CENTER
12.88,2.38,33.76335,-116.40628,41049.16,4649.93,EISENHOWER MEDICAL CENTER
10.98,2.57,33.84932,-118.15323,34463.14,5301.90,LAKEWOOD REGIONAL MEDICAL CENTER
7.25,2.33,33.60883,-117.70881,21535.18,4463.68,SADDLEBACK MEMORIAL MEDICAL CENTER
8.88,2.37,34.24359,-119.01992,27190.38,4625.00,ST JOHNS PLEASANT VALLEY HOSPITAL
15.48,2.98,34.07664,-118.37955,50047.51,6744.33,CEDARS-SINAI MEDICAL CENTER
12.35,2.48,35.55536,-120.72067,39203.56,5007.65,TWIN CITIES COMMUNITY HOSPITAL
7.00,2.32,32.99711,-117.05783,20664.69,4438.06,POMERADO HOSPITAL
6.26,3.11,34.01936,-118.18661,18117.43,7197.43,LOS ANGELES COMMUNITY HOSPITAL
14.54,2.76,37.77577,-121.95824,46810.19,5980.88,SAN RAMON REGIONAL MEDICAL CTR
14.61,3.28,34.06760,-118.12291,47059.92,7784.00,GARFIELD MEDICAL CENTER
10.46,2.80,33.95076,-118.34828,32660.61,6114.67,CENTINELA HOSPITAL MEDICAL CENTER
12.06,2.57,34.05723,-118.36025,38199.06,5294.17,OLYMPIA MEDICAL CENTER
10.99,2.60,34.02303,-118.39741,34481.29,5412.53,BROTMAN MEDICAL CENTER
12.19,2.47,34.17067,-118.53200,38644.80,4979.34,PROVIDENCE TARZANA MEDICAL CENTER
8.23,2.63,40.58532,-122.38702,24915.94,5509.00,SHASTA REGIONAL MEDICAL CENTER
6.40,2.38,40.41481,-104.70890,18592.00,4652.75,NORTH COLORADO MEDICAL CENTER
5.93,2.26,40.18134,-105.12769,16946.55,4249.00,LONGMONT UNITED HOSPITAL
5.17,2.27,39.76893,-105.09006,14331.79,4263.57,EXEMPLA LUTHERAN MEDICAL CENTER
5.13,2.56,40.57315,-105.05741,14170.05,5273.68,POUDRE VALLEY HOSPITAL
7.33,2.33,38.23421,-104.62292,21819.82,4492.71,CENTURA HEALTH-ST MARY CORWIN MEDICAL CENTER
6.46,2.30,38.28184,-104.61256,18806.17,4363.00,PARKVIEW MEDICAL CENTER INC
5.15,2.31,38.83903,-104.80024,14242.46,4400.42,MEMORIAL HOSPITAL CENTRAL
5.08,2.46,39.09046,-108.56190,14011.36,4935.36,ST MARYS HOSPITAL AND MEDICAL CENTER
5.91,2.22,40.02615,-105.28391,16878.07,4104.00,BOULDER COMMUNITY HOSPITAL
6.37,2.24,38.86559,-104.82182,18488.05,4151.24,CENTURA HEALTH-PENROSE ST FRANCIS HEALTH SERVICES
8.81,2.68,39.65399,-104.98116,26939.00,5704.64,SWEDISH MEDICAL CENTER
7.01,2.37,39.67005,-104.97490,20713.18,4629.55,CENTURA HEALTH-PORTER ADVENTIST HOSPITAL
4.97,2.25,38.74540,-108.04700,13628.12,4212.00,DELTA COUNTY MEMORIAL HOSPITAL
4.77,2.81,40.61244,-103.22063,12940.58,6136.00,STERLING REGIONAL MEDCENTER
8.22,2.24,39.52910,-104.87121,24892.62,4154.54,SKY RIDGE MEDICAL CENTER
8.61,2.78,41.30978,-72.93806,26234.18,6045.98,HOSPITAL OF ST RAPHAEL
5.90,2.76,41.77507,-72.69941,16853.12,5954.88,ST FRANCIS HOSPITAL & MEDICAL CENTER
3.26,2.39,41.90922,-71.91467,7702.00,4701.94,DAY KIMBALL HOSPITAL
5.43,2.63,41.55959,-73.05941,15227.25,5521.38,WATERBURY HOSPITAL
7.00,2.67,41.05562,-73.55390,20652.50,5649.06,STAMFORD HOSPITAL
4.11,2.55,41.33722,-72.10380,10644.84,5255.47,LAWRENCE & MEMORIAL HOSPITAL
6.76,3.28,41.18881,-73.16645,19821.15,7761.08,BRIDGEPORT HOSPITAL
3.70,2.80,41.79153,-73.13382,9219.76,6096.41,CHARLOTTE HUNGERFORD HOSPITAL
3.68,2.74,41.55241,-73.03554,9144.21,5883.57,SAINT MARYS HOSPITAL
5.81,2.49,41.54874,-72.80148,16545.83,5017.72,MIDSTATE MEDICAL CENTER
6.50,2.57,41.03431,-73.63020,18918.62,5301.38,GREENWICH HOSPITAL ASSOCIATION
6.01,2.50,41.55473,-72.64872,17237.14,5063.05,MIDDLESEX HOSPITAL
7.70,3.55,41.30400,-72.93502,23075.79,8705.67,YALE-NEW HAVEN HOSPITAL
4.63,2.71,41.40474,-73.44739,12461.82,5806.64,DANBURY HOSPITAL
3.80,2.43,41.54301,-72.08799,9583.55,4807.65,WILLIAM W BACKUS HOSPITAL
5.73,2.90,41.75412,-72.67927,16256.16,6462.88,HARTFORD HOSPITAL
4.38,2.41,41.78185,-72.52591,11580.33,4762.05,MANCHESTER MEMORIAL HOSPITAL
4.54,2.75,41.20049,-73.20281,12147.63,5928.37,ST VINCENT'S MEDICAL CENTER
4.12,2.36,41.67540,-72.93617,10670.83,4594.92,BRISTOL HOSPITAL
6.99,2.68,41.11147,-73.42010,20630.74,5677.29,NORWALK HOSPITAL ASSOCIATION
5.47,2.61,41.66107,-72.78671,15359.37,5440.30,HOSPITAL OF CENTRAL CONNECTICUT, THE
4.16,2.62,39.69005,-75.68408,10824.45,5483.17,CHRISTIANA CARE HEALTH SERVICES, INC.
5.67,2.50,39.74954,-75.56662,16068.48,5072.00,ST FRANCIS HOSPITAL
5.28,2.39,39.15135,-75.52309,14707.94,4690.38,BAYHEALTH - KENT GENERAL HOSPITAL
6.04,2.31,38.77159,-75.14210,17353.83,4392.50,BEEBE MEDICAL CENTER
6.92,2.92,38.90106,-77.05079,20393.31,6510.88,GEORGE WASHINGTON UNIV HOSPITAL
6.30,3.81,38.91770,-77.02193,18256.00,9594.38,HOWARD UNIVERSITY HOSPITAL
7.07,2.98,38.91221,-77.07588,20919.38,6728.56,GEORGETOWN UNIVERSITY HOSPITAL
5.47,2.26,38.93576,-77.10909,15348.79,4226.91,SIBLEY MEMORIAL HOSPITAL
5.31,2.76,38.94397,-76.99040,14792.59,5978.05,PROVIDENCE HOSPITAL
5.29,2.78,38.92944,-77.01473,14740.37,6023.22,WASHINGTON HOSPITAL CENTER
7.87,2.40,26.50479,-80.06979,23685.53,4704.22,BETHESDA MEMORIAL HOSPITAL
7.74,2.47,28.52517,-81.37729,23226.21,4961.63,ORLANDO HEALTH
6.84,2.40,28.57345,-81.36990,20104.47,4706.59,FLORIDA HOSPITAL
9.79,2.83,25.68309,-80.34038,30329.65,6198.98,BAPTIST HOSPITAL OF MIAMI INC
10.75,2.66,25.78846,-80.21644,33658.63,5615.67,UNIVERSITY OF MIAMI HOSPITAL
4.81,2.27,26.62849,-81.87423,13085.65,4282.45,LEE MEMORIAL HOSPITAL
4.84,2.96,29.20117,-81.05828,13178.67,6654.22,HALIFAX HEALTH MEDICAL CENTER
6.42,2.24,26.15053,-81.79919,18644.39,4175.28,NAPLES COMMUNITY HOSPITAL
6.47,2.17,28.08771,-80.61362,18813.34,3920.27,HOLMES REGIONAL MEDICAL CENTER
7.53,3.62,25.79143,-80.21250,22514.78,8939.65,JACKSON MEMORIAL HOSPITAL
7.24,2.11,28.83363,-82.33561,21489.44,3728.91,CITRUS MEMORIAL HOSPITAL
3.58,2.63,30.47650,-87.21219,8803.92,5501.15,SACRED HEART HOSPITAL
5.00,2.20,30.15963,-85.64818,13727.97,4016.76,BAY MEDICAL CENTER
11.32,2.58,25.86166,-80.21398,35634.31,5360.85,NORTH SHORE MEDICAL CENTER
5.17,2.31,28.54917,-81.52746,14316.92,4423.00,HEALTH CENTRAL
7.86,2.48,27.76332,-82.64325,23649.86,4985.04,BAYFRONT MEDICAL CENTER INC
8.41,2.65,25.81317,-80.13996,25557.41,5584.64,MOUNT SINAI MEDICAL CENTER
6.65,2.31,27.49789,-82.56220,19458.89,4419.58,MANATEE MEMORIAL HOSPITAL
7.21,2.48,26.01867,-80.17981,21377.06,4985.46,MEMORIAL REGIONAL HOSPITAL
5.52,2.26,30.30835,-81.68919,15524.61,4246.75,ST VINCENT'S MEDICAL CENTER
6.80,2.29,27.19837,-80.24306,19957.38,4348.86,MARTIN MEMORIAL MEDICAL CENTER
5.79,2.44,29.04263,-81.31635,16485.12,4860.00,FLORIDA HOSPITAL DELAND
8.26,2.28,28.26092,-82.18802,25032.11,4298.28,FLORIDA HOSPITAL ZEPHYRHILLS
6.97,2.14,26.94042,-82.04094,20549.75,3804.00,CHARLOTTE REGIONAL MEDICAL CENTER
8.84,2.15,27.46707,-81.43358,27060.08,3870.31,HIGHLANDS REGIONAL MEDICAL CENTER
6.83,2.63,25.86856,-80.31222,20069.04,5534.00,PALM SPRINGS GENERAL HOSPITAL
6.58,2.25,28.02768,-81.72466,19210.93,4215.43,WINTER HAVEN HOSPITAL
14.37,2.86,25.84597,-80.26872,46204.59,6320.00,HIALEAH HOSPITAL
6.10,2.12,28.13321,-82.75839,17549.00,3740.00,HELEN ELLIS MEMORIAL HOSPITAL
5.68,2.18,28.82358,-81.71133,16084.50,3948.91,FLORIDA HOSPITAL WATERMAN
7.30,2.53,25.74067,-80.21244,21688.91,5153.91,MERCY HOSPITAL INC
5.10,2.17,29.17594,-82.13898,14088.71,3914.86,MUNROE REGIONAL MEDICAL CENTER
6.11,2.19,27.78088,-82.65126,17568.43,3996.21,ST ANTHONY'S HOSPITAL
4.93,2.17,29.24333,-81.10760,13496.25,3932.00,FLORIDA HOSPITAL MEMORIAL MEDICAL CENTER
5.64,2.15,27.09043,-82.44499,15958.80,3853.52,VENICE REGIONAL MEDICAL CENTER
15.53,2.28,28.53906,-82.44193,50229.58,4297.81,BROOKSVILLE REGIONAL HOSPITAL
5.05,2.20,28.91403,-81.28480,13912.52,4030.78,FLORIDA HOSPITAL FISH MEMORIAL
6.84,2.27,26.18711,-80.11941,20111.14,4261.91,HOLY CROSS HOSPITAL INC
6.18,2.39,27.98242,-82.49025,17817.23,4675.91,ST JOSEPH'S HOSPITAL
7.35,2.75,25.77941,-80.29397,21882.88,5921.75,METROPOLITAN HOSPITAL OF MIAMI
9.74,2.22,26.98905,-82.09559,30160.92,4100.17,PEACE RIVER REGIONAL MEDICAL CENTER
9.72,2.37,26.59805,-80.09271,30095.52,4632.21,JFK MEDICAL CENTER
5.57,2.18,28.80659,-81.86906,15712.05,3958.11,LEESBURG REGIONAL MEDICAL CENTER
5.00,2.19,27.31827,-82.53140,13728.26,3992.87,SARASOTA MEMORIAL HOSPITAL
6.97,2.32,30.31525,-81.66398,20554.26,4457.85,BAPTIST MEDICAL CENTER
7.24,2.48,29.86371,-81.31749,21489.54,4985.67,FLAGLER HOSPITAL
5.86,2.21,28.33522,-80.72319,16723.27,4076.55,WUESTHOFF MEDICAL CENTER  ROCKLEDGE
3.21,2.25,27.65832,-80.39307,7542.11,4183.93,INDIAN RIVER MEDICAL CENTER
6.75,2.32,27.50001,-81.43962,19803.27,4450.27,FLORIDA HOSPITAL HEARTLAND MEDICAL CENTER
11.57,2.34,28.29946,-81.41021,36519.43,4509.04,OSCEOLA REGIONAL MEDICAL CENTER
5.07,2.99,29.64155,-82.34844,13960.75,6770.12,SHANDS HOSPITAL AT THE UNIVERSITY OF FLORIDA
6.01,2.10,30.27449,-81.40071,17227.38,3680.58,BAPTIST MEDICAL CENTER  BEACHES
5.20,2.40,29.47897,-81.18915,14438.71,4715.00,FLORIDA HOSPITAL FLAGLER
14.94,2.19,30.73540,-86.56171,48174.59,4008.82,NORTH OKALOOSA MEDICAL CENTER
9.66,2.67,25.47971,-80.43038,29882.64,5645.00,HOMESTEAD HOSPITAL
6.47,2.11,27.75214,-82.73951,18842.33,3704.00,PALMS OF PASADENA HOSPITAL
7.16,2.22,27.95192,-82.80379,21227.73,4090.93,MORTON PLANT HOSPITAL
12.86,2.90,27.93740,-82.45927,40979.59,6449.41,TAMPA GENERAL HOSPITAL
11.18,2.31,25.96994,-80.14533,35161.71,4414.78,AVENTURA HOSPITAL AND MEDICAL CENTER
5.63,2.34,30.45726,-84.26175,15900.79,4521.75,TALLAHASSEE MEMORIAL HEALTHCARE
7.09,2.29,28.18120,-81.64018,20967.61,4345.44,HEART OF FLORIDA REGIONAL MEDICAL CENTER
6.11,2.18,30.65118,-81.44923,17565.43,3948.93,BAPTIST MEDICAL CENTER - NASSAU
3.88,2.21,30.78675,-85.24189,9833.81,4057.00,JACKSON HOSPITAL
11.70,2.38,25.70328,-80.29391,36944.81,4646.88,SOUTH MIAMI HOSPITAL, INC
7.87,2.47,30.18340,-82.68783,23681.33,4969.33,LAKE CITY MEDICAL CENTER
7.21,2.20,28.06172,-81.95304,21397.79,4009.74,LAKELAND REGIONAL MEDICAL CENTER
6.33,2.13,27.30187,-82.45428,18339.08,3801.08,DOCTORS HOSPITAL OF SARASOTA
5.86,2.24,26.35875,-80.10203,16715.27,4157.52,BOCA RATON REGIONAL HOSPITAL
6.52,2.20,28.07111,-82.42342,19011.44,4014.00,FLORIDA HOSPITAL TAMPA
8.33,2.24,26.83035,-80.08655,25280.21,4182.33,PALM BEACH GARDENS MEDICAL CENTER
12.41,2.21,30.28793,-81.60103,39413.36,4058.28,MEMORIAL HOSPITAL JACKSONVILLE
13.19,2.34,27.80541,-82.72694,42115.17,4500.00,ST PETERSBURG GENERAL HOSPITAL
13.03,2.71,25.74360,-80.25465,41556.54,5782.00,CORAL GABLES HOSPITAL
11.77,2.73,25.88563,-80.32635,37205.33,5857.00,PALMETTO GENERAL HOSPITAL
10.27,2.32,26.26259,-80.20292,32015.92,4442.50,NORTHWEST MEDICAL CENTER
11.05,2.22,29.66085,-82.41172,34719.14,4082.69,NORTH FLORIDA REGIONAL MEDICAL CENTER
6.45,2.12,27.93758,-82.48933,18745.83,3763.08,MEMORIAL HOSPITAL OF TAMPA
11.51,2.61,25.73195,-80.38580,36293.45,5444.91,KENDALL REGIONAL MEDICAL CENTER
8.19,2.10,29.17550,-82.13680,24779.00,3687.05,OCALA REGIONAL MEDICAL CENTER
8.51,2.13,27.48213,-82.62126,25898.06,3775.21,BLAKE MEDICAL CENTER
5.55,2.23,26.52735,-81.83337,15632.59,4147.02,GULF COAST MEDICAL CENTER LEE MEM HEALTH SYSTEM
10.40,2.23,30.45448,-86.63362,32435.11,4127.74,FORT WALTON BEACH MEDICAL CENTER
10.72,2.26,30.16550,-81.73775,33565.14,4233.52,ORANGE PARK MEDICAL CENTER
8.15,2.25,26.12354,-80.25951,24639.18,4208.00,WESTSIDE REGIONAL MEDICAL CENTER
10.02,2.11,30.51624,-87.21856,31123.93,3703.31,WEST FLORIDA HOSPITAL
4.98,2.36,29.64481,-81.69431,13677.39,4589.75,PUTNAM COMMUNITY MEDICAL CENTER
11.09,2.28,26.98884,-82.09877,34853.30,4296.05,FAWCETT MEMORIAL HOSPITAL
10.87,2.23,27.82545,-82.70122,34095.75,4118.62,NORTHSIDE HOSPITAL
10.29,2.24,30.18657,-85.66513,32062.96,4158.42,GULF COAST MEDICAL CENTER
11.74,2.27,27.93259,-82.28759,37111.64,4269.32,BRANDON REGIONAL HOSPITAL
6.09,2.13,26.63958,-81.94164,17520.78,3787.43,CAPE CORAL HOSPITAL
12.25,2.54,27.43392,-80.34350,38871.68,5215.76,LAWNWOOD REGIONAL MEDICAL CENTER & HEART INSTITUTE
10.51,2.22,27.91458,-82.80382,32822.05,4104.68,LARGO MEDICAL CENTER
8.11,2.14,28.95195,-82.62421,24529.15,3835.69,SEVEN RIVERS REGIONAL MEDICAL CENTER
6.16,2.22,26.92138,-80.09708,17737.91,4085.00,JUPITER MEDICAL CENTER
8.37,2.26,30.47616,-84.23140,25414.00,4225.43,CAPITAL REGIONAL MEDICAL CENTER
12.37,2.12,28.36128,-82.68883,39287.39,3763.00,REGIONAL MEDICAL CENTER BAYONET POINT
11.11,2.22,26.43709,-80.12728,34900.90,4087.00,DELRAY MEDICAL CENTER
10.96,2.11,27.71350,-82.36512,34406.40,3731.07,SOUTH BAY HOSPITAL
10.31,2.52,27.28861,-80.29431,32130.21,5144.57,ST LUCIE MEDICAL CENTER
5.57,2.12,28.03957,-82.70875,15722.33,3765.00,MEASE COUNTRYSIDE HOSPITAL
5.58,2.08,30.35772,-87.16046,15755.91,3611.91,GULF BREEZE HOSPITAL
8.99,2.13,26.94996,-82.32651,27550.19,3799.00,ENGLEWOOD COMMUNITY HOSPITAL
6.73,2.27,26.35614,-80.19956,19713.65,4279.05,WEST BOCA MEDICAL CENTER
10.47,2.51,26.68337,-80.25269,32695.88,5116.75,PALMS WEST HOSPITAL
9.53,2.44,26.65230,-80.20504,29439.00,4857.00,WELLINGTON REGIONAL MEDICAL CENTER
7.99,2.44,26.01394,-80.30980,24096.66,4843.84,MEMORIAL HOSPITAL WEST
7.44,2.32,26.70181,-80.05055,22183.90,4453.19,GOOD SAMARITAN MEDICAL CENTER
5.52,2.15,28.94952,-81.95843,15540.11,3852.61,VILLAGES REGIONAL HOSPITAL, THE
12.61,2.42,25.72132,-80.27116,40118.73,4801.67,DOCTORS HOSPITAL INC
6.39,2.14,30.25377,-81.58270,18558.55,3813.50,ST VINCENT'S MEDICAL CENTER SOUTHSIDE
4.33,2.34,31.22516,-82.34898,11407.40,4503.60,SATILLA REGIONAL MEDICAL CENTER
7.93,2.24,34.17863,-84.13992,23891.84,4170.42,NORTHSIDE HOSPITAL FORSYTH
5.65,2.51,31.59023,-84.15756,15998.83,5102.70,PHOEBE PUTNEY MEMORIAL HOSPITAL
7.31,2.28,34.24569,-84.49068,21727.50,4294.43,NORTHSIDE HOSPITAL CHEROKEE
6.19,2.43,34.51192,-84.92579,17850.38,4833.85,GORDON HOSPITAL
5.92,2.29,32.02825,-81.09977,16911.91,4339.00,CANDLER HOSPITAL
5.74,2.69,31.17425,-81.48459,16302.72,5721.79,SOUTHEAST GEORGIA HEALTH SYSTEM- BRUNSWICK CAMPUS
3.74,2.29,33.47096,-81.98176,9357.43,4340.00,UNIVERSITY HOSPITAL
4.55,2.28,34.30335,-83.81737,12188.53,4309.74,NORTHEAST GEORGIA MEDICAL CENTER, INC
8.78,2.39,33.23886,-84.26706,26836.46,4691.42,SPALDING REGIONAL MEDICAL CENTER
4.78,2.24,34.59332,-83.34788,12966.69,4149.14,STEPHENS COUNTY HOSPITAL
3.96,2.97,33.47091,-81.98988,10130.55,6704.80,MEDICAL COLLEGE OF GA HOSPITALS AND CLINICS
5.31,2.25,33.96770,-84.55011,14810.57,4192.59,WELLSTAR KENNESTONE HOSPITAL
3.77,2.48,32.03185,-81.09158,9480.81,4989.31,MEMORIAL HEALTH UNIV MED CEN, INC
4.13,2.19,30.82614,-83.97393,10711.00,3995.82,JOHN D ARCHBOLD MEMORIAL HOSPITAL
6.05,2.13,31.98515,-81.15475,17377.21,3798.29,ST JOSEPH'S HOSPITAL - SAVANNAH
4.61,2.26,32.61642,-83.63065,12370.72,4245.89,HOUSTON MEDICAL CENTER
4.73,2.31,33.96117,-83.39832,12811.38,4420.81,ATHENS REGIONAL MEDICAL CENTER
3.28,2.41,33.78956,-84.28077,7763.33,4764.40,DEKALB MEDICAL CENTER
3.76,2.46,33.76810,-84.38616,9446.57,4918.86,EMORY UNIVERSITY HOSPITAL MIDTOWN
6.29,2.92,33.75205,-84.38272,18211.24,6510.24,GRADY MEMORIAL HOSPITAL
5.15,2.15,33.90877,-84.35180,14243.95,3862.00,SAINT JOSEPH'S HOSPITAL OF ATLANTA, INC
5.23,2.31,33.96351,-84.01769,14546.95,4411.21,GWINNETT MEDICAL CENTER
4.63,2.12,31.50971,-82.86341,12460.87,3749.40,COFFEE REGIONAL MEDICAL CENTER
4.29,2.40,33.68072,-84.00200,11278.74,4709.79,ROCKDALE MEDICAL CENTER
5.25,2.50,32.83041,-83.63476,14603.25,5072.00,MEDICAL CENTER OF CENTRAL GEORGIA
11.80,3.45,33.76372,-84.37315,37296.21,8377.14,ATLANTA MEDICAL CENTER
4.69,2.26,30.86250,-83.28630,12644.78,4222.70,SOUTH GEORGIA MEDICAL CENTER
4.23,2.37,31.60200,-81.89172,11047.91,4628.00,WAYNE MEMORIAL HOSPITAL
6.86,2.44,32.54026,-82.95741,20175.29,4846.29,FAIRVIEW PARK HOSPITAL
3.81,2.21,32.50679,-84.95933,9619.79,4059.33,ST FRANCIS HOSPITAL, INC
6.84,2.36,33.85638,-84.60446,20096.73,4575.86,WELLSTAR COBB HOSPITAL
4.36,2.29,32.84705,-83.61823,11506.67,4338.83,COLISEUM MEDICAL CENTER
6.21,2.44,33.57843,-84.38897,17918.21,4870.00,SOUTHERN REGIONAL MEDICAL CENTER
7.39,2.44,33.48259,-82.09038,22010.93,4868.73,DOCTORS HOSPITAL
5.16,2.23,33.73938,-84.73111,14304.15,4129.54,WELLSTAR DOUGLAS HOSPITAL
7.73,2.42,34.91692,-84.37534,23181.27,4772.36,FANNIN REGIONAL HOSPITAL
4.74,2.28,33.51144,-84.22200,12842.28,4302.81,HENRY MEDICAL CENTER, INC
11.67,2.26,34.06334,-84.31976,36868.36,4222.21,NORTH FULTON REGIONAL HOSPITAL
5.89,2.19,33.45252,-84.50697,16820.15,3978.00,PIEDMONT FAYETTE HOSPITAL
4.31,2.28,33.70365,-84.14697,11325.94,4301.00,DEKALB MEDICAL CENTER AT HILLANDALE
4.04,3.00,21.30780,-157.85505,10405.65,6795.29,THE QUEENS MEDICAL CENTER
4.77,2.61,21.32239,-157.85662,12934.33,5452.92,KUAKINI MEDICAL CENTER
5.99,2.37,43.61218,-116.19234,17179.00,4613.28,ST LUKES REGIONAL MEDICAL CENTER
3.94,2.28,43.61359,-116.25484,10044.45,4300.82,ST ALPHONSUS REGIONAL MEDICAL CENTER
5.16,2.30,43.46987,-111.99208,14288.43,4364.71,EASTERN IDAHO REGIONAL MEDICAL CENTER
4.13,2.43,47.69645,-116.79476,10730.00,4821.08,KOOTENAI MEDICAL CENTER
5.04,2.47,40.55329,-90.03912,13879.56,4959.50,GRAHAM HOSPITAL ASSOCIATION
7.45,2.29,41.52896,-88.13550,22212.59,4330.50,PROVENA ST JOSEPH MEDICAL CENTER
9.70,2.57,41.91082,-87.84451,30014.36,5311.76,LOYOLA GOTTLIEB MEMORIAL HOSPITAL
5.99,2.49,42.06550,-87.68428,17170.44,5040.21,EVANSTON HOSPITAL
4.70,2.31,37.80207,-89.02660,12686.11,4413.33,HERRIN HOSPITAL
6.27,2.31,41.84429,-89.48014,18150.53,4405.41,KATHERINE SHAW BETHEA HOSPITAL
5.39,2.14,40.75318,-89.59321,15088.30,3821.75,PROCTOR HOSPITAL
6.40,2.53,39.93563,-91.39833,18598.53,5178.53,BLESSING HOSPITAL
8.03,2.63,41.72930,-88.26976,24248.25,5511.25,COPLEY MEMORIAL HOSPITAL
7.60,2.37,42.07012,-88.33180,22755.14,4620.82,SHERMAN HOSPITAL
4.34,2.45,38.52908,-89.11604,11428.45,4889.82,ST MARYS HOSPITAL
10.36,2.24,40.95560,-90.36618,32326.54,4176.31,GALESBURG COTTAGE HOSPITAL
5.56,2.24,41.80160,-89.69714,15688.86,4161.71,CGH MEDICAL CENTER
5.37,2.19,38.32292,-88.91026,15005.77,3996.23,GOOD SAMARITAN REGIONAL HLTH CENTER
6.97,2.61,41.72636,-87.56727,20544.68,5455.91,ADVOCATE TRINITY HOSPITAL
7.43,2.84,41.89141,-87.77618,22142.69,6256.23,WEST SUBURBAN MEDICAL CENTER
5.39,2.50,42.05624,-87.74012,15071.40,5069.07,SKOKIE HOSPITAL
5.00,2.39,39.80726,-89.64496,13727.42,4692.53,ST JOHNS HOSPITAL
5.17,2.35,39.74629,-90.25907,14338.52,4546.00,PASSAVANT AREA HOSPITAL
6.42,2.23,41.66900,-87.81414,18669.97,4115.87,PALOS COMMUNITY HOSPITAL
5.30,2.58,40.98818,-90.36374,14758.82,5359.65,ST MARY MEDICAL CENTER
7.37,2.56,40.70200,-89.59222,21961.46,5289.29,SAINT FRANCIS MEDICAL CENTER
7.99,3.21,42.02578,-87.68371,24104.36,7530.86,RHC ST FRANCIS HOSPITAL
7.77,2.45,42.37840,-87.83329,23341.06,4900.81,VISTA MEDICAL CENTER EAST
4.52,2.37,40.44791,-90.66578,12070.56,4602.69,MC DONOUGH DISTRICT HOSPITAL
9.50,2.28,40.13811,-87.64569,29336.67,4305.94,PROVENA UNITED SAMARITANS MEDCTR-LOGAN
9.10,2.78,41.85543,-87.69810,27955.08,6038.54,SAINT ANTHONY HOSPITAL
6.75,2.23,41.36897,-88.42537,19782.00,4137.21,MORRIS HOSPITAL & HEALTHCARE CENTERS
5.72,2.89,41.77813,-87.63330,16233.00,6414.82,ST BERNARD HOSPITAL
7.27,2.97,41.97532,-87.69958,21592.29,6706.35,SWEDISH COVENANT HOSPITAL
5.81,2.54,42.31832,-88.27920,16556.44,5217.81,CENTEGRA HEALTH SYSTEM - MC HENRY HOSPITAL
6.85,2.52,41.98743,-87.81440,20140.94,5147.92,RESURRECTION MEDICAL CENTER
5.38,2.42,41.65880,-87.67729,15059.54,4791.85,METROSOUTH MEDICAL CENTER
4.38,3.35,41.87381,-87.67421,11586.85,8027.88,JOHN H STROGER JR HOSPITAL
12.00,2.42,38.70148,-90.14382,37986.12,4790.12,GATEWAY REGIONAL MEDICAL CENTER
4.18,2.28,40.49639,-88.99106,10877.25,4293.38,BROMENN HEALTHCARE
7.64,2.24,42.25244,-87.86528,22897.81,4151.00,LAKE FOREST HOSPITAL
6.09,2.51,41.76946,-87.69239,17494.57,5090.48,HOLY CROSS HOSPITAL
5.76,2.36,39.86644,-88.96090,16371.39,4582.18,DECATUR MEMORIAL HOSPITAL
6.46,2.42,41.32884,-89.19262,18793.60,4789.45,ST MARGARETS HOSPITAL
5.76,2.36,39.80893,-89.65530,16373.02,4569.96,MEMORIAL MEDICAL CENTER
7.61,3.68,41.86927,-87.67052,22771.25,9157.75,UNIVERSITY OF ILLINOIS HOSPITAL
7.20,2.35,41.12049,-87.87187,21342.09,4543.36,PROVENA ST MARYS HOSPITAL
4.49,2.88,41.84639,-87.62345,11973.54,6392.60,MERCY HOSPITAL AND MEDICAL CENTER
5.83,2.26,42.29592,-89.63773,16619.64,4245.00,FHN MEMORIAL HOSPITAL
5.37,2.65,40.48254,-88.95519,15028.57,5598.50,ST JOSEPH MEDICAL CENTER
6.19,2.55,41.52283,-87.71111,17843.24,5241.04,FRANCISCAN ST JAMES HEALTH
6.27,2.29,42.27597,-88.40019,18148.50,4332.50,CENTEGRA HEALTH SYSTEM - WOODSTOCK HOSPITAL
5.64,2.63,41.72094,-87.69220,15951.61,5513.33,LITTLE COMPANY OF MARY HOSPITAL
7.46,2.87,41.90414,-87.68254,22246.44,6341.12,ST MARY & ELIZABETH MED CTR-DIVISION CAMPUS
8.74,2.66,41.74948,-87.56909,26708.76,5604.82,SOUTH SHORE HOSPITAL
6.32,3.04,41.93641,-87.65295,18300.42,6949.45,ADVOCATE ILLINOIS MASONIC MEDICAL CENTER
5.25,2.19,38.55020,-90.02146,14615.83,3997.39,MEMORIAL HOSPITAL
4.54,2.24,39.48849,-88.27581,12148.04,4167.00,SARAH BUSH LINCOLN HEALTH CENTER
5.97,2.40,41.60726,-87.66060,17111.24,4708.38,INGALLS MEMORIAL HOSPITAL
7.75,2.23,41.86362,-87.93567,23273.04,4130.40,ELMHURST MEMORIAL HOSPITAL
7.76,2.50,42.27447,-87.95764,23303.62,5058.21,ADVOCATE CONDELL MEDICAL CENTER
5.26,2.66,41.72031,-87.73249,14631.28,5607.16,ADVOCATE CHRIST HOSPITAL & MEDICAL CENTER
6.83,2.42,40.70065,-89.59505,20084.16,4804.40,METHODIST MEDICAL CENTER OF ILLINOIS
4.79,2.23,37.73083,-88.52299,12988.53,4143.80,HARRISBURG MEDICAL CENTER
7.86,2.24,41.88566,-88.34311,23655.22,4149.61,DELNOR COMMUNITY HOSPITAL
5.28,2.40,41.54446,-87.98379,14691.98,4736.74,SILVER CROSS HOSPITAL  AND MEDICAL CENTERS
5.14,2.74,42.03837,-87.84820,14214.79,5888.21,ADVOCATE LUTHERAN GENERAL HOSPITAL
7.34,2.75,41.93418,-87.63579,21853.90,5919.00,SAINT JOSEPH HOSPITAL
5.24,2.44,42.26584,-89.07428,14550.12,4844.62,SWEDISH AMERICAN HOSPITAL
6.17,2.22,41.76076,-88.15016,17805.05,4095.45,EDWARD HOSPITAL
6.56,2.19,42.26634,-89.00900,19130.78,3997.96,SAINT ANTHONY MEDICAL CENTER
4.77,2.65,42.29844,-89.09897,12943.12,5603.25,ROCKFORD MEMORIAL HOSPITAL
9.26,2.32,41.87269,-88.15684,28499.79,4436.37,CENTRAL DUPAGE HOSPITAL
5.53,2.33,41.56720,-87.69566,15557.17,4468.58,ADVOCATE SOUTH SUBURBAN HOSPITAL
7.02,2.36,41.94560,-87.76897,20722.53,4576.71,OUR LADY OF THE RESURRECTION MED CTR
5.63,2.28,42.06732,-87.99368,15914.21,4300.15,NORTHWEST COMMUNITY HOSPITAL
6.48,2.41,42.00413,-88.01745,18868.91,4758.73,ALEXIAN BROTHERS MEDICAL CENTER
5.19,3.25,41.86110,-87.83404,14389.64,7649.64,LOYOLA UNIVERSITY MEDICAL CENTER
3.40,2.18,41.48200,-90.57158,8186.45,3941.28,TRINITY ROCK ISLAND
6.54,2.73,41.89477,-87.62131,19057.90,5871.98,NORTHWESTERN MEMORIAL HOSPITAL
6.67,2.26,41.96185,-88.72130,19532.04,4239.64,KISHWAUKEE COMMUNITY HOSPITAL
4.85,2.24,41.81791,-88.00907,13226.90,4172.67,ADVOCATE GOOD SAMARITAN HOSPITAL
7.23,2.32,42.05260,-88.14173,21475.00,4456.38,ST ALEXIUS MEDICAL CENTER
4.75,2.21,42.19586,-88.17286,12871.67,4053.33,ADVOCATE GOOD SHEPHERD HOSPITAL
4.66,2.46,41.59920,-87.35764,12566.06,4917.67,METHODIST HOSPITALS INC
5.80,2.46,41.61514,-87.52413,16519.58,4914.33,FRANCISCAN ST MARGARET HEALTH - HAMMOND
6.41,2.15,41.61055,-86.72511,18630.33,3870.76,INDIANA UNIVERSITY HEALTH LA PORTE HOSPITAL
4.47,2.46,41.63466,-87.44901,11900.59,4927.29,ST CATHERINE HOSPITAL INC
4.37,2.25,38.28244,-85.74923,11562.79,4194.79,CLARK MEMORIAL HOSPITAL
3.65,2.29,40.56435,-85.66576,9053.55,4326.09,MARION GENERAL HOSPITAL
4.01,2.29,41.70639,-86.89936,10284.39,4355.78,FRANCISCAN ST ANTHONY HEALTH - MICHIGAN CITY
5.95,2.26,41.03874,-85.24876,17011.35,4246.03,LUTHERAN HOSPITAL OF INDIANA
5.14,2.22,41.70568,-85.93404,14231.83,4107.50,ELKHART GENERAL HOSPITAL
4.28,2.26,41.04659,-85.10906,11230.00,4241.19,PARKVIEW REGIONAL MEDICAL CENTER
5.44,2.31,39.48518,-87.40893,15271.07,4423.00,UNION HOSPITAL INC
5.73,2.29,41.56352,-85.83039,16269.79,4354.53,IU HEALTH GOSHEN HOSPITAL
6.50,2.38,39.94340,-85.36306,18929.31,4640.31,HENRY COUNTY MEMORIAL HOSPITAL
5.47,2.19,39.72432,-86.10055,15378.66,4007.55,FRANCISCAN ST FRANCIS HEALTH - BEECH GROVE
5.33,2.26,41.51266,-87.26125,14875.35,4225.22,ST MARY MEDICAL CENTER INC
5.91,2.30,41.46729,-87.05130,16892.15,4380.46,PORTER VALPARAISO HOSPITAL
3.90,2.17,39.79490,-85.76770,9918.79,3927.86,HANCOCK REGIONAL HOSPITAL
3.99,2.15,38.30195,-85.83409,10219.28,3846.06,FLOYD MEMORIAL HOSPITAL AND HEALTH SERVICES
4.22,2.30,39.16006,-86.54038,11045.30,4379.35,INDIANA UNIVERSITY HEALTH BLOOMINGTON HOSPITAL
6.70,3.25,39.79009,-86.16260,19622.69,7667.37,INDIANA UNIVERSITY HEALTH
5.66,2.38,41.68479,-86.25217,16027.66,4662.93,MEMORIAL HOSPITAL OF SOUTH BEND
5.33,2.65,40.76324,-86.36162,14876.88,5581.12,MEMORIAL HOSPITAL
5.24,2.17,40.73751,-85.17118,14553.91,3929.36,BLUFFTON REGIONAL MEDICAL CENTER
5.02,2.18,37.98293,-87.57072,13812.16,3940.51,DEACONESS HOSPITAL INC
5.44,2.45,39.91001,-86.19660,15254.74,4892.59,ST VINCENT HOSPITAL & HEALTH SERVICES
5.69,2.23,40.09594,-85.68152,16115.24,4127.18,SAINT JOHN'S HEALTH SYSTEM
7.15,2.42,40.19679,-85.41573,21192.50,4790.26,INDIANA UNIVERSITY HEALTH BALL MEMORIAL HOSPITAL
4.83,2.27,41.49222,-87.52429,13130.38,4278.00,FRANCISCAN ST MARGARET HEALTH - DYER
4.72,2.18,37.96320,-87.50292,12775.07,3971.33,ST MARY'S MEDICAL CENTER OF EVANSVILLE INC
4.14,2.28,39.21585,-85.89683,10749.36,4305.18,COLUMBUS REGIONAL HOSPITAL
5.39,2.27,41.55065,-87.50619,15095.60,4270.94,COMMUNITY HOSPITAL
4.15,2.21,41.39576,-87.36689,10770.92,4050.08,FRANCISCAN ST ANTHONY HEALTH - CROWN POINT
4.28,2.16,39.63776,-86.13260,11241.50,3874.86,COMMUNITY HOSPITAL SOUTH
4.82,2.26,41.24786,-85.82927,13115.00,4228.83,KOSCIUSKO COMMUNITY HOSPITAL
5.41,2.31,39.64935,-86.07960,15139.18,4397.27,FRANCISCAN ST FRANCIS HEALTH - INDIANAPOLIS
6.33,2.25,39.12069,-86.57191,18339.50,4189.00,MONROE HOSPITAL
3.86,2.20,39.90060,-86.04218,9776.69,4038.46,COMMUNITY HOSPITAL NORTH
6.41,2.11,40.40296,-86.80885,18625.35,3724.08,INDIANA UNIVERSITY HEALTH ARNETT HOSPITAL
3.25,2.31,42.04855,-92.90625,7652.08,4424.83,MARSHALLTOWN MEDICAL & SURGICAL CENTER
4.36,2.24,42.49388,-94.18926,11505.95,4178.57,TRINITY REGIONAL MEDICAL CENTER
3.70,2.24,41.54190,-90.55691,9219.48,4167.65,GENESIS MEDICAL CENTER-DAVENPORT
4.74,2.16,41.66411,-91.52841,12816.06,3891.81,MERCY HOSPITAL
5.07,2.19,42.03321,-93.61164,13992.00,4001.00,MARY GREELEY MEDICAL CENTER
4.54,2.25,41.98570,-91.66093,12144.00,4201.32,ST LUKES HOSPITAL
7.98,2.91,41.66092,-91.54800,24063.05,6495.21,UNIVERSITY OF IOWA HOSPITAL & CLINICS
4.72,2.29,43.15063,-93.21718,12758.85,4345.77,MERCY MEDICAL CENTER-NORTH IOWA
5.02,2.00,42.49227,-90.67404,13785.27,3333.73,MERCY MEDICAL CENTER-DUBUQUE
4.72,2.12,41.97864,-91.65507,12758.92,3742.38,MERCY MEDICAL CENTER - CEDAR RAPIDS
4.50,2.38,41.86141,-90.18921,12000.94,4643.75,MERCY MEDICAL CENTER-CLINTON
4.86,2.39,41.58955,-93.63248,13258.23,4693.77,IOWA METHODIST MEDICAL CENTER
5.55,2.34,41.59886,-93.62344,15632.47,4508.40,MERCY MEDICAL CENTER-DES MOINES
3.70,2.20,43.14994,-95.14317,9218.50,4029.17,SPENCER MUNICIPAL HOSPITAL
4.26,2.34,42.51846,-96.40581,11169.64,4509.09,ST LUKES REGIONAL MEDICAL CENTER
4.52,2.29,38.41149,-96.19524,12069.47,4324.53,NEWMAN REGIONAL HEALTH
3.77,2.17,39.05660,-95.69599,9459.62,3917.00,ST FRANCIS HEALTH CENTER INC
6.48,2.36,37.81826,-96.85834,18868.00,4578.64,SUSAN B ALLEN MEMORIAL HOSPITAL
4.37,2.36,38.07731,-97.89183,11551.60,4568.00,HUTCHINSON REGIONAL MEDICAL CENTER INC
4.40,2.16,38.85279,-94.82413,11646.46,3876.00,OLATHE MEDICAL CENTER
5.42,2.27,39.05128,-95.69572,15187.04,4269.16,STORMONT-VAIL HEALTHCARE
5.94,2.17,38.99549,-94.69061,16979.82,3908.39,SHAWNEE MISSION MEDICAL CENTER
5.01,2.31,37.70405,-97.31386,13770.37,4415.59,VIA CHRISTI HOSPITALS WICHITA INC
6.06,2.35,37.69556,-97.29785,17416.92,4542.77,WESLEY MEDICAL CENTER
5.16,2.23,39.12677,-94.78643,14300.17,4145.75,PROVIDENCE MEDICAL CENTER
7.16,2.15,38.90355,-94.66966,21206.64,3868.00,SAINT LUKE'S SOUTH HOSPITAL
5.95,2.08,37.66639,-97.49224,17009.33,3608.83,VIA CHRISTI HOSPITAL WICHITA ST TERESA INC
4.52,2.22,39.07816,-84.46695,12068.36,4080.82,ST ELIZABETH FT THOMAS
4.44,2.10,37.11520,-82.81022,11803.42,3678.42,WHITESBURG ARH HOSPITAL
4.50,2.22,37.19610,-87.18933,11993.60,4096.13,MUHLENBERG COMMUNITY HOSPITAL
5.12,2.57,38.47021,-82.63498,14161.04,5294.49,KING'S DAUGHTERS' MEDICAL CENTER
3.27,2.27,38.03140,-84.52194,7743.71,4258.76,SAINT JOSEPH HOSPITAL
4.01,2.30,37.11784,-84.10910,10294.45,4390.45,SAINT JOSEPH HOSPITAL LONDON
3.39,2.15,37.71183,-85.87623,8161.55,3852.55,HARDIN MEMORIAL HOSPITAL
5.73,2.30,36.99641,-86.43006,16258.81,4381.00,THE MEDICAL CENTER AT BOWLING GREEN
3.69,2.31,38.63961,-83.80820,9204.93,4401.14,MEADOWVIEW REGIONAL MEDICAL CENTER
4.36,2.15,36.60798,-88.30957,11497.76,3846.67,MURRAY-CALLOWAY COUNTY HOSPITAL
5.07,2.31,37.27729,-83.22802,13988.05,4420.27,HAZARD ARH REGIONAL MEDICAL CENTER
4.02,2.29,39.06704,-84.49946,10347.81,4352.24,ST ELIZABETH MEDICAL CENTER NORTH
3.11,2.45,37.76518,-87.10197,7181.21,4906.86,OWENSBORO MEDICAL HEALTH SYSTEM
4.66,2.44,38.24927,-85.75081,12547.11,4863.89,JEWISH HOSPITAL & ST MARY'S HEALTHCARE
6.56,2.54,37.47264,-82.52605,19147.36,5196.36,PIKEVILLE MEDICAL CENTER
3.51,2.25,37.64378,-84.77272,8575.09,4201.55,EPHRAIM MCDOWELL REGIONAL MEDICAL CENTER
4.28,2.28,36.80963,-83.31313,11233.22,4293.48,HARLAN APPALACHIAN REGIONAL HEALTHCARE HOSPITAL
5.18,2.22,36.86034,-87.49528,14345.05,4094.64,JENNIE STUART MEDICAL CENTER
4.99,2.66,37.85504,-87.58345,13682.64,5620.55,METHODIST HOSPITAL
5.85,2.91,38.03282,-84.50674,16691.48,6486.81,UNIVERSITY OF KENTUCKY HOSPITAL
4.66,2.24,37.67604,-82.29731,12567.23,4160.23,WILLIAMSON ARH HOSPITAL
12.80,2.21,37.81455,-82.81102,40761.53,4065.00,PAUL B HALL REGIONAL MEDICAL CENTER
5.64,2.43,38.24806,-85.75125,15955.24,4822.37,NORTON HOSPITALS, INC
4.43,2.10,37.06431,-88.67523,11739.89,3692.00,LOURDES HOSPITAL
4.50,2.24,38.01849,-84.51236,12004.20,4164.60,CENTRAL BAPTIST HOSPITAL
4.93,2.16,37.07404,-88.62685,13495.55,3885.83,WESTERN BAPTIST HOSPITAL
7.97,2.16,38.11425,-82.60321,24030.38,3871.08,THREE RIVERS MEDICAL CENTER
3.99,2.11,38.23898,-85.63941,10226.02,3703.26,BAPTIST HOSPITAL EAST
5.51,2.34,37.08724,-84.61828,15491.95,4511.40,LAKE CUMBERLAND REGIONAL HOSPITAL
3.95,2.19,38.39635,-85.37324,10083.07,3978.71,BAPTIST HOSPITAL NORTHEAST
5.89,2.12,37.56166,-83.37202,16809.14,3741.43,KENTUCKY RIVER MEDICAL CENTER
5.76,2.59,30.20227,-92.01906,16374.14,5373.75,LAFAYETTE GENERAL MEDICAL CENTER
3.89,2.12,29.77956,-90.80568,9884.95,3763.65,THIBODAUX REGIONAL MEDICAL CENTER
3.71,2.19,31.75235,-93.07788,9271.42,3999.33,NATCHITOCHES REGIONAL MEDICAL CENTER
6.86,2.21,29.59851,-90.71397,20191.58,4062.53,TERREBONNE GENERAL MEDICAL CENTER
9.36,2.39,30.46813,-90.45814,28849.53,4679.00,NORTH OAKS MEDICAL CENTER, LLC
4.90,2.40,30.54354,-92.07608,13378.13,4723.33,OPELOUSAS GENERAL HEALTH SYSTEM
5.17,2.35,31.28258,-92.46060,14314.96,4561.84,CHRISTUS ST FRANCES CABRINI HOSPITAL
5.88,2.21,30.65001,-91.13821,16775.92,4052.92,LANE REGIONAL MEDICAL CENTER
6.64,2.35,31.31451,-92.44997,19421.44,4536.63,RAPIDES REGIONAL MEDICAL CENTER
6.34,2.09,30.21521,-93.22682,18369.07,3638.86,CHRISTUS ST PATRICK HOSPITAL
4.22,2.50,30.01875,-90.19452,11036.69,5079.00,OCHSNER FOUNDATION HOSPITAL
5.68,2.38,29.89089,-90.09395,16106.28,4645.78,WEST JEFFERSON MEDICAL CENTER
6.22,2.42,32.49443,-93.75011,17958.36,4782.29,CHRISTUS SCHUMPERT HEALTH SYSTEM
2.98,2.56,30.22762,-92.36253,6733.31,5270.23,AMERICAN LEGION HOSPITAL
6.90,2.33,30.46834,-90.11383,20320.82,4464.25,ST TAMMANY PARISH HOSPITAL
6.37,2.45,29.92596,-90.09191,18493.75,4904.75,TOURO INFIRMARY
6.42,2.11,29.98815,-91.78471,18651.78,3719.17,IBERIA GENERAL HOSPITAL AND MEDICAL CENTER
8.04,3.07,30.20458,-93.19774,24279.13,7045.27,LAKE CHARLES MEMORIAL HOSPITAL
4.21,2.26,30.40118,-91.11160,10989.18,4237.68,OUR LADY OF THE LAKE REGIONAL MEDICAL CENTER
4.08,2.40,30.45015,-91.15273,10530.81,4711.62,BATON ROUGE GENERAL MEDICAL CENTER
7.76,2.28,32.51544,-92.63343,23308.83,4298.50,NORTHERN LOUISIANA MEDICAL CENTER
4.31,2.16,30.15052,-92.03698,11351.29,3898.48,OUR LADY OF LOURDES REGIONAL MEDICAL CENTER, INC
5.44,2.26,32.48393,-93.77884,15268.57,4242.69,WILLIS KNIGHTON MEDICAL CENTER
3.99,2.27,32.49997,-92.11359,10232.18,4285.18,ST FRANCIS MEDICAL CENTER
4.56,2.40,32.61700,-93.28566,12216.00,4724.23,MINDEN MEDICAL CENTER
5.16,2.24,30.01438,-90.18155,14304.77,4179.09,EAST JEFFERSON GENERAL HOSPITAL
6.73,2.22,32.51315,-92.15713,19741.72,4087.00,GLENWOOD REGIONAL MEDICAL CENTER
7.33,2.22,31.13861,-93.26892,21793.63,4103.53,BYRD REGIONAL HOSPITAL
5.19,2.33,30.68494,-92.26601,14385.38,4486.19,MERCY REGIONAL MEDICAL CENTER
7.28,2.34,30.07331,-90.51602,21651.17,4497.25,RIVER PARISHES HOSPITAL
4.50,2.17,32.55761,-93.71874,11994.81,3933.96,WILLIS KNIGHTON BOSSIER HEALTH CENTER
3.47,2.20,44.81469,-68.77153,8414.89,4027.11,ST JOSEPH HOSPITAL
3.53,2.59,43.65325,-70.27533,8644.30,5390.20,MAINE MEDICAL CENTER
3.55,2.39,44.80988,-68.74929,8720.20,4702.27,EASTERN MAINE MEDICAL CENTER
2.69,2.62,39.62183,-77.68219,5731.78,5466.53,MERITUS MEDICAL CENTER
3.89,3.74,39.28817,-76.62438,9892.79,9380.05,UNIVERSITY OF MARYLAND MEDICAL CENTER
2.91,2.80,39.01578,-77.03591,6485.02,6118.38,HOLY CROSS HOSPITAL
3.03,2.92,39.42366,-77.41386,6907.72,6522.08,FREDERICK MEMORIAL HOSPITAL
2.79,2.69,39.54345,-76.09153,6086.26,5721.16,HARFORD MEMORIAL HOSPITAL
2.90,2.79,39.38813,-76.61068,6443.60,6056.98,SAINT JOSEPH MEDICAL CENTER
3.34,3.21,39.29297,-76.61314,7995.05,7515.15,MERCY MEDICAL CENTER INC
4.69,4.49,39.29688,-76.59242,12649.42,11959.71,JOHNS HOPKINS HOSPITAL, THE
3.01,2.91,39.27352,-76.67219,6817.93,6503.10,SAINT AGNES HOSPITAL
3.26,3.14,39.35262,-76.66196,7705.35,7295.05,SINAI HOSPITAL OF BALTIMORE
2.88,2.77,39.35169,-76.47919,6376.48,5993.91,FRANKLIN SQUARE HOSPITAL CENTER
2.82,2.72,38.98482,-77.00139,6188.74,5817.47,WASHINGTON ADVENTIST HOSPITAL
3.22,3.09,39.41339,-79.40103,7553.79,7100.57,GARRETT COUNTY MEMORIAL HOSPITAL
3.16,3.04,39.15402,-77.05431,7364.50,6922.57,MONTGOMERY GENERAL HOSPITAL INC
3.05,2.93,38.36248,-75.59799,6958.22,6540.67,PENINSULA REGIONAL MEDICAL CENTER
3.29,3.16,38.99743,-77.11048,7805.73,7362.51,SUBURBAN HOSPITAL
2.47,2.41,38.99014,-76.53398,4957.10,4753.92,ANNE ARUNDEL MEDICAL CENTER
3.42,3.29,39.32930,-76.61432,8270.33,7821.42,UNION MEMORIAL HOSPITAL
2.79,2.69,39.64928,-78.73206,6088.13,5722.76,WESTERN MARYLAND REGIONAL MEDICAL CENTER
2.35,2.28,38.29124,-76.63579,4564.05,4290.23,SAINT MARY'S HOSPITAL
2.91,2.80,39.29100,-76.54623,6496.64,6106.92,JOHNS HOPKINS BAYVIEW MEDICAL CENTER
2.70,2.60,39.21770,-76.06494,5752.33,5407.33,CHESTER RIVER HOSPITAL CENTER
2.69,2.59,39.60859,-75.83201,5719.38,5376.15,UNION HOSPITAL OF CECIL COUNTY
3.49,3.34,39.55808,-76.99107,8485.67,7976.61,CARROLL HOSPITAL CENTER
3.10,2.97,39.25189,-76.61399,7130.71,6702.88,HARBOR HOSPITAL
2.49,2.41,38.52905,-76.97068,5040.64,4738.18,CIVISTA MEDICAL CENTER
2.96,2.85,38.76970,-76.07697,6650.92,6281.82,MEMORIAL HOSPITAL AT EASTON
2.75,2.65,38.55963,-76.59455,5936.97,5580.74,CALVERT MEMORIAL HOSPITAL
3.01,2.90,39.35852,-76.78208,6824.40,6467.56,NORTHWEST HOSPITAL CENTER
3.32,3.18,39.13732,-76.62228,7894.68,7421.00,BALTIMORE WASHINGTON  MEDICAL CENTER
2.63,2.53,39.39017,-76.62216,5516.17,5185.27,GREATER BALTIMORE MEDICAL CENTER
2.61,2.53,39.21273,-76.88526,5434.05,5158.66,HOWARD COUNTY GENERAL HOSPITAL
2.64,2.56,39.51870,-76.34688,5549.20,5262.04,UPPER CHESAPEAKE MEDICAL CENTER
2.92,2.80,38.96851,-76.86203,6536.56,6116.72,DOCTORS'  COMMUNITY HOSPITAL
2.85,2.74,38.74827,-76.87590,6272.40,5895.98,SOUTHERN MARYLAND HOSPITAL CENTER
2.96,2.85,39.08690,-76.88163,6676.43,6275.79,LAUREL REGIONAL MEDICAL CENTER
3.50,3.37,39.35962,-76.58851,8532.68,8078.89,GOOD SAMARITAN HOSPITAL
2.62,2.53,39.09796,-77.19799,5495.14,5165.36,SHADY GROVE ADVENTIST HOSPITAL
2.53,2.44,38.72818,-76.99214,5169.00,4858.92,FORT WASHINGTON HOSPITAL
2.64,2.54,38.33876,-75.21128,5545.83,5213.17,ATLANTIC GENERAL HOSPITAL
3.89,2.65,42.37441,-71.13378,9896.71,5573.16,MOUNT AUBURN HOSPITAL
3.00,2.40,41.94236,-71.27364,6809.09,4732.74,STURDY MEMORIAL HOSPITAL
4.11,2.60,42.70912,-71.14877,10656.31,5429.00,LAWRENCE GENERAL HOSPITAL
4.71,3.01,42.37451,-71.10418,12738.86,6840.29,CAMBRIDGE HEALTH ALLIANCE
4.14,2.75,41.65298,-70.27484,10748.56,5942.76,CAPE COD HOSPITAL
3.13,2.24,42.33185,-72.65422,7261.46,4172.92,COOLEY DICKINSON HOSPITAL INC,THE
3.75,2.49,42.07708,-72.04298,9401.67,5027.75,HARRINGTON MEMORIAL HOSPITAL
4.08,2.51,41.69217,-71.16474,10553.82,5095.64,SAINT ANNE'S HOSPITAL
3.48,2.41,42.20038,-72.62762,8451.62,4752.46,HOLYOKE MEDICAL CENTER
3.29,2.35,42.81476,-70.89068,7818.67,4546.53,ANNA JAQUES HOSPITAL
3.87,3.51,42.35843,-71.05977,9822.82,8556.09,BOSTON MEDICAL CENTER CORPORATION
2.85,2.48,42.56407,-70.87543,6279.18,4990.18,BEVERLY HOSPITAL CORPORATION
5.49,2.56,42.51078,-70.90712,15422.26,5272.57,NORTH SHORE MEDICAL CENTER
3.90,2.65,51.46599,-1.28140,9921.43,5569.86,BERKSHIRE MEDICAL CENTER INC
4.48,2.31,42.35375,-71.55485,11919.26,4391.37,MARLBOROUGH HOSPITAL
4.20,2.67,42.03597,-71.09792,10962.92,5638.92,SIGNATURE HEALTHCARE BROCKTON HOSPITAL
2.91,2.42,41.94445,-70.64511,6497.00,4790.46,JORDAN HOSPITAL INC
3.55,2.70,42.64636,-71.34118,8718.75,5777.25,LOWELL GENERAL HOSPITAL
4.39,2.53,42.11449,-72.59502,11616.14,5155.14,MERCY MEDICAL CENTER
4.18,2.52,42.46049,-71.06203,10890.24,5131.09,HALLMARK HEALTH SYSTEM
7.88,3.05,42.36227,-71.06941,23728.51,6971.62,MASSACHUSETTS GENERAL HOSPITAL
2.64,2.45,41.90456,-71.09562,5553.96,4896.24,MORTON HOSPITAL
3.98,2.50,41.70928,-71.14519,10203.30,5070.71,SOUTHCOAST HOSPITAL GROUP, INC
4.43,2.88,42.12077,-72.60525,11750.70,6369.74,BAYSTATE MEDICAL CENTER
4.17,2.47,42.72846,-71.16830,10846.00,4949.40,HOLY FAMILY HOSPITAL
2.99,2.46,42.64529,-71.30052,6751.64,4937.91,SAINTS  MEDICAL CENTER INC
4.75,3.21,42.33719,-71.10939,12876.94,7544.17,BETH ISRAEL DEACONESS MEDICAL CENTER
3.39,2.42,42.13234,-71.52825,8169.20,4792.00,MILFORD REGIONAL MEDICAL CENTER
4.43,2.44,42.17644,-70.95398,11748.30,4852.80,SOUTH SHORE HOSPITAL
4.21,2.44,42.33149,-71.24568,11000.69,4846.12,NEWTON-WELLESLEY HOSPITAL
2.52,2.33,42.46581,-71.12210,5139.38,4478.00,WINCHESTER HOSPITAL
7.84,3.01,42.33600,-71.10704,23588.61,6828.39,BRIGHAM AND WOMEN'S HOSPITAL
3.00,2.57,42.09864,-71.06607,6798.33,5308.00,GOOD SAMARITAN MEDICAL CENTER
4.50,3.26,42.34951,-71.06331,12011.44,7710.33,TUFTS MEDICAL CENTER
5.81,2.73,42.30049,-71.12771,16538.36,5872.38,FAULKNER HOSPITAL
6.06,3.07,42.27720,-71.75922,17395.36,7052.29,UMASS MEMORIAL MEDICAL CENTER INC
3.79,2.62,42.48585,-71.20686,9554.89,5498.26,LAHEY CLINIC HOSPITAL
3.73,2.55,42.28385,-71.41896,9329.29,5247.21,METROWEST MEDICAL CENTER
2.66,2.65,42.26633,-71.79760,5622.64,5593.27,ST VINCENT HOSPITAL
3.87,2.24,42.39466,-83.40537,9831.33,4176.92,ST MARY MERCY HOSPITAL
4.01,2.36,43.20588,-86.20839,10315.33,4566.40,MERCY HEALTH PARTNERS, MERCY CAMPUS
4.94,2.61,42.28551,-85.58042,13521.54,5437.96,BRONSON METHODIST HOSPITAL
5.10,2.58,42.45741,-83.20513,14064.00,5354.61,PROVIDENCE HOSPITAL AND MEDICAL CENTERS
6.02,2.51,42.29077,-83.21504,17255.68,5113.68,OAKWOOD HOSPITAL AND MEDICAL CENTER
4.41,2.83,42.41911,-83.18228,11704.38,6216.94,SINAI-GRACE HOSPITAL
4.46,2.62,42.61425,-83.27602,11847.21,5489.07,ST JOSEPH MERCY OAKLAND
4.62,2.18,42.95582,-82.43222,12406.36,3972.64,ST JOSEPH MERCY PORT HURON
4.26,2.46,45.07773,-83.45146,11162.75,4922.00,ALPENA REGIONAL MEDICAL CENTER
3.46,2.55,42.96881,-85.66649,8388.58,5252.15,SPECTRUM HEALTH - BUTTERWORTH CAMPUS
4.32,2.22,43.58941,-83.86908,11376.83,4094.51,MCLAREN BAY REGION
7.04,3.46,42.28388,-83.72960,20810.55,8400.10,UNIVERSITY OF MICHIGAN HEALTH SYSTEM
4.03,2.34,42.61490,-82.96060,10366.05,4520.29,HENRY FORD MACOMB HOSPITAL
3.37,2.62,42.95817,-85.66253,8066.64,5467.57,SAINT MARY'S HEALTH CARE
3.20,2.36,43.22169,-86.24283,7510.73,4595.55,MERCY HEALTH PARTNERS, HACKLEY CAMPUS
5.22,2.35,43.42857,-83.95556,14505.53,4563.73,COVENANT MEDICAL CENTER, INC
4.12,2.32,42.33111,-85.17817,10685.07,4431.60,BRONSON BATTLE CREEK HOSPITAL
3.72,2.34,43.42612,-83.94185,9298.88,4501.53,ST MARY'S OF MICHIGAN MEDICAL CENTER
5.26,2.18,43.59935,-84.76097,14648.00,3973.45,CENTRAL MICHIGAN COMMUNITY HOSPITAL
3.58,2.30,42.38392,-82.91480,8796.77,4378.15,BEAUMONT HOSPITAL, GROSSE POINTE
4.57,2.26,42.25117,-84.39240,12225.14,4222.29,ALLEGIANCE HEALTH
3.35,2.29,44.26333,-84.24625,8003.81,4330.00,WEST BRANCH REGIONAL MEDICAL CENTER
5.03,2.47,44.76156,-85.64143,13834.83,4953.81,MUNSON MEDICAL CENTER
3.80,2.26,41.91643,-83.39771,9586.53,4218.00,MERCY MEMORIAL HOSPITAL SYSTEM
6.89,2.46,45.74575,-87.10106,20285.36,4912.00,ST FRANCIS HOSPITAL
3.98,2.40,45.37209,-84.97065,10191.10,4727.00,NORTHERN MICHIGAN REGIONAL HOSPITAL
3.39,2.37,43.46517,-85.95072,8167.62,4602.77,SPECTRUM HEALTH GERBER MEMORIAL
4.82,2.61,42.51418,-83.19259,13104.57,5457.73,WILLIAM BEAUMONT HOSPITAL
3.97,2.54,43.01399,-83.73250,10151.72,5207.04,MCLAREN FLINT
4.36,2.36,42.27424,-83.36580,11518.00,4579.67,OAKWOOD ANNAPOLIS HOSPITAL
3.61,2.32,42.21065,-83.14861,8912.90,4434.93,HENRY FORD WYANDOTTE HOSPITAL
4.32,2.78,42.46176,-83.37629,11362.57,6035.06,BOTSFORD HOSPITAL
4.63,2.42,42.26181,-83.66003,12440.67,4792.54,ST JOSEPH MERCY HOSPITAL
5.03,2.66,42.41975,-82.91442,13831.12,5628.07,ST JOHN HOSPITAL AND MEDICAL CENTER
5.43,2.49,42.70417,-84.55488,15206.25,5019.57,MCLAREN - GREATER LANSING
5.71,2.42,42.11695,-83.21365,16182.25,4787.58,OAKWOOD SOUTHSHORE MEDICAL CENTER
4.27,2.39,42.50514,-83.00422,11218.37,4697.50,ST JOHN MACOMB-OAKLAND HOSPITAL-MACOMB CENTER
4.09,2.24,42.98625,-82.42802,10568.64,4172.73,PORT HURON HOSPITAL
3.32,2.43,43.63618,-84.26187,7894.00,4833.29,MIDMICHIGAN MEDICAL CENTER-MIDLAND
4.23,2.52,42.58900,-82.89799,11077.94,5142.25,MOUNT CLEMENS REGIONAL MEDICAL CENTER
6.28,2.64,42.73767,-84.51698,18158.95,5555.78,EDWARD W SPARROW HOSPITAL
3.82,2.55,42.33215,-83.31195,9634.46,5227.25,GARDEN CITY HOSPITAL
5.07,2.29,42.67850,-83.14771,13976.47,4326.12,CRITTENTON HOSPITAL MEDICAL CENTER
6.21,2.31,42.61826,-83.09239,17927.25,4403.14,WILLIAM BEAUMONT HOSPITAL-TROY
8.54,3.25,42.35295,-83.05447,26000.18,7677.23,DETROIT RECEIVING HOSPITAL & UNIV HEALTH CENTER
4.10,2.15,42.53914,-83.40777,10630.45,3860.91,HENRY FORD WEST BLOOMFIELD HOSPITAL
4.84,2.42,46.79380,-92.09573,13173.56,4785.00,ESSENTIA HEALTH ST MARY'S MEDICAL CENTER
5.34,2.81,44.02052,-92.48292,14906.00,6145.37,MAYO CLINIC - SAINT MARYS HOSPITAL
4.42,2.60,45.57390,-94.16942,11712.88,5405.00,ST CLOUD HOSPITAL
4.77,2.30,44.94214,-93.10858,12952.14,4385.14,UNITED HOSPITAL
4.84,2.52,44.03521,-91.62181,13188.13,5137.00,WINONA HEALTH SERVICES
5.86,2.39,44.95248,-93.26196,16697.27,4701.67,ABBOTT NORTHWESTERN HOSPITAL
4.99,2.42,44.94898,-93.10016,13689.09,4778.45,ST JOSEPH'S HOSPITAL
4.40,2.39,46.36166,-94.20573,11647.21,4693.00,ESSENTIA HEALTH ST JOSEPH'S MEDICAL CENTER
5.02,2.51,44.16396,-94.00412,13799.09,5084.91,MAYO CLINIC HEALTH SYSTEM - MANKATO
6.22,2.50,45.18355,-93.36789,17959.36,5056.50,MERCY HOSPITAL
4.38,2.36,44.74846,-93.27289,11577.11,4596.28,FAIRVIEW RIDGES HOSPITAL
4.75,2.55,45.02892,-93.03418,12853.27,5225.64,HEALTHEAST ST JOHN'S HOSPITAL
4.77,2.29,34.49648,-89.03326,12943.67,4348.00,BAPTIST MEMORIAL HOSPITAL UNION COUNTY
12.33,2.30,30.39599,-88.89061,39153.06,4388.89,BILOXI REGIONAL MEDICAL CENTER
5.33,2.20,34.93596,-88.55955,14866.81,4042.69,MAGNOLIA REGIONAL HEALTH CENTER
9.60,2.31,30.36674,-89.11535,29668.50,4403.88,MEMORIAL HOSPITAL AT GULFPORT
7.10,2.34,32.35265,-90.87788,21000.86,4515.67,RIVER REGION HEALTH SYSTEM
8.10,2.24,30.37516,-88.53226,24470.57,4164.26,SINGING RIVER HOSPITAL
5.92,2.57,34.19610,-90.55208,16914.33,5319.07,NORTHWEST MISSISSIPPI REGIONAL MEDICAL CENTER
5.10,2.24,32.33616,-90.15652,14092.40,4157.33,ST DOMINIC-JACKSON MEMORIAL HOSPITAL
4.11,2.20,31.69405,-89.13061,10644.54,4010.43,SOUTH CENTRAL REG MED CTR
6.06,2.30,32.36983,-88.69702,17414.83,4389.11,RUSH FOUNDATION HOSPITAL
8.96,2.34,32.28805,-90.25566,27449.15,4500.08,CENTRAL MISSISSIPPI MEDICAL CENTER
4.29,2.24,31.67488,-88.64615,11286.82,4149.00,WAYNE GENERAL HOSPITAL
3.48,2.31,31.31872,-89.32955,8470.04,4418.12,FORREST GENERAL HOSPITAL
4.21,2.38,33.41099,-91.03479,10982.40,4642.15,DELTA REGIONAL MEDICAL CENTER
9.32,2.12,31.56671,-91.38800,28723.62,3736.31,NATCHEZ REGIONAL MEDICAL CENTER
5.95,2.12,33.74750,-90.71908,17037.44,3736.31,BOLIVAR MEDICAL CENTER
5.47,2.25,31.32573,-89.36670,15368.62,4194.77,WESLEY MEDICAL CENTER
3.89,2.28,31.24000,-90.45000,9879.62,4318.25,SOUTHWEST MS REGIONAL MEDICAL CENTER
5.02,2.37,33.51824,-90.19832,13807.31,4608.81,GREENWOOD LEFLORE HOSPITAL
4.80,2.12,32.31643,-90.17922,13037.30,3741.59,MISSISSIPPI BAPTIST MEDICAL CENTER
4.94,2.19,32.37280,-88.69954,13542.04,3998.96,ANDERSON REGIONAL MEDICAL CENTER
11.06,2.19,31.56044,-91.40317,34748.46,4001.00,NATCHEZ COMMUNITY HOSPITAL/SWING BED
7.31,2.29,32.32541,-90.10520,21727.64,4355.00,RIVER OAKS HOSPITAL
4.99,2.31,34.96927,-89.99709,13714.77,4416.00,BAPTIST MEMORIAL HOSPITAL DESOTO
5.53,2.21,37.06032,-94.52747,15557.56,4060.00,ST JOHN'S REGIONAL MEDICAL CENTER
3.98,2.53,39.77393,-94.77089,10190.05,5167.50,HEARTLAND REGIONAL MEDICAL CENTER
3.43,2.17,38.69946,-93.22211,8287.64,3930.36,BOTHWELL REGIONAL HEALTH CENTER
5.55,2.49,37.95144,-91.75940,15639.31,5040.77,PHELPS COUNTY REGIONAL MEDICAL CENTER
5.22,2.26,38.64281,-90.44448,14489.68,4226.05,MERCY HOSPITAL ST LOUIS
3.37,2.17,38.16498,-90.38082,8066.92,3930.15,JEFFERSON REGIONAL MEDICAL CENTER
9.97,2.32,39.00717,-94.55925,30959.82,4449.18,RESEARCH MEDICAL CENTER
5.45,2.61,38.63524,-90.26508,15290.53,5458.97,BARNES JEWISH HOSPITAL
3.83,2.31,37.14560,-93.28037,9679.80,4409.67,COX MEDICAL CENTER
3.99,2.37,38.56571,-92.18204,10237.09,4621.64,CAPITAL REGION MEDICAL CENTER
4.21,3.11,39.08401,-94.57591,11010.92,7191.38,TRUMAN MEDICAL CENTER HOSPITAL HILL
4.07,2.34,39.73178,-94.23067,10510.91,4528.55,CAMERON REGIONAL MEDICAL CENTER
6.74,2.30,39.24809,-94.64928,19763.64,4379.82,ST LUKES NORTHLAND HOSPITAL
3.93,2.30,39.17288,-91.87692,10040.64,4358.45,AUDRAIN MEDICAL CENTER
4.94,2.22,37.17999,-93.27409,13514.77,4080.00,ST JOHN'S REGIONAL HEALTH CENTER
3.99,2.13,38.94903,-92.31563,10240.41,3799.59,BOONE HOSPITAL CENTER
4.87,2.24,36.23683,-89.74020,13289.82,4167.09,PEMISCOT MEMORIAL HOSPITAL
10.20,2.51,39.42385,-92.41354,31753.00,5116.00,MOBERLY REGIONAL MEDICAL CENTER
3.48,2.11,38.50661,-90.38025,8466.74,3705.11,ST ANTHONY'S MEDICAL CENTER
4.15,2.12,38.52738,-90.47501,10797.31,3750.08,SSM ST CLARE HEALTH CENTER
5.15,2.15,38.93592,-94.60376,14248.47,3850.56,ST JOSEPH MEDICAL CENTER
5.70,2.51,38.63268,-90.31089,16154.56,5100.78,SSM ST MARYS HEALTH CENTER
7.83,2.21,39.04749,-94.34105,23532.16,4058.74,CENTERPOINT MEDICAL CENTER OF INDEPENDENCE, LLC
6.06,2.18,39.14957,-94.55148,17421.75,3940.71,NORTH KANSAS CITY HOSPITAL
5.01,2.77,38.76591,-93.72188,13759.24,5996.88,WESTERN MISSOURI MEDICAL CENTER
5.08,2.29,38.75097,-90.43255,14007.27,4345.60,SSM DEPAUL HEALTH CENTER
9.64,3.12,38.62280,-90.24049,29805.08,7230.24,ST LOUIS UNIVERSITY HOSPITAL
3.91,2.19,38.63702,-90.44699,9956.78,3997.03,MISSOURI BAPTIST MEDICAL CENTER
6.28,2.22,37.31072,-89.53990,18186.08,4094.38,SOUTHEAST MISSOURI HOSPITAL
6.43,2.40,36.88988,-89.58365,18679.82,4735.00,MISSOURI DELTA MEDICAL CENTER
4.19,2.26,37.79962,-90.44045,10932.73,4219.09,MINERAL AREA REGIONAL MEDICAL CENTER
9.16,2.35,36.78510,-90.42779,28154.26,4557.61,POPLAR BLUFF REGIONAL MEDICAL CENTER
5.32,2.29,37.05238,-94.52777,14828.05,4342.67,FREEMAN HEALTH SYSTEM - FREEMAN WEST
5.97,2.52,39.04761,-94.59037,17084.81,5120.57,ST LUKES HOSPITAL OF KANSAS CITY
4.62,2.48,38.95171,-92.33407,12424.09,4983.73,UNIVERSITY OF MISSOURI HEALTH CARE
4.15,2.16,37.78031,-90.43967,10794.27,3879.40,PARKLAND HEALTH CENTER
5.37,2.44,38.38829,-93.77115,15009.59,4845.82,GOLDEN VALLEY MEMORIAL HOSPITAL
7.94,2.25,38.58103,-90.45144,23913.64,4209.36,DES PERES HOSPITAL
4.59,2.12,39.27591,-94.42572,12295.60,3744.30,LIBERTY HOSPITAL
4.23,2.26,38.65123,-90.50301,11076.47,4247.56,ST LUKES HOSPITAL
4.77,2.22,38.77576,-90.23906,12952.55,4088.80,CHRISTIAN HOSPITAL NORTHEAST
7.42,2.25,37.30401,-89.57190,22112.06,4184.74,ST FRANCIS MEDICAL CENTER
4.74,2.48,38.12027,-92.68146,12828.29,4987.33,LAKE REGIONAL HEALTH SYSTEM
4.98,2.18,38.80334,-90.77619,13675.85,3952.85,SSM ST JOSEPH HOSPITAL WEST
7.55,2.14,38.94062,-94.37842,22557.57,3811.79,SAINT LUKE'S EAST LEE'S SUMMIT HOSPITAL
4.04,2.38,47.49139,-111.26255,10397.92,4662.15,BENEFIS HOSPITALS INC
5.56,2.26,40.78318,-96.63709,15669.05,4240.60,BRYANLGH MEDICAL CENTER
5.09,2.51,40.70646,-99.08136,14045.53,5111.58,GOOD SAMARITAN HOSPITAL
5.08,2.60,41.25522,-95.97892,14017.65,5414.13,THE NEBRASKA MEDICAL CENTER
4.23,2.26,40.80816,-96.62689,11069.19,4230.38,SAINT ELIZABETH REGIONAL MEDICAL CENTER
6.58,2.18,41.25797,-96.04164,19204.71,3951.25,THE NEBRASKA METHODIST HOSPITAL
6.35,2.34,41.23897,-96.03162,18411.80,4520.20,ALEGENT HEALTH BERGAN MERCY MEDICAL CENTER
5.37,2.83,41.88690,-103.66400,15022.83,6216.31,REGIONAL WEST MEDICAL CENTER
6.20,2.42,41.32182,-96.02133,17888.29,4780.12,ALEGENT HEALTH IMMANUEL MEDICAL CENTER
4.90,2.07,41.13699,-95.94815,13392.50,3577.00,BELLEVUE MEDICAL CENTER
6.94,2.40,39.52637,-119.79456,20451.89,4713.21,RENOWN REGIONAL MEDICAL CENTER
10.61,2.77,36.13459,-115.13576,33188.44,6016.47,SUNRISE HOSPITAL AND MEDICAL CENTER
4.48,2.72,39.47582,-118.76547,11936.82,5837.00,BANNER CHURCHILL COMMUNITY HOSPITAL
6.29,2.80,40.82334,-115.73159,18197.36,6120.45,NORTHEASTERN NEVADA REGIONAL HOSPITAL
10.56,2.67,36.16380,-115.16574,32991.04,5645.91,VALLEY HOSPITAL MEDICAL CENTER
11.18,2.37,36.11363,-115.12573,35159.81,4632.12,DESERT SPRINGS HOSPITAL
9.53,2.40,36.21599,-115.25095,29439.72,4721.11,MOUNTAINVIEW HOSPITAL
12.06,2.43,36.16586,-115.32436,38198.43,4822.80,SUMMERLIN HOSPITAL MEDICAL CENTER
9.03,2.35,36.00527,-115.11618,27691.13,4563.33,SAINT ROSE DOMINICAN HOSPITAL - SIENA CAMPUS
9.09,2.56,36.09056,-115.24058,27901.35,5264.04,SPRING VALLEY HOSPITAL MEDICAL CENTER
7.60,2.50,36.07216,-115.29538,22735.73,5056.55,SOUTHERN HILLS HOSPITAL AND MEDICAL CENTER
10.22,2.30,36.28588,-115.28772,31834.00,4381.12,CENTENNIAL HILLS HOSPITAL MEDICAL CENTER
5.40,2.39,43.19846,-71.56230,15105.97,4702.72,CONCORD HOSPITAL
4.71,2.35,43.29811,-70.96148,12733.00,4553.00,FRISBIE MEMORIAL HOSPITAL
4.49,2.27,42.98369,-70.93511,11956.79,4265.00,EXETER HOSPITAL INC
6.25,2.27,42.99121,-71.47426,18068.46,4275.00,CATHOLIC MEDICAL CENTER
10.26,2.70,40.88346,-74.05564,31980.45,5775.58,HACKENSACK UNIVERSITY MEDICAL CENTER
12.48,3.36,40.71011,-74.21368,39672.11,8045.72,NEWARK BETH ISRAEL MEDICAL CENTER
10.12,2.77,40.79576,-73.99575,31483.74,6016.41,PALISADES MEDICAL CTR-NY PRESBYTERIAN HEALTHCARE S
5.68,2.46,40.53142,-74.86080,16097.74,4934.32,HUNTERDON MEDICAL CENTER
8.48,2.64,40.84945,-74.13768,25789.67,5567.80,ST MARY'S HOSPITAL, PASSAIC
6.39,2.51,40.88275,-74.01021,18564.69,5087.08,HOLY NAME MEDICAL CENTER
10.30,2.58,40.78556,-74.17598,32108.55,5328.68,CLARA MAASS MEDICAL CENTER
7.85,2.48,40.35684,-74.66166,23603.09,4989.91,UNIVERSITY MEDICAL CENTER AT PRINCETON
5.80,2.33,39.08752,-74.81657,16521.44,4478.00,CAPE REGIONAL MEDICAL CENTER INC
7.33,2.52,40.98359,-74.10047,21819.15,5145.40,VALLEY HOSPITAL
14.83,3.13,39.94152,-75.11680,47819.96,7246.58,COOPER UNIVERSITY HOSPITAL
8.69,2.70,40.78883,-74.46620,26522.02,5749.12,MORRISTOWN MEMORIAL HOSPITAL
16.16,2.81,40.73417,-74.04977,52419.61,6140.04,CHRIST HOSPITAL
9.67,2.42,40.95858,-74.31000,29930.55,4775.00,CHILTON HOSPITAL
11.50,2.97,40.90215,-74.16634,36269.05,6683.16,ST JOSEPH'S REGIONAL MEDICAL CENTER
11.74,2.40,39.78261,-74.91670,37080.16,4724.78,VIRTUA WEST JERSEY HOSPITALS BERLIN
16.58,2.29,40.61288,-74.29092,53868.91,4322.47,ROBERT WOOD JOHNSON UNIVERSITY HOSPITAL AT RAHWAY
12.13,2.75,40.66005,-74.21417,38443.44,5937.48,TRINITAS REGIONAL MEDICAL CENTER
12.06,2.42,41.05754,-74.76857,38198.50,4782.00,NEWTON MEMORIAL HOSPITAL
10.69,2.61,39.92695,-75.09537,33445.73,5445.40,OUR LADY OF LOURDES MEDICAL CENTER
9.05,2.52,39.44743,-75.05838,27760.91,5147.29,SOUTH JERSEY HEALTHCARE REGIONAL MEDICAL CENTER
9.63,2.29,40.35309,-74.06484,29779.86,4354.70,RIVERVIEW MEDICAL CENTER
15.40,2.87,40.49581,-74.44980,49777.76,6347.68,ROBERT WOOD JOHNSON UNIVERSITY HOSPITAL
10.69,2.65,40.51891,-74.28183,33443.71,5603.12,RARITAN BAY MEDICAL CENTER
13.81,2.95,40.74132,-74.03369,44263.20,6643.00,HOBOKEN UNIVERSITY MEDICAL CENTER
9.58,2.28,39.96484,-74.21708,29611.80,4312.23,COMMUNITY MEDICAL CENTER
16.20,2.61,40.29209,-74.80327,52555.14,5438.86,CAPITAL HEALTH MEDICAL CENTER - HOPEWELL
9.90,2.67,40.90400,-73.96847,30703.72,5659.02,ENGLEWOOD HOSPITAL AND MEDICAL CENTER
19.78,2.47,40.56804,-74.59579,64955.70,4975.89,SOMERSET MEDICAL CENTER
11.10,2.44,40.89538,-74.46479,34889.29,4853.88,SAINT CLARE'S HOSPITAL
6.14,2.60,40.71264,-74.35460,17682.40,5408.80,OVERLOOK HOSPITAL
11.33,2.29,40.07832,-74.13009,35669.91,4329.84,OCEAN MEDICAL CENTER
8.50,2.73,40.81058,-74.20459,25881.14,5864.68,MOUNTAINSIDE HOSPITAL
10.15,2.33,39.98588,-74.79393,31598.94,4472.28,VIRTUA MEMORIAL HOSPITAL OF BURLINGTON COUNTY
14.06,2.65,40.70180,-75.17825,45124.65,5602.47,ST LUKE'S WARREN HOSPITAL
11.90,2.36,40.04632,-74.88059,37645.55,4580.33,LOURDES MEDICAL CENTER OF BURLINGTON COUNTY
17.42,2.47,39.35775,-74.43449,56799.67,4959.70,ATLANTICARE REGIONAL MEDICAL CENTER - CITY DIV
10.53,2.76,40.50214,-74.46015,32903.33,5982.60,SAINT PETER'S UNIVERSITY HOSPITAL
13.52,2.60,40.21065,-74.03566,43254.33,5429.50,JERSEY SHORE UNIVERSITY MEDICAL CENTER
10.39,3.07,40.71663,-74.05013,32413.68,7039.28,LIBERTYHEALTH-JERSEY CITY MEDICAL CENTER CAMPUS
9.82,2.75,40.29563,-73.98518,30457.50,5938.83,MONMOUTH MEDICAL CENTER
10.85,3.05,40.76190,-74.30335,34004.66,6956.83,SAINT BARNABAS MEDICAL CENTER
10.32,2.39,39.84392,-75.14985,32174.41,4674.59,UNDERWOOD - MEMORIAL HOSPITAL
11.02,2.62,40.75402,-74.21335,34592.10,5474.76,EAST ORANGE GENERAL HOSPITAL
10.05,2.42,40.07503,-74.21832,31227.04,4801.19,KIMBALL MEDICAL CENTER
12.07,2.66,39.82811,-75.00895,38256.98,5637.95,KENNEDY UNIVERSITY HOSPITAL - STRATFORD DIV
10.39,2.40,39.59285,-75.44416,32429.50,4712.00,MEMORIAL HOSPITAL OF SALEM COUNTY
15.63,2.62,40.23629,-74.75256,50570.18,5484.91,CAPITAL HEALTH SYSTEM-FULD CAMPUS
7.89,2.91,40.74323,-74.17431,23761.50,6500.10,SAINT MICHAEL'S MEDICAL CENTER, INC
9.33,2.53,40.55784,-74.34970,28749.96,5183.20,JFK MEDICAL CTR - ANTHONY M. YELENCSICS COMMUNITY
14.76,2.28,40.21575,-74.67273,47570.04,4302.89,ROBERT WOOD JOHNSON UNIVERSITY HOSPITAL HAMILTON
8.58,2.33,40.23861,-74.31289,26125.91,4480.76,CENTRASTATE MEDICAL CENTER
10.18,2.28,40.40516,-74.19203,31686.56,4297.96,BAYSHORE COMMUNITY HOSPITAL
8.27,2.29,39.66213,-74.26392,25080.81,4335.88,SOUTHERN OCEAN MEDICAL CENTER
16.90,2.59,40.78621,-74.07568,54990.44,5375.12,MEADOWLANDS HOSPITAL MEDICAL CENTER
4.79,2.77,35.65960,-105.94578,13011.07,5993.71,ST VINCENT HOSPITAL
5.76,2.99,32.92636,-105.93459,16363.53,6775.93,GERALD CHAMPION REGIONAL MEDICAL CENTE
3.91,2.59,36.72387,-108.21749,9970.80,5366.93,SAN JUAN REGIONAL MEDICAL CENTER
8.87,2.33,33.42340,-104.52748,27150.09,4462.36,EASTERN NEW MEXICO MEDICAL CENTER
5.84,2.96,35.99712,-106.08517,16635.33,6676.50,ESPANOLA HOSPITAL
6.16,3.13,32.29186,-106.73470,17762.47,7260.42,MEMORIAL MEDICAL CENTER INC
5.76,2.41,35.08102,-106.63392,16375.53,4766.22,PRESBYTERIAN HOSPITAL
6.09,2.24,34.41937,-103.23173,17498.53,4169.00,PLAINS REGIONAL MEDICAL CENTER  CLOVIS
3.87,2.30,35.52808,-108.74258,9799.08,4385.62,REHOBOTH MCKINLEY CHRISTIAN HEALTH SER
4.92,2.25,32.32310,-106.72900,13444.00,4189.08,MOUNTAIN VIEW REGIONAL MEDICAL CENTER
6.16,3.04,40.59458,-73.78144,17741.50,6947.18,PENINSULA HOSPITAL CENTER
3.72,2.14,42.67460,-73.74858,9310.86,3812.36,ALBANY MEMORIAL HOSPITAL
6.23,2.56,41.92720,-73.99535,17994.36,5275.22,KINGSTON HOSPITAL
3.19,2.63,42.87482,-78.84942,7474.87,5520.36,KALEIDA HEALTH
3.08,2.89,40.92963,-73.89840,7082.81,6418.38,ST JOSEPH'S MEDICAL CENTER
3.32,2.20,42.09299,-75.93704,7910.42,4020.63,OUR LADY OF LOURDES MEMORIAL HOSPITAL, INC
6.15,2.78,42.65345,-73.77543,17713.29,6040.50,ALBANY MEDICAL CENTER HOSPITAL
4.40,3.51,40.70141,-73.81630,11653.88,8574.42,JAMAICA HOSPITAL MEDICAL CENTER
3.86,2.97,40.61384,-73.94851,9769.47,6695.44,NEW YORK COMMUNITY HOSPITAL OF BROOKLYN, INC.
6.60,2.61,41.69441,-73.93432,19287.42,5455.47,VASSAR BROTHERS MEDICAL CENTER
6.11,3.55,40.79041,-73.95386,17591.00,8714.10,MOUNT SINAI HOSPITAL
5.99,3.11,40.63588,-74.10556,17178.64,7195.43,RICHMOND UNIVERSITY MEDICAL CENTER
7.09,2.66,40.72567,-73.24189,20972.50,5629.14,SOUTHSIDE HOSPITAL
5.85,2.22,43.09840,-75.27819,16670.82,4102.79,FAXTON-ST LUKE'S HEALTHCARE
6.61,2.49,40.87946,-73.41621,19303.94,5023.44,HUNTINGTON HOSPITAL
7.45,3.48,40.80556,-73.96131,22210.12,8467.00,ST LUKE'S ROOSEVELT HOSPITAL
8.40,3.26,40.74722,-73.82521,25506.11,7715.45,NEW YORK HOSPITAL MEDICAL CENTER OF QUEENS
5.58,3.66,40.68983,-73.97794,15726.62,9097.41,BROOKLYN HOSPITAL CENTER AT DOWNTOWN CAMPUS
5.29,2.18,42.65583,-73.80372,14743.30,3955.15,ST PETER'S HOSPITAL
9.24,3.60,40.87987,-73.87996,28436.77,8879.94,MONTEFIORE MEDICAL CENTER
4.88,2.43,40.94161,-73.83650,13304.96,4810.52,LAWRENCE HOSPITAL CENTER
5.52,3.53,40.71016,-74.00464,15545.23,8648.85,NEW YORK DOWNTOWN HOSPITAL
8.75,2.72,41.71846,-73.92710,26730.92,5831.25,ST FRANCIS HOSPITAL
3.41,2.32,42.92866,-78.84819,8229.07,4459.29,SISTERS OF CHARITY HOSPITAL
3.24,2.23,42.45748,-75.05244,7618.75,4121.00,AURELIA OSBORN FOX MEMORIAL HOSPITAL
6.29,2.70,41.11039,-72.36128,18198.00,5747.00,EASTERN LONG ISLAND HOSPITAL
3.67,2.23,42.10076,-76.82800,9114.57,4116.00,ARNOT OGDEN MEDICAL CENTER
3.83,2.24,42.24595,-73.77855,9680.67,4182.73,COLUMBIA MEMORIAL HOSPITAL
7.96,3.53,40.76487,-73.95398,23986.50,8642.11,NEW YORK-PRESBYTERIAN HOSPITAL
3.10,2.23,42.09049,-78.42780,7161.05,4132.05,OLEAN GENERAL HOSPITAL
8.25,2.65,41.09642,-73.92501,24997.17,5571.78,NYACK HOSPITAL
8.67,2.97,40.77686,-73.70212,26444.97,6711.48,NORTH SHORE UNIVERSITY HOSPITAL
7.20,2.54,40.93376,-72.67383,21374.68,5202.96,PECONIC BAY MEDICAL CENTER
10.81,2.98,40.77362,-73.96093,33890.20,6737.55,LENOX HILL HOSPITAL
3.79,2.33,43.19244,-77.58590,9548.86,4462.29,ROCHESTER GENERAL HOSPITAL
6.53,2.49,41.44138,-74.36821,19037.88,5029.00,ORANGE REGIONAL MEDICAL CENTER
3.00,3.59,40.74465,-73.88620,6817.31,8841.46,ELMHURST HOSPITAL CENTER
6.32,2.66,41.36763,-74.68150,18309.45,5611.91,BON SECOURS COMMUNITY HOSPITAL
3.72,2.41,43.05571,-76.14981,9287.18,4765.97,ST JOSEPH'S HOSPITAL HEALTH CENTER
9.14,2.52,40.78000,-72.97763,28082.31,5152.19,BROOKHAVEN MEMORIAL HOSPITAL MEDICAL CENTER
4.41,2.26,42.81963,-73.91653,11679.12,4223.29,ELLIS HOSPITAL
8.82,2.65,41.11299,-74.13732,26969.79,5584.95,GOOD SAMARITAN HOSPITAL OF SUFFERN
5.66,3.00,40.58440,-74.08507,16028.88,6804.79,STATEN ISLAND UNIVERSITY HOSPITAL
3.78,2.45,41.19677,-73.72572,9517.70,4908.10,NORTHERN WESTCHESTER HOSPITAL
7.06,2.89,40.74083,-73.64306,20873.63,6412.57,WINTHROP-UNIVERSITY HOSPITAL
7.82,3.34,40.73265,-73.98162,23507.62,7984.17,BETH ISRAEL MEDICAL CENTER
4.81,2.20,42.73354,-73.67249,13079.75,4020.33,SAMARITAN HOSPITAL
7.51,2.52,40.87062,-73.62249,22435.17,5147.89,GLEN COVE HOSPITAL
6.67,2.57,40.80462,-73.67023,19529.31,5318.24,ST FRANCIS HOSPITAL, ROSLYN
4.39,3.17,40.91276,-73.78720,11616.92,7383.77,SOUND SHORE MEDICAL CENTER OF WESTSCHESTER
6.38,2.39,40.94000,-73.05510,18529.74,4688.16,JOHN T MATHER MEMORIAL HOSPITAL  OF PORT JEFFERSON
4.09,2.16,43.30652,-73.64663,10590.93,3876.50,GLENS FALLS HOSPITAL
5.60,3.37,40.75543,-73.81532,15799.25,8072.73,FLUSHING HOSPITAL MEDICAL CENTER
6.98,3.51,40.63937,-73.99851,20590.62,8569.12,MAIMONIDES MEDICAL CENTER
9.43,3.53,40.75332,-73.70899,29088.48,8651.88,LONG ISLAND JEWISH MEDICAL CENTER
6.51,2.58,40.65189,-73.63096,18975.77,5340.67,SOUTH NASSAU COMMUNITIES HOSPITAL
7.34,3.05,40.65957,-73.93378,21833.54,6963.46,KINGSBROOK JEWISH MEDICAL CENTER
4.59,3.94,40.65660,-73.94468,12294.58,10054.67,KINGS COUNTY HOSPITAL CENTER
4.92,3.86,40.74178,-73.98236,13472.25,9778.33,BELLEVUE HOSPITAL CENTER
5.74,3.04,40.96967,-73.88447,16310.84,6935.71,ST JOHN'S RIVERSIDE HOSPITAL
8.11,3.13,40.74335,-73.97408,24516.55,7260.52,NYU HOSPITALS CENTER
8.02,3.53,40.70419,-73.91754,24190.10,8626.72,WYCKOFF HEIGHTS MEDICAL CENTER
3.66,2.39,44.93579,-74.90736,9077.83,4677.00,MASSENA MEMORIAL HOSPITAL
7.05,2.75,40.59411,-73.65106,20854.58,5942.42,LONG BEACH MEDICAL CENTER
4.91,3.50,40.65533,-73.91221,13429.62,8543.69,BROOKDALE HOSPITAL MEDICAL CENTER
11.22,3.47,41.08773,-73.80395,35296.75,8433.08,WESTCHESTER MEDICAL CENTER
4.39,2.35,42.94136,-76.56474,11616.56,4538.31,AUBURN COMMUNITY HOSPITAL
5.42,3.30,40.66762,-73.97850,15196.34,7828.78,NEW YORK METHODIST HOSPITAL
3.45,2.38,42.08997,-79.23058,8359.14,4666.07,WOMAN'S CHRISTIAN ASSOCIATION
4.61,3.98,40.81477,-73.94027,12378.36,10187.09,HARLEM HOSPITAL CENTER
5.30,2.95,43.04269,-76.14043,14769.11,6642.21,UNIVERSITY HOSPITAL S U N Y HEALTH SCIENCE CENTER
4.32,2.34,43.08176,-75.26587,11369.14,4516.92,ST ELIZABETH MEDICAL CENTER
8.16,2.60,40.94779,-73.06033,24671.73,5413.36,ST CHARLES HOSPITAL
5.10,2.77,44.70022,-73.47100,14096.20,6002.56,CHAMPLAIN VALLEY PHYSICIANS HOSPITAL MEDICAL CTR
7.86,2.54,40.68896,-73.63259,23650.91,5220.00,MERCY MEDICAL CENTER
6.81,2.78,41.10880,-73.86355,19990.08,6026.00,PHELPS MEMORIAL HOSPITAL ASSN
7.46,2.52,41.50307,-74.01517,22255.67,5137.41,ST LUKE'S CORNWALL HOSPITAL
7.30,2.45,41.29201,-73.89529,21696.00,4910.47,HUDSON VALLEY HOSPITAL CENTER
3.21,2.85,43.12266,-77.62360,7538.38,6297.00,STRONG MEMORIAL HOSPITAL
9.87,2.64,40.69327,-73.29412,30623.41,5556.81,GOOD SAMARITAN HOSPITAL MEDICAL CENTER
5.51,2.43,41.02614,-73.76978,15512.08,4830.80,WHITE PLAINS HOSPITAL CENTER
4.08,3.47,40.64666,-74.02049,10559.62,8422.14,LUTHERAN MEDICAL CENTER
3.05,2.27,42.47286,-76.53849,6976.27,4261.27,CAYUGA MEDICAL CENTER AT ITHACA
5.98,2.66,40.83778,-73.85417,17147.23,5626.12,NEW YORK WESTCHESTER SQUARE MEDICAL CENTER
6.13,2.67,40.77481,-73.47968,17634.58,5645.85,PLAINVIEW HOSPITAL
6.58,2.42,40.72593,-73.47844,19210.61,4793.96,ST JOSEPH HOSPITAL
6.45,2.61,40.88512,-72.38030,18757.06,5450.67,SOUTHAMPTON HOSPITAL
4.32,3.77,40.65508,-73.94521,11387.12,9456.04,UNIVERSITY HOSPITAL OF BROOKLYN ( DOWNSTATE )
6.92,2.87,40.72931,-73.85219,20377.78,6342.30,FOREST HILLS HOSPITAL
8.41,2.49,40.68104,-73.68633,25558.51,5033.35,FRANKLIN HOSPITAL
8.46,3.22,40.90922,-73.11520,25739.84,7563.79,UNIVERSITY HOSPITAL ( STONY BROOK )
4.08,2.36,42.11422,-75.95851,10560.35,4565.76,UNITED HEALTH SERVICES HOSPITALS, INC
8.46,3.90,40.59803,-73.75296,25720.90,9915.85,ST JOHN'S EPISCOPAL HOSPITAL AT SOUTH SHORE
6.91,4.04,40.85263,-73.89184,20338.38,10389.31,ST BARNABAS HOSPITAL
9.35,2.43,40.85738,-73.18681,28816.23,4820.57,ST CATHERINE OF SIENA HOSPITAL
3.69,2.32,35.43754,-80.60147,9174.93,4459.44,CAROLINAS MEDICAL CENTER-NORTHEAST
4.31,2.43,35.57658,-82.54922,11341.64,4836.61,MEMORIAL MISSION HOSPITAL AND ASHEVILLE SURGERY CE
5.20,2.26,35.95000,-80.00000,14412.50,4251.83,HIGH POINT REGIONAL HOSPITAL
3.98,2.34,34.75124,-79.46789,10210.18,4495.00,SCOTLAND MEMORIAL HOSPITAL
4.39,2.41,35.39772,-77.95250,11618.17,4752.39,WAYNE MEMORIAL HOSPITAL
3.58,2.42,36.07581,-80.29779,8806.38,4791.17,FORSYTH MEMORIAL HOSPITAL
5.82,2.59,35.46894,-79.18668,16590.09,5391.45,CENTRAL CAROLINA HOSPITAL
4.40,2.39,35.30288,-81.53571,11663.07,4673.56,CLEVELAND REGIONAL MEDICAL CENTER
4.19,2.33,35.38994,-82.48815,10924.69,4480.77,PARK RIDGE HEALTH
4.05,2.34,35.29053,-77.58307,10437.75,4512.67,LENOIR MEMORIAL HOSPITAL
5.53,2.62,35.03156,-78.93205,15586.22,5493.49,CAPE FEAR VALLEY MEDICAL CENTER
10.46,4.01,36.00850,-78.94006,32646.60,10303.13,DUKE UNIVERSITY HOSPITAL
4.71,2.39,35.27341,-81.13688,12726.32,4691.55,GASTON MEMORIAL HOSPITAL
5.12,2.73,35.60726,-77.40477,14161.37,5865.57,PITT COUNTY MEMORIAL HOSPITAL
5.43,2.34,34.76273,-77.38582,15228.81,4512.48,ONSLOW MEMORIAL HOSPITAL
3.99,2.93,36.09062,-80.27161,10218.17,6541.00,NORTH CAROLINA BAPTIST HOSPITAL
5.84,2.59,34.63723,-79.01213,16648.81,5362.16,SOUTHEASTERN REGIONAL MEDICAL CENTER
3.51,2.55,36.19878,-81.65223,8573.00,5240.36,WATAUGA MEDICAL CENTER
4.73,2.34,35.22196,-80.83287,12787.00,4524.67,PRESBYTERIAN HOSPITAL
3.85,2.38,34.33747,-78.69425,9761.78,4664.67,COLUMBUS REGIONAL HEALTHCARE SYSTEM
6.36,2.54,35.78523,-78.58836,18438.32,5203.11,WAKEMED, RALEIGH CAMPUS
3.70,2.31,36.06347,-79.50208,9231.20,4414.80,ALAMANCE REGIONAL MEDICAL CENTER
4.71,2.48,35.30715,-78.63474,12735.36,5003.64,BETSY JOHNSON REGIONAL  HOSPITAL
5.91,2.22,35.82915,-78.61922,16876.81,4103.12,DUKE HEALTH RALEIGH HOSPITAL
3.58,2.44,36.09251,-79.78855,8811.81,4863.19,MOSES H CONE MEMORIAL HOSPITAL, THE
3.99,2.35,36.28555,-76.99489,10236.94,4541.56,ROANOKE CHOWAN HOSPITAL
5.62,2.35,35.92115,-77.55585,15865.67,4550.00,HERITAGE HOSPITAL
6.43,2.51,36.32690,-76.22370,18673.36,5100.09,ALBEMARLE HOSPITAL AUTHORITY
5.11,2.76,35.20397,-80.83908,14113.81,5955.81,CAROLINAS MEDICAL CENTER/BEHAV HEALTH
4.58,2.19,35.81801,-78.70283,12260.19,3979.61,REX HOSPITAL
3.29,2.28,35.20554,-79.45645,7797.58,4298.25,FIRSTHEALTH MOORE REGIONAL HOSPITAL
8.24,2.23,35.73751,-81.33702,24961.20,4144.60,FRYE REGIONAL MEDICAL CENTER
3.93,2.27,35.71177,-79.81489,10011.91,4259.82,RANDOLPH HOSPITAL
6.47,2.39,35.71850,-77.94518,18811.30,4694.39,WILSON MEDICAL CENTER
6.26,2.19,35.54775,-80.85563,18098.62,3989.08,LAKE NORMAN REGIONAL MEDICAL CENTER
3.41,2.38,34.97382,-80.52250,8225.33,4665.87,CAROLINAS MEDICAL CENTER-UNION
3.72,2.45,35.11420,-77.06568,9305.42,4888.21,CAROLINA EAST MEDICAL CENTER
4.55,2.40,36.32959,-78.39916,12188.00,4718.54,MARIA PARHAM MEDICAL CENTER
7.28,2.33,35.83976,-77.07310,21640.39,4462.61,MARTIN GENERAL HOSPITAL
3.68,2.43,34.23786,-77.94764,9166.10,4822.46,NEW HANOVER REGIONAL MEDICAL CENTER
4.06,2.45,34.72615,-76.75452,10459.48,4900.33,CARTERET GENERAL HOSPITAL
4.20,2.44,35.97538,-77.85012,10959.64,4854.92,NASH GENERAL HOSPITAL
4.32,2.31,36.43295,-77.64729,11367.33,4399.59,HALIFAX REGIONAL MEDICAL CENTER INC
4.75,2.39,36.04960,-78.90617,12876.46,4693.17,DURHAM REGIONAL HOSPITAL
6.19,2.22,35.74046,-78.78127,17853.90,4103.33,WAKEMED, CARY HOSPITAL
3.41,2.36,46.88496,-96.78609,8222.00,4594.42,SANFORD MEDICAL CENTER FARGO
3.49,2.27,46.83250,-96.82805,8491.14,4272.43,ESSENTIA HEALTH-FARGO
3.95,2.17,39.08582,-84.34886,10110.33,3935.47,MERCY HOSPITAL ANDERSON
5.42,3.13,39.13707,-84.50392,15194.09,7258.00,UNIVERSITY HOSPITAL, INC
5.76,2.38,40.03064,-83.03440,16369.70,4662.39,RIVERSIDE METHODIST HOSPITAL
4.72,2.42,38.75320,-82.97800,12751.75,4791.55,SOUTHERN OHIO MEDICAL CENTER
3.12,2.16,40.51393,-81.45644,7214.33,3872.00,UNION HOSPITAL
4.61,2.46,40.57098,-83.12972,12385.81,4933.93,MARION GENERAL HOSPITAL
3.77,2.33,40.11479,-82.94677,9469.62,4483.85,MOUNT CARMEL ST ANN'S HOSPITAL
4.14,2.23,40.28688,-84.17022,10743.41,4120.06,WILSON MEMORIAL HOSPITAL
5.47,2.33,39.20680,-84.38093,15379.42,4491.95,JEWISH HOSPITAL, LLC
5.26,2.71,39.96098,-82.99077,14624.76,5793.76,GRANT MEDICAL CENTER
7.39,2.47,41.01476,-81.58913,22011.63,4976.37,SUMMA HEALTH SYSTEM BARBERTON HOSPITAL
5.78,2.44,41.08161,-81.50007,16439.83,4860.88,SUMMA HEALTH SYSTEMS HOSPITALS
5.05,2.24,41.44642,-82.70864,13897.40,4154.90,FIRELANDS REGIONAL MEDICAL CENTER
4.87,2.36,41.07747,-81.53042,13295.45,4587.73,AKRON GENERAL MEDICAL CENTER
3.52,2.34,39.95805,-83.02191,8601.83,4517.67,MOUNT CARMEL HEALTH
3.76,2.28,39.97510,-82.01812,9418.61,4311.78,GENESIS HEALTHCARE SYSTEM
3.66,2.12,41.38265,-81.73127,9083.85,3748.36,PARMA COMMUNITY GENERAL HOSPITAL
6.11,2.79,41.61788,-83.61632,17596.83,6084.50,UNIVERSITY OF TOLEDO MEDICAL CENTER
6.80,2.48,39.74547,-84.18523,19983.95,5011.48,MIAMI VALLEY HOSPITAL
8.71,2.53,39.78778,-84.23493,26594.61,5161.00,GOOD SAMARITAN HOSPITAL
4.33,2.20,38.84439,-82.23902,11420.59,4024.65,HOLZER MEDICAL CENTER
7.57,2.17,41.23549,-80.79865,22658.00,3924.91,TRUMBULL MEMORIAL HOSPITAL
5.03,2.17,39.31257,-84.51774,13825.14,3936.00,MERCY HOSPITAL FAIRFIELD
4.45,2.29,41.11441,-80.65565,11834.19,4327.90,ST ELIZABETH HEALTH CENTER
4.31,2.20,41.22570,-82.60491,11348.88,4023.47,FISHER-TITUS HOSPITAL
5.24,2.23,40.74115,-84.11804,14557.30,4133.63,ST RITA'S MEDICAL CENTER
7.27,2.38,41.67775,-83.59589,21612.57,4663.54,TOLEDO HOSPITAL THE
3.15,2.25,39.71750,-82.57772,7329.50,4191.44,FAIRFIELD MEDICAL CENTER
5.39,2.25,41.70838,-83.69216,15074.40,4206.60,FLOWER HOSPITAL
5.45,2.28,41.45013,-81.82397,15287.30,4292.07,FAIRVIEW HOSPITAL
4.53,2.20,41.17554,-81.24915,12098.87,4030.67,ROBINSON MEMORIAL HOSPITAL
6.56,2.34,39.69724,-84.19232,19151.75,4513.62,KETTERING MEDICAL CENTER
7.29,2.32,41.63639,-83.48640,21687.93,4451.73,MERCY ST CHARLES HOSPITAL
4.98,2.15,41.59825,-81.54884,13646.45,3863.18,EUCLID HOSPITAL
2.66,2.23,40.79609,-81.40360,5624.79,4135.50,AULTMAN HOSPITAL
7.41,2.88,39.99445,-83.01872,22103.97,6374.06,OHIO STATE UNIVERSITY HOSPITALS
4.69,2.28,39.92755,-83.81573,12659.74,4308.22,SPRINGFIELD REGIONAL MEDICAL CENTER
3.93,2.16,41.55725,-83.68141,10013.94,3877.17,ST LUKE'S HOSPITAL
5.34,2.12,41.13762,-81.83820,14926.87,3757.20,MEDINA HOSPITAL
4.56,2.17,41.01785,-83.65165,12220.87,3909.93,BLANCHARD VALLEY HOSPITAL
5.12,2.12,41.66317,-81.24696,14139.71,3760.29,LAKE HEALTH
3.66,2.55,40.27202,-81.85958,9105.09,5233.00,COSHOCTON COUNTY MEMORIAL HOSPITAL
7.90,2.81,41.66810,-83.54275,23799.11,6150.83,MERCY ST VINCENT MEDICAL CENTER
3.12,2.14,39.13628,-84.60485,7207.92,3820.08,MERCY FRANCISCAN HOSPITAL WESTERN HILLS
4.85,2.12,41.39496,-81.53484,13202.33,3766.42,UHHS BEDFORD MEDICAL CENTER
4.69,2.18,40.75264,-82.52803,12669.71,3946.47,MEDCENTRAL HEALTH SYSTEM
4.47,2.85,41.50772,-81.60592,11899.89,6296.56,UNIVERSITY HOSPITALS OF CLEVELAND
4.87,2.33,41.44829,-81.53736,13295.81,4462.25,SOUTH POINTE HOSPITAL
4.14,2.16,41.36649,-82.09708,10756.35,3901.10,EMH REGIONAL MEDICAL CENTER
3.95,2.12,39.43061,-81.46454,10081.71,3765.71,MARIETTA MEMORIAL HOSPITAL
8.21,2.13,41.37028,-81.83189,24862.80,3778.87,SOUTHWEST GENERAL HEALTH CENTER
4.56,2.18,41.33913,-83.13441,12202.00,3960.47,MEMORIAL HOSPITAL
3.83,2.29,39.39463,-82.96979,9668.43,4348.14,ADENA REGIONAL MEDICAL CENTER
4.86,2.25,41.23046,-80.77749,13231.92,4198.33,ST JOSEPH HEALTH CENTER
5.72,2.45,39.12105,-84.51059,16238.09,4906.73,CHRIST HOSPITAL
5.36,2.21,41.43688,-82.23761,14991.07,4058.19,MERCY REGIONAL MEDICAL CENTER
7.18,2.18,40.08748,-84.22920,21287.92,3950.50,UPPER VALLEY MEDICAL CENTER
6.35,2.25,39.25076,-84.34341,18404.05,4210.00,BETHESDA NORTH HOSPITAL
5.83,2.57,41.50248,-81.62110,16606.11,5313.50,CLEVELAND CLINIC
6.14,2.13,41.02798,-81.75262,17677.06,3786.56,SUMMA WADSWORTH-RITTMAN HOSPITAL
5.79,2.22,41.52013,-81.43291,16472.29,4103.83,HILLCREST HOSPITAL
3.72,2.32,39.20463,-84.57093,9306.50,4436.07,MERCY FRANCISCAN HOSPITAL - MT AIRY
8.29,2.35,39.63778,-84.24864,25151.55,4542.09,KETTERING MEDICAL CENTER - SYCAMORE
8.52,2.20,41.69195,-83.62455,25936.55,4023.00,MERCY ST ANNE HOSPITAL
4.40,2.11,40.99498,-80.66192,11637.20,3715.47,ST ELIZABETH BOARDMAN HEALTH CENTER
5.95,2.56,36.14687,-95.96841,17029.53,5259.12,HILLCREST MEDICAL CENTER
6.14,2.17,35.22999,-97.44074,17695.36,3914.00,NORMAN REGIONAL HEALTH SYSTEM
4.97,2.20,35.60735,-97.59693,13634.65,4025.96,MERCY HEALTH CENTER, INC
6.79,2.36,34.00655,-96.39398,19921.81,4577.12,MEDICAL CENTER OF SOUTHEASTERN OKLAHOMA
6.72,2.24,35.41174,-99.42511,19705.00,4149.83,GREAT PLAINS REGIONAL MEDICAL CENTER
4.56,2.24,34.63509,-99.31700,12212.85,4162.00,JACKSON COUNTY MEMORIAL HOSPITAL
5.39,2.25,35.75351,-95.40612,15091.87,4191.52,MUSKOGEE REGIONAL MEDICAL CENTER
7.51,2.11,36.39385,-97.87094,22429.55,3705.00,ST MARY'S REGIONAL MEDICAL CENTER
6.57,2.63,35.52960,-97.57496,19161.03,5509.62,INTEGRIS BAPTIST MEDICAL CENTER
5.88,2.16,35.52531,-97.58461,16778.65,3897.62,DEACONESS HOSPITAL
5.39,2.29,34.18908,-97.14128,15094.07,4348.00,MERCY MEMORIAL HEALTH CENTER
4.95,2.32,36.06135,-95.95154,13550.97,4455.71,SAINT FRANCIS HOSPITAL, INC
7.51,2.17,35.46721,-97.39370,22436.19,3938.14,MIDWEST REGIONAL MEDICAL CENTER
6.99,2.31,35.42168,-97.53306,20640.15,4394.85,INTEGRIS SOUTHWEST MEDICAL CENTER
3.91,2.23,36.58133,-94.75864,9967.37,4137.37,INTEGRIS GROVE HOSPITAL
3.88,2.24,36.13393,-95.96718,9834.67,4150.04,ST JOHN MEDICAL CENTER, INC
2.96,2.60,36.28917,-97.29952,6644.54,5404.00,PERRY MEMORIAL HOSPITAL
4.66,2.27,35.36359,-96.93791,12537.25,4281.67,UNITY HEALTH CENTER
3.66,2.46,45.50973,-122.77368,9098.71,4943.79,PROVIDENCE ST VINCENT MEDICAL CENTER
5.20,2.35,44.06773,-121.26817,14435.36,4540.93,ST CHARLES MEDICAL CENTER - BEND
3.52,2.42,45.52677,-122.61469,8617.36,4804.18,PROVIDENCE PORTLAND MEDICAL CENTER
4.04,2.27,42.34086,-122.86108,10393.67,4275.33,PROVIDENCE MEDFORD MEDICAL CENTER
5.67,2.88,43.38402,-124.23280,16046.65,6383.96,BAY AREA HOSPITAL
5.43,2.23,41.40075,-75.64594,15236.50,4131.29,COMMUNITY MEDICAL CENTER
5.39,2.14,40.25296,-76.92151,15099.40,3824.00,HOLY SPIRIT HOSPITAL
7.67,2.91,40.96789,-76.60506,22999.44,6489.81,GEISINGER MEDICAL CENTER
4.81,2.35,42.11102,-80.07912,13077.73,4544.33,SAINT VINCENT HEALTH CENTER
3.91,2.33,41.01409,-80.35398,9968.07,4485.71,JAMESON MEMORIAL HOSPITAL
4.41,2.14,40.80231,-75.61515,11696.82,3833.00,PALMERTON HOSPITAL
12.45,2.42,40.07880,-75.21107,39563.70,4798.57,CHESTNUT HILL HOSPITAL
12.81,3.31,40.00504,-75.15155,40822.25,7859.00,TEMPLE UNIVERSITY HOSPITAL
3.95,2.26,40.68423,-76.18761,10086.74,4247.79,SCHUYLKILL MEDICAL CENTER - SOUTH JACKSON STREET
4.24,2.09,40.69101,-76.18682,11106.00,3634.38,SCHUYLKILL MEDICAL CENTER - EAST NORWEGIAN STREET
3.24,2.23,40.71251,-80.32136,7644.17,4140.06,HERITAGE VALLEY BEAVER
3.40,2.21,39.90180,-79.73854,8186.62,4062.25,UNIONTOWN HOSPITAL
3.42,2.31,40.18302,-80.24767,8256.18,4414.82,WASHINGTON HOSPITAL, THE
4.75,2.46,41.74508,-77.30043,12869.75,4939.00,SOLDIERS AND SAILORS MEMORIAL HOSPITAL
6.55,2.49,40.33271,-75.95020,19093.19,5043.69,READING HOSPITAL MEDICAL CENTER
3.75,2.64,39.94604,-76.71884,9406.70,5552.39,YORK HOSPITAL
7.45,2.44,40.60811,-75.39260,22211.20,4876.08,ST LUKE'S HOSPITAL BETHLEHEM
7.48,2.11,40.18359,-77.22459,22328.50,3712.67,CARLISLE REGIONAL MEDICAL CENTER
6.28,2.25,40.32799,-76.44588,18182.46,4196.92,GOOD SAMARITAN HOSPITAL
4.17,2.64,40.25661,-76.87572,10863.45,5535.23,PINNACLE HEALTH HOSPITALS
12.50,2.31,40.10226,-74.86338,39732.28,4415.67,LOWER BUCKS HOSPITAL
4.05,2.22,40.52204,-78.39824,10456.00,4089.28,ALTOONA REGIONAL HEALTH SYSTEM
13.87,2.30,40.00955,-75.78622,44492.27,4380.33,BRANDYWINE HOSPITAL
4.03,2.38,41.98012,-76.52072,10385.63,4656.26,ROBERT PACKER HOSPITAL
16.07,2.48,40.06986,-75.08748,52114.36,4983.00,JEANES HOSPITAL
11.51,2.34,40.11139,-75.09250,36282.49,4499.49,HOLY REDEEMER HOSPITAL AND MEDICAL CENTER
5.06,2.27,40.04740,-76.30540,13945.83,4252.93,LANCASTER GENERAL HOSPITAL
5.95,2.52,40.48928,-79.89596,17025.12,5121.94,UPMC ST MARGARET
4.78,2.10,40.57319,-80.01455,12959.90,3688.35,UPMC PASSAVANT
3.36,2.35,40.32674,-78.92197,8047.78,4535.11,CONEMAUGH VALLEY MEMORIAL HOSPITAL
9.76,2.61,40.07160,-74.98341,30245.05,5450.47,ARIA HEALTH
8.88,2.67,40.13916,-75.31510,27182.81,5646.31,MERCY SUBURBAN HOSPITAL
5.36,2.37,41.41107,-75.65091,14988.08,4607.00,MOSES TAYLOR HOSPITAL
9.44,2.28,40.24397,-75.61364,29114.56,4292.00,POTTSTOWN MEMORIAL MEDICAL CENTER
11.81,2.27,40.12344,-75.51493,37335.00,4283.13,PHOENIXVILLE HOSPITAL
6.28,2.61,40.60000,-75.47000,18160.64,5437.27,LEHIGH VALLEY HOSPITAL
7.39,2.24,41.25860,-75.86729,22001.71,4165.15,WILKES-BARRE GENERAL HOSPITAL
11.24,2.37,40.01883,-75.32115,35365.67,4600.21,MAIN LINE HOSPITAL BRYN MAWR CAMPUS
8.81,3.55,40.03678,-75.14351,26953.23,8713.14,ALBERT EINSTEIN MEDICAL CENTER
3.55,2.14,40.30103,-79.55505,8693.14,3807.33,EXCELA HEALTH WESTMORELAND REGIONAL HOSPITAL
4.08,2.33,39.93492,-77.64744,10545.90,4469.30,CHAMBERSBURG HOSPITAL
10.53,2.33,40.04475,-75.50425,32890.93,4482.80,MAIN LINE HOSPITAL PAOLI
12.66,2.92,39.92871,-75.26873,40302.33,6522.38,MERCY FITZGERALD HOSPITAL
12.33,2.41,40.68708,-75.24272,39152.21,4753.41,EASTON HOSPITAL
9.64,2.90,40.44190,-79.96044,29807.35,6457.00,UPMC PRESBYTERIAN SHADYSIDE
8.10,2.97,39.94969,-75.15712,24488.11,6704.66,THOMAS JEFFERSON UNIVERSITY HOSPITAL
5.22,2.26,39.97024,-75.60259,14500.46,4243.54,CHESTER COUNTY HOSPITAL
16.69,2.82,39.85598,-75.36791,54257.58,6159.50,CROZER CHESTER MEDICAL CENTER
3.92,2.28,40.80574,-76.57061,10004.19,4303.00,SHAMOKIN AREA COMMUNITY HOSPITAL
8.44,2.80,39.98905,-75.27707,25644.50,6106.94,MAIN LINE HOSPITAL LANKENAU
5.65,2.64,42.07400,-80.09368,15998.85,5568.85,MILLCREEK COMMUNITY HOSPITAL
7.61,2.51,40.99225,-75.17466,22775.71,5102.50,POCONO MEDICAL CENTER
6.52,2.28,40.30531,-75.14763,18993.55,4295.55,DOYLESTOWN HOSPITAL
8.67,2.31,40.05931,-75.04140,26452.11,4401.00,NAZARETH HOSPITAL
10.82,2.26,39.82191,-75.88683,33893.74,4227.74,JENNERSVILLE REGIONAL HOSPITAL
11.40,2.58,39.91254,-75.43047,35902.15,5353.24,RIDDLE MEMORIAL HOSPITAL
7.37,2.66,39.95825,-75.19909,21943.25,5633.42,PENN PRESBYTERIAN MEDICAL CENTER
9.84,2.68,39.94560,-75.15561,30526.46,5707.12,PENNSYLVANIA HOSP OF THE UNIV OF PA HEALTH SYS
4.84,2.09,40.37782,-80.06589,13166.17,3653.17,ST CLAIR MEMORIAL HOSPITAL
9.35,2.41,40.12077,-75.11818,28805.07,4740.44,ABINGTON MEMORIAL HOSPITAL
5.02,2.22,41.41276,-75.65399,13809.75,4099.68,REGIONAL HOSPITAL OF SCRANTON
5.96,3.05,40.26468,-76.67582,17052.00,6961.58,MILTON S HERSHEY MEDICAL CENTER
7.38,2.33,40.20064,-74.92952,21981.07,4487.40,ST MARY MEDICAL CENTER
3.11,2.10,40.31802,-79.93494,7195.56,3680.39,JEFFERSON REGIONAL MEDICAL CENTER
8.08,2.38,41.25855,-75.81041,24416.83,4646.33,GEISINGER WYOMING VALLEY MEDICAL CENTER
18.84,3.12,39.95658,-75.16249,61701.41,7232.00,HAHNEMANN UNIVERSITY HOSPITAL
6.80,3.00,41.81254,-71.40760,19958.31,6806.00,RHODE ISLAND HOSPITAL
6.25,2.68,41.70541,-71.47790,18059.16,5677.79,KENT COUNTY MEMORIAL HOSPITAL
4.25,2.28,41.36172,-71.82634,11130.53,4309.00,WESTERLY HOSPITAL
4.09,2.29,34.95535,-81.05137,10578.84,4344.56,PIEDMONT MEDICAL CENTER
4.36,2.38,34.96733,-81.94021,11523.88,4642.81,SPARTANBURG REGIONAL MEDICAL CENTER
4.62,2.27,34.69403,-82.98884,12423.86,4286.48,OCONEE MEDICAL CENTER
5.66,2.63,34.02839,-81.03539,16034.47,5508.79,PALMETTO HEALTH RICHLAND
5.53,2.22,34.83965,-82.42147,15555.44,4083.80,ST FRANCIS-DOWNTOWN
4.12,2.16,34.01469,-81.01343,10698.10,3904.48,SISTERS OF CHARITY PROVIDENCE HOSPITALS
6.90,2.31,34.51119,-82.64683,20315.10,4412.20,ANMED HEALTH
9.63,2.26,34.71787,-80.78844,29777.60,4244.47,SPRINGS MEMORIAL HOSPITAL
5.24,2.36,34.47263,-81.88066,14578.19,4586.94,LAURENS COUNTY HEALTHCARE SYSTEM
4.75,2.35,34.24654,-80.60702,12878.06,4530.44,KERSHAW HEALTH
5.32,2.35,33.78555,-79.00178,14825.54,4549.11,CONWAY MEDICAL CENTER
7.68,2.42,34.19543,-79.76256,23008.97,4785.83,MCLEOD REGIONAL MEDICAL CENTER-PEE DEE
5.89,2.23,34.18661,-79.32541,16823.73,4119.20,MARION REGIONAL HOSPITAL
4.59,2.40,33.62185,-80.74922,12312.47,4716.60,TRMC OF ORANGEBURG & CALHOUN
4.51,2.33,33.69516,-80.21091,12028.62,4475.00,CLARENDON MEMORIAL HOSPITAL
3.66,2.30,33.92320,-80.34308,9071.40,4377.33,TUOMEY HEALTHCARE SYSTEM
6.08,2.26,34.00533,-81.11393,17467.13,4232.20,LEXINGTON MEDICAL CENTER
4.91,2.50,34.81904,-82.41308,13423.67,5077.94,GREENVILLE MEMORIAL HOSPITAL
5.97,2.38,32.97605,-80.07302,17089.96,4633.75,TRIDENT MEDICAL CENTER
5.38,2.63,32.22325,-80.71444,15040.74,5521.45,HILTON HEAD REGIONAL MEDICAL CENTER
5.49,2.41,33.57070,-81.76332,15415.73,4771.98,AIKEN REGIONAL MEDICAL CENTER
6.71,2.14,33.70704,-78.89487,19675.70,3818.00,GRAND STRAND REG MED CENTER
6.54,2.57,34.00754,-81.03270,19074.82,5293.88,PALMETTO HEALTH BAPTIST
7.42,2.22,32.78211,-79.95018,22107.57,4110.38,ROPER HOSPITAL
10.16,2.26,34.19543,-79.76256,31631.95,4220.05,CAROLINAS HOSPITAL SYSTEM
4.65,2.09,33.59553,-79.02412,12509.96,3635.44,WACCAMAW COMMUNITY HOSPITAL
3.36,2.27,44.91113,-97.12063,8037.50,4266.29,PRAIRIE LAKES HOSPITAL
4.03,2.38,45.46141,-98.47929,10366.08,4646.23,AVERA ST LUKES
5.11,2.43,43.53460,-96.71136,14123.73,4841.45,AVERA MCKENNAN HOSPITAL & UNIVERSITY HEALTH CENTER
5.72,2.34,43.53562,-96.74305,16223.03,4526.88,SANFORD USD MEDICAL CENTER
4.32,2.63,44.05563,-103.22633,11363.37,5521.47,RAPID CITY REGIONAL HOSPITAL
3.31,2.27,35.63906,-88.83207,7879.00,4274.75,JACKSON-MADISON COUNTY GENERAL HOSPITAL
4.99,2.31,36.38975,-86.43389,13711.00,4398.33,SUMNER REGIONAL MEDICAL CENTER
5.00,2.19,35.93917,-85.01865,13731.80,4001.05,CUMBERLAND MEDICAL CENTER
4.33,2.15,36.58587,-82.25703,11425.81,3854.14,WELLMONT BRISTOL REGIONAL MEDICAL CENTER
4.53,2.39,35.93985,-83.94326,12086.85,4695.31,UNIVERSITY OF TN MEMORIAL HOSPITAL
3.94,2.18,36.55401,-82.55483,10061.00,3952.08,WELLMONT HOLSTON VALLEY MEDICAL CENTER
4.51,2.15,35.91595,-86.81799,12035.14,3836.64,WILLIAMSON MEDICAL CENTER
4.15,2.18,36.21370,-83.29406,10780.43,3949.32,MORRISTOWN HAMBLEN HOSPITAL ASSOCIATION
5.96,2.28,36.58199,-87.27050,17048.49,4306.53,GATEWAY MEDICAL CENTER
6.16,2.73,36.14316,-86.80048,17771.06,5854.38,VANDERBILT UNIVERSITY HOSPITAL
5.87,2.38,35.12837,-89.86202,16753.53,4653.61,BAPTIST MEMORIAL HOSPITAL
6.18,2.90,35.13640,-90.01928,17832.31,6450.85,METHODIST HEALTHCARE MEMPHIS HOSPITALS
5.02,2.24,35.86074,-86.42434,13808.73,4177.09,MIDDLE TENNESSEE MEDICAL CENTER INC
4.64,2.21,35.17733,-86.09081,12500.86,4049.00,SOUTHERN TENNESSEE MEDICAL CENTER
4.01,2.23,36.17121,-85.50938,10294.31,4143.38,COOKEVILLE REGIONAL MEDICAL CENTER
5.68,2.24,36.30767,-82.38497,16083.00,4156.75,JOHNSON CITY MEDICAL CENTER
6.31,2.29,36.21486,-83.30416,18278.64,4340.55,LAKEWAY REGIONAL HOSPITAL
8.89,2.15,36.04867,-89.38047,27220.04,3868.00,DYERSBURG REGIONAL MEDICAL CENTER
4.13,2.27,35.60668,-87.06635,10705.73,4252.40,MAURY REGIONAL HOSPITAL
5.16,2.16,36.12859,-86.84559,14274.59,3872.00,ST THOMAS HOSPITAL
4.07,2.13,35.60146,-84.46104,10519.27,3771.18,SWEETWATER HOSPITAL ASSOCIATION
5.13,2.12,35.04157,-85.26037,14175.53,3757.80,MEMORIAL HEALTHCARE SYSTEM, INC
5.65,2.18,35.99233,-83.92697,15999.62,3943.92,TENNOVA HEALTHCARE
3.22,2.17,35.95747,-83.93660,7555.33,3910.00,FORT SANDERS REGIONAL MEDICAL CENTER
3.91,2.26,36.15388,-86.80249,9942.38,4224.23,BAPTIST HOSPITAL
5.64,2.20,35.36202,-86.20943,15947.80,4038.20,HARTON REGIONAL MEDICAL CENTER
7.28,2.42,35.03467,-85.26735,21636.17,4776.42,PARKRIDGE MEDICAL CENTER
3.25,2.16,35.91765,-84.10080,7682.29,3889.00,PARKWEST MEDICAL CENTER
8.63,2.36,35.09925,-89.86301,26322.24,4584.22,ST FRANCIS HOSPITAL
8.86,2.22,35.17731,-84.86873,27109.48,4087.29,SKYRIDGE MEDICAL CENTER
6.52,2.20,35.20713,-89.80059,19016.00,4023.23,SAINT FRANCIS BARTLETT MEDICAL CENTER
11.11,2.49,31.77031,-106.50085,34904.08,5041.96,PROVIDENCE MEMORIAL HOSPITAL
4.38,2.25,30.04413,-99.15217,11573.50,4204.00,PETERSON REGIONAL MEDICAL CENTER
5.95,2.51,33.90296,-98.50035,17028.33,5118.38,UNITED REGIONAL HEALTH CARE SYSTEM
6.83,2.32,30.65598,-96.34672,20080.09,4435.87,ST JOSEPH REGIONAL HEALTH CENTER
5.59,2.53,32.78994,-96.78044,15774.49,5174.24,BAYLOR UNIVERSITY MEDICAL CENTER
6.51,2.11,28.81269,-96.97780,18965.55,3720.55,CITIZENS MEDICAL CENTER
5.75,2.92,31.77137,-106.43466,16343.77,6539.77,UNIVERSITY MEDICAL CENTER OF EL PASO
13.64,2.69,25.91934,-97.51054,43684.50,5737.75,VHS BROWNSVILLE HOSPITAL COMPANY, LLC
8.08,2.55,27.53249,-99.47808,24417.68,5247.55,LAREDO MEDICAL CENTER
6.38,2.69,26.17446,-97.67014,18522.25,5719.21,VHS HARLINGEN HOSPITAL COMPANY LLC
6.87,2.17,30.08729,-94.13292,20215.47,3915.53,CHRISTUS HOSPITAL
4.86,2.81,29.74802,-95.36609,13234.09,6134.27,ST JOSEPH MEDICAL CENTER
5.85,2.25,32.50219,-94.73025,16664.74,4195.13,GOOD SHEPHERD MEDICAL CENTER
7.06,2.90,32.72621,-97.32659,20880.73,6451.00,JPS HEALTH NETWORK
11.38,2.31,33.57524,-101.89272,35857.63,4417.95,COVENANT MEDICAL CENTER
6.48,2.54,32.81224,-96.83795,18870.07,5208.93,UT SOUTHWESTERN UNIVERSITY HOSPITAL
8.15,2.33,27.77751,-97.39515,24637.18,4489.05,CHRISTUS SPOHN HOSPITAL CORPUS CHRISTI
7.31,2.78,32.76017,-96.82437,21750.92,6045.33,METHODIST DALLAS MEDICAL CENTER
6.23,2.34,29.43360,-98.49265,17996.62,4508.72,BAPTIST MEDICAL CENTER
5.11,2.23,32.74944,-97.11630,14107.88,4144.12,TEXAS HEALTH ARLINGTON MEMORIAL HOSPITAL
5.47,2.29,29.02970,-95.45243,15353.74,4332.00,BRAZOSPORT REGIONAL HEALTH SYSTEM
6.92,2.31,32.83520,-96.96101,20380.21,4416.71,BAYLOR MEDICAL CENTER AT IRVING
10.15,2.20,32.33824,-95.29122,31572.14,4033.03,EAST TEXAS MEDICAL CENTER
11.59,2.41,29.66575,-95.18131,36582.73,4763.00,BAYSHORE MEDICAL CENTER
8.10,2.16,32.34280,-95.29201,24468.59,3894.11,MOTHER FRANCES HOSPITAL
4.59,2.27,29.56876,-97.94776,12311.07,4280.50,GUADALUPE REGIONAL MEDICAL CENTER
8.00,2.48,31.76998,-106.49897,24148.59,4988.76,LAS PALMAS MEDICAL CENTER
10.28,2.68,26.26353,-98.18455,32024.27,5697.60,SOUTH TEXAS HEALTH SYSTEM
5.98,2.43,26.15260,-97.97995,17139.23,4816.69,KNAPP MEDICAL CENTER
5.38,2.44,31.84507,-102.37373,15057.89,4862.07,MEDICAL CENTER HOSPITAL
5.91,2.28,31.99616,-102.09950,16887.22,4317.78,MIDLAND MEMORIAL HOSPITAL
4.91,2.33,32.73780,-97.33899,13420.57,4486.09,TEXAS HEALTH HARRIS METHODIST FORT WORTH
4.66,2.47,32.73070,-97.34379,12552.92,4959.75,BAYLOR ALL SAINTS MEDICAL CENTER AT FW
13.64,2.35,28.80765,-96.99896,43688.69,4551.44,DETAR HOSPITAL NAVARRO
4.91,2.65,26.19665,-98.31409,13429.86,5587.43,MISSION REGIONAL MEDICAL CENTER
7.09,2.74,29.81230,-95.43010,20967.81,5899.22,MEMORIAL HERMANN HOSPITAL SYSTEM
8.00,2.18,33.61197,-95.09942,24144.18,3970.18,ETMC CLARKSVILLE
7.50,2.92,29.70719,-95.40048,22412.28,6534.59,ST LUKES EPISCOPAL HOSPITAL
4.49,2.30,33.65984,-95.54752,11972.48,4379.00,PARIS REGIONAL MEDICAL CENTER
6.26,2.30,33.42875,-94.04725,18108.24,4390.12,WADLEY REGIONAL MEDICAL CENTER
6.10,2.20,32.74765,-97.78477,17532.64,4014.43,WEATHERFORD REGIONAL MEDICAL CENTER
7.77,2.13,31.33632,-94.74205,23342.63,3799.43,MEMORIAL HEALTH SYSTEM OF EAST TEXAS- LUFKIN
8.95,2.35,30.28473,-95.46714,27411.17,4535.79,CONROE REGIONAL MEDICAL CENTER
6.29,2.23,32.47171,-99.73315,18210.32,4124.24,HENDRICK MEDICAL CENTER
5.37,2.15,35.19533,-101.91907,15031.19,3847.10,BAPTIST ST ANTHONYS HEALTH SYSTEM-BAPTIST CAMPUS
3.45,2.17,33.15782,-95.60005,8355.73,3909.87,HOPKINS COUNTY MEMORIAL HOSPITAL
6.35,2.75,29.42825,-98.49859,18411.26,5941.95,CHRISTUS SANTA ROSA HOSPITAL
6.04,2.32,33.71085,-96.58493,17337.81,4453.33,TEXOMA MEDICAL CENTER
7.39,2.41,29.57653,-95.77057,22033.62,4756.31,OAKBEND MEDICAL CENTER
5.69,2.25,30.07104,-94.11927,16134.82,4192.85,MEMORIAL HERMANN BAPTIST BEAUMONT HOSPITAL
6.66,2.33,33.12242,-96.12404,19489.00,4480.75,HUNT REGIONAL MEDICAL CENTER
5.93,2.49,29.71020,-95.39956,16960.48,5038.59,METHODIST HOSPITAL,THE
6.33,2.36,29.50795,-98.57224,18331.45,4581.15,METHODIST HOSPITAL
6.84,2.27,32.17167,-95.84417,20125.71,4285.29,EAST TEXAS MEDICAL CENTER ATHENS
9.73,2.45,29.76963,-94.97926,30124.18,4881.12,SAN JACINTO METHODIST HOSPITAL
6.71,2.45,30.28957,-97.72584,19673.76,4907.71,ST DAVIDS MEDICAL CENTER
6.28,2.46,32.88076,-96.76226,18171.19,4931.94,TEXAS HEALTH PRESBYTERIAN HOSPITAL  DALLAS
5.44,2.31,28.98257,-95.99104,15250.55,4406.00,MATAGORDA REGIONAL MEDICAL CENTER
8.08,2.17,31.32794,-94.75614,24395.21,3935.00,WOODLAND HEIGHTS MEDICAL CENTER
4.78,2.25,31.61271,-94.64926,12980.00,4198.50,MEMORIAL HOSPITAL
7.37,2.23,29.93570,-93.98900,21945.89,4131.94,THE MEDICAL CENTER OF SOUTHEAST TEXAS
11.43,2.21,32.40574,-99.76486,36011.36,4065.43,ABILENE REGIONAL MEDICAL CENTER
3.98,2.20,31.46574,-100.43466,10204.67,4030.80,SHANNON MEDICAL CENTER
7.18,2.24,31.32376,-95.43900,21292.15,4177.38,EAST TEXAS MEDICAL CENTER CROCKETT
7.75,2.17,31.67746,-98.99374,23249.82,3925.00,BROWNWOOD REGIONAL MEDICAL CENTER
4.94,2.25,30.26290,-98.88017,13508.64,4200.00,HILL COUNTRY MEMORIAL HOSPITAL INC
6.96,2.28,29.78143,-95.54541,20535.02,4321.02,MEMORIAL HERMANN MEMORIAL CITY MEDICAL CENTER
10.30,2.31,29.54043,-95.12730,32108.71,4415.18,CLEAR LAKE REGIONAL MEDICAL CENTER
8.50,2.19,33.17345,-97.11382,25855.05,3982.50,DENTON REGIONAL MEDICAL CENTER
7.68,2.38,30.01994,-95.44379,23013.67,4634.20,HOUSTON NORTHWEST MEDICAL CENTER
8.49,2.49,27.60672,-99.47945,25825.23,5045.00,DOCTORS HOSPITAL OF LAREDO
9.15,2.50,29.72913,-95.59429,28129.82,5062.00,WEST HOUSTON MEDICAL CENTER
12.05,2.40,32.91132,-96.77424,38154.36,4720.00,MEDICAL CITY DALLAS HOSPITAL
8.62,2.25,33.02168,-96.76621,26270.38,4199.23,MEDICAL CENTER OF PLANO
11.02,2.67,25.97780,-97.51442,34614.47,5670.58,VALLEY REGIONAL MEDICAL CENTER
8.69,2.27,31.77757,-106.48060,26512.87,4283.23,SIERRA MEDICAL CENTER
7.50,2.23,30.08682,-95.62403,22400.12,4115.50,TOMBALL REGIONAL MEDICAL CENTER
8.44,2.32,32.73563,-97.34483,25646.29,4456.65,PLAZA MEDICAL CENTER OF FORT WORTH
8.44,2.41,32.69299,-97.11219,25659.00,4751.45,MEDICAL CENTER OF ARLINGTON
8.24,2.43,32.67614,-97.32079,24974.09,4811.45,HUGULEY HEALTH SYSTEM
10.41,2.34,32.83517,-96.70473,32497.35,4529.35,DOCTORS HOSPITAL
5.80,2.61,33.58838,-101.89214,16491.00,5445.69,UNIVERSITY MEDICAL CENTER
11.60,2.59,26.18586,-98.22085,36603.81,5374.55,RIO GRANDE REGIONAL HOSPITAL
6.33,2.24,30.22723,-97.77447,18341.15,4174.62,ST DAVID'S SOUTH AUSTIN MEDICAL CENTER
6.32,2.36,32.64448,-96.87635,18307.04,4594.04,METHODIST CHARLTON MEDICAL CENTER
9.63,2.25,32.91839,-96.50863,29786.52,4212.14,LAKE POINTE MEDICAL CENTER
6.66,2.27,31.73882,-95.64435,19472.82,4264.00,PALESTINE REGIONAL MEDICAL CENTER
10.57,2.35,27.69288,-97.34476,33038.26,4557.26,CORPUS CHRISTI MEDICAL CENTER,THE
6.15,2.10,33.46323,-94.07490,17715.78,3694.17,CHRISTUS ST MICHAEL HEALTH SYSTEM
7.45,2.24,29.58896,-95.63112,22237.79,4165.00,METHODIST SUGAR LAND HOSPITAL
6.81,2.27,29.96603,-95.55127,20007.42,4273.50,METHODIST WILLOWBROOK HOSPITAL
6.43,2.30,29.78747,-95.78578,18692.33,4387.00,MEMORIAL HERMANN KATY HOSPITAL
5.67,2.74,26.25286,-98.20590,16049.47,5893.87,DOCTORS HOSPITAL AT RENAISSANCE
4.05,2.84,40.77170,-111.83681,10453.79,6247.07,UNIVERSITY HEALTH CARE/UNIV HOSPITALS AND  CLINICS
4.42,2.54,40.65922,-111.89189,11726.00,5213.79,INTERMOUNTAIN MEDICAL CENTER
3.84,2.34,37.09986,-113.55271,9698.82,4508.47,DIXIE REGIONAL MEDICAL CENTER
3.82,3.09,44.47966,-73.19412,9650.94,7101.12,FLETCHER ALLEN HOSPITAL OF VERMONT
5.49,2.85,42.84340,-72.56527,15428.27,6278.82,BRATTLEBORO MEMORIAL HOSPITAL
4.00,2.38,42.87397,-73.20739,10271.45,4663.73,SOUTHWESTERN VERMONT MEDICAL CENTER
3.79,2.94,44.80765,-73.07233,9546.41,6586.00,NORTHWESTERN MEDICAL CENTER INC
2.83,2.30,39.19345,-78.19599,6197.30,4371.07,WINCHESTER MEDICAL CENTER INC
7.39,3.14,38.02573,-78.51526,22013.19,7268.92,UNIVERSITY OF VIRGINIA MEDICAL CENTER
3.70,2.29,36.89933,-76.28157,9242.73,4343.00,BON SECOURS - DEPAUL MEDICAL CENTER
5.72,2.31,38.45568,-78.01359,16231.18,4413.18,CULPEPER REGIONAL HOSPITAL
3.16,2.25,37.41368,-79.16870,7360.81,4187.04,CENTRA  HEALTH, INC
11.53,3.18,38.31158,-77.48061,36367.82,7422.55,MARY WASHINGTON HOSPITAL, INC
3.80,2.39,37.25129,-79.94125,9589.64,4691.55,CARILION ROANOKE MEMORIAL CENTER
6.01,3.06,37.54330,-77.42932,17228.26,7003.00,MEDICAL COLLEGE OF VIRGINIA HOSPITALS
5.06,2.54,38.82218,-77.10533,13958.30,5199.74,INOVA ALEXANDRIA HOSPITAL
4.87,2.17,37.14463,-76.51197,13277.50,3921.33,MARY IMMACULATE HOSPITAL
4.21,2.28,39.07405,-77.47754,11007.33,4311.76,INOVA LOUDOUN HOSPITAL
4.89,2.22,36.77378,-76.57856,13365.64,4108.07,SENTARA OBICI HOSPITAL
3.42,2.41,38.76723,-77.48754,8240.09,4768.18,PRINCE WILLIAM HOSPITAL
4.44,2.18,36.85098,-76.18989,11796.79,3954.83,SENTARA LEIGH HOSPITAL
5.43,2.29,37.26336,-80.03166,15235.04,4353.04,LEWISGALE MEDICAL CENTER
3.73,2.37,38.88916,-77.12796,9346.89,4629.00,VIRGINIA HOSPITAL CENTER - ARLINGTON
4.87,2.60,37.06523,-76.48417,13286.92,5413.83,RIVERSIDE REGIONAL MEDICAL CENTER
5.49,2.15,36.72172,-81.91249,15430.00,3848.97,JOHNSTON MEMORIAL HOSPITAL
4.45,2.12,36.86449,-76.02844,11815.64,3754.93,SENTARA VIRGINIA BEACH GENERAL HOSPITAL
4.09,2.22,37.58440,-77.51252,10591.15,4101.39,BON SECOURS - ST MARYS HOSPITAL OF RICHMOND
7.25,2.14,37.09990,-81.79024,21542.64,3820.00,CLINCH VALLEY MEDICAL CENTER
4.56,2.58,38.85764,-77.22772,12209.71,5329.71,INOVA FAIRFAX HOSPITAL
3.80,2.13,37.33700,-76.74046,9585.08,3794.67,SENTARA WILLIAMSBURG REGIONAL MEDICAL CENTER
9.52,2.29,37.18253,-77.35957,29410.83,4355.63,SOUTHSIDE REGIONAL MEDICAL CENTER
5.04,2.27,37.62931,-77.38804,13863.72,4263.56,BON SECOURS - MEMORIAL REGIONAL MEDICAL
5.44,2.25,36.57812,-79.40453,15247.93,4197.00,DANVILLE REGIONAL MEDICAL CENTER
3.59,2.23,38.02176,-78.44530,8840.31,4119.54,MARTHA JEFFERSON HOSPITAL
5.33,2.39,36.69555,-79.86374,14893.50,4683.35,MEMORIAL HOSPITAL OF MARTINSVILLE & HENRY COUNTY
5.57,2.38,37.90065,-76.87966,15691.54,4645.00,RIVERSIDE TAPPAHANNOCK HOSPITAL
5.02,2.19,37.05580,-76.39048,13792.87,4000.13,SENTARA CAREPLEX HOSPITAL
5.99,2.34,36.73424,-78.13321,17150.82,4522.91,COMMUNITY MEMORIAL HEALTHCENTER, INC
6.51,2.33,38.96206,-77.36489,18963.33,4491.40,RESTON HOSPITAL CENTER
6.78,2.21,37.51021,-77.59525,19915.62,4071.04,CJW MEDICAL CENTER
4.94,2.36,38.63463,-77.28361,13541.74,4592.48,SENTARA POTOMAC HOSPITAL
3.95,2.25,36.67083,-80.92343,10076.08,4198.00,TWIN COUNTY REGIONAL HOSPITAL
7.28,2.36,37.60459,-77.53929,21629.50,4592.28,HENRICO DOCTORS' HOSPITAL
3.79,2.17,36.74610,-76.24609,9544.77,3912.85,CHESAPEAKE REGIONAL MEDICAL CENTER
4.15,2.35,38.74009,-77.07732,10795.83,4564.08,INOVA MOUNT VERNON HOSPITAL
3.68,2.28,37.70099,-76.38903,9173.64,4291.50,RAPPAHANNOCK GENERAL HOSPITAL
