size_charge,size_pay,lat,lon,state,charge,pay,AcquiredInfect,AcquiredConditions,PatientSafetySummary,name
5.14,2.14,31.21673,-85.36307,AL,20000,5000,50,51,21,Southeast Alabama Medical Center
5.48,2.36,33.59616,-86.66750,AL,22000,6000,66,78,1,St Vincent'S East
5.36,2.36,32.32785,-86.27750,AL,21000,6000,50,67,54,Baptist Medical Center South
5.15,2.19,32.36656,-86.28572,AL,20000,5000,50,68,82,Jackson Hospital & Clinic Inc
3.27,2.20,32.63806,-85.40413,AL,11000,5000,50,80,13,East Alabama Medical Center And Snf
8.03,2.52,33.50619,-86.80210,AL,35000,7000,66,45,11,University Of Alabama Hospital
4.41,2.16,34.20768,-86.87489,AL,17000,5000,50,63,79,Cullman Regional Medical Center
5.38,2.13,33.66767,-85.83420,AL,22000,5000,0,0,0,Stringfellow Memorial Hospital
6.27,2.27,34.72007,-86.58108,AL,26000,6000,50,65,44,Huntsville Hospital
7.46,2.00,34.00941,-85.97078,AL,32000,4000,66,67,27,Gadsden Regional Medical Center
6.88,2.10,34.00426,-86.00339,AL,29000,5000,75,81,90,Riverview Regional Medical Center
5.39,2.09,31.31857,-85.85470,AL,22000,5000,0,0,0,Medical Center Enterprise
7.05,2.13,31.23767,-85.45625,AL,30000,5000,50,55,79,Flowers Hospital
4.31,2.07,33.50734,-86.78958,AL,16000,5000,50,72,21,St Vincent'S Birmingham
5.98,2.29,33.65640,-85.82284,AL,25000,6000,50,60,5,Northeast Alabama Regional Med Center
5.90,2.11,30.42700,-87.68386,AL,24000,5000,50,95,24,South Baldwin Regional Medical Center
2.85,2.08,34.59052,-86.97262,AL,9000,5000,50,77,54,Decatur General Hospital
3.57,2.11,30.68199,-88.19897,AL,12000,5000,83,86,0,Providence Hospital
5.03,2.27,33.20521,-87.52546,AL,20000,6000,66,66,21,D C H Regional Medical Center
12.57,2.34,33.49854,-86.84633,AL,59000,6000,66,70,8,Baptist Medical Center-Princeton
10.25,2.23,33.51420,-86.74859,AL,47000,5000,66,27,11,Trinity Medical Center
4.08,2.14,30.69697,-88.08081,AL,15000,5000,66,55,24,Mobile Infirmary
4.62,2.41,32.43020,-87.05515,AL,18000,6000,50,91,32,Vaughan Reg Med Center Parkway Campus
6.28,2.13,34.69279,-86.57179,AL,26000,5000,50,77,33,Crestwood Medical Center
9.98,2.06,33.46420,-86.77409,AL,45000,4000,50,65,29,Brookwood Medical Center
7.38,2.90,60.94901,-149.17033,AK,32000,9000,50,81,90,Providence Alaska Medical Center
6.08,2.61,33.46514,-112.05797,AZ,25000,7000,50,48,69,Banner Good Samaritan Medical Center
6.45,2.49,32.25294,-110.88135,AZ,27000,7000,50,48,3,Tucson Medical Center
4.93,2.23,32.22685,-110.85520,AZ,19000,5000,66,55,21,Carondelet St Josephs Hospital
5.65,2.41,32.68274,-114.63506,AZ,23000,6000,50,63,69,Yuma Regional Medical Center
5.44,2.35,33.56894,-112.07108,AZ,22000,6000,50,80,16,John C Lincoln North Mountain Hospital
8.84,2.82,33.48073,-112.07948,AZ,39000,8000,33,52,11,St Joseph'S Hospital And Medical Center
7.32,2.31,33.29750,-111.87461,AZ,32000,6000,50,78,54,Chandler Regional Medical Center
8.56,2.59,33.48885,-111.92387,AZ,38000,7000,66,76,54,Scottsdale Healthcare-Osborn Medical Center
6.25,2.24,33.60432,-112.28378,AZ,26000,5000,83,75,95,Banner Boswell Medical Center
6.10,2.91,32.24152,-110.94631,AZ,25000,9000,50,37,39,University Of Arizona Medical Ctr-Universit The
7.62,2.50,33.39097,-111.87638,AZ,33000,7000,66,80,56,Banner Desert Medical Center
6.37,2.26,33.58235,-111.88527,AZ,27000,6000,66,68,63,Scottsdale Healthcare-Shea Medical Center
5.79,2.26,33.41128,-111.68916,AZ,24000,6000,50,70,63,Banner Baywood Medical Center
6.47,2.51,33.60949,-112.18129,AZ,27000,7000,66,73,76,Banner Thunderbird Medical Center
6.82,2.31,33.65965,-112.37283,AZ,29000,6000,50,77,97,Banner Del E Webb Medical Center
12.28,2.38,35.11068,-114.55505,AZ,57000,6000,50,87,63,Western Arizona Regional Medical Ctr
5.33,2.52,33.65947,-111.95626,AZ,21000,7000,66,53,95,Mayo Clinic Hospital
7.96,2.32,35.00155,-114.59763,AZ,35000,6000,0,0,0,Valley View Medical Center
5.51,2.32,34.75031,-92.33897,AR,22000,6000,66,63,82,St Vincent Infirmary Medical Center
3.24,2.18,35.25046,-91.70056,AR,11000,5000,50,61,63,White County Medical Center
5.58,2.76,34.74866,-92.35422,AR,23000,8000,50,51,33,Uams Medical Center
2.86,2.23,35.83746,-90.70386,AR,9000,5000,50,75,2,St Bernards Medical Ctr
4.34,2.20,34.46784,-93.06667,AR,16000,5000,66,66,85,St Josephs Mercy Health Center Inc
2.45,2.10,36.34295,-92.39442,AR,6000,5000,50,65,57,Baxter Regional Medical Center
3.24,2.16,35.37445,-94.41868,AR,11000,5000,50,53,85,Sparks Regional Medical Center
5.13,2.32,34.18894,-92.01886,AR,20000,6000,50,75,4,Jefferson Regional Medical Center
5.84,2.21,34.48600,-93.03521,AR,24000,5000,50,51,8,National Park Medical Center
4.04,2.26,33.22053,-92.67102,AR,15000,6000,50,70,13,Medical Center South Arkansas
4.38,2.16,34.74866,-92.35422,AR,16000,5000,50,43,21,Baptist Health Medical Center-Little Rock
13.18,2.75,33.97659,-117.38184,CA,62000,8000,50,65,57,Riverside Community Hospital
7.30,3.22,32.75426,-117.16592,CA,31000,10000,50,72,69,University Of California San Diego Medical Center
8.13,2.46,32.77495,-117.01467,CA,36000,7000,83,71,33,Grossmont Hospital
5.30,2.49,39.50528,-121.54100,CA,21000,7000,50,73,63,Oroville Hospital
6.79,2.38,39.74221,-121.85000,CA,29000,6000,83,71,48,Enloe Medical Center
11.64,3.09,37.82206,-122.26275,CA,54000,10000,50,63,32,Alta Bates Summit Medical Center
12.16,3.41,37.79100,-122.43125,CA,56000,11000,83,63,11,California Pacific Medical Ctr-Pacific Campus Hosp
5.69,2.71,34.67486,-118.15771,CA,23000,8000,50,67,44,Antelope Valley Hospital Med Center
7.91,2.68,36.32737,-119.29548,CA,35000,8000,50,56,12,Kaweah Delta Medical Center
9.95,2.93,34.12834,-118.25777,CA,45000,9000,50,72,44,Glendale Mem Hospital & Hlth Center
7.68,3.15,36.73000,-119.78000,CA,33000,10000,50,71,0,Community Regional Medical Center
6.95,2.77,32.75143,-117.16083,CA,30000,8000,33,62,69,Scripps Mercy Hospital
9.25,2.72,37.96987,-121.28873,CA,41000,8000,83,68,97,St Josephs Med Center Of Stockton
7.61,2.55,36.83532,-119.76562,CA,33000,7000,50,66,57,Saint Agnes Medical Center
20.14,3.50,32.79949,-117.15394,CA,97000,12000,66,62,11,Sharp Memorial Hospital
11.11,3.06,34.04932,-118.21746,CA,51000,10000,25,73,98,White Memorial Medical Center
8.49,2.73,38.57155,-121.46874,CA,38000,8000,83,77,79,Sutter General Hospital
6.68,2.86,34.07558,-118.28424,CA,28000,9000,0,0,0,Temple Community Hospital
7.11,2.60,34.02685,-118.48651,CA,30000,7000,50,76,21,Santa Monica - Ucla Med Ctr & Orthopaedic Hospital
10.87,2.58,34.22014,-118.53410,CA,50000,7000,33,56,44,Northridge Hospital Medical Center
6.10,2.58,36.32362,-119.66726,CA,25000,7000,50,88,24,Adventist Medical Center
14.42,3.28,37.36257,-121.84974,CA,68000,11000,50,70,1,Regional Medical Center Of San Jose
7.76,2.53,39.13822,-121.59436,CA,34000,7000,50,51,21,Rideout Memorial Hospital
7.87,2.73,36.57886,-121.91316,CA,34000,8000,66,56,57,Community Hospital Of The Monterey Peninsula
13.72,2.60,33.96860,-118.04831,CA,64000,7000,50,46,16,Presbyterian Intercommunity Hospital
8.86,2.68,38.44369,-122.70138,CA,39000,8000,66,86,57,Santa Rosa Memorial Hospital
11.26,2.50,37.51164,-120.83800,CA,52000,7000,33,86,16,Emanuel Medical Center Inc
16.51,2.83,37.91341,-122.04163,CA,79000,8000,50,62,33,John Muir Medical Center - Walnut Creek Campus
7.07,2.80,33.77991,-118.18602,CA,30000,8000,50,82,94,St Mary Medical Center
5.87,2.54,34.58305,-118.14490,CA,24000,7000,50,86,54,Palmdale Regional Medical Center
10.46,2.62,32.61972,-117.02278,CA,48000,7000,50,71,57,Sharp Chula Vista Medical Center
6.20,2.31,33.62229,-117.92995,CA,26000,6000,50,70,51,Hoag Memorial Hospital Presbyterian
10.49,2.51,34.15601,-118.32834,CA,48000,7000,50,80,97,Providence Saint Joseph Medical Ctr
8.99,2.56,34.13973,-118.03534,CA,40000,7000,50,45,10,Methodist Hospital Of Southern Ca
10.84,2.95,34.14987,-118.23117,CA,50000,9000,66,75,88,Glendale Adventist Medical Center
12.70,2.56,33.83862,-116.54557,CA,59000,7000,66,81,2,Desert Regional Medical Center
5.18,2.67,36.06956,-119.02748,CA,21000,8000,0,0,0,Sierra View District Hospital
9.75,3.70,34.06675,-118.44613,CA,44000,13000,50,27,33,Ronald Reagan Ucla Medical Center
8.11,4.93,38.00655,-122.13312,CA,36000,19000,50,66,28,Contra Costa Regional Medical Center
8.29,2.56,34.50107,-117.17285,CA,37000,7000,50,87,20,St Mary Medical Center
10.35,2.95,37.85593,-122.25730,CA,47000,9000,50,56,8,Alta Bates Summit Medical Center - Alta Bates Camp
14.41,2.65,37.36934,-122.08047,CA,68000,8000,66,48,6,El Camino Hospital
7.56,2.49,38.76514,-121.24979,CA,33000,7000,66,77,16,Sutter Roseville Medical Center
7.31,2.66,32.88461,-117.22244,CA,32000,8000,50,63,29,Scripps Memorial Hospital La Jolla
6.09,3.12,34.05076,-117.26395,CA,25000,10000,50,55,16,Loma Linda University Medical Center
7.06,2.77,36.65910,-121.64630,CA,30000,8000,50,70,37,Salinas Valley Memorial Hospital
17.83,2.54,38.12186,-121.28665,CA,86000,7000,100,70,94,Lodi Memorial Hospital
5.76,2.62,32.95813,-115.55388,CA,24000,7000,50,91,92,Pioneers Memorial Healthcare District
16.54,3.76,33.78798,-117.89026,CA,79000,13000,66,56,11,University Of California Irvine Med Center
10.42,2.65,33.81131,-118.34364,CA,47000,8000,66,67,88,Torrance Memorial Medical Center
14.61,2.80,33.83891,-118.35677,CA,69000,8000,50,86,94,Providence Little Company Of Mary Med Ctr Torrance
10.02,2.71,37.94748,-122.53677,CA,45000,8000,50,63,16,Marin General Hospital
9.47,4.12,33.83043,-118.29402,CA,43000,15000,66,75,2,Lac/Harbor-Ucla Med Center
14.81,2.63,37.25153,-121.94684,CA,70000,7000,33,63,3,Good Samaritan Hospital
5.78,2.79,34.08802,-117.89341,CA,24000,8000,66,67,29,Citrus Valley Medical Center-Ic Campus
6.24,2.55,34.42951,-119.72333,CA,26000,7000,66,72,32,Santa Barbara Cottage Hospital
8.88,2.56,34.13364,-118.15275,CA,40000,7000,66,65,57,Huntington Memorial Hospital
30.00,6.15,37.43436,-122.18013,CA,148000,26000,50,58,27,Stanford Hospital
11.51,2.85,37.34027,-120.46817,CA,53000,9000,50,77,37,Mercy Medical Center
10.64,3.53,37.76421,-122.45716,CA,49000,12000,66,52,90,Ucsf Medical Center
7.52,2.55,35.38338,-119.01969,CA,33000,7000,33,86,6,San Joaquin Community Hospital
11.07,2.39,34.20285,-118.62962,CA,51000,6000,50,61,13,West Hills Hospital & Medical Center
7.94,2.65,33.80861,-118.18661,CA,35000,8000,66,65,27,Long Beach Memorial Medical Center
7.65,2.72,37.69824,-122.08730,CA,33000,8000,66,61,54,Eden Medical Center
17.84,2.65,37.98396,-122.03464,CA,86000,8000,50,76,97,John Muir Medical Center - Concord Campus
8.79,3.06,34.06389,-118.27347,CA,39000,10000,50,80,98,Saint Vincent Medical Center
11.12,2.70,38.66956,-121.31378,CA,51000,8000,66,66,29,Mercy San Juan Medical Center
10.01,2.80,37.98224,-121.80362,CA,45000,8000,50,58,24,Sutter Delta Medical Center
11.33,2.59,34.20777,-118.88305,CA,52000,7000,50,51,69,Los Robles Hospital & Medical Center
10.07,2.38,37.66867,-120.97339,CA,46000,6000,66,80,54,Memorial  Medical Center
8.12,2.31,33.56100,-117.66530,CA,36000,6000,66,58,12,Mission Hospital Regional Med Center
8.44,2.80,33.71466,-117.93322,CA,37000,8000,50,86,33,Fountain Valley Regional Hospital & Medical Center
10.81,2.40,33.76335,-116.40628,CA,49000,6000,50,56,39,Eisenhower Medical Center
18.93,3.59,38.55484,-121.45628,CA,91000,12000,50,50,3,University Of California Davis Medical Center
12.76,2.89,34.07664,-118.37955,CA,59000,9000,100,58,48,Cedars-Sinai Medical Center
5.61,2.44,33.55876,-117.18329,CA,23000,6000,66,73,74,Southwest Healthcare System
8.22,2.54,34.02303,-118.39741,CA,36000,7000,0,0,0,Brotman Medical Center
10.22,2.42,34.17067,-118.53200,CA,46000,6000,50,57,63,Providence Tarzana Medical Center
6.22,2.49,40.41481,-104.70890,CO,26000,7000,50,73,57,North Colorado Medical Center
7.17,2.31,40.18134,-105.12769,CO,31000,6000,50,71,76,Longmont United Hospital
5.89,2.22,39.76893,-105.09006,CO,24000,5000,50,47,79,Exempla Lutheran Medical Center
4.38,2.24,40.57315,-105.05741,CO,16000,5000,50,68,95,Poudre Valley Hospital
6.03,2.31,38.23421,-104.62292,CO,25000,6000,50,53,29,Centura Health-St Mary Corwin Medical Center
5.22,2.25,38.83903,-104.80024,CO,21000,5000,66,68,33,Memorial Hospital Central
4.51,2.43,39.09046,-108.56190,CO,17000,6000,50,48,57,St Marys Hospital And Medical Center
6.20,2.95,39.74234,-104.84156,CO,26000,9000,66,66,69,University Of Colorado Hospital Anschutz Inpatient
5.80,2.18,38.86559,-104.82182,CO,24000,5000,50,70,37,Centura Health-Penrose St Francis Health Services
8.03,2.30,39.65399,-104.98116,CO,35000,6000,33,47,17,Swedish Medical Center
6.90,2.33,39.67005,-104.97490,CO,29000,6000,50,75,79,Centura Health-Porter Adventist Hospital
8.73,2.58,39.68859,-104.83205,CO,39000,7000,50,61,13,Medical Center Of Aurora The
5.94,2.21,39.57629,-104.98610,CO,24000,5000,50,78,54,Centura Health-Littleton Adventist Hospital
6.52,2.24,39.54881,-104.77119,CO,27000,5000,50,60,12,Parker Adventist Hospital
6.87,2.80,41.30978,-72.93806,CT,29000,8000,66,57,8,Hospital Of St Raphael
4.76,2.65,41.77507,-72.69941,CT,18000,8000,50,53,85,St Francis Hospital & Medical Center
8.17,2.56,41.05562,-73.55390,CT,36000,7000,50,52,10,Stamford Hospital
4.42,2.48,41.33722,-72.10380,CT,17000,7000,50,72,92,Lawrence & Memorial Hospital
7.43,3.17,41.18881,-73.16645,CT,32000,10000,50,51,21,Bridgeport Hospital
3.46,2.61,41.55241,-73.03554,CT,12000,7000,50,56,39,Saint Marys Hospital
5.45,2.46,41.03431,-73.63020,CT,22000,7000,50,48,63,Greenwich Hospital Association
9.78,3.36,41.30400,-72.93502,CT,44000,11000,66,41,3,Yale-New Haven Hospital
5.29,2.40,41.54301,-72.08799,CT,21000,6000,50,70,44,William W Backus Hospital
5.81,2.80,41.75412,-72.67927,CT,24000,8000,50,47,9,Hartford Hospital
5.09,2.68,41.20049,-73.20281,CT,20000,8000,66,78,63,St Vincent'S Medical Center
5.38,2.58,41.33493,-73.08978,CT,22000,7000,50,77,92,Griffin Hospital
4.55,2.54,41.40474,-73.44739,CT,17000,7000,50,66,57,Danbury Hospital
7.32,2.73,41.11147,-73.42010,CT,32000,8000,50,72,92,Norwalk Hospital Association
4.53,2.51,41.66107,-72.78671,CT,17000,7000,50,52,8,Hospital Of Central Connecticut The
6.06,3.21,41.73545,-72.79489,CT,25000,10000,25,60,8,John Dempsey Hospital
4.88,2.73,39.69005,-75.68408,DE,19000,8000,66,58,39,Christiana Care Health Services Inc.
4.28,2.32,39.15135,-75.52309,DE,16000,6000,50,58,90,Bayhealth - Kent General Hospital
8.49,3.11,38.90106,-77.05079,DC,38000,10000,50,50,13,George Washington Univ Hospital
8.36,3.14,38.91221,-77.07588,DC,37000,10000,66,65,0,Georgetown University Hospital
4.03,2.64,38.94397,-76.99040,DC,15000,8000,50,57,24,Providence Hospital
6.15,2.77,38.92944,-77.01473,DC,26000,8000,33,58,1,Washington Hospital Center
6.15,2.78,30.34913,-81.66391,FL,26000,8000,50,62,0,Shands Jacksonville Medical Center
9.35,2.36,26.50479,-80.06979,FL,42000,6000,50,53,99,Bethesda Memorial Hospital
6.54,2.42,28.52517,-81.37729,FL,28000,6000,66,47,29,Orlando Health
6.43,2.37,28.57345,-81.36990,FL,27000,6000,83,66,24,Florida Hospital
7.67,2.48,25.68309,-80.34038,FL,33000,7000,50,62,85,Baptist Hospital Of Miami Inc
10.90,2.57,25.78846,-80.21644,FL,50000,7000,83,56,0,University Of Miami Hospital
4.91,2.25,26.62849,-81.87423,FL,19000,5000,66,52,16,Lee Memorial Hospital
5.04,2.27,29.20117,-81.05828,FL,20000,6000,66,76,79,Halifax Health Medical Center
5.17,2.22,26.15053,-81.79919,FL,21000,5000,66,62,39,Naples Community Hospital
6.94,2.18,28.08771,-80.61362,FL,30000,5000,66,58,17,Holmes Regional Medical Center
6.85,3.67,25.79143,-80.21250,FL,29000,13000,83,48,4,Jackson Memorial Hospital
4.68,2.14,28.83363,-82.33561,FL,18000,5000,50,55,44,Citrus Memorial Hospital
4.28,2.35,30.47650,-87.21219,FL,16000,6000,50,41,39,Sacred Heart Hospital
4.34,2.20,30.15963,-85.64818,FL,16000,5000,66,73,43,Bay Medical Center
6.46,2.48,25.86166,-80.21398,FL,27000,7000,50,83,69,North Shore Medical Center
5.45,2.29,28.54917,-81.52746,FL,22000,6000,50,70,57,Health Central
6.36,2.43,27.76332,-82.64325,FL,27000,6000,50,82,20,Bayfront Medical Center Inc
7.03,2.60,25.81317,-80.13996,FL,30000,7000,66,47,24,Mount Sinai Medical Center
5.10,2.27,27.49789,-82.56220,FL,20000,6000,50,55,29,Manatee Memorial Hospital
8.45,2.57,26.01867,-80.17981,FL,37000,7000,83,63,76,Memorial Regional Hospital
4.26,2.18,30.30835,-81.68919,FL,16000,5000,50,68,82,St Vincent'S Medical Center
4.44,2.09,28.01404,-82.78368,FL,17000,5000,50,75,54,Mease Hospital Dunedin
6.13,2.23,27.19837,-80.24306,FL,25000,5000,66,70,57,Martin Memorial Medical Center
4.13,2.20,29.04263,-81.31635,FL,15000,5000,50,86,98,Florida Hospital Deland
5.30,2.12,26.94042,-82.04094,FL,21000,5000,50,72,85,Charlotte Regional Medical Center
4.37,2.59,25.86856,-80.31222,FL,16000,7000,50,88,92,Palm Springs General Hospital
6.94,2.22,28.02768,-81.72466,FL,30000,5000,50,62,2,Winter Haven Hospital
4.70,2.16,28.82358,-81.71133,FL,18000,5000,50,71,48,Florida Hospital Waterman
5.50,2.50,25.74067,-80.21244,FL,22000,7000,0,0,0,Mercy Hospital Inc
4.52,2.16,29.17594,-82.13898,FL,17000,5000,50,60,94,Munroe Regional Medical Center
4.35,2.14,28.25431,-82.71447,FL,16000,5000,50,96,39,Morton Plant North Bay Hospital
5.22,2.23,27.78088,-82.65126,FL,21000,5000,50,68,57,St Anthony'S Hospital
3.94,2.13,27.09043,-82.44499,FL,14000,5000,50,76,48,Venice Regional Medical Center
7.78,2.24,28.53906,-82.44193,FL,34000,5000,50,75,57,Brooksville Regional Hospital
5.39,2.18,28.91403,-81.28480,FL,22000,5000,83,75,5,Florida Hospital Fish Memorial
5.51,2.14,26.18711,-80.11941,FL,22000,5000,83,57,37,Holy Cross Hospital Inc
5.64,2.38,27.98242,-82.49025,FL,23000,6000,66,60,29,St Joseph'S Hospital
7.12,2.27,26.98905,-82.09559,FL,31000,6000,50,68,43,Peace River Regional Medical Center
7.42,2.30,26.59805,-80.09271,FL,32000,6000,100,60,27,Jfk Medical Center
4.73,2.14,28.80659,-81.86906,FL,18000,5000,33,67,24,Leesburg Regional Medical Center
3.74,2.11,27.31827,-82.53140,FL,13000,5000,33,37,69,Sarasota Memorial Hospital
7.17,2.28,30.31525,-81.66398,FL,31000,6000,66,47,12,Baptist Medical Center
4.31,2.33,29.86371,-81.31749,FL,16000,6000,66,76,29,Flagler Hospital
4.71,2.17,28.33522,-80.72319,FL,18000,5000,50,63,97,Wuesthoff Medical Center  Rockledge
3.50,2.21,27.65832,-80.39307,FL,12000,5000,66,76,99,Indian River Medical Center
6.63,2.21,26.61563,-81.65945,FL,28000,5000,50,78,33,Lehigh Regional Medical Center
5.46,2.20,27.50001,-81.43962,FL,22000,5000,50,61,85,Florida Hospital Heartland Medical Center
7.94,2.33,28.29946,-81.41021,FL,35000,6000,50,63,51,Osceola Regional Medical Center
4.86,2.81,29.64155,-82.34844,FL,19000,8000,66,53,29,Shands Hospital At The University Of Florida
6.71,2.42,30.73540,-86.56171,FL,28000,6000,50,90,97,North Okaloosa Medical Center
5.60,2.32,27.95192,-82.80379,FL,23000,6000,66,62,9,Morton Plant Hospital
10.30,2.82,27.93740,-82.45927,FL,47000,8000,66,66,0,Tampa General Hospital
9.46,2.32,25.96994,-80.14533,FL,43000,6000,50,63,79,Aventura Hospital And Medical Center
4.37,2.20,28.01563,-82.13900,FL,16000,5000,50,92,57,South Florida Baptist Hospital
5.18,2.35,30.45726,-84.26175,FL,21000,6000,66,57,63,Tallahassee Memorial Healthcare
6.19,2.24,28.18120,-81.64018,FL,26000,5000,50,72,57,Heart Of Florida Regional Medical Center
5.84,2.60,24.58076,-81.74233,FL,24000,7000,0,0,0,Lower Keys Medical Center
4.48,2.51,30.26389,-81.44283,FL,17000,7000,83,62,90,Mayo Clinic
4.85,2.42,30.18340,-82.68783,FL,19000,6000,0,0,0,Lake City Medical Center
5.45,2.18,28.06172,-81.95304,FL,22000,5000,50,52,3,Lakeland Regional Medical Center
6.27,2.22,28.81611,-81.28351,FL,26000,5000,50,56,97,Central Florida Regional Hospital
4.79,2.18,26.35875,-80.10203,FL,19000,5000,66,46,43,Boca Raton Regional Hospital
6.21,2.41,28.07111,-82.42342,FL,26000,6000,50,68,37,Florida Hospital Tampa
6.45,2.17,26.83035,-80.08655,FL,27000,5000,100,56,37,Palm Beach Gardens Medical Center
9.88,2.17,30.28793,-81.60103,FL,45000,5000,33,48,24,Memorial Hospital Jacksonville
8.51,2.34,27.80541,-82.72694,FL,38000,6000,33,48,8,St Petersburg General Hospital
11.58,2.72,25.88563,-80.32635,FL,53000,8000,66,78,90,Palmetto General Hospital
9.64,2.18,28.19342,-82.46987,FL,43000,5000,50,77,43,Medical Center Of Trinity
8.39,2.24,29.66085,-82.41172,FL,37000,5000,33,52,17,North Florida Regional Medical Center
8.93,2.52,25.73195,-80.38580,FL,40000,7000,33,51,79,Kendall Regional Medical Center
4.96,2.15,28.34805,-82.19963,FL,19000,5000,50,91,5,Pasco Regional Medical Center
7.08,2.11,29.17550,-82.13680,FL,30000,5000,83,55,85,Ocala Regional Medical Center
6.95,2.12,27.48213,-82.62126,FL,30000,5000,50,75,69,Blake Medical Center
4.60,2.18,26.52735,-81.83337,FL,18000,5000,50,58,63,Gulf Coast Medical Center Lee Mem Health System
10.61,2.12,30.45448,-86.63362,FL,48000,5000,50,72,63,Fort Walton Beach Medical Center
8.97,2.21,26.21219,-80.25478,FL,40000,5000,0,0,0,University Hospital And Medical Center
9.24,2.20,30.16550,-81.73775,FL,41000,5000,33,68,57,Orange Park Medical Center
7.22,2.23,26.12354,-80.25951,FL,31000,5000,50,57,74,Westside Regional Medical Center
8.77,2.12,30.51624,-87.21856,FL,39000,5000,50,65,4,West Florida Hospital
3.32,2.22,29.64481,-81.69431,FL,11000,5000,50,78,48,Putnam Community Medical Center
7.26,2.14,26.98884,-82.09877,FL,31000,5000,50,80,57,Fawcett Memorial Hospital
8.79,2.23,27.82545,-82.70122,FL,39000,5000,50,65,33,Northside Hospital
8.00,2.26,27.93259,-82.28759,FL,35000,6000,66,67,21,Brandon Regional Hospital
4.79,2.14,26.63958,-81.94164,FL,19000,5000,50,52,21,Cape Coral Hospital
8.30,2.48,27.43392,-80.34350,FL,37000,7000,83,53,29,Lawnwood Regional Medical Center & Heart Institute
6.15,2.18,27.91458,-82.80382,FL,26000,5000,50,48,24,Largo Medical Center
4.67,2.14,28.95195,-82.62421,FL,18000,5000,50,72,21,Seven Rivers Regional Medical Center
4.99,2.20,26.92138,-80.09708,FL,20000,5000,50,61,54,Jupiter Medical Center
5.75,2.24,30.47616,-84.23140,FL,23000,5000,50,66,57,Capital Regional Medical Center
8.75,2.14,28.36128,-82.68883,FL,39000,5000,66,67,90,Regional Medical Center Bayonet Point
7.68,2.20,26.43709,-80.12728,FL,33000,5000,83,72,92,Delray Medical Center
7.46,2.08,27.71350,-82.36512,FL,32000,5000,33,66,33,South Bay Hospital
8.37,2.38,27.28861,-80.29431,FL,37000,6000,50,65,54,St Lucie Medical Center
8.78,2.08,28.53585,-82.53404,FL,39000,5000,66,71,57,Oak Hill Hospital
4.58,2.12,28.03957,-82.70875,FL,17000,5000,66,66,54,Mease Countryside Hospital
9.10,2.40,26.01394,-80.30980,FL,41000,6000,66,71,63,Memorial Hospital West
7.94,2.27,26.70181,-80.05055,FL,35000,6000,50,58,63,Good Samaritan Medical Center
8.01,2.24,26.08155,-80.36449,FL,35000,5000,100,57,48,Cleveland Clinic Hospital
5.30,2.13,28.94952,-81.95843,FL,21000,5000,33,80,94,Villages Regional Hospital The
11.59,2.60,25.72132,-80.27116,FL,54000,7000,0,0,0,Doctors Hospital Inc
5.93,2.17,28.24311,-81.30279,FL,24000,5000,50,86,41,St Cloud Regional Medical Center
4.84,2.09,30.25377,-81.58270,FL,19000,5000,50,77,29,St Vincent'S Medical Center Southside
5.60,2.34,34.78963,-84.98398,GA,23000,6000,50,76,10,Hamilton Medical Center
3.53,2.16,31.22516,-82.34898,GA,12000,5000,50,93,33,Satilla Regional Medical Center
6.05,2.20,34.17863,-84.13992,GA,25000,5000,66,63,46,Northside Hospital Forsyth
3.81,2.38,31.59023,-84.15756,GA,14000,6000,50,53,11,Phoebe Putney Memorial Hospital
5.86,3.05,33.79230,-84.32107,GA,24000,10000,50,41,8,Emory University Hospital
3.53,2.19,33.03204,-85.05781,GA,12000,5000,50,78,95,West Georgia Medical Center
3.23,2.23,33.60237,-83.84809,GA,11000,5000,0,0,0,Newton Medical Center
5.84,2.28,32.02825,-81.09977,GA,24000,6000,83,81,1,Candler Hospital
4.33,2.68,33.47096,-81.98176,GA,16000,8000,50,51,21,University Hospital
3.95,2.22,34.30335,-83.81737,GA,14000,5000,66,58,44,Northeast Georgia Medical Center Inc
6.18,3.00,33.47091,-81.98988,GA,26000,9000,66,45,37,Medical College Of Ga Hospitals And Clinics
6.33,2.32,33.96770,-84.55011,GA,26000,6000,66,62,44,Wellstar Kennestone Hospital
4.46,2.46,32.03185,-81.09158,GA,17000,7000,66,61,24,Memorial Health Univ Med Cen Inc
4.22,2.12,31.98515,-81.15475,GA,16000,5000,66,72,33,St Joseph'S Hospital - Savannah
4.67,2.29,32.61642,-83.63065,GA,18000,6000,50,73,74,Houston Medical Center
4.40,2.30,33.96117,-83.39832,GA,17000,6000,50,68,92,Athens Regional Medical Center
5.74,2.34,32.41483,-81.76990,GA,23000,6000,50,82,39,East Georgia Regional Medical Center
4.20,2.38,33.78956,-84.28077,GA,15000,6000,50,83,11,Dekalb Medical Center
5.00,2.37,33.76810,-84.38616,GA,20000,6000,33,45,9,Emory University Hospital Midtown
4.92,2.87,33.75205,-84.38272,GA,19000,9000,33,56,0,Grady Memorial Hospital
4.84,2.46,33.81003,-84.39568,GA,19000,7000,33,57,44,Piedmont Hospital
3.45,2.15,31.50971,-82.86341,GA,12000,5000,0,0,0,Coffee Regional Medical Center
5.63,2.44,33.68072,-84.00200,GA,23000,6000,50,56,33,Rockdale Medical Center
4.08,2.25,31.47069,-83.50473,GA,15000,5000,16,80,32,Tift Regional Medical Center
4.99,2.41,32.83041,-83.63476,GA,20000,6000,66,48,44,Medical Center Of Central Georgia
3.70,2.28,30.86250,-83.28630,GA,13000,6000,66,67,74,South Georgia Medical Center
3.53,2.12,32.50679,-84.95933,GA,12000,5000,83,67,69,St Francis Hospital Inc
5.01,2.35,33.85638,-84.60446,GA,20000,6000,50,56,33,Wellstar Cobb Hospital
6.59,2.29,32.84705,-83.61823,GA,28000,6000,66,62,9,Coliseum Medical Center
5.04,2.36,33.57843,-84.38897,GA,20000,6000,50,78,24,Southern Regional Medical Center
5.61,2.19,34.25704,-85.16467,GA,23000,5000,50,87,24,Redmond Regional Medical Center
6.08,2.19,33.87683,-84.02136,GA,25000,5000,50,77,44,Emory Eastside Medical Center
3.11,2.12,30.89823,-83.33519,GA,10000,5000,0,0,0,Smith Northview Hospital
5.17,2.17,33.45252,-84.50697,GA,20000,5000,50,60,33,Piedmont Fayette Hospital
6.55,3.05,21.30780,-157.85505,HI,28000,10000,66,68,44,The Queens Medical Center
4.15,2.24,43.61218,-116.19234,ID,15000,5000,66,61,16,St Lukes Regional Medical Center
6.85,2.36,41.52896,-88.13550,IL,29000,6000,50,75,82,Provena St Joseph Medical Center
7.56,2.24,41.91082,-87.84451,IL,33000,5000,33,81,57,Loyola Gottlieb Memorial Hospital
5.12,2.34,42.06550,-87.68428,IL,20000,6000,33,55,57,Evanston Hospital
5.32,2.63,39.93563,-91.39833,IL,21000,7000,50,55,92,Blessing Hospital
7.38,2.46,42.07012,-88.33180,IL,32000,7000,50,82,24,Sherman Hospital
4.03,2.25,38.52908,-89.11604,IL,15000,5000,50,86,17,St Marys Hospital
3.90,2.15,38.32292,-88.91026,IL,14000,5000,50,81,90,Good Samaritan Regional Hlth Center
4.76,2.61,41.72636,-87.56727,IL,18000,7000,50,65,74,Advocate Trinity Hospital
6.92,2.72,41.89141,-87.77618,IL,30000,8000,50,72,92,West Suburban Medical Center
4.80,2.50,42.05624,-87.74012,IL,19000,7000,50,75,85,Skokie Hospital
6.20,2.40,39.80726,-89.64496,IL,26000,6000,50,58,79,St Johns Hospital
4.76,2.61,41.83195,-87.79266,IL,18000,7000,50,78,57,Macneal  Hospital
5.73,2.20,41.66900,-87.81414,IL,23000,5000,50,72,95,Palos Community Hospital
4.67,2.25,41.79660,-87.88627,IL,18000,5000,83,63,37,Adventist La Grange Memorial Hospital
7.45,2.39,40.70200,-89.59222,IL,32000,6000,66,57,3,Saint Francis Medical Center
5.08,2.64,41.96698,-87.64941,IL,20000,7000,50,70,43,Louis A Weiss Memorial Hospital
5.78,2.43,42.37840,-87.83329,IL,24000,6000,50,73,62,Vista Medical Center East
8.47,3.04,41.78829,-87.60485,IL,37000,10000,66,66,11,The University Of Chicago Medical Center
4.55,2.25,40.13811,-87.64569,IL,17000,5000,0,0,0,Provena United Samaritans Medctr-Logan
9.19,2.31,40.11739,-88.22714,IL,41000,6000,50,62,21,Provena Covenant Medical Center- Urbana
6.38,2.70,41.97532,-87.69958,IL,27000,8000,50,85,51,Swedish Covenant Hospital
3.29,2.65,41.95453,-87.65225,IL,11000,8000,0,0,0,Thorek Memorial Hospital
4.40,2.15,42.31832,-88.27920,IL,17000,5000,50,83,24,Centegra Health System - Mc Henry Hospital
6.47,2.38,41.98743,-87.81440,IL,27000,6000,66,62,69,Resurrection Medical Center
4.25,2.36,41.65880,-87.67729,IL,16000,6000,50,65,94,Metrosouth Medical Center
5.34,3.03,41.87497,-87.66927,IL,21000,9000,50,42,33,Rush University Medical Center
4.99,2.25,41.80555,-87.92059,IL,20000,5000,50,67,54,Hinsdale Hospital
9.16,2.42,38.70148,-90.14382,IL,41000,6000,0,0,0,Gateway Regional Medical Center
5.96,2.42,42.25244,-87.86528,IL,25000,6000,25,90,21,Lake Forest Hospital
4.08,2.41,41.76946,-87.69239,IL,15000,6000,50,82,94,Holy Cross Hospital
4.47,2.32,39.80893,-89.65530,IL,17000,6000,83,57,11,Memorial Medical Center
8.33,3.56,41.86927,-87.67052,IL,37000,12000,50,76,29,University Of Illinois Hospital
4.49,2.34,41.12049,-87.87187,IL,17000,6000,50,68,97,Provena St Marys Hospital
3.85,2.81,41.84639,-87.62345,IL,14000,8000,25,46,39,Mercy Hospital And Medical Center
3.37,2.30,39.82659,-88.93119,IL,11000,6000,50,71,82,St Marys Hospital
5.24,2.49,41.52283,-87.71111,IL,21000,7000,50,75,33,Franciscan St James Health
4.85,2.25,42.27597,-88.40019,IL,19000,5000,50,71,56,Centegra Health System - Woodstock Hospital
6.64,2.76,41.75746,-87.58559,IL,28000,8000,0,0,0,Jackson Park Hospital
5.88,2.28,41.72094,-87.69220,IL,24000,6000,16,63,69,Little Company Of Mary Hospital
5.93,2.89,41.90414,-87.68254,IL,24000,9000,75,50,54,St Mary & Elizabeth Med Ctr-Division Campus
6.91,2.94,41.93641,-87.65295,IL,29000,9000,50,77,85,Advocate Illinois Masonic Medical Center
4.44,2.17,38.55020,-90.02146,IL,17000,5000,66,81,21,Memorial Hospital
4.57,2.44,41.12572,-87.88526,IL,17000,6000,50,72,81,Riverside Medical Center
3.83,2.23,38.51081,-89.99014,IL,14000,5000,50,65,6,St Elizabeth Hospital
6.18,2.36,41.60726,-87.66060,IL,26000,6000,50,65,76,Ingalls Memorial Hospital
6.41,2.18,41.86362,-87.93567,IL,27000,5000,50,76,92,Elmhurst Memorial Hospital
6.29,2.27,42.27447,-87.95764,IL,26000,6000,50,70,79,Advocate Condell Medical Center
5.01,2.53,41.72031,-87.73249,IL,20000,7000,50,57,74,Advocate Christ Hospital & Medical Center
5.08,2.33,40.70065,-89.59505,IL,20000,6000,50,78,48,Methodist Medical Center Of Illinois
5.28,2.19,41.88566,-88.34311,IL,21000,5000,50,81,4,Delnor Community Hospital
4.43,2.28,41.54446,-87.98379,IL,17000,6000,50,68,88,Silver Cross Hospital  And Medical Centers
6.17,2.19,42.03576,-88.32575,IL,26000,5000,50,65,99,Provena - Saint Joseph Hospital
4.99,2.49,42.03837,-87.84820,IL,20000,7000,83,77,69,Advocate Lutheran General Hospital
4.94,2.61,41.93418,-87.63579,IL,19000,7000,50,61,29,Saint Joseph Hospital
5.01,2.36,42.26584,-89.07428,IL,20000,6000,50,65,76,Swedish American Hospital
4.76,2.13,41.76076,-88.15016,IL,18000,5000,50,68,29,Edward Hospital
6.68,2.41,42.26634,-89.00900,IL,28000,6000,50,50,29,Saint Anthony Medical Center
4.11,2.28,42.29844,-89.09897,IL,15000,6000,50,87,56,Rockford Memorial Hospital
6.67,2.20,41.87269,-88.15684,IL,28000,5000,66,62,88,Central Dupage Hospital
4.69,2.32,41.56720,-87.69566,IL,18000,6000,50,80,63,Advocate South Suburban Hospital
5.18,2.22,42.06732,-87.99368,IL,21000,5000,66,67,57,Northwest Community Hospital
5.35,2.22,42.00413,-88.01745,IL,21000,5000,66,78,88,Alexian Brothers Medical Center
4.29,2.81,41.86110,-87.83404,IL,16000,8000,66,46,4,Loyola University Medical Center
3.72,2.17,41.48200,-90.57158,IL,13000,5000,50,58,63,Trinity Rock Island
7.26,2.73,41.89477,-87.62131,IL,31000,8000,50,61,94,Northwestern Memorial Hospital
5.16,2.24,41.81791,-88.00907,IL,20000,5000,50,86,95,Advocate Good Samaritan Hospital
6.92,2.23,42.05260,-88.14173,IL,29000,5000,50,80,57,St Alexius Medical Center
4.20,2.18,42.19586,-88.17286,IL,16000,5000,50,80,95,Advocate Good Shepherd Hospital
3.98,2.43,41.59920,-87.35764,IN,14000,6000,50,65,94,Methodist Hospitals Inc
4.57,2.40,41.61514,-87.52413,IN,17000,6000,50,81,74,Franciscan St Margaret Health - Hammond
5.07,2.14,41.61055,-86.72511,IN,20000,5000,0,0,0,Indiana University Health La Porte Hospital
3.92,2.13,40.44665,-86.12707,IN,14000,5000,50,80,54,Howard Regional Health System
4.31,2.33,41.70877,-86.17026,IN,16000,6000,50,88,57,Saint Joseph Regional Medical Center
4.56,2.20,41.70639,-86.89936,IN,17000,5000,0,0,0,Franciscan St Anthony Health - Michigan City
7.06,2.38,41.03874,-85.24876,IN,30000,6000,66,63,32,Lutheran Hospital Of Indiana
4.73,2.27,41.70568,-85.93404,IN,18000,6000,66,53,69,Elkhart General Hospital
5.67,2.23,41.04659,-85.10906,IN,23000,5000,83,60,44,Parkview Regional Medical Center
3.80,2.23,39.48518,-87.40893,IN,13000,5000,50,62,33,Union Hospital Inc
3.07,2.80,39.78091,-86.17629,IN,10000,8000,33,70,27,William N Wishard Memorial Hospital
4.19,2.13,39.72432,-86.10055,IN,15000,5000,0,0,0,Franciscan St Francis Health - Beech Grove
4.53,2.24,41.51266,-87.26125,IN,17000,5000,50,78,85,St Mary Medical Center Inc
7.03,2.25,41.46729,-87.05130,IN,30000,5000,50,75,63,Porter Valparaiso Hospital
4.23,2.20,38.30195,-85.83409,IN,16000,5000,66,85,85,Floyd Memorial Hospital And Health Services
2.68,2.27,39.86405,-84.88413,IN,8000,6000,100,63,27,Reid Hospital & Health Care Services
4.16,2.23,39.16006,-86.54038,IN,15000,5000,50,56,24,Indiana University Health Bloomington Hospital
6.17,3.02,39.79009,-86.16260,IN,26000,9000,50,51,79,Indiana University Health
4.62,2.38,41.68479,-86.25217,IN,18000,6000,66,60,8,Memorial Hospital Of South Bend
5.85,2.21,37.98293,-87.57072,IN,24000,5000,83,66,13,Deaconess Hospital Inc
6.08,2.40,39.91001,-86.19660,IN,25000,6000,66,47,88,St Vincent Hospital & Health Services
3.28,2.20,39.11138,-84.88343,IN,11000,5000,50,60,76,Dearborn County Hospital
3.39,2.20,40.09594,-85.68152,IN,11000,5000,0,0,0,Saint John'S Health System
4.64,2.28,40.19679,-85.41573,IN,18000,6000,66,62,85,Indiana University Health Ball Memorial Hospital
4.58,2.40,41.49222,-87.52429,IN,17000,6000,50,85,54,Franciscan St Margaret Health - Dyer
4.10,2.15,37.96320,-87.50292,IN,15000,5000,66,67,32,St Mary'S Medical Center Of Evansville Inc
3.21,2.20,40.12998,-85.69436,IN,10000,5000,50,86,37,Community Hospital Of Anderson And Madison County
4.12,2.22,41.55065,-87.50619,IN,15000,5000,50,75,85,Community Hospital
4.80,2.33,41.39576,-87.36689,IN,19000,6000,50,83,51,Franciscan St Anthony Health - Crown Point
4.82,2.62,39.78047,-86.34084,IN,19000,7000,0,0,0,Iu Health West Hospital
4.55,2.23,39.90060,-86.04218,IN,17000,5000,50,77,76,Community Hospital North
4.76,2.08,40.40296,-86.80885,IN,18000,5000,50,83,97,Indiana University Health Arnett Hospital
3.09,2.11,41.69967,-86.17647,IN,10000,5000,0,0,0,Unity Medical And Surgical Hospital
5.38,2.36,41.26886,-95.83923,IA,22000,6000,0,0,0,Alegent Health Mercy Hospital
4.72,2.18,41.66411,-91.52841,IA,18000,5000,50,65,48,Mercy Hospital
4.51,2.19,42.03321,-93.61164,IA,17000,5000,0,0,0,Mary Greeley Medical Center
3.56,2.18,41.54190,-90.55691,IA,12000,5000,66,58,97,Genesis Medical Center-Davenport
4.05,2.29,41.98570,-91.66093,IA,15000,6000,66,75,90,St Lukes Hospital
4.15,2.19,40.81009,-91.17356,IA,15000,5000,0,0,0,Great River Medical Center
5.83,2.83,41.66092,-91.54800,IA,24000,8000,16,38,63,University Of Iowa Hospital & Clinics
3.52,2.34,43.15063,-93.21718,IA,12000,6000,50,82,63,Mercy Medical Center-North Iowa
4.94,2.35,41.58955,-93.63248,IA,19000,6000,66,37,82,Iowa Methodist Medical Center
4.79,2.36,41.59886,-93.62344,IA,19000,6000,83,75,29,Mercy Medical Center-Des Moines
4.62,2.27,38.83324,-97.61028,KS,18000,6000,50,85,27,Salina Regional Health Center
3.62,2.15,39.05660,-95.69599,KS,13000,5000,33,51,33,St Francis Health Center Inc
10.01,2.75,39.05583,-94.60912,KS,45000,8000,66,53,63,University Of Kansas Hospital
4.85,2.27,39.05128,-95.69572,KS,19000,6000,66,71,10,Stormont-Vail Healthcare
7.58,2.27,38.99549,-94.69061,KS,33000,6000,66,46,21,Shawnee Mission Medical Center
5.74,2.34,37.70405,-97.31386,KS,23000,6000,66,68,21,Via Christi Hospitals Wichita Inc
7.19,2.32,37.69556,-97.29785,KS,31000,6000,66,52,5,Wesley Medical Center
6.10,2.27,39.12677,-94.78643,KS,25000,6000,50,60,82,Providence Medical Center
5.26,2.11,38.91047,-94.65205,KS,21000,5000,50,66,11,Menorah Medical Center
8.24,2.15,38.90355,-94.66966,KS,36000,5000,0,0,0,Saint Luke'S South Hospital
2.97,2.11,37.73142,-97.26078,KS,9000,5000,0,0,0,Galichia Heart Hospital Llc
3.78,2.25,38.47021,-82.63498,KY,13000,5000,66,60,54,King'S Daughters' Medical Center
3.79,2.13,38.03140,-84.52194,KY,13000,5000,83,67,79,Saint Joseph Hospital
3.46,2.17,37.71183,-85.87623,KY,12000,5000,83,78,39,Hardin Memorial Hospital
5.07,2.29,36.99641,-86.43006,KY,20000,6000,66,52,33,The Medical Center At Bowling Green
3.96,2.25,39.06704,-84.49946,KY,14000,5000,33,58,79,St Elizabeth Medical Center North
3.66,2.26,38.50697,-82.69222,KY,13000,6000,50,80,90,Our Lady Of Bellefonte Hospital
3.52,2.43,37.76518,-87.10197,KY,12000,6000,50,66,29,Owensboro Medical Health System
4.28,2.41,38.24927,-85.75081,KY,16000,6000,66,51,8,Jewish Hospital & St Mary'S Healthcare
3.03,2.23,37.64378,-84.77272,KY,9000,5000,0,0,0,Ephraim Mcdowell Regional Medical Center
7.60,3.12,38.03282,-84.50674,KY,33000,10000,33,62,33,University Of Kentucky Hospital
4.19,2.29,36.92128,-84.11838,KY,15000,6000,25,78,82,Baptist Regional Medical Center
5.81,2.39,38.24806,-85.75125,KY,24000,6000,50,35,39,Norton Hospitals Inc
4.49,2.12,37.06431,-88.67523,KY,17000,5000,50,42,20,Lourdes Hospital
4.85,2.26,38.01849,-84.51236,KY,19000,6000,50,71,57,Central Baptist Hospital
3.44,2.15,37.07404,-88.62685,KY,12000,5000,50,80,39,Western Baptist Hospital
2.38,2.35,36.69659,-85.13726,KY,6000,6000,0,0,0,Clinton County Hospital Inc
5.66,2.21,36.96603,-86.43639,KY,23000,5000,50,85,94,Greenview Regional Hospital
3.86,2.11,38.23898,-85.63941,KY,14000,5000,66,57,74,Baptist Hospital East
5.89,2.91,38.24802,-85.74464,KY,24000,9000,25,81,8,University Of Louisville Hospital
4.57,2.43,30.20227,-92.01906,LA,17000,6000,50,73,29,Lafayette General Medical Center
9.13,2.41,30.46813,-90.45814,LA,41000,6000,75,71,74,North Oaks Medical Center Llc
7.33,2.59,31.28258,-92.46060,LA,32000,7000,50,65,79,Christus St Frances Cabrini Hospital
5.65,2.28,31.31451,-92.44997,LA,23000,6000,66,40,39,Rapides Regional Medical Center
4.95,2.33,30.01875,-90.19452,LA,19000,6000,66,61,62,Ochsner Foundation Hospital
5.44,2.29,32.49443,-93.75011,LA,22000,6000,50,68,13,Christus Schumpert Health System
5.09,2.32,30.40118,-91.11160,LA,20000,6000,83,51,33,Our Lady Of The Lake Regional Medical Center
2.99,2.38,30.45015,-91.15273,LA,9000,6000,33,76,37,Baton Rouge General Medical Center
2.93,2.74,32.48177,-93.76264,LA,9000,8000,100,80,0,Lsu Health Sciences Center - Shreveport
4.30,2.14,30.15052,-92.03698,LA,16000,5000,50,71,57,Our Lady Of Lourdes Regional Medical Center Inc
5.35,2.26,32.48393,-93.77884,LA,21000,6000,50,63,62,Willis Knighton Medical Center
4.81,2.14,32.55761,-93.71874,LA,19000,5000,50,88,94,Willis Knighton Bossier Health Center
3.01,2.19,44.81469,-68.77153,ME,9000,5000,0,0,0,St Joseph Hospital
5.64,2.89,43.65325,-70.27533,ME,23000,9000,16,47,0,Maine Medical Center
4.32,2.16,53.96230,-1.08188,ME,16000,5000,0,0,0,York Hospital
3.91,2.39,44.80988,-68.74929,ME,14000,6000,50,58,37,Eastern Maine Medical Center
5.26,2.39,45.25378,-69.44547,ME,21000,6000,50,48,51,Maine General Medical Center
5.18,2.35,44.54695,-68.41654,ME,21000,6000,0,0,0,Maine Coast Memorial Hospital
4.21,2.45,44.14436,-69.08577,ME,16000,7000,0,0,0,Penobscot Bay Medical Center
2.85,2.76,39.62183,-77.68219,MD,9000,8000,0,0,0,Meritus Medical Center
4.74,4.53,39.28817,-76.62438,MD,18000,17000,0,0,0,University Of Maryland Medical Center
3.86,3.70,38.93090,-76.92161,MD,14000,13000,0,0,0,Prince Georges Hospital Center
3.89,3.73,39.01578,-77.03591,MD,14000,13000,0,0,0,Holy Cross Hospital
2.89,2.79,39.42366,-77.41386,MD,9000,8000,0,0,0,Frederick Memorial Hospital
2.74,2.66,39.54345,-76.09153,MD,8000,8000,0,0,0,Harford Memorial Hospital
3.15,3.05,39.38813,-76.61068,MD,10000,10000,0,0,0,Saint Joseph Medical Center
2.83,2.73,39.29297,-76.61314,MD,8000,8000,0,0,0,Mercy Medical Center Inc
6.32,6.02,39.29688,-76.59242,MD,26000,25000,0,0,0,Johns Hopkins Hospital The
2.76,2.66,39.27352,-76.67219,MD,8000,8000,0,0,0,Saint Agnes Hospital
2.79,2.69,39.35262,-76.66196,MD,8000,8000,0,0,0,Sinai Hospital Of Baltimore
2.86,2.76,39.35169,-76.47919,MD,9000,8000,0,0,0,Franklin Square Hospital Center
3.29,3.16,38.98482,-77.00139,MD,11000,10000,0,0,0,Washington Adventist Hospital
2.54,2.46,39.15402,-77.05431,MD,7000,7000,0,0,0,Montgomery General Hospital Inc
2.58,2.49,38.36248,-75.59799,MD,7000,7000,0,0,0,Peninsula Regional Medical Center
2.94,2.84,38.99743,-77.11048,MD,9000,9000,0,0,0,Suburban Hospital
2.67,2.59,38.99014,-76.53398,MD,8000,7000,0,0,0,Anne Arundel Medical Center
3.24,3.12,39.32930,-76.61432,MD,11000,10000,0,0,0,Union Memorial Hospital
2.95,2.85,39.64928,-78.73206,MD,9000,9000,0,0,0,Western Maryland Regional Medical Center
3.27,3.15,38.29124,-76.63579,MD,11000,10000,0,0,0,Saint Mary'S Hospital
5.26,5.02,39.29100,-76.54623,MD,21000,20000,0,0,0,Johns Hopkins Bayview Medical Center
2.93,2.82,39.60859,-75.83201,MD,9000,8000,0,0,0,Union Hospital Of Cecil County
2.78,2.68,39.55808,-76.99107,MD,8000,8000,0,0,0,Carroll Hospital Center
3.04,2.95,39.25189,-76.61399,MD,10000,9000,0,0,0,Harbor Hospital
2.47,2.39,38.52905,-76.97068,MD,7000,6000,0,0,0,Civista Medical Center
3.01,2.90,38.76970,-76.07697,MD,9000,9000,0,0,0,Memorial Hospital At Easton
3.08,2.97,39.29994,-76.62138,MD,10000,9000,0,0,0,Maryland General  Hospital
2.77,2.68,39.35852,-76.78208,MD,8000,8000,0,0,0,Northwest Hospital Center
2.63,2.54,39.13732,-76.62228,MD,7000,7000,0,0,0,Baltimore Washington  Medical Center
2.87,2.77,39.39017,-76.62216,MD,9000,8000,0,0,0,Greater Baltimore Medical Center
2.72,2.63,39.21273,-76.88526,MD,8000,7000,0,0,0,Howard County General Hospital
2.93,2.85,39.51870,-76.34688,MD,9000,9000,0,0,0,Upper Chesapeake Medical Center
3.00,2.91,38.96851,-76.86203,MD,9000,9000,0,0,0,Doctors'  Community Hospital
2.56,2.48,38.74827,-76.87590,MD,7000,7000,0,0,0,Southern Maryland Hospital Center
2.78,2.69,39.35962,-76.58851,MD,8000,8000,0,0,0,Good Samaritan Hospital
2.88,2.77,39.09796,-77.19799,MD,9000,8000,0,0,0,Shady Grove Adventist Hospital
2.59,2.51,38.33876,-75.21128,MD,7000,7000,0,0,0,Atlantic General Hospital
3.37,2.58,42.37441,-71.13378,MA,11000,7000,66,85,17,Mount Auburn Hospital
3.63,2.60,42.70912,-71.14877,MA,13000,7000,50,71,79,Lawrence General Hospital
2.94,2.94,42.37451,-71.10418,MA,9000,9000,50,87,94,Cambridge Health Alliance
3.07,2.67,41.65298,-70.27484,MA,10000,8000,50,56,95,Cape Cod Hospital
3.11,2.84,42.27872,-71.06625,MA,10000,9000,0,0,0,Carney Hospital
3.95,2.46,41.69217,-71.16474,MA,14000,7000,50,100,85,Saint Anne'S Hospital
4.53,2.57,42.20038,-72.62762,MA,17000,7000,0,0,0,Holyoke Medical Center
2.88,2.26,42.81476,-70.89068,MA,9000,6000,0,0,0,Anna Jaques Hospital
3.35,2.22,42.16849,-72.34130,MA,11000,5000,0,0,0,Wing Memorial Hospital And Medical Center
3.49,3.31,42.35843,-71.05977,MA,12000,11000,66,51,0,Boston Medical Center Corporation
3.04,2.38,42.56407,-70.87543,MA,10000,6000,50,62,63,Beverly Hospital Corporation
5.50,2.48,42.51078,-70.90712,MA,22000,7000,33,47,69,North Shore Medical Center
6.10,3.49,42.34896,-71.14768,MA,25000,12000,50,68,57,St Elizabeth'S Medical Center
3.36,2.61,51.46599,-1.28140,MA,11000,7000,50,76,20,Berkshire Medical Center Inc
3.32,2.64,42.03597,-71.09792,MA,11000,7000,50,61,57,Signature Healthcare Brockton Hospital
3.03,2.36,41.94445,-70.64511,MA,9000,6000,50,82,24,Jordan Hospital Inc
3.96,2.51,42.64636,-71.34118,MA,14000,7000,50,87,95,Lowell General Hospital
3.82,2.46,42.11449,-72.59502,MA,14000,7000,50,77,76,Mercy Medical Center
2.67,2.37,42.46049,-71.06203,MA,8000,6000,50,52,76,Hallmark Health System
9.05,3.04,42.36227,-71.06941,MA,40000,10000,50,43,16,Massachusetts General Hospital
2.37,2.32,41.90456,-71.09562,MA,6000,6000,50,85,24,Morton Hospital
3.99,2.44,41.70928,-71.14519,MA,14000,6000,25,51,88,Southcoast Hospital Group Inc
4.39,2.66,42.12077,-72.60525,MA,16000,8000,33,61,82,Baystate Medical Center
2.99,2.40,42.72846,-71.16830,MA,9000,6000,50,73,33,Holy Family Hospital
2.55,2.42,42.64529,-71.30052,MA,7000,6000,0,0,0,Saints  Medical Center Inc
4.65,2.97,42.33719,-71.10939,MA,18000,9000,33,71,33,Beth Israel Deaconess Medical Center
3.04,2.37,42.13234,-71.52825,MA,10000,6000,50,71,95,Milford Regional Medical Center
3.37,2.20,42.17644,-70.95398,MA,11000,5000,66,70,48,South Shore Hospital
4.97,2.34,42.33149,-71.24568,MA,19000,6000,66,70,99,Newton-Wellesley Hospital
2.28,2.25,42.46581,-71.12210,MA,6000,5000,50,58,24,Winchester Hospital
9.66,3.06,42.33600,-71.10704,MA,44000,10000,66,40,20,Brigham And Women'S Hospital
3.29,2.57,42.09864,-71.06607,MA,11000,7000,50,58,92,Good Samaritan Medical Center
3.62,3.02,42.34951,-71.06331,MA,12000,9000,50,63,85,Tufts Medical Center
4.93,2.62,42.30049,-71.12771,MA,19000,7000,50,96,3,Faulkner Hospital
2.71,2.27,42.18869,-71.20197,MA,8000,6000,50,77,81,Norwood Hospital
5.25,3.03,42.27720,-71.75922,MA,21000,10000,50,36,29,Umass Memorial Medical Center Inc
3.40,2.61,42.48585,-71.20686,MA,11000,7000,66,76,16,Lahey Clinic Hospital
3.20,2.45,42.28385,-71.41896,MA,10000,7000,50,76,85,Metrowest Medical Center
3.73,3.04,42.26633,-71.79760,MA,13000,10000,33,75,57,St Vincent Hospital
3.50,2.26,42.39466,-83.40537,MI,12000,6000,50,60,63,St Mary Mercy Hospital
5.10,2.50,42.28551,-85.58042,MI,20000,7000,66,82,13,Bronson Methodist Hospital
4.33,2.53,42.45741,-83.20513,MI,16000,7000,83,57,48,Providence Hospital And Medical Centers
4.44,2.49,42.29077,-83.21504,MI,17000,7000,33,48,69,Oakwood Hospital And Medical Center
3.07,2.32,42.08955,-86.47781,MI,10000,6000,33,68,88,Lakeland Hospital St Joseph
3.92,2.79,42.41911,-83.18228,MI,14000,8000,83,46,21,Sinai-Grace Hospital
3.77,2.58,42.61425,-83.27602,MI,13000,7000,66,52,79,St Joseph Mercy Oakland
3.57,2.50,42.96881,-85.66649,MI,12000,7000,33,66,82,Spectrum Health - Butterworth Campus
3.62,2.23,43.58941,-83.86908,MI,12000,5000,33,55,98,Mclaren Bay Region
6.16,3.49,42.28388,-83.72960,MI,26000,12000,50,61,43,University Of Michigan Health System
3.30,2.28,42.61490,-82.96060,MI,11000,6000,50,66,54,Henry Ford Macomb Hospital
4.42,2.85,42.36762,-83.08461,MI,17000,9000,66,47,8,Henry Ford Hospital
3.32,2.24,45.80941,-88.04422,MI,11000,5000,0,0,0,Dickinson County Memorial Hospital
4.57,2.55,42.95817,-85.66253,MI,17000,7000,50,53,90,Saint Mary'S Health Care
3.42,2.38,43.22169,-86.24283,MI,11000,6000,0,0,0,Mercy Health Partners Hackley Campus
4.12,2.33,43.42857,-83.95556,MI,15000,6000,83,61,63,Covenant Medical Center Inc
3.39,2.32,42.33111,-85.17817,MI,11000,6000,50,83,63,Bronson Battle Creek Hospital
4.88,2.28,43.42612,-83.94185,MI,19000,6000,66,63,57,St Mary'S Of Michigan Medical Center
3.20,2.22,44.24532,-85.38950,MI,10000,5000,0,0,0,Mercy Hospital - Cadillac
3.74,2.26,42.38392,-82.91480,MI,13000,6000,50,62,51,Beaumont Hospital Grosse Pointe
4.36,2.21,42.25117,-84.39240,MI,16000,5000,50,85,98,Allegiance Health
4.41,2.42,44.76156,-85.64143,MI,17000,6000,50,41,57,Munson Medical Center
3.08,2.24,41.91643,-83.39771,MI,10000,5000,50,68,37,Mercy Memorial Hospital System
5.69,3.33,42.35230,-83.05676,MI,23000,11000,66,62,63,Harper University Hospital
3.08,2.34,45.37209,-84.97065,MI,10000,6000,50,77,24,Northern Michigan Regional Hospital
4.62,2.36,42.30489,-85.56152,MI,18000,6000,66,47,76,Borgess Medical Center
4.81,2.57,42.51418,-83.19259,MI,19000,7000,66,60,16,William Beaumont Hospital
3.75,2.48,43.01399,-83.73250,MI,13000,7000,50,60,33,Mclaren Flint
3.77,2.30,42.27424,-83.36580,MI,13000,6000,50,70,48,Oakwood Annapolis Hospital
3.85,2.32,42.21065,-83.14861,MI,14000,6000,50,70,95,Henry Ford Wyandotte Hospital
3.00,2.60,42.46176,-83.37629,MI,9000,7000,50,78,24,Botsford Hospital
3.43,2.32,42.26181,-83.66003,MI,12000,6000,66,62,33,St Joseph Mercy Hospital
5.03,2.60,42.41975,-82.91442,MI,20000,7000,66,72,9,St John Hospital And Medical Center
4.59,2.38,42.70417,-84.55488,MI,17000,6000,33,76,21,Mclaren - Greater Lansing
4.56,2.72,42.11695,-83.21365,MI,17000,8000,33,70,79,Oakwood Southshore Medical Center
4.00,2.38,42.50514,-83.00422,MI,14000,6000,66,56,85,St John Macomb-Oakland Hospital-Macomb Center
4.08,2.54,42.89254,-83.63621,MI,15000,7000,66,70,13,Genesys Regional Medical Center - Health Park
4.50,2.24,42.98625,-82.42802,MI,17000,5000,50,62,29,Port Huron Hospital
3.33,2.33,42.58900,-82.89799,MI,11000,6000,66,61,63,Mount Clemens Regional Medical Center
5.86,2.55,42.73767,-84.51698,MI,24000,7000,83,68,1,Edward W Sparrow Hospital
4.26,2.67,42.33215,-83.31195,MI,16000,8000,50,82,37,Garden City Hospital
4.01,2.28,42.67850,-83.14771,MI,15000,6000,50,65,79,Crittenton Hospital Medical Center
4.86,2.26,42.61826,-83.09239,MI,19000,6000,83,60,62,William Beaumont Hospital-Troy
4.75,2.83,42.35295,-83.05447,MI,18000,8000,66,65,5,Detroit Receiving Hospital & Univ Health Center
4.33,2.13,42.53914,-83.40777,MI,16000,5000,50,53,39,Henry Ford West Bloomfield Hospital
4.61,2.34,45.01403,-93.32177,MN,18000,6000,66,68,82,North Memorial Medical Center
4.86,2.39,46.79380,-92.09573,MN,19000,6000,83,75,79,Essentia Health St Mary'S Medical Center
4.20,3.24,44.97210,-93.26240,MN,15000,11000,33,37,29,Hennepin County Medical Center
4.56,2.61,44.02052,-92.48292,MN,17000,7000,83,42,32,Mayo Clinic - Saint Marys Hospital
5.86,2.67,45.57390,-94.16942,MN,24000,8000,50,61,37,St Cloud Hospital
5.92,2.49,44.94214,-93.10858,MN,24000,7000,50,86,33,United Hospital
3.35,2.38,46.79634,-92.08793,MN,11000,6000,50,71,29,St Lukes Hospital
2.84,2.26,44.93031,-93.36276,MN,9000,6000,66,72,94,Park Nicollet Methodist Hospital
6.74,2.51,44.95248,-93.26196,MN,29000,7000,50,70,63,Abbott Northwestern Hospital
4.47,2.33,44.94898,-93.10016,MN,17000,6000,33,66,57,St Joseph'S Hospital
3.77,2.31,46.36166,-94.20573,MN,13000,6000,0,0,0,Essentia Health St Joseph'S Medical Center
7.15,2.41,44.88645,-93.32693,MN,31000,6000,66,62,94,Fairview Southdale Hospital
11.34,3.58,44.96766,-93.23640,MN,52000,12000,66,56,57,University Of Minnesota  Medical Center Fairview
3.66,2.42,44.16396,-94.00412,MN,13000,6000,50,57,76,Mayo Clinic Health System - Mankato
6.75,2.77,44.95570,-93.09429,MN,29000,8000,50,78,17,Regions Hospital
4.58,2.27,45.18355,-93.36789,MN,17000,6000,50,73,95,Mercy Hospital
5.09,2.19,45.10789,-93.25685,MN,20000,5000,33,85,85,Unity Hospital
4.93,2.32,45.02892,-93.03418,MN,19000,6000,50,75,24,Healtheast St John'S Hospital
5.06,2.72,32.33069,-90.17030,MS,20000,8000,66,51,6,University Of Mississippi Med Center
4.71,2.39,34.24336,-88.71753,MS,18000,6000,66,61,48,North Mississippi Medical Center
3.25,2.19,34.49648,-89.03326,MS,11000,5000,0,0,0,Baptist Memorial Hospital Union County
5.55,2.29,32.35265,-90.87788,MS,22000,6000,50,80,37,River Region Health System
7.07,2.42,30.37516,-88.53226,MS,30000,6000,50,70,3,Singing River Hospital
5.01,2.48,34.19610,-90.55208,MS,20000,7000,0,0,0,Northwest Mississippi Regional Medical Center
4.55,2.26,32.33616,-90.15652,MS,17000,6000,50,60,44,St Dominic-Jackson Memorial Hospital
7.97,2.31,32.28805,-90.25566,MS,35000,6000,50,81,8,Central Mississippi Medical Center
4.19,2.23,31.31872,-89.32955,MS,15000,5000,50,57,54,Forrest General Hospital
5.66,2.08,32.28618,-90.03434,MS,23000,5000,50,68,6,Crossgates River Oaks Hospital
4.10,2.27,33.51824,-90.19832,MS,15000,6000,0,0,0,Greenwood Leflore Hospital
5.30,2.22,32.31643,-90.17922,MS,21000,5000,66,43,85,Mississippi Baptist Medical Center
4.04,2.18,32.37280,-88.69954,MS,15000,5000,50,77,39,Anderson Regional Medical Center
4.32,2.31,34.96927,-89.99709,MS,16000,6000,50,68,11,Baptist Memorial Hospital Desoto
4.30,2.18,37.06032,-94.52747,MO,16000,5000,0,0,0,St John'S Regional Medical Center
4.20,2.48,39.77393,-94.77089,MO,15000,7000,50,58,51,Heartland Regional Medical Center
3.54,2.15,38.69946,-93.22211,MO,12000,5000,50,82,63,Bothwell Regional Health Center
4.17,2.11,38.57670,-92.17352,MO,15000,5000,50,86,0,St Marys Health Center
4.93,2.54,37.95144,-91.75940,MO,19000,7000,50,88,48,Phelps County Regional Medical Center
4.85,2.23,38.64281,-90.44448,MO,19000,5000,83,57,74,Mercy Hospital St Louis
3.11,2.14,38.16498,-90.38082,MO,10000,5000,50,83,82,Jefferson Regional Medical Center
4.94,2.65,38.63524,-90.26508,MO,19000,8000,50,56,12,Barnes Jewish Hospital
4.10,2.23,37.14560,-93.28037,MO,15000,5000,50,61,85,Cox Medical Center
4.74,2.21,37.17999,-93.27409,MO,18000,5000,66,61,24,St John'S Regional Health Center
3.64,2.08,38.94903,-92.31563,MO,13000,5000,66,73,43,Boone Hospital Center
3.35,2.09,38.50661,-90.38025,MO,11000,5000,66,57,13,St Anthony'S Medical Center
4.59,2.07,38.93592,-94.60376,MO,17000,5000,50,75,88,St Joseph Medical Center
4.89,2.57,38.63268,-90.31089,MO,19000,7000,83,77,57,Ssm St Marys Health Center
4.83,2.13,39.14957,-94.55148,MO,19000,5000,50,58,63,North Kansas City Hospital
5.07,2.27,38.75097,-90.43255,MO,20000,6000,66,68,43,Ssm Depaul Health Center
5.78,2.82,38.62280,-90.24049,MO,24000,8000,50,46,5,St Louis University Hospital
3.74,2.34,38.63702,-90.44699,MO,13000,6000,66,68,48,Missouri Baptist Medical Center
4.78,2.31,36.78510,-90.42779,MO,18000,6000,50,60,39,Poplar Bluff Regional Medical Center
7.58,2.44,39.04761,-94.59037,MO,33000,6000,66,50,17,St Lukes Hospital Of Kansas City
6.18,2.51,38.95171,-92.33407,MO,26000,7000,66,60,63,University Of Missouri Health Care
3.94,2.16,39.27591,-94.42572,MO,14000,5000,33,60,33,Liberty Hospital
4.02,2.19,38.65123,-90.50301,MO,15000,5000,66,67,12,St Lukes Hospital
4.96,2.21,38.77576,-90.23906,MO,19000,5000,66,75,4,Christian Hospital Northeast
6.11,2.21,37.30401,-89.57190,MO,25000,5000,50,65,11,St Francis Medical Center
5.80,2.43,38.12027,-92.68146,MO,24000,6000,50,52,8,Lake Regional Health System
5.41,2.27,38.58425,-90.22739,MO,22000,6000,50,58,33,St Alexius Hospital
6.70,2.10,38.94062,-94.37842,MO,28000,5000,0,0,0,Saint Luke'S East Lee'S Summit Hospital
5.80,2.51,45.78958,-108.51283,MT,24000,7000,50,86,88,Billings Clinic Hospital
4.55,2.32,47.49139,-111.26255,MT,17000,6000,50,61,57,Benefis Hospitals Inc
3.13,2.24,48.21465,-114.32386,MT,10000,5000,50,83,57,Kalispell Regional Medical Center
4.63,2.30,40.78318,-96.63709,NE,18000,6000,66,70,63,Bryanlgh Medical Center
4.82,2.54,41.25522,-95.97892,NE,19000,7000,50,52,51,The Nebraska Medical Center
3.81,2.14,40.92425,-98.37053,NE,13000,5000,50,81,33,St Francis Medical Center
3.21,2.24,40.59160,-98.38755,NE,10000,5000,0,0,0,Mary Lanning Memorial Hospital
4.90,2.25,41.25797,-96.04164,NE,19000,5000,50,73,33,The Nebraska Methodist Hospital
5.35,2.31,41.23897,-96.03162,NE,21000,6000,50,46,82,Alegent Health Bergan Mercy Medical Center
9.00,2.48,39.52637,-119.79456,NV,40000,7000,50,66,17,Renown Regional Medical Center
10.02,2.51,36.13459,-115.13576,NV,45000,7000,66,68,9,Sunrise Hospital And Medical Center
12.63,2.62,36.16380,-115.16574,NV,59000,7000,66,70,54,Valley Hospital Medical Center
10.29,2.50,36.21599,-115.25095,NV,47000,7000,66,57,13,Mountainview Hospital
9.26,2.34,36.16586,-115.32436,NV,42000,6000,83,72,27,Summerlin Hospital Medical Center
12.62,2.47,36.00527,-115.11618,NV,59000,7000,50,50,33,Saint Rose Dominican Hospital - Siena Campus
6.80,2.39,36.09056,-115.24058,NV,29000,6000,66,78,12,Spring Valley Hospital Medical Center
4.33,2.30,43.19846,-71.56230,NH,16000,6000,33,63,94,Concord Hospital
6.18,2.91,43.67286,-72.27232,NH,26000,9000,50,38,0,Mary Hitchcock Memorial Hospital
4.17,2.32,42.75004,-71.48100,NH,15000,6000,0,0,0,St Joseph Hospital
3.78,2.26,43.00792,-71.46807,NH,13000,6000,50,57,21,Elliot Hospital
4.52,2.24,42.98369,-70.93511,NH,17000,5000,0,0,0,Exeter Hospital Inc
4.46,2.21,43.06469,-70.78916,NH,17000,5000,50,76,48,Portsmouth Regional Hospital
5.02,2.19,42.99121,-71.47426,NH,20000,5000,33,63,92,Catholic Medical Center
12.47,2.67,40.88346,-74.05564,NJ,58000,8000,50,58,85,Hackensack University Medical Center
11.78,3.29,40.71011,-74.21368,NJ,54000,11000,66,56,11,Newark Beth Israel Medical Center
14.45,2.90,40.79576,-73.99575,NJ,68000,9000,25,62,32,Palisades Medical Ctr-Ny Presbyterian Healthcare S
5.27,2.44,40.53142,-74.86080,NJ,21000,6000,75,55,69,Hunterdon Medical Center
7.38,2.56,40.84945,-74.13768,NJ,32000,7000,50,56,85,St Mary'S Hospital Passaic
7.06,2.46,40.88275,-74.01021,NJ,30000,7000,66,67,57,Holy Name Medical Center
9.29,2.53,40.78556,-74.17598,NJ,42000,7000,66,83,95,Clara Maass Medical Center
8.08,2.52,40.35684,-74.66166,NJ,35000,7000,50,56,21,University Medical Center At Princeton
4.64,2.32,39.08752,-74.81657,NJ,18000,6000,50,73,48,Cape Regional Medical Center Inc
7.01,2.41,40.98359,-74.10047,NJ,30000,6000,50,78,21,Valley Hospital
7.91,2.59,40.78883,-74.46620,NJ,35000,7000,66,43,39,Morristown Memorial Hospital
20.97,3.34,40.73417,-74.04977,NJ,102000,11000,0,0,0,Christ Hospital
7.02,2.40,40.95858,-74.31000,NJ,30000,6000,50,62,1,Chilton Hospital
16.78,3.33,40.90215,-74.16634,NJ,80000,11000,16,53,94,St Joseph'S Regional Medical Center
10.05,2.35,39.78261,-74.91670,NJ,46000,6000,50,52,74,Virtua West Jersey Hospitals Berlin
10.40,2.26,40.61288,-74.29092,NJ,47000,6000,50,80,44,Robert Wood Johnson University Hospital At Rahway
26.17,2.45,40.66805,-74.11334,NJ,128000,7000,50,80,63,Bayonne Hospital Center
8.02,2.69,40.66005,-74.21417,NJ,35000,8000,50,75,39,Trinitas Regional Medical Center
8.38,2.30,41.05754,-74.76857,NJ,37000,6000,50,77,79,Newton Memorial Hospital
10.15,2.64,39.92695,-75.09537,NJ,46000,7000,50,70,10,Our Lady Of Lourdes Medical Center
9.54,2.46,39.44743,-75.05838,NJ,43000,7000,50,62,1,South Jersey Healthcare Regional Medical Center
10.39,2.26,40.35309,-74.06484,NJ,47000,6000,33,61,69,Riverview Medical Center
14.07,2.82,40.49581,-74.44980,NJ,66000,8000,66,51,1,Robert Wood Johnson University Hospital
9.61,2.64,40.51891,-74.28183,NJ,43000,7000,75,68,69,Raritan Bay Medical Center
10.72,2.86,40.74132,-74.03369,NJ,49000,9000,0,0,0,Hoboken University Medical Center
9.48,2.30,39.96484,-74.21708,NJ,43000,6000,50,47,88,Community Medical Center
8.36,2.38,40.29209,-74.80327,NJ,37000,6000,50,86,29,Capital Health Medical Center - Hopewell
10.85,2.60,40.90400,-73.96847,NJ,50000,7000,66,81,54,Englewood Hospital And Medical Center
8.92,2.28,39.31464,-74.59391,NJ,40000,6000,16,72,82,Shore Medical Center
13.77,2.33,40.56804,-74.59579,NJ,65000,6000,50,67,29,Somerset Medical Center
8.37,2.38,40.89538,-74.46479,NJ,37000,6000,50,63,69,Saint Clare'S Hospital
6.91,2.58,40.71264,-74.35460,NJ,29000,7000,50,52,57,Overlook Hospital
8.60,2.27,40.07832,-74.13009,NJ,38000,6000,50,57,48,Ocean Medical Center
6.61,2.73,40.81058,-74.20459,NJ,28000,8000,50,68,43,Mountainside Hospital
8.57,2.37,39.98588,-74.79393,NJ,38000,6000,66,55,54,Virtua Memorial Hospital Of Burlington County
8.64,2.40,40.70180,-75.17825,NJ,38000,6000,0,0,0,St Luke'S Warren Hospital
11.23,2.30,40.04632,-74.88059,NJ,52000,6000,50,48,6,Lourdes Medical Center Of Burlington County
11.85,2.41,39.35775,-74.43449,NJ,55000,6000,66,65,88,Atlanticare Regional Medical Center - City Div
11.56,2.66,40.50214,-74.46015,NJ,53000,8000,50,53,29,Saint Peter'S University Hospital
11.89,2.50,40.21065,-74.03566,NJ,55000,7000,50,58,6,Jersey Shore University Medical Center
8.29,3.00,40.71663,-74.05013,NJ,37000,9000,83,73,82,Libertyhealth-Jersey City Medical Center Campus
11.43,2.68,40.29563,-73.98518,NJ,53000,8000,50,50,85,Monmouth Medical Center
11.91,2.90,40.76190,-74.30335,NJ,55000,9000,83,53,2,Saint Barnabas Medical Center
8.73,2.35,39.84392,-75.14985,NJ,39000,6000,50,70,33,Underwood - Memorial Hospital
9.16,2.37,40.07503,-74.21832,NJ,41000,6000,50,71,76,Kimball Medical Center
9.77,2.62,39.82811,-75.00895,NJ,44000,7000,66,60,69,Kennedy University Hospital - Stratford Div
6.75,2.35,39.59285,-75.44416,NJ,29000,6000,0,0,0,Memorial Hospital Of Salem County
13.58,2.47,40.23629,-74.75256,NJ,64000,7000,50,77,57,Capital Health System-Fuld Campus
7.14,2.90,40.74323,-74.17431,NJ,31000,9000,50,68,51,Saint Michael'S Medical Center Inc
11.84,2.62,40.55784,-74.34970,NJ,55000,7000,50,71,57,Jfk Medical Ctr - Anthony M. Yelencsics Community
8.43,2.26,40.21575,-74.67273,NJ,37000,6000,50,67,79,Robert Wood Johnson University Hospital Hamilton
7.43,2.34,40.23861,-74.31289,NJ,32000,6000,33,68,13,Centrastate Medical Center
7.91,2.28,40.40516,-74.19203,NJ,35000,6000,50,81,98,Bayshore Community Hospital
9.23,2.30,39.66213,-74.26392,NJ,41000,6000,50,62,69,Southern Ocean Medical Center
9.17,3.59,40.73925,-74.19276,NJ,41000,12000,33,55,11,Umdnj University Hospital
5.39,3.21,35.08838,-106.61590,NM,22000,10000,83,46,11,Unm Hospital
4.06,2.67,35.65960,-105.94578,NM,15000,8000,50,65,29,St Vincent Hospital
5.39,2.56,36.72387,-108.21749,NM,22000,7000,50,71,82,San Juan Regional Medical Center
7.78,2.34,33.42340,-104.52748,NM,34000,6000,50,78,12,Eastern New Mexico Medical Center
4.57,2.41,35.08102,-106.63392,NM,17000,6000,33,51,3,Presbyterian Hospital
6.42,2.56,41.92720,-73.99535,NY,27000,7000,50,83,39,Kingston Hospital
4.02,2.61,42.87482,-78.84942,NY,15000,7000,33,45,8,Kaleida Health
2.80,2.83,40.92963,-73.89840,NY,8000,8000,50,61,90,St Joseph'S Medical Center
5.57,4.18,40.83139,-73.90306,NY,23000,15000,50,60,54,Bronx-Lebanon Hospital Center
7.73,2.96,42.65345,-73.77543,NY,34000,9000,66,60,63,Albany Medical Center Hospital
3.20,3.33,40.70141,-73.81630,NY,10000,11000,0,78,39,Jamaica Hospital Medical Center
5.20,3.09,40.61384,-73.94851,NY,21000,10000,0,0,0,New York Community Hospital Of Brooklyn Inc.
7.59,2.45,41.69441,-73.93432,NY,33000,6000,83,82,54,Vassar Brothers Medical Center
7.36,3.63,40.79041,-73.95386,NY,32000,13000,83,38,5,Mount Sinai Hospital
4.92,3.38,40.72548,-73.55287,NY,19000,11000,50,88,4,Nassau University Medical Center
5.70,2.97,40.63588,-74.10556,NY,23000,9000,66,52,20,Richmond University Medical Center
5.75,2.60,40.72567,-73.24189,NY,23000,7000,50,58,37,Southside Hospital
3.32,2.18,43.09840,-75.27819,NY,11000,5000,50,60,17,Faxton-St Luke'S Healthcare
6.33,2.39,40.87946,-73.41621,NY,26000,6000,50,66,39,Huntington Hospital
9.08,3.53,40.80556,-73.96131,NY,41000,12000,33,56,5,St Luke'S Roosevelt Hospital
3.73,2.12,42.95425,-74.21527,NY,13000,5000,0,0,0,St Mary'S Hospital At Amsterdam
5.63,2.40,41.93603,-73.91320,NY,23000,6000,0,0,0,Northern Dutchess Hospital
5.73,2.94,40.74722,-73.82521,NY,23000,9000,66,63,79,New York Hospital Medical Center Of Queens
4.77,3.39,40.68983,-73.97794,NY,18000,11000,83,71,13,Brooklyn Hospital Center At Downtown Campus
5.81,2.30,42.65583,-73.80372,NY,24000,6000,33,47,54,St Peter'S Hospital
9.71,3.55,40.87987,-73.87996,NY,44000,12000,50,38,44,Montefiore Medical Center
6.27,2.58,40.94161,-73.83650,NY,26000,7000,33,63,12,Lawrence Hospital Center
4.84,3.50,40.71016,-74.00464,NY,19000,12000,50,72,33,New York Downtown Hospital
6.58,2.63,41.71846,-73.92710,NY,28000,7000,50,80,79,St Francis Hospital
3.80,2.31,42.92866,-78.84819,NY,13000,6000,50,55,29,Sisters Of Charity Hospital
3.88,3.83,40.81770,-73.92401,NY,14000,14000,75,83,39,Lincoln Medical & Mental Health Center
3.20,2.87,40.91304,-73.84024,NY,10000,9000,0,0,0,Mount Vernon Hospital
3.36,2.24,42.10076,-76.82800,NY,11000,5000,50,65,33,Arnot Ogden Medical Center
3.76,2.35,42.24595,-73.77855,NY,13000,6000,0,0,0,Columbia Memorial Hospital
9.28,3.54,40.76487,-73.95398,NY,42000,12000,33,32,74,New York-Presbyterian Hospital
5.70,2.54,41.09642,-73.92501,NY,23000,7000,66,77,76,Nyack Hospital
11.45,3.12,40.77686,-73.70212,NY,53000,10000,33,61,69,North Shore University Hospital
6.81,2.53,40.93376,-72.67383,NY,29000,7000,0,0,0,Peconic Bay Medical Center
4.06,2.35,42.09221,-76.79733,NY,15000,6000,0,0,0,St Joseph'S Hospital Inc
14.30,3.13,40.77362,-73.96093,NY,67000,10000,33,46,11,Lenox Hill Hospital
3.97,2.36,43.19244,-77.58590,NY,14000,6000,66,46,17,Rochester General Hospital
7.54,2.44,41.44138,-74.36821,NY,33000,6000,50,62,69,Orange Regional Medical Center
4.58,3.55,40.85407,-73.84688,NY,17000,12000,50,70,74,Jacobi Medical Center
6.71,3.61,40.74465,-73.88620,NY,28000,12000,25,83,32,Elmhurst Hospital Center
3.86,2.80,42.69590,-74.92278,NY,14000,8000,50,83,76,Mary Imogene Bassett Hospital
5.46,2.65,43.05571,-76.14981,NY,22000,8000,83,37,20,St Joseph'S Hospital Health Center
9.11,2.47,40.78000,-72.97763,NY,41000,7000,33,60,32,Brookhaven Memorial Hospital Medical Center
6.50,3.34,40.68964,-73.99657,NY,27000,11000,0,0,0,Long Island College Hospital
4.31,2.26,42.81963,-73.91653,NY,16000,6000,50,68,21,Ellis Hospital
4.51,2.84,43.96519,-75.91511,NY,17000,9000,50,85,63,Samaritan Medical Center
7.77,2.61,41.11299,-74.13732,NY,34000,7000,66,82,82,Good Samaritan Hospital Of Suffern
6.27,2.91,40.58440,-74.08507,NY,26000,9000,66,71,37,Staten Island University Hospital
4.75,2.38,41.19677,-73.72572,NY,18000,6000,50,68,69,Northern Westchester Hospital
8.27,2.93,40.74083,-73.64306,NY,36000,9000,66,50,74,Winthrop-University Hospital
7.85,3.26,40.73265,-73.98162,NY,34000,11000,50,60,39,Beth Israel Medical Center
3.94,2.17,42.73354,-73.67249,NY,14000,5000,50,76,62,Samaritan Hospital
5.87,2.46,40.87062,-73.62249,NY,24000,7000,50,82,85,Glen Cove Hospital
8.63,2.41,40.80462,-73.67023,NY,38000,6000,83,72,94,St Francis Hospital Roslyn
4.26,2.98,40.91276,-73.78720,NY,16000,9000,50,83,6,Sound Shore Medical Center Of Westschester
6.30,2.47,40.94000,-73.05510,NY,26000,7000,50,63,63,John T Mather Memorial Hospital  Of Port Jefferson
3.50,2.09,43.30652,-73.64663,NY,12000,5000,50,63,90,Glens Falls Hospital
4.29,3.22,40.75543,-73.81532,NY,16000,10000,25,72,63,Flushing Hospital Medical Center
8.69,3.51,40.63937,-73.99851,NY,39000,12000,50,45,54,Maimonides Medical Center
9.17,3.25,40.75332,-73.70899,NY,41000,11000,50,45,90,Long Island Jewish Medical Center
3.87,3.34,40.58549,-73.96558,NY,14000,11000,25,72,29,Coney Island Hospital
5.67,2.47,40.65189,-73.63096,NY,23000,7000,50,52,43,South Nassau Communities Hospital
6.97,2.94,40.65957,-73.93378,NY,30000,9000,25,77,95,Kingsbrook Jewish Medical Center
4.40,3.62,40.65660,-73.94468,NY,17000,13000,25,73,24,Kings County Hospital Center
4.32,2.55,43.04139,-76.13803,NY,16000,7000,50,41,1,Crouse Hospital
7.08,3.86,40.74178,-73.98236,NY,30000,14000,50,63,24,Bellevue Hospital Center
5.58,2.85,40.96967,-73.88447,NY,23000,9000,50,75,85,St John'S Riverside Hospital
8.87,3.08,40.74335,-73.97408,NY,39000,10000,33,63,21,Nyu Hospitals Center
3.25,2.18,43.22952,-75.44361,NY,11000,5000,0,0,0,Rome Memorial Hospital Inc
4.68,2.59,43.45491,-76.51645,NY,18000,7000,0,0,0,Oswego Hospital
4.99,3.01,42.92531,-78.83111,NY,20000,9000,66,63,13,Erie County Medical Center
4.84,3.34,40.70419,-73.91754,NY,19000,11000,50,81,16,Wyckoff Heights Medical Center
4.15,2.14,43.08561,-73.79712,NY,15000,5000,50,58,29,Saratoga Hospital
3.58,3.48,40.71730,-73.80353,NY,12000,12000,25,83,28,Queens Hospital Center
4.56,2.22,42.74285,-73.67673,NY,17000,5000,50,52,69,Seton Health System-St Mary'S Campus
6.10,3.51,40.65533,-73.91221,NY,25000,12000,50,62,54,Brookdale Hospital Medical Center
16.46,4.52,41.08773,-73.80395,NY,79000,17000,50,42,63,Westchester Medical Center
5.39,2.33,42.94136,-76.56474,NY,22000,6000,0,0,0,Auburn Community Hospital
4.77,3.08,40.66762,-73.97850,NY,18000,10000,33,55,29,New York Methodist Hospital
2.91,2.19,42.08997,-79.23058,NY,9000,5000,0,0,0,Woman'S Christian Association
7.62,3.28,43.04269,-76.14043,NY,33000,11000,66,41,3,University Hospital S U N Y Health Science Center
9.81,2.66,40.94779,-73.06033,NY,44000,8000,50,58,29,St Charles Hospital
5.86,3.03,44.70022,-73.47100,NY,24000,9000,50,55,0,Champlain Valley Physicians Hospital Medical Ctr
5.67,2.43,40.68896,-73.63259,NY,23000,6000,50,62,37,Mercy Medical Center
5.03,2.66,41.10880,-73.86355,NY,20000,8000,0,0,0,Phelps Memorial Hospital Assn
5.74,2.49,41.50307,-74.01517,NY,23000,7000,33,81,95,St Luke'S Cornwall Hospital
5.82,2.43,41.29201,-73.89529,NY,24000,6000,50,82,76,Hudson Valley Hospital Center
5.78,2.42,41.38421,-73.66323,NY,24000,6000,0,0,0,Putnam Hospital Center
2.76,2.10,42.14073,-77.04745,NY,8000,5000,0,0,0,Corning Hospital
3.59,2.24,42.84782,-78.81264,NY,12000,5000,50,68,13,Mercy Hospital
5.14,3.07,43.12266,-77.62360,NY,20000,10000,50,55,21,Strong Memorial Hospital
6.48,2.49,40.69327,-73.29412,NY,27000,7000,50,70,74,Good Samaritan Hospital Medical Center
6.02,2.49,41.02614,-73.76978,NY,25000,7000,50,62,44,White Plains Hospital Center
3.97,3.29,40.64666,-74.02049,NY,14000,11000,50,67,5,Lutheran Medical Center
7.49,2.52,40.77481,-73.47968,NY,32000,7000,50,56,20,Plainview Hospital
5.99,2.40,40.72593,-73.47844,NY,25000,6000,50,62,56,St Joseph Hospital
6.18,2.55,40.88512,-72.38030,NY,26000,7000,50,88,73,Southampton Hospital
4.80,3.68,40.65508,-73.94521,NY,19000,13000,50,66,8,University Hospital Of Brooklyn ( Downstate )
4.91,2.79,40.72931,-73.85219,NY,19000,8000,50,55,13,Forest Hills Hospital
6.47,2.46,40.68104,-73.68633,NY,27000,7000,50,66,69,Franklin Hospital
8.97,3.40,40.90922,-73.11520,NY,40000,11000,50,60,44,University Hospital ( Stony Brook )
3.77,2.40,42.11422,-75.95851,NY,13000,6000,66,48,92,United Health Services Hospitals Inc
5.43,3.63,40.59803,-73.75296,NY,22000,13000,50,63,7,St John'S Episcopal Hospital At South Shore
5.09,3.46,40.67816,-73.93768,NY,20000,12000,50,62,90,Interfaith Medical Center
7.57,2.40,40.85738,-73.18681,NY,33000,6000,50,76,88,St Catherine Of Siena Hospital
3.90,2.32,35.43754,-80.60147,NC,14000,6000,66,65,16,Carolinas Medical Center-Northeast
5.05,2.33,35.57658,-82.54922,NC,20000,6000,66,40,81,Memorial Mission Hospital And Asheville Surgery Ce
3.74,2.28,35.95000,-80.00000,NC,13000,6000,50,66,39,High Point Regional Hospital
3.87,2.34,34.75124,-79.46789,NC,14000,6000,0,0,0,Scotland Memorial Hospital
3.08,2.41,35.39772,-77.95250,NC,10000,6000,50,81,8,Wayne Memorial Hospital
4.00,2.46,36.07581,-80.29779,NC,14000,7000,50,52,39,Forsyth Memorial Hospital
5.19,2.17,35.46894,-79.18668,NC,21000,5000,50,77,21,Central Carolina Hospital
3.84,2.25,35.30288,-81.53571,NC,14000,5000,50,71,63,Cleveland Regional Medical Center
5.35,2.48,35.03156,-78.93205,NC,21000,7000,50,50,18,Cape Fear Valley Medical Center
6.87,3.15,36.00850,-78.94006,NC,29000,10000,66,43,76,Duke University Hospital
5.18,2.34,35.27341,-81.13688,NC,21000,6000,50,70,69,Gaston Memorial Hospital
4.54,2.23,35.79986,-80.87863,NC,17000,5000,50,62,95,Iredell Memorial Hospital Inc
5.65,2.93,35.60726,-77.40477,NC,23000,9000,50,46,1,Pitt County Memorial Hospital
3.85,2.33,34.76273,-77.38582,NC,14000,6000,50,58,17,Onslow Memorial Hospital
4.71,3.13,36.09062,-80.27161,NC,18000,10000,83,55,57,North Carolina Baptist Hospital
4.98,2.57,34.63723,-79.01213,NC,20000,7000,50,71,63,Southeastern Regional Medical Center
3.20,2.52,36.19878,-81.65223,NC,10000,7000,0,0,0,Watauga Medical Center
4.51,2.33,35.22196,-80.83287,NC,17000,6000,50,63,13,Presbyterian Hospital
5.72,3.24,35.90529,-79.04963,NC,23000,11000,66,41,1,University Of North Carolina Hospital
6.07,2.57,35.78523,-78.58836,NC,25000,7000,33,50,79,Wakemed Raleigh Campus
3.08,2.26,36.06347,-79.50208,NC,10000,6000,33,60,16,Alamance Regional Medical Center
4.97,2.17,35.82915,-78.61922,NC,19000,5000,50,81,79,Duke Health Raleigh Hospital
4.96,2.42,35.50624,-78.32511,NC,19000,6000,50,55,24,Johnston Memorial Hospital
3.78,2.48,36.09251,-79.78855,NC,13000,7000,66,66,51,Moses H Cone Memorial Hospital The
3.64,2.21,36.26164,-80.83882,NC,13000,5000,0,0,0,Hugh Chatham Memorial Hospital
5.02,2.19,35.21029,-80.82084,NC,20000,5000,50,53,51,Carolinas Med Center-Mercy
5.79,2.86,35.20397,-80.83908,NC,24000,9000,66,63,24,Carolinas Medical Center/Behav Health
5.47,2.17,35.81801,-78.70283,NC,22000,5000,50,65,54,Rex Hospital
4.57,2.30,35.20554,-79.45645,NC,17000,6000,66,60,44,Firsthealth Moore Regional Hospital
5.48,2.34,35.71850,-77.94518,NC,22000,6000,50,68,88,Wilson Medical Center
6.66,2.29,35.54775,-80.85563,NC,28000,6000,50,82,4,Lake Norman Regional Medical Center
3.75,2.36,34.97382,-80.52250,NC,13000,6000,50,68,69,Carolinas Medical Center-Union
3.29,2.39,35.11420,-77.06568,NC,11000,6000,33,73,90,Carolina East Medical Center
4.79,2.55,34.23786,-77.94764,NC,19000,7000,83,70,57,New Hanover Regional Medical Center
3.97,2.47,35.97538,-77.85012,NC,14000,7000,50,65,13,Nash General Hospital
4.09,2.36,36.04960,-78.90617,NC,15000,6000,50,51,69,Durham Regional Hospital
3.98,2.23,35.30611,-80.74708,NC,14000,5000,50,75,42,Carolinas Med Ctr-University
3.56,2.21,35.11432,-80.71971,NC,12000,5000,0,0,0,Presbyterian Hospital Matthews
5.15,2.23,35.74046,-78.78127,NC,20000,5000,50,72,13,Wakemed Cary Hospital
4.19,2.30,46.88496,-96.78609,ND,15000,6000,66,61,48,Sanford Medical Center Fargo
4.61,3.03,39.13707,-84.50392,OH,18000,10000,66,45,21,University Hospital Inc
4.88,2.30,40.03064,-83.03440,OH,19000,6000,83,71,21,Riverside Methodist Hospital
3.84,2.61,38.75320,-82.97800,OH,14000,7000,50,61,69,Southern Ohio Medical Center
3.97,2.30,40.11479,-82.94677,OH,14000,6000,50,66,12,Mount Carmel St Ann'S Hospital
6.59,2.52,39.96098,-82.99077,OH,28000,7000,66,78,21,Grant Medical Center
5.30,2.39,41.08161,-81.50007,OH,21000,6000,66,63,33,Summa Health Systems Hospitals
3.55,2.26,41.44642,-82.70864,OH,12000,6000,50,86,18,Firelands Regional Medical Center
4.30,2.36,41.07747,-81.53042,OH,16000,6000,66,70,63,Akron General Medical Center
2.93,2.30,39.95805,-83.02191,OH,9000,6000,66,42,1,Mount Carmel Health
3.51,2.39,39.97510,-82.01812,OH,12000,6000,50,78,92,Genesis Healthcare System
3.23,2.14,41.38265,-81.73127,OH,11000,5000,50,75,94,Parma Community General Hospital
3.69,2.66,41.61788,-83.61632,OH,13000,8000,66,68,6,University Of Toledo Medical Center
8.56,2.42,39.74547,-84.18523,OH,38000,6000,66,45,1,Miami Valley Hospital
6.66,2.36,39.78778,-84.23493,OH,28000,6000,66,56,16,Good Samaritan Hospital
5.00,2.13,41.23549,-80.79865,OH,20000,5000,66,56,0,Trumbull Memorial Hospital
3.98,2.17,39.31257,-84.51774,OH,14000,5000,50,90,69,Mercy Hospital Fairfield
2.95,2.78,41.46088,-81.69763,OH,9000,8000,50,60,24,Metro Health Medical Center
3.85,2.26,41.11441,-80.65565,OH,14000,6000,83,48,21,St Elizabeth Health Center
3.81,2.21,41.22570,-82.60491,OH,13000,5000,0,0,0,Fisher-Titus Hospital
4.31,2.21,40.74115,-84.11804,OH,16000,5000,66,73,6,St Rita'S Medical Center
7.04,2.38,41.67775,-83.59589,OH,30000,6000,33,70,57,Toledo Hospital The
2.50,2.16,40.81219,-81.39625,OH,7000,5000,50,62,43,Mercy Medical Center
2.82,2.18,39.71750,-82.57772,OH,8000,5000,50,82,90,Fairfield Medical Center
4.68,2.26,41.45013,-81.82397,OH,18000,6000,66,60,18,Fairview Hospital
3.11,2.08,41.17554,-81.24915,OH,10000,5000,50,76,37,Robinson Memorial Hospital
5.95,2.40,39.69724,-84.19232,OH,24000,6000,66,80,57,Kettering Medical Center
3.46,2.15,41.59825,-81.54884,OH,12000,5000,50,70,57,Euclid Hospital
3.34,2.30,40.79609,-81.40360,OH,11000,6000,50,63,17,Aultman Hospital
7.03,2.74,39.99445,-83.01872,OH,30000,8000,66,50,2,Ohio State University Hospitals
4.33,2.23,39.92755,-83.81573,OH,16000,5000,50,67,48,Springfield Regional Medical Center
3.79,2.15,41.55725,-83.68141,OH,13000,5000,50,65,85,St Luke'S Hospital
3.93,2.04,41.66317,-81.24696,OH,14000,4000,50,73,39,Lake Health
3.53,2.17,40.75264,-82.52803,OH,12000,5000,83,81,92,Medcentral Health System
4.18,2.25,41.43653,-81.94451,OH,15000,5000,50,72,76,St John Medical Center
5.43,2.51,39.76950,-84.20285,OH,22000,7000,66,65,90,Grandview Hospital & Medical Center
4.89,2.65,39.13975,-84.52173,OH,19000,8000,66,83,69,Good Samaritan Hospital
5.95,2.89,41.50772,-81.60592,OH,24000,9000,83,46,44,University Hospitals Of Cleveland
5.96,2.14,41.42112,-81.59808,OH,25000,5000,50,82,21,Marymount Hospital
3.43,2.32,41.44829,-81.53736,OH,12000,6000,50,81,21,South Pointe Hospital
3.39,2.17,41.36649,-82.09708,OH,11000,5000,66,75,98,Emh Regional Medical Center
3.63,2.10,39.43061,-81.46454,OH,13000,5000,50,71,99,Marietta Memorial Hospital
4.63,2.37,39.12105,-84.51059,OH,18000,6000,83,46,88,Christ Hospital
5.06,2.22,41.43688,-82.23761,OH,20000,5000,50,82,69,Mercy Regional Medical Center
5.16,2.15,40.08748,-84.22920,OH,20000,5000,33,82,54,Upper Valley Medical Center
4.67,2.24,39.25076,-84.34341,OH,18000,5000,50,62,99,Bethesda North Hospital
7.03,2.63,41.50248,-81.62110,OH,30000,7000,33,32,24,Cleveland Clinic
3.09,2.14,40.35601,-80.62502,OH,10000,5000,50,81,63,Trinity Medical Ctr East&Trinity Medical Ctr West
4.64,2.13,41.52013,-81.43291,OH,18000,5000,66,45,37,Hillcrest Hospital
3.48,2.07,40.99498,-80.66192,OH,12000,5000,50,70,29,St Elizabeth Boardman Health Center
4.62,2.69,36.14687,-95.96841,OK,18000,8000,83,76,32,Hillcrest Medical Center
8.20,2.65,35.60735,-97.59693,OK,36000,8000,66,51,6,Mercy Health Center Inc
5.15,2.24,34.00655,-96.39398,OK,20000,5000,0,0,0,Medical Center Of Southeastern Oklahoma
4.39,2.28,35.75351,-95.40612,OK,16000,6000,50,70,3,Muskogee Regional Medical Center
3.95,2.08,36.39385,-97.87094,OK,14000,5000,50,77,63,St Mary'S Regional Medical Center
7.43,2.52,35.52960,-97.57496,OK,32000,7000,100,76,90,Integris Baptist Medical Center
3.88,2.22,34.60992,-98.43419,OK,14000,5000,50,62,48,Comanche County Memorial Hospital
4.30,2.24,36.06135,-95.95154,OK,16000,5000,83,61,44,Saint Francis Hospital Inc
7.23,2.17,35.46721,-97.39370,OK,31000,5000,50,76,92,Midwest Regional Medical Center
4.44,2.48,34.59434,-98.46105,OK,17000,7000,0,0,0,Southwestern Medical Center
9.82,2.23,35.42168,-97.53306,OK,44000,5000,66,70,24,Integris Southwest Medical Center
3.66,2.20,36.13393,-95.96718,OK,13000,5000,50,51,11,St John Medical Center Inc
4.89,2.40,45.50973,-122.77368,OR,19000,6000,33,55,13,Providence St Vincent Medical Center
6.79,3.23,45.49956,-122.68802,OR,29000,11000,66,47,6,Ohsu Hospital And Clinics
4.95,2.76,43.38402,-124.23280,OR,19000,8000,0,0,0,Bay Area Hospital
7.17,2.23,41.40075,-75.64594,PA,31000,5000,50,77,94,Community Medical Center
4.60,2.67,40.35127,-79.84949,PA,18000,8000,50,55,57,Upmc Mckeesport
5.31,2.11,40.25296,-76.92151,PA,21000,5000,83,85,95,Holy Spirit Hospital
9.19,2.92,40.96789,-76.60506,PA,41000,9000,33,56,13,Geisinger Medical Center
5.38,2.36,42.11102,-80.07912,PA,22000,6000,50,72,57,Saint Vincent Health Center
8.08,2.33,40.07880,-75.21107,PA,35000,6000,50,70,37,Chestnut Hill Hospital
15.29,3.37,40.00504,-75.15155,PA,73000,11000,83,57,33,Temple University Hospital
4.67,2.77,40.43609,-79.98537,PA,18000,8000,83,61,8,Upmc Mercy
4.21,2.50,40.68423,-76.18761,PA,16000,7000,0,0,0,Schuylkill Medical Center - South Jackson Street
2.98,2.08,40.69101,-76.18682,PA,9000,5000,0,0,0,Schuylkill Medical Center - East Norwegian Street
3.54,2.17,40.65191,-79.72877,PA,12000,5000,50,71,79,Alle Kiski Medical Center
2.66,2.23,40.71251,-80.32136,PA,8000,5000,33,66,48,Heritage Valley Beaver
5.50,2.48,40.33271,-75.95020,PA,22000,7000,50,67,21,Reading Hospital Medical Center
3.43,2.23,41.24548,-77.01438,PA,12000,5000,50,57,37,Williamsport Regional Medical Center
3.30,2.53,39.94604,-76.71884,PA,11000,7000,66,45,8,York Hospital
8.52,2.44,40.60811,-75.39260,PA,38000,6000,66,53,57,St Luke'S Hospital Bethlehem
6.77,2.79,40.45705,-80.00363,PA,29000,8000,83,70,44,Allegheny General Hospital
4.62,2.23,40.32799,-76.44588,PA,18000,5000,50,58,69,Good Samaritan Hospital
3.87,2.47,40.25661,-76.87572,PA,14000,7000,83,47,0,Pinnacle Health Hospitals
4.93,2.24,40.52204,-78.39824,PA,19000,5000,83,61,39,Altoona Regional Health System
8.69,2.26,40.00955,-75.78622,PA,39000,6000,50,73,63,Brandywine Hospital
5.31,2.42,41.98012,-76.52072,PA,21000,6000,50,65,48,Robert Packer Hospital
9.38,2.35,40.06986,-75.08748,PA,42000,6000,50,78,54,Jeanes Hospital
7.16,2.27,40.11139,-75.09250,PA,31000,6000,50,72,69,Holy Redeemer Hospital And Medical Center
5.72,2.27,40.04740,-76.30540,PA,23000,6000,66,60,82,Lancaster General Hospital
4.46,2.49,40.48928,-79.89596,PA,17000,7000,50,72,63,Upmc St Margaret
4.05,2.09,40.57319,-80.01455,PA,15000,5000,50,57,48,Upmc Passavant
3.36,2.36,40.32674,-78.92197,PA,11000,6000,50,61,3,Conemaugh Valley Memorial Hospital
13.43,3.11,39.95045,-75.19259,PA,63000,10000,50,33,39,Hospital Of Univ Of Pennsylvania
7.71,2.43,40.07160,-74.98341,PA,34000,6000,33,67,5,Aria Health
6.81,2.58,40.13916,-75.31510,PA,29000,7000,50,75,17,Mercy Suburban Hospital
6.67,2.41,41.41107,-75.65091,PA,28000,6000,50,67,51,Moses Taylor Hospital
2.38,2.60,41.63317,-79.67924,PA,6000,7000,0,0,0,Titusville Hospital
6.48,2.24,40.24397,-75.61364,PA,27000,5000,50,83,48,Pottstown Memorial Medical Center
8.65,2.64,40.60000,-75.47000,PA,38000,7000,66,58,54,Lehigh Valley Hospital
4.29,2.22,41.25860,-75.86729,PA,16000,5000,50,60,79,Wilkes-Barre General Hospital
9.92,2.36,40.01883,-75.32115,PA,45000,6000,50,71,85,Main Line Hospital Bryn Mawr Campus
11.57,3.68,40.03678,-75.14351,PA,53000,13000,66,62,4,Albert Einstein Medical Center
4.01,2.12,40.30103,-79.55505,PA,15000,5000,66,80,17,Excela Health Westmoreland Regional Hospital
3.76,2.00,40.20313,-79.92616,PA,13000,4000,50,80,74,Monongahela Valley Hospital
3.88,2.23,39.93492,-77.64744,PA,14000,5000,50,58,48,Chambersburg Hospital
8.50,2.24,40.04475,-75.50425,PA,38000,5000,50,71,20,Main Line Hospital Paoli
12.66,2.97,39.92871,-75.26873,PA,59000,9000,66,65,17,Mercy Fitzgerald Hospital
7.32,2.39,40.68708,-75.24272,PA,32000,6000,66,68,3,Easton Hospital
2.94,2.20,40.81645,-79.52199,PA,9000,5000,0,0,0,Acmh Hospital
8.62,2.80,40.44190,-79.96044,PA,38000,8000,83,55,11,Upmc Presbyterian Shadyside
10.52,3.08,39.94969,-75.15712,PA,48000,10000,66,41,57,Thomas Jefferson University Hospital
3.75,2.20,41.41133,-80.37169,PA,13000,5000,50,56,79,Upmc Horizon
16.81,2.63,39.85598,-75.36791,PA,80000,7000,66,56,13,Crozer Chester Medical Center
7.33,2.47,39.98905,-75.27707,PA,32000,7000,50,53,24,Main Line Hospital Lankenau
5.76,2.46,40.99225,-75.17466,PA,24000,7000,50,90,63,Pocono Medical Center
7.62,2.27,40.05931,-75.04140,PA,33000,6000,50,50,29,Nazareth Hospital
3.58,2.32,41.23235,-80.49626,PA,12000,6000,50,80,76,Sharon Regional Health System
3.01,2.24,40.32100,-79.39458,PA,9000,5000,50,83,92,Excela Health Latrobe Hospital
8.25,2.20,39.91254,-75.43047,PA,36000,5000,50,90,79,Riddle Memorial Hospital
5.94,2.58,39.95825,-75.19909,PA,24000,7000,66,53,54,Penn Presbyterian Medical Center
7.56,2.62,39.94560,-75.15561,PA,33000,7000,50,56,69,Pennsylvania Hosp Of The Univ Of Pa Health Sys
4.72,2.08,40.37782,-80.06589,PA,18000,5000,66,81,21,St Clair Memorial Hospital
9.52,2.41,40.12077,-75.11818,PA,43000,6000,83,51,43,Abington Memorial Hospital
3.29,2.35,39.80858,-76.98306,PA,11000,6000,0,0,0,Hanover Hospital
4.32,2.18,41.41276,-75.65399,PA,16000,5000,50,67,85,Regional Hospital Of Scranton
8.45,3.36,40.26468,-76.67582,PA,37000,11000,66,40,3,Milton S Hershey Medical Center
5.43,2.24,40.20064,-74.92952,PA,22000,5000,33,71,44,St Mary Medical Center
6.59,2.31,40.64463,-75.40842,PA,28000,6000,66,66,8,Lehigh Valley Hospital - Muhlenberg
3.09,2.02,40.31802,-79.93494,PA,10000,4000,50,83,88,Jefferson Regional Medical Center
3.40,2.12,40.42897,-79.74808,PA,11000,5000,50,57,57,Western Pennsylvania Hosp Forbes Regional Campus
4.78,2.32,41.25855,-75.81041,PA,18000,6000,66,86,2,Geisinger Wyoming Valley Medical Center
20.97,3.10,39.95658,-75.16249,PA,102000,10000,83,71,6,Hahnemann University Hospital
6.74,2.91,41.81254,-71.40760,RI,29000,9000,33,48,6,Rhode Island Hospital
5.99,2.38,41.70541,-71.47790,RI,25000,6000,50,50,39,Kent County Memorial Hospital
4.96,2.32,41.85172,-71.39826,RI,19000,6000,66,51,63,Miriam Hospital
3.99,2.26,34.95535,-81.05137,SC,14000,6000,50,75,33,Piedmont Medical Center
4.53,3.03,32.78272,-79.94543,SC,17000,9000,33,76,69,Musc Medical Center
6.53,2.50,34.96733,-81.94021,SC,27000,7000,33,60,54,Spartanburg Regional Medical Center
4.53,2.25,34.69403,-82.98884,SC,17000,5000,0,0,0,Oconee Medical Center
10.50,3.22,34.02839,-81.03539,SC,48000,10000,33,43,21,Palmetto Health Richland
3.82,2.29,33.37683,-79.29450,SC,14000,6000,0,0,0,Georgetown Memorial Hospital
3.62,2.15,34.01469,-81.01343,SC,13000,5000,50,85,29,Sisters Of Charity Providence Hospitals
5.37,2.40,34.51119,-82.64683,SC,22000,6000,50,61,94,Anmed Health
4.57,2.32,33.78555,-79.00178,SC,17000,6000,50,90,69,Conway Medical Center
4.86,2.27,34.19543,-79.76256,SC,19000,6000,50,50,79,Mcleod Regional Medical Center-Pee Dee
3.81,2.35,32.33977,-80.68817,SC,14000,6000,25,65,29,Beaufort County Memorial Hospital
3.10,2.29,33.92320,-80.34308,SC,10000,6000,50,82,81,Tuomey Healthcare System
4.64,2.61,34.17571,-82.15791,SC,18000,7000,66,65,20,Self Regional Healthcare
5.96,2.19,34.00533,-81.11393,SC,25000,5000,66,63,48,Lexington Medical Center
6.28,2.55,34.81904,-82.41308,SC,26000,7000,50,55,17,Greenville Memorial Hospital
7.76,2.28,32.97605,-80.07302,SC,34000,6000,50,56,48,Trident Medical Center
5.55,2.32,33.57070,-81.76332,SC,22000,6000,50,80,8,Aiken Regional Medical Center
4.81,2.25,33.70704,-78.89487,SC,19000,5000,66,50,57,Grand Strand Reg Med Center
7.82,2.41,34.00754,-81.03270,SC,34000,6000,33,66,37,Palmetto Health Baptist
5.25,2.13,32.78211,-79.95018,SC,21000,5000,50,66,29,Roper Hospital
7.10,2.26,34.19543,-79.76256,SC,30000,6000,33,66,13,Carolinas Hospital System
4.71,2.07,33.59553,-79.02412,SC,18000,5000,50,76,39,Waccamaw Community Hospital
4.96,2.42,43.53460,-96.71136,SD,19000,6000,66,60,81,Avera Mckennan Hospital & University Health Center
5.26,2.32,43.53562,-96.74305,SD,21000,6000,66,82,57,Sanford Usd Medical Center
4.40,2.49,44.05563,-103.22633,SD,17000,7000,66,42,82,Rapid City Regional Hospital
3.59,2.22,35.63906,-88.83207,TN,12000,5000,66,53,27,Jackson-Madison County General Hospital
7.62,2.19,36.24440,-86.75204,TN,33000,5000,50,71,85,Skyline Medical Center
5.24,2.14,35.75588,-83.95808,TN,21000,5000,50,75,48,Blount Memorial Hospital
4.17,2.16,36.58587,-82.25703,TN,15000,5000,50,62,48,Wellmont Bristol Regional Medical Center
6.46,2.67,36.14316,-86.80048,TN,27000,8000,50,43,43,Vanderbilt University Hospital
5.27,2.23,35.12837,-89.86202,TN,21000,5000,50,43,39,Baptist Memorial Hospital
5.19,2.50,35.13640,-90.01928,TN,21000,7000,66,51,37,Methodist Healthcare Memphis Hospitals
4.05,2.20,35.86074,-86.42434,TN,15000,5000,33,87,16,Middle Tennessee Medical Center Inc
3.16,2.23,36.17121,-85.50938,TN,10000,5000,50,73,98,Cookeville Regional Medical Center
4.63,2.31,36.30767,-82.38497,TN,18000,6000,83,50,21,Johnson City Medical Center
5.83,2.16,36.12859,-86.84559,TN,24000,5000,16,75,98,St Thomas Hospital
3.62,2.17,36.43222,-84.94250,TN,13000,5000,0,0,0,Jamestown Regional Medical Center
5.46,2.10,35.04157,-85.26037,TN,22000,5000,33,72,99,Memorial Healthcare System Inc
5.31,2.41,35.05068,-85.28823,TN,21000,6000,50,52,0,Erlanger Medical Center
5.02,2.14,35.99233,-83.92697,TN,20000,5000,50,56,85,Tennova Healthcare
5.96,2.49,35.95747,-83.93660,TN,25000,7000,33,56,44,Fort Sanders Regional Medical Center
3.74,2.18,36.15388,-86.80249,TN,13000,5000,66,66,63,Baptist Hospital
3.99,2.17,35.91765,-84.10080,TN,14000,5000,33,72,82,Parkwest Medical Center
11.37,2.32,35.09925,-89.86301,TN,52000,6000,50,62,57,St Francis Hospital
5.95,2.13,35.17731,-84.86873,TN,25000,5000,50,68,37,Skyridge Medical Center
10.06,2.47,31.77031,-106.50085,TX,46000,7000,50,62,29,Providence Memorial Hospital
5.03,2.29,30.65598,-96.34672,TX,20000,6000,50,57,32,St Joseph Regional Health Center
7.23,3.06,32.81043,-96.83699,TX,31000,10000,33,58,44,Parkland Health And Hospital System
5.08,3.93,29.31233,-94.77317,TX,20000,14000,66,55,21,University Of Texas Medical Branch Gal
5.28,2.53,32.78994,-96.78044,TX,21000,7000,83,58,33,Baylor University Medical Center
4.57,2.42,26.17446,-97.67014,TX,17000,6000,50,67,57,Vhs Harlingen Hospital Company Llc
6.76,2.17,30.08729,-94.13292,TX,29000,5000,66,86,79,Christus Hospital
11.70,2.29,32.50219,-94.73025,TX,54000,6000,50,73,85,Good Shepherd Medical Center
12.14,2.30,33.57524,-101.89272,TX,56000,6000,50,41,48,Covenant Medical Center
4.64,2.10,31.51444,-97.19927,TX,18000,5000,50,50,33,Providence Health Center
5.10,2.51,32.81224,-96.83795,TX,20000,7000,33,63,29,Ut Southwestern University Hospital
9.64,2.31,27.77751,-97.39515,TX,43000,6000,83,57,95,Christus Spohn Hospital Corpus Christi
6.90,2.61,32.76017,-96.82437,TX,29000,7000,50,40,3,Methodist Dallas Medical Center
6.16,2.45,31.07837,-97.36403,TX,26000,7000,50,56,85,Scott & White Memorial Hospital
8.94,2.34,30.30491,-97.74540,TX,40000,6000,16,56,63,Seton Medical Center Austin
7.56,2.30,29.43360,-98.49265,TX,33000,6000,66,61,24,Baptist Medical Center
5.84,2.98,29.71431,-95.39680,TX,24000,9000,66,46,13,Memorial Hermann Texas Medical Center
8.81,2.20,32.33824,-95.29122,TX,39000,5000,50,55,92,East Texas Medical Center
6.84,2.14,32.82932,-97.21399,TX,29000,5000,50,67,39,North Hills Hospital
6.78,2.30,29.66575,-95.18131,TX,29000,6000,50,51,44,Bayshore Medical Center
8.83,2.86,32.34280,-95.29201,TX,39000,9000,50,60,98,Mother Frances Hospital
7.38,2.39,31.76998,-106.49897,TX,32000,6000,66,58,8,Las Palmas Medical Center
9.59,2.63,26.26353,-98.18455,TX,43000,7000,66,91,74,South Texas Health System
6.22,3.05,30.27438,-97.73395,TX,26000,10000,33,73,2,University Medical Center At Brackenridge
4.71,2.42,26.15260,-97.97995,TX,18000,6000,50,52,88,Knapp Medical Center
5.80,2.50,31.84507,-102.37373,TX,24000,7000,33,82,29,Medical Center Hospital
4.42,2.31,31.99616,-102.09950,TX,17000,6000,50,55,37,Midland Memorial Hospital
5.87,2.28,32.73780,-97.33899,TX,24000,6000,66,55,57,Texas Health Harris Methodist Fort Worth
5.35,2.41,32.73070,-97.34379,TX,21000,6000,66,57,74,Baylor All Saints Medical Center At Fw
4.95,2.40,29.81230,-95.43010,TX,19000,6000,66,62,69,Memorial Hermann Hospital System
7.01,2.68,29.70719,-95.40048,TX,30000,8000,66,43,1,St Lukes Episcopal Hospital
4.60,2.15,32.74765,-97.78477,TX,18000,5000,0,0,0,Weatherford Regional Medical Center
5.93,2.38,35.19934,-101.92186,TX,24000,6000,83,82,24,Northwest Texas Hospital
5.84,2.15,31.33632,-94.74205,TX,24000,5000,50,71,63,Memorial Health System Of East Texas- Lufkin
4.23,2.18,32.47171,-99.73315,TX,16000,5000,66,86,39,Hendrick Medical Center
7.89,2.27,35.19533,-101.91907,TX,34000,6000,66,60,21,Baptist St Anthonys Health System-Baptist Campus
6.54,2.63,29.42825,-98.49859,TX,28000,7000,50,80,20,Christus Santa Rosa Hospital
5.08,2.29,32.91949,-96.66214,TX,20000,6000,50,76,44,Baylor Medical Center At Garland
6.78,3.08,29.68674,-95.38652,TX,29000,10000,83,78,29,Harris County Hospital District
5.84,2.24,33.71085,-96.58493,TX,24000,5000,50,57,21,Texoma Medical Center
4.64,2.21,30.07104,-94.11927,TX,18000,5000,83,63,85,Memorial Hermann Baptist Beaumont Hospital
8.06,2.62,29.71020,-95.39956,TX,35000,7000,100,60,13,Methodist Hospitalthe
6.36,2.32,29.50795,-98.57224,TX,27000,6000,66,62,57,Methodist Hospital
6.50,2.25,32.17167,-95.84417,TX,27000,5000,0,0,0,East Texas Medical Center Athens
11.02,2.61,33.15951,-96.63675,TX,51000,7000,66,65,2,Medical Center Of Mckinney
8.14,2.38,29.76963,-94.97926,TX,36000,6000,50,100,82,San Jacinto Methodist Hospital
5.70,2.46,30.28957,-97.72584,TX,23000,7000,66,81,63,St Davids Medical Center
5.99,2.34,32.88076,-96.76226,TX,25000,6000,66,66,3,Texas Health Presbyterian Hospital  Dallas
4.44,2.13,33.66003,-96.59459,TX,17000,5000,50,71,62,Texas Health Presbyterian Hospital-Wnj
3.71,2.26,31.61271,-94.64926,TX,13000,6000,50,92,21,Memorial Hospital
5.31,2.17,32.93228,-97.09436,TX,21000,5000,50,56,16,Baylor Regional Medical Center At Grapevine
5.15,2.17,31.67746,-98.99374,TX,20000,5000,0,0,0,Brownwood Regional Medical Center
5.51,2.23,29.78143,-95.54541,TX,22000,5000,83,77,92,Memorial Hermann Memorial City Medical Center
8.59,2.29,29.54043,-95.12730,TX,38000,6000,66,51,21,Clear Lake Regional Medical Center
7.21,2.32,30.01994,-95.44379,TX,31000,6000,50,65,69,Houston Northwest Medical Center
7.66,2.24,32.91132,-96.77424,TX,33000,5000,83,51,6,Medical City Dallas Hospital
9.34,2.22,33.02168,-96.76621,TX,42000,5000,50,67,11,Medical Center Of Plano
9.23,2.23,31.77757,-106.48060,TX,41000,5000,75,62,48,Sierra Medical Center
8.84,2.27,32.73563,-97.34483,TX,39000,6000,83,41,74,Plaza Medical Center Of Fort Worth
8.74,2.38,32.69299,-97.11219,TX,39000,6000,50,60,32,Medical Center Of Arlington
4.70,2.66,33.58838,-101.89214,TX,18000,8000,50,50,24,University Medical Center
4.81,2.33,32.64448,-96.87635,TX,19000,6000,50,43,88,Methodist Charlton Medical Center
4.49,2.36,33.21746,-97.16488,TX,17000,6000,75,77,74,Texas Health Presbyterian Hospital Denton
3.10,2.16,31.70411,-98.11389,TX,10000,5000,0,0,0,Hamilton General Hospital
6.45,2.39,30.41163,-97.70649,TX,27000,6000,33,65,29,North Austin Medical Center
9.17,2.27,29.96603,-95.55127,TX,41000,6000,50,77,94,Methodist Willowbrook Hospital
10.02,2.64,30.40505,-97.74357,TX,45000,7000,0,0,0,Seton  Northwest Hospital
6.60,2.61,26.25286,-98.20590,TX,28000,7000,33,66,44,Doctors Hospital At Renaissance
9.66,2.29,33.01358,-96.78823,TX,44000,6000,50,72,63,Baylor Regional Medical Center At Plano
3.53,2.76,40.77170,-111.83681,UT,12000,8000,33,53,8,University Health Care/Univ Hospitals And  Clinics
6.72,2.84,40.65922,-111.89189,UT,28000,9000,33,58,54,Intermountain Medical Center
4.79,3.13,44.47966,-73.19412,VT,19000,10000,66,50,13,Fletcher Allen Hospital Of Vermont
3.32,2.29,38.40552,-78.85730,VA,11000,6000,50,70,92,Rockingham Memorial Hospital
2.92,2.32,39.19345,-78.19599,VA,9000,6000,66,60,74,Winchester Medical Center Inc
4.41,2.60,36.86268,-76.30355,VA,17000,7000,83,58,4,Sentara Norfolk General Hospital
5.70,3.03,38.02573,-78.51526,VA,23000,9000,33,35,24,University Of Virginia Medical Center
4.27,2.28,36.89933,-76.28157,VA,16000,6000,50,85,57,Bon Secours - Depaul Medical Center
3.66,2.25,36.83716,-76.34786,VA,13000,5000,50,67,95,Bon Secours Maryview Medical Center
2.98,2.29,38.09436,-78.98659,VA,9000,6000,50,82,99,Augusta Health
3.52,2.23,37.41368,-79.16870,VA,12000,5000,50,70,57,Centra  Health Inc
5.68,2.34,38.31158,-77.48061,VA,23000,6000,66,73,17,Mary Washington Hospital Inc
4.39,2.43,37.25129,-79.94125,VA,16000,6000,50,61,1,Carilion Roanoke Memorial Center
7.78,3.05,37.54330,-77.42932,VA,34000,10000,66,48,0,Medical College Of Virginia Hospitals
3.92,2.15,37.47512,-75.86264,VA,14000,5000,0,0,0,Riverside Shore Memorial Hospital
4.18,2.36,38.82218,-77.10533,VA,15000,6000,66,68,57,Inova Alexandria Hospital
3.47,2.24,39.07405,-77.47754,VA,12000,5000,50,83,79,Inova Loudoun Hospital
4.87,2.18,36.77378,-76.57856,VA,19000,5000,50,77,51,Sentara Obici Hospital
5.67,2.29,38.76723,-77.48754,VA,23000,6000,50,67,57,Prince William Hospital
4.14,2.28,36.85098,-76.18989,VA,15000,6000,50,65,76,Sentara Leigh Hospital
5.63,2.27,37.26336,-80.03166,VA,23000,6000,50,48,8,Lewisgale Medical Center
4.27,2.30,38.88916,-77.12796,VA,16000,6000,100,57,57,Virginia Hospital Center - Arlington
6.22,2.82,37.06523,-76.48417,VA,26000,8000,50,68,44,Riverside Regional Medical Center
4.91,2.08,36.86449,-76.02844,VA,19000,5000,66,62,39,Sentara Virginia Beach General Hospital
4.11,2.18,37.58440,-77.51252,VA,15000,5000,50,66,69,Bon Secours - St Marys Hospital Of Richmond
6.07,2.88,38.85764,-77.22772,VA,25000,9000,83,53,1,Inova Fairfax Hospital
5.39,2.23,37.33700,-76.74046,VA,22000,5000,50,67,88,Sentara Williamsburg Regional Medical Center
8.46,2.36,37.18253,-77.35957,VA,37000,6000,50,76,85,Southside Regional Medical Center
4.99,2.28,37.62931,-77.38804,VA,20000,6000,50,67,69,Bon Secours - Memorial Regional Medical
3.73,2.21,36.57812,-79.40453,VA,13000,5000,50,61,69,Danville Regional Medical Center
4.13,2.16,38.02176,-78.44530,VA,15000,5000,50,75,88,Martha Jefferson Hospital
4.81,2.20,36.69555,-79.86374,VA,19000,5000,50,57,16,Memorial Hospital Of Martinsville & Henry County
7.87,2.20,37.51021,-77.59525,VA,34000,5000,83,52,32,Cjw Medical Center
7.19,2.25,37.60459,-77.53929,VA,31000,5000,66,63,29,Henrico Doctors' Hospital
4.29,2.18,36.74610,-76.24609,VA,16000,5000,50,62,85,Chesapeake Regional Medical Center
4.54,2.29,37.46807,-77.66143,VA,17000,6000,50,62,69,Bon Secours - St Francis Medical Center
5.61,2.31,47.71468,-122.33762,WA,23000,6000,50,63,32,Northwest Hospital
5.67,2.30,48.00091,-122.20600,WA,23000,6000,66,56,32,Providence Regional Medical Center Everett
6.20,2.38,47.60648,-122.31106,WA,26000,6000,25,53,10,Swedish Medical Center/Cherry Hill
4.78,2.36,48.77371,-122.47344,WA,18000,6000,50,67,33,St Joseph Medical Center
6.87,2.50,46.13039,-122.94110,WA,29000,7000,50,70,21,Peachealth St John Medical Center
4.65,2.46,45.62460,-122.58145,WA,18000,7000,66,53,81,Peacehealth Southwest Medical Center
5.67,2.33,46.28132,-119.28218,WA,23000,6000,33,77,54,Kadlec Regional Medical Center
4.51,2.97,47.60351,-122.32305,WA,17000,9000,66,52,0,Harborview Medical Center
5.04,2.58,47.44243,-122.21392,WA,20000,7000,50,55,48,Valley Medical Center
8.57,2.47,47.24670,-122.44841,WA,38000,7000,66,66,21,St Joseph Medical Center
5.09,2.68,39.65498,-79.95814,WV,20000,8000,83,31,5,West Virginia University Hospitals
3.05,2.26,39.32836,-80.23964,WV,10000,6000,66,61,76,United Hospital Center
4.00,2.27,38.43236,-82.40067,WV,14000,6000,66,60,17,St Mary'S Medical Center
3.41,2.12,38.86891,-82.12349,WV,11000,5000,0,0,0,Pleasant Valley Hospital
4.83,2.36,38.34739,-81.62600,WV,19000,6000,66,58,10,Charleston Area Medical Center
3.47,2.08,39.66383,-79.94681,WV,12000,5000,50,77,98,Monongalia County General Hospital
2.84,2.12,38.35553,-81.72560,WV,9000,5000,50,70,43,Thomas Memorial Hospital
3.71,2.14,39.27035,-81.56026,WV,13000,5000,50,51,10,Camden Clark Medical Center
3.08,2.24,37.78754,-81.20183,WV,10000,5000,66,73,82,Raleigh General Hospital
4.06,2.41,43.80136,-91.23958,WI,15000,6000,25,66,69,Mayo Clinic Hlth System- Franciscan Med Ctr Inc
4.08,2.23,43.01152,-88.24308,WI,15000,5000,50,55,24,Waukesha Memorial Hospital
3.23,2.27,42.57776,-87.81939,WI,11000,6000,66,65,20,United Hsptl Sys
4.71,2.20,43.25993,-87.92418,WI,18000,5000,0,0,0,Columbia St Mary'S Hospital Ozaukee Inc
7.48,2.84,44.67759,-90.17818,WI,32000,9000,50,57,13,Ministry Saint Joseph'S Hospital
3.85,2.17,44.50233,-88.01140,WI,14000,5000,50,61,12,Bellin Memorial Hsptl
4.61,2.54,43.06195,-87.87861,WI,18000,7000,83,67,24,Columbia St Marys Hsptl  Milw (Col & Milw Campus)
5.49,2.36,42.68685,-89.03244,WI,22000,6000,50,63,43,Mercy Hlth Sys Corp
3.88,2.42,42.98566,-87.93565,WI,14000,6000,50,70,57,Wheaton Franciscan Healthcare- St Francis
4.90,2.35,43.05867,-89.40269,WI,19000,6000,66,77,69,St Mary'S Hospital
5.53,2.50,43.79515,-91.24798,WI,22000,7000,16,61,21,Gundersen Luth Med Ctr
5.08,2.26,43.77733,-88.42866,WI,20000,6000,50,63,37,St Agnes Hsptl
4.14,2.47,42.73444,-87.82788,WI,15000,7000,50,67,12,Wheaton Franciscan Healthcare- All Saints
5.32,3.09,43.07633,-89.43133,WI,21000,10000,50,35,16,University Of Wi  Hospitals & Clinics Authority
3.33,2.18,43.16402,-88.13829,WI,11000,5000,50,60,90,Community Mem Hsptl
3.69,2.34,43.78322,-90.07678,WI,13000,6000,0,0,0,Mile Bluff Medical Center Inc
5.80,2.66,43.07393,-87.97612,WI,24000,8000,66,37,48,Wheaton Franciscan Inc- St Joseph
4.54,2.47,42.98958,-87.95079,WI,17000,7000,50,65,37,Aurora St Lukes Medical Center
4.71,2.23,43.00120,-88.02675,WI,18000,5000,50,71,63,Aurora West Allis Medical Center
5.03,2.84,43.04008,-88.02523,WI,20000,9000,66,36,11,Froedtert Mem Lutheran Hsptl
4.32,2.77,41.14037,-104.81660,WY,16000,8000,50,70,33,Cheyenne Regional Medical Center
7.73,2.29,29.61578,-98.47479,TX,34000,6000,50,76,33,Methodist Stone Oak Hospital
