size_charge,size_pay,lat,lon,charge,pay,name
2.42,2.37,35.83746,-90.70386,6087.92,5635.73,ST BERNARDS MEDICAL CTR
4.05,2.31,36.18082,-94.13644,18859.51,5191.88,NW ARKANSAS HOSPITALS, LLC
2.48,2.32,34.35877,-92.78638,6498.73,5304.27,HOT SPRING COUNTY MEDICAL CENTER
3.57,2.28,34.57290,-92.58508,15089.27,4968.28,SALINE MEMORIAL HOSPITAL
3.00,2.30,34.74866,-92.35422,10663.19,5141.13,BAPTIST HEALTH MEDICAL CENTER-LITTLE ROCK
8.25,2.92,37.63362,-122.08802,52002.20,9965.00,ST ROSE HOSPITAL
8.91,2.76,38.54384,-122.47401,57207.37,8716.71,ST HELENA HOSPITAL
5.90,2.69,32.68425,-117.08161,33469.04,8192.84,PARADISE VALLEY HOSPITAL
6.81,2.49,32.77495,-117.01467,40605.82,6648.64,GROSSMONT HOSPITAL
5.80,2.46,39.74221,-121.85000,32685.55,6403.52,ENLOE MEDICAL CENTER
6.02,2.77,37.82206,-122.26275,34428.73,8811.00,ALTA BATES SUMMIT MEDICAL CENTER
3.33,2.61,34.67486,-118.15771,13243.54,7552.69,ANTELOPE VALLEY HOSPITAL MED CENTER
4.72,2.82,36.73000,-119.78000,24182.32,9226.05,COMMUNITY REGIONAL MEDICAL CENTER
5.39,2.67,32.75143,-117.16083,29420.82,8016.82,SCRIPPS MERCY HOSPITAL
5.05,2.49,36.83532,-119.76562,26768.00,6625.36,SAINT AGNES MEDICAL CENTER
5.06,2.92,34.04932,-118.21746,26883.52,10027.19,WHITE MEMORIAL MEDICAL CENTER
3.95,2.93,33.92963,-118.20332,18125.80,10093.63,SAINT FRANCIS MEDICAL CENTER
4.46,2.65,38.57155,-121.46874,22126.78,7904.96,SUTTER GENERAL HOSPITAL
4.25,2.45,33.12535,-117.07336,20508.63,6321.24,PALOMAR MEDICAL CENTER
3.12,2.80,34.09638,-118.32518,11547.51,9056.67,HOLLYWOOD COMMUNITY HOSPITAL OF HOLLYWOOD
9.15,2.72,36.98999,-121.98357,59036.51,8418.46,DOMINICAN HOSPITAL
4.81,3.17,34.07389,-117.35111,24861.94,11933.71,ARROWHEAD REGIONAL MEDICAL CENTER
6.60,3.27,36.69761,-121.63320,38953.12,12753.27,NATIVIDAD MEDICAL CENTER
3.98,2.76,35.41172,-119.03972,18363.69,8743.44,GOOD SAMARITAN HOSPITAL
5.06,3.90,38.00655,-122.13312,26860.58,17724.00,CONTRA COSTA REGIONAL MEDICAL CENTER
4.14,2.86,33.80733,-118.19305,19612.18,9493.29,PACIFIC HOSPITAL OF LONG BEACH
4.87,2.79,33.91173,-117.19590,25379.92,8936.87,RIVERSIDE COUNTY REGIONAL MEDICAL CENTER
6.11,3.19,35.38318,-118.96997,35154.94,12131.60,KERN MEDICAL CENTER
11.56,2.67,37.94748,-122.53677,78034.53,8024.64,MARIN GENERAL HOSPITAL
20.00,4.86,34.06034,-118.21014,144522.67,25270.17,LAC+USC MEDICAL CENTER
3.53,2.87,34.24018,-118.39632,14833.48,9622.04,PACIFICA HOSPITAL OF THE VALLEY
9.24,3.34,37.25153,-121.94684,59783.27,13277.82,GOOD SAMARITAN HOSPITAL
2.87,2.70,34.08802,-117.89341,9637.04,8273.00,CITRUS VALLEY MEDICAL CENTER-IC CAMPUS
4.10,2.53,34.42951,-119.72333,19259.02,6954.12,SANTA BARBARA COTTAGE HOSPITAL
5.20,2.52,34.13364,-118.15275,27942.73,6850.18,HUNTINGTON MEMORIAL HOSPITAL
6.48,2.57,33.80861,-118.18661,38036.00,7277.73,LONG BEACH MEMORIAL MEDICAL CENTER
5.92,2.69,37.69824,-122.08730,33647.18,8176.91,EDEN MEDICAL CENTER
6.56,2.64,38.66956,-121.31378,38658.62,7752.12,MERCY SAN JUAN MEDICAL CENTER
4.52,2.74,33.87472,-118.14862,22589.80,8608.51,BELLFLOWER MEDICAL CENTER
5.61,2.91,33.65189,-117.91203,31164.01,9885.28,COLLEGE HOSPITAL COSTA MESA
6.16,2.41,33.56100,-117.66530,35507.36,6014.73,MISSION HOSPITAL REGIONAL MED CENTER
6.84,2.72,33.71466,-117.93322,40832.54,8396.62,FOUNTAIN VALLEY REGIONAL HOSPITAL & MEDICAL CENTER
12.65,3.15,38.55484,-121.45628,86670.73,11817.82,UNIVERSITY OF CALIFORNIA DAVIS MEDICAL CENTER
10.26,2.78,34.07664,-118.37955,67777.05,8923.85,CEDARS-SINAI MEDICAL CENTER
4.61,2.76,34.03556,-118.30962,23318.06,8729.87,LOS ANGELES METROPOLITAN MEDICAL CTR
3.33,2.74,34.01936,-118.18661,13234.41,8592.22,LOS ANGELES COMMUNITY HOSPITAL
3.12,2.74,34.22139,-118.45660,11601.30,8544.00,MISSION COMMUNITY HOSPITAL - PANORAMA
4.82,2.53,34.02303,-118.39741,24959.92,6942.00,BROTMAN MEDICAL CENTER
5.43,2.92,34.06958,-118.26344,29788.76,10000.08,SILVER LAKE MEDICAL CENTER
4.76,2.38,33.81559,-118.00704,24459.20,5720.83,ANAHEIM GENERAL HOSPITAL
2.96,2.31,40.57315,-105.05741,10272.85,5186.24,POUDRE VALLEY HOSPITAL
4.08,2.32,38.86559,-104.82182,19096.84,5292.16,CENTURA HEALTH-PENROSE ST FRANCIS HEALTH SERVICES
3.11,2.45,41.33722,-72.10380,11511.83,6293.92,LAWRENCE & MEMORIAL HOSPITAL
5.05,2.94,41.30400,-72.93502,26767.25,10184.42,YALE-NEW HAVEN HOSPITAL
3.58,2.54,39.69005,-75.68408,15189.81,7009.38,CHRISTIANA CARE HEALTH SERVICES, INC.
3.18,3.19,38.91770,-77.02193,12051.48,12134.80,HOWARD UNIVERSITY HOSPITAL
3.36,2.68,38.94397,-76.99040,13448.31,8112.57,PROVIDENCE HOSPITAL
4.85,2.76,38.92944,-77.01473,25219.32,8767.64,WASHINGTON HOSPITAL CENTER
3.43,2.79,30.34913,-81.66391,13975.75,8935.71,SHANDS JACKSONVILLE MEDICAL CENTER
4.10,2.42,28.52517,-81.37729,19293.32,6087.80,ORLANDO HEALTH
4.11,2.39,28.57345,-81.36990,19398.51,5782.56,FLORIDA HOSPITAL
4.45,2.55,25.78846,-80.21644,22075.21,7109.28,UNIVERSITY OF MIAMI HOSPITAL
3.37,2.37,26.62849,-81.87423,13564.58,5698.69,LEE MEMORIAL HOSPITAL
3.80,2.35,26.15053,-81.79919,16902.04,5525.12,NAPLES COMMUNITY HOSPITAL
3.84,2.26,28.08771,-80.61362,17258.50,4837.00,HOLMES REGIONAL MEDICAL CENTER
3.21,3.36,25.79143,-80.21250,12249.23,13430.03,JACKSON MEMORIAL HOSPITAL
4.91,2.51,25.86166,-80.21398,25631.32,6736.67,NORTH SHORE MEDICAL CENTER
3.55,2.35,28.54917,-81.52746,14958.36,5528.57,HEALTH CENTRAL
4.36,2.57,25.81317,-80.13996,21306.82,7224.09,MOUNT SINAI MEDICAL CENTER
3.38,2.61,26.10282,-80.14245,13598.92,7587.33,BROWARD HEALTH BROWARD GENERAL MEDICAL CENTER
3.98,2.31,28.02768,-81.72466,18323.72,5194.94,WINTER HAVEN HOSPITAL
3.99,2.26,29.17594,-82.13898,18431.09,4831.64,MUNROE REGIONAL MEDICAL CENTER
3.12,2.25,28.25431,-82.71447,11591.13,4739.08,MORTON PLANT NORTH BAY HOSPITAL
3.77,2.29,27.78088,-82.65126,16728.89,5035.16,ST ANTHONY'S HOSPITAL
4.10,2.41,27.98242,-82.49025,19321.32,5949.11,ST JOSEPH'S HOSPITAL
4.68,2.41,26.59805,-80.09271,23860.29,5986.10,JFK MEDICAL CENTER
4.56,2.38,30.31525,-81.66398,22904.43,5722.74,BAPTIST MEDICAL CENTER
3.52,2.41,29.86371,-81.31749,14718.45,5987.49,FLAGLER HOSPITAL
2.76,2.26,28.33522,-80.72319,8760.07,4781.67,WUESTHOFF MEDICAL CENTER  ROCKLEDGE
2.81,2.42,27.65832,-80.39307,9168.88,6037.18,INDIAN RIVER MEDICAL CENTER
3.56,2.31,27.50001,-81.43962,15017.94,5209.25,FLORIDA HOSPITAL HEARTLAND MEDICAL CENTER
5.16,2.97,29.64155,-82.34844,27616.00,10427.48,SHANDS HOSPITAL AT THE UNIVERSITY OF FLORIDA
3.45,2.32,27.95192,-82.80379,14152.52,5246.54,MORTON PLANT HOSPITAL
4.14,2.31,27.30187,-82.45428,19572.32,5170.00,DOCTORS HOSPITAL OF SARASOTA
4.57,2.61,25.70558,-80.29311,23001.63,7521.30,LARKIN COMMUNITY HOSPITAL
8.77,2.33,30.28793,-81.60103,56109.69,5374.25,MEMORIAL HOSPITAL JACKSONVILLE
5.24,2.59,25.88563,-80.32635,28283.24,7425.24,PALMETTO GENERAL HOSPITAL
7.29,2.48,28.19342,-82.46987,44399.11,6541.67,MEDICAL CENTER OF TRINITY
3.62,2.30,26.52735,-81.83337,15543.07,5118.40,GULF COAST MEDICAL CENTER LEE MEM HEALTH SYSTEM
6.80,2.31,26.21219,-80.25478,40594.00,5171.95,UNIVERSITY HOSPITAL AND MEDICAL CENTER
5.27,2.34,30.16550,-81.73775,28497.44,5417.62,ORANGE PARK MEDICAL CENTER
5.24,2.26,26.98884,-82.09877,28288.64,4812.00,FAWCETT MEMORIAL HOSPITAL
3.18,2.26,26.63958,-81.94164,12036.74,4791.44,CAPE CORAL HOSPITAL
5.66,2.66,27.43392,-80.34350,31581.06,7927.00,LAWNWOOD REGIONAL MEDICAL CENTER & HEART INSTITUTE
5.17,2.50,27.91458,-82.80382,27722.97,6657.55,LARGO MEDICAL CENTER
4.14,2.31,28.00237,-82.57309,19620.21,5208.71,TOWN & COUNTRY HOSPITAL
5.64,2.52,27.28861,-80.29431,31384.12,6808.27,ST LUCIE MEDICAL CENTER
3.29,2.76,25.74731,-80.31765,12874.26,8702.70,WESTCHESTER GENERAL HOSPITAL
2.50,2.35,33.74445,-84.91753,6671.64,5509.32,TANNER MEDICAL CENTER VILLA RICA
3.40,2.74,33.47091,-81.98988,13766.85,8545.46,MEDICAL COLLEGE OF GA HOSPITALS AND CLINICS
4.53,2.80,33.96770,-84.55011,22654.73,9075.82,WELLSTAR KENNESTONE HOSPITAL
4.11,2.50,32.03185,-81.09158,19399.53,6700.98,MEMORIAL HEALTH UNIV MED CEN, INC
2.81,2.30,30.82614,-83.97393,9137.62,5095.35,JOHN D ARCHBOLD MEMORIAL HOSPITAL
3.69,2.33,32.61642,-83.63065,16081.35,5379.01,HOUSTON MEDICAL CENTER
2.67,2.42,33.78956,-84.28077,8065.64,6060.16,DEKALB MEDICAL CENTER
3.91,2.72,33.75205,-84.38272,17754.54,8421.91,GRADY MEMORIAL HOSPITAL
2.99,2.28,32.50679,-84.95933,10562.84,4923.51,ST FRANCIS HOSPITAL, INC
5.18,2.70,33.87683,-84.02136,27790.69,8298.69,EMORY EASTSIDE MEDICAL CENTER
3.70,2.47,33.68000,-84.42685,16169.47,6434.64,SOUTH FULTON MEDICAL CENTER
3.81,2.68,21.30780,-157.85505,17028.59,8117.12,THE QUEENS MEDICAL CENTER
3.03,3.12,20.88519,-156.48928,10839.41,11535.00,MAUI MEMORIAL MEDICAL CENTER
3.55,2.85,19.71761,-155.11327,14980.28,9408.01,HILO MEDICAL CENTER
3.86,2.58,21.38095,-157.75759,17424.54,7325.80,CASTLE MEDICAL CENTER
3.48,2.38,43.61359,-116.25484,14384.76,5749.64,ST ALPHONSUS REGIONAL MEDICAL CENTER
3.33,2.38,43.65510,-116.69360,13250.55,5753.43,WEST VALLEY MEDICAL CENTER
3.49,2.36,47.69645,-116.79476,14524.80,5622.64,KOOTENAI MEDICAL CENTER
4.37,2.36,41.52896,-88.13550,21424.99,5597.80,PROVENA ST JOSEPH MEDICAL CENTER
4.03,2.45,42.06550,-87.68428,18712.00,6258.75,EVANSTON HOSPITAL
3.28,2.46,39.93563,-91.39833,12820.70,6412.19,BLESSING HOSPITAL
3.08,2.79,41.86011,-87.69571,11237.55,8952.45,MT SINAI HOSPITAL MEDICAL CENTER
3.71,2.38,42.07012,-88.33180,16255.00,5725.55,SHERMAN HOSPITAL
3.74,2.56,41.83195,-87.79266,16479.26,7125.02,MACNEAL  HOSPITAL
5.00,2.73,41.66900,-87.81414,26386.77,8532.05,PALOS COMMUNITY HOSPITAL
3.89,2.41,40.70200,-89.59222,17649.50,5974.50,SAINT FRANCIS MEDICAL CENTER
2.45,2.53,38.57057,-90.10769,6275.47,6908.68,TOUCHETTE REGIONAL HOSPITAL INC
4.47,2.62,41.96698,-87.64941,22210.22,7671.22,LOUIS A WEISS MEMORIAL HOSPITAL
2.89,2.63,41.87259,-87.76181,9728.16,7721.31,LORETTO HOSPITAL
3.46,2.38,40.11739,-88.22714,14250.80,5754.45,PROVENA COVENANT MEDICAL CENTER- URBANA
3.20,2.57,41.95453,-87.65225,12221.53,7225.60,THOREK MEMORIAL HOSPITAL
3.62,2.88,41.80555,-87.92059,15543.69,9681.00,HINSDALE HOSPITAL
3.01,2.83,41.87381,-87.67421,10741.73,9293.09,JOHN H STROGER JR HOSPITAL
5.92,2.44,38.70148,-90.14382,33601.92,6202.51,GATEWAY REGIONAL MEDICAL CENTER
2.98,2.41,40.49639,-88.99106,10437.96,5967.66,BROMENN HEALTHCARE
3.55,2.37,39.80893,-89.65530,14946.77,5653.62,MEMORIAL MEDICAL CENTER
3.79,2.39,41.12049,-87.87187,16860.85,5835.45,PROVENA ST MARYS HOSPITAL
2.86,2.39,39.82659,-88.93119,9515.54,5782.85,ST MARYS HOSPITAL
3.26,2.46,41.52283,-87.71111,12647.71,6366.47,FRANCISCAN ST JAMES HEALTH
3.32,2.69,41.75746,-87.58559,13137.19,8191.81,JACKSON PARK HOSPITAL
4.21,2.69,41.90414,-87.68254,20178.43,8165.69,ST MARY & ELIZABETH MED CTR-DIVISION CAMPUS
4.40,2.93,41.93641,-87.65295,21676.93,10077.90,ADVOCATE ILLINOIS MASONIC MEDICAL CENTER
3.74,2.45,41.12572,-87.88526,16421.68,6309.36,RIVERSIDE MEDICAL CENTER
2.92,2.30,38.51081,-89.99014,9972.43,5147.50,ST ELIZABETH HOSPITAL
3.45,2.41,41.60726,-87.66060,14204.09,5955.37,INGALLS MEMORIAL HOSPITAL
2.83,2.57,41.97310,-87.67090,9269.38,7258.84,METHODIST HOSPITAL OF CHICAGO
3.47,2.71,41.90078,-87.69925,14313.25,8315.75,NORWEGIAN-AMERICAN HOSPITAL
5.24,2.35,42.03576,-88.32575,28280.25,5480.09,PROVENA - SAINT JOSEPH HOSPITAL
3.96,2.40,42.26584,-89.07428,18225.79,5932.29,SWEDISH AMERICAN HOSPITAL
4.13,2.32,41.76076,-88.15016,19503.33,5236.42,EDWARD HOSPITAL
3.37,2.37,41.56720,-87.69566,13564.83,5656.83,ADVOCATE SOUTH SUBURBAN HOSPITAL
4.11,2.32,42.00413,-88.01745,19355.41,5249.24,ALEXIAN BROTHERS MEDICAL CENTER
2.86,2.31,41.48200,-90.57158,9525.54,5158.45,TRINITY ROCK ISLAND
5.21,3.21,41.89477,-87.62131,28032.47,12310.40,NORTHWESTERN MEMORIAL HOSPITAL
4.58,2.37,42.05260,-88.14173,23052.08,5644.33,ST ALEXIUS MEDICAL CENTER
3.97,2.51,41.91465,-88.05724,18298.96,6777.30,ADVENTIST GLENOAKS
3.00,2.45,41.59920,-87.35764,10616.16,6257.76,METHODIST HOSPITALS INC
4.09,2.28,41.61055,-86.72511,19249.04,4922.74,INDIANA UNIVERSITY HEALTH LA PORTE HOSPITAL
3.18,2.28,40.44665,-86.12707,12056.19,4927.90,HOWARD REGIONAL HEALTH SYSTEM
2.90,2.32,38.28244,-85.74923,9846.64,5245.30,CLARK MEMORIAL HOSPITAL
2.91,2.30,40.48720,-86.15548,9926.37,5112.56,ST JOSEPH HOSPITAL & HEALTH CENTER INC
3.20,2.37,39.48518,-87.40893,12176.94,5659.18,UNION HOSPITAL INC
2.94,2.74,39.78091,-86.17629,10167.78,8600.11,WILLIAM N WISHARD MEMORIAL HOSPITAL
3.40,2.41,41.07820,-85.14936,13780.80,5989.35,ST JOSEPH HOSPITAL
2.53,2.40,39.86405,-84.88413,6959.84,5922.59,REID HOSPITAL & HEALTH CARE SERVICES
3.28,2.35,39.16006,-86.54038,12796.80,5470.56,INDIANA UNIVERSITY HEALTH BLOOMINGTON HOSPITAL
4.52,3.29,39.79009,-86.16260,22591.50,12937.62,INDIANA UNIVERSITY HEALTH
3.44,2.42,41.68479,-86.25217,14066.17,6087.22,MEMORIAL HOSPITAL OF SOUTH BEND
3.71,2.44,39.78704,-86.07673,16239.33,6205.63,COMMUNITY HOSPITAL EAST
3.75,2.31,37.98293,-87.57072,16544.98,5183.67,DEACONESS HOSPITAL INC
3.10,2.35,40.09594,-85.68152,11411.49,5538.49,SAINT JOHN'S HEALTH SYSTEM
3.97,2.46,40.19679,-85.41573,18246.32,6333.84,INDIANA UNIVERSITY HEALTH BALL MEMORIAL HOSPITAL
3.45,2.29,37.96320,-87.50292,14198.09,5017.18,ST MARY'S MEDICAL CENTER OF EVANSVILLE INC
3.28,2.37,40.39424,-86.83516,12803.85,5646.53,FRANCISCAN ST ELIZABETH HEALTH - LAFAYETTE EAST
3.23,2.36,39.21585,-85.89683,12430.57,5617.32,COLUMBUS REGIONAL HOSPITAL
3.50,2.31,41.39576,-87.36689,14545.84,5213.53,FRANCISCAN ST ANTHONY HEALTH - CROWN POINT
3.28,2.41,41.26886,-95.83923,12864.93,5957.70,ALEGENT HEALTH MERCY HOSPITAL
2.80,2.29,41.66411,-91.52841,9023.65,5036.39,MERCY HOSPITAL
3.13,2.30,41.26786,-95.83505,11678.47,5142.17,JENNIE EDMUNDSON HOSPITAL
3.42,2.31,40.81009,-91.17356,13916.11,5210.96,GREAT RIVER MEDICAL CENTER
6.33,3.38,41.66092,-91.54800,36851.32,13623.68,UNIVERSITY OF IOWA HOSPITAL & CLINICS
2.91,2.35,43.15063,-93.21718,9953.58,5526.21,MERCY MEDICAL CENTER-NORTH IOWA
2.56,2.36,42.46407,-92.34532,7163.52,5585.80,COVENANT MEDICAL CENTER
2.76,2.23,42.49227,-90.67404,8725.09,4599.91,MERCY MEDICAL CENTER-DUBUQUE
3.60,2.37,41.59886,-93.62344,15358.13,5691.00,MERCY MEDICAL CENTER-DES MOINES
3.08,2.74,41.61534,-93.64316,11278.02,8570.93,BROADLAWNS MEDICAL CENTER
2.85,2.33,42.52665,-92.33957,9409.45,5357.85,ALLEN MEMORIAL HOSPITAL
3.16,2.35,39.05128,-95.69572,11910.34,5496.87,STORMONT-VAIL HEALTHCARE
3.39,2.36,37.70405,-97.31386,13669.33,5617.36,VIA CHRISTI HOSPITALS WICHITA INC
3.72,2.34,39.30739,-94.91854,16291.74,5454.61,CUSHING MEMORIAL HOSPITAL
2.82,2.33,39.07816,-84.46695,9233.29,5384.35,ST ELIZABETH FT THOMAS
2.62,2.34,38.47021,-82.63498,7645.48,5458.58,KING'S DAUGHTERS' MEDICAL CENTER
2.86,2.38,36.99641,-86.43006,9558.48,5704.63,THE MEDICAL CENTER AT BOWLING GREEN
3.09,2.35,39.06704,-84.49946,11299.56,5490.77,ST ELIZABETH MEDICAL CENTER NORTH
2.86,2.33,38.50697,-82.69222,9533.99,5354.75,OUR LADY OF BELLEFONTE HOSPITAL
2.45,2.45,37.76518,-87.10197,6294.70,6285.62,OWENSBORO MEDICAL HEALTH SYSTEM
3.49,2.47,38.24927,-85.75081,14490.35,6426.40,JEWISH HOSPITAL & ST MARY'S HEALTHCARE
3.02,2.35,39.01660,-84.63078,10782.23,5529.76,ST ELIZABETH FLORENCE
3.14,2.35,37.64378,-84.77272,11750.25,5473.03,EPHRAIM MCDOWELL REGIONAL MEDICAL CENTER
3.82,2.76,38.03282,-84.50674,17069.80,8721.00,UNIVERSITY OF KENTUCKY HOSPITAL
3.40,2.34,36.92128,-84.11838,13747.85,5450.76,BAPTIST REGIONAL MEDICAL CENTER
3.72,2.52,38.24806,-85.75125,16294.50,6874.06,NORTON HOSPITALS, INC
3.00,2.26,37.07404,-88.62685,10611.94,4777.00,WESTERN BAPTIST HOSPITAL
4.01,2.34,38.11425,-82.60321,18557.75,5465.17,THREE RIVERS MEDICAL CENTER
3.31,2.26,38.23898,-85.63941,13074.50,4776.77,BAPTIST HOSPITAL EAST
3.53,2.38,37.08724,-84.61828,14807.59,5744.65,LAKE CUMBERLAND REGIONAL HOSPITAL
3.47,2.73,38.24802,-85.74464,14289.87,8477.86,UNIVERSITY OF LOUISVILLE HOSPITAL
3.11,2.33,30.20227,-92.01906,11460.82,5361.36,LAFAYETTE GENERAL MEDICAL CENTER
4.39,2.39,30.46813,-90.45814,21552.27,5835.00,NORTH OAKS MEDICAL CENTER, LLC
2.30,2.41,30.54354,-92.07608,5090.36,5975.36,OPELOUSAS GENERAL HEALTH SYSTEM
5.20,2.24,30.21521,-93.22682,27988.82,4644.64,CHRISTUS ST PATRICK HOSPITAL
4.76,2.47,30.01875,-90.19452,24479.81,6422.38,OCHSNER FOUNDATION HOSPITAL
4.83,2.39,30.20458,-93.19774,25057.88,5790.29,LAKE CHARLES MEMORIAL HOSPITAL
5.31,2.61,29.92432,-90.37174,28833.19,7534.50,ST CHARLES PARISH HOSPITAL
3.07,2.42,30.15052,-92.03698,11188.55,6036.91,OUR LADY OF LOURDES REGIONAL MEDICAL CENTER, INC
4.27,2.30,32.48393,-93.77884,20619.00,5102.86,WILLIS KNIGHTON MEDICAL CENTER
3.48,2.37,43.90901,-69.89611,14440.69,5663.28,MID COAST HOSPITAL
4.02,2.42,44.80988,-68.74929,18697.38,6030.08,EASTERN MAINE MEDICAL CENTER
2.85,2.42,44.10276,-70.20093,9447.54,6093.80,ST MARYS REGIONAL MEDICAL CENTER
3.74,2.45,45.25378,-69.44547,16442.49,6284.77,MAINE GENERAL MEDICAL CENTER
4.17,2.71,47.26827,-68.59140,19819.73,8321.93,NORTHERN MAINE MEDICAL CENTER
4.09,2.52,44.14436,-69.08577,19208.28,6851.17,PENOBSCOT BAY MEDICAL CENTER
2.68,2.62,39.62183,-77.68219,8116.59,7637.52,MERITUS MEDICAL CENTER
4.10,3.95,39.28817,-76.62438,19293.29,18141.61,UNIVERSITY OF MARYLAND MEDICAL CENTER
2.74,2.67,38.93090,-76.92161,8553.63,8040.40,PRINCE GEORGES HOSPITAL CENTER
2.88,2.81,39.01578,-77.03591,9698.86,9117.05,HOLY CROSS HOSPITAL
2.91,2.84,39.42366,-77.41386,9934.10,9344.04,FREDERICK MEMORIAL HOSPITAL
2.88,2.81,39.54345,-76.09153,9655.09,9108.58,HARFORD MEMORIAL HOSPITAL
3.79,3.67,39.38813,-76.61068,16879.43,15882.10,SAINT JOSEPH MEDICAL CENTER
6.00,5.74,39.29688,-76.59242,34232.34,32200.78,JOHNS HOPKINS HOSPITAL, THE
2.79,2.72,39.35262,-76.66196,8983.16,8453.82,SINAI HOSPITAL OF BALTIMORE
2.85,2.78,39.28833,-76.64912,9440.05,8873.63,BON SECOURS HOSPITAL
3.07,2.99,39.35169,-76.47919,11174.37,10534.21,FRANKLIN SQUARE HOSPITAL CENTER
2.69,2.63,38.98482,-77.00139,8214.21,7721.34,WASHINGTON ADVENTIST HOSPITAL
2.82,2.75,39.15402,-77.05431,9214.92,8695.48,MONTGOMERY GENERAL HOSPITAL INC
3.11,3.02,38.36248,-75.59799,11476.99,10802.66,PENINSULA REGIONAL MEDICAL CENTER
2.95,2.88,38.99743,-77.11048,10260.64,9651.96,SUBURBAN HOSPITAL
2.69,2.63,38.99014,-76.53398,8180.44,7689.75,ANNE ARUNDEL MEDICAL CENTER
2.71,2.65,39.32930,-76.61432,8331.10,7849.40,UNION MEMORIAL HOSPITAL
2.57,2.52,39.64928,-78.73206,7256.92,6831.02,WESTERN MARYLAND REGIONAL MEDICAL CENTER
2.90,2.82,38.29124,-76.63579,9829.24,9239.49,SAINT MARY'S HOSPITAL
3.68,3.56,39.29100,-76.54623,15964.91,15019.27,JOHNS HOPKINS BAYVIEW MEDICAL CENTER
3.02,2.94,39.60859,-75.83201,10819.08,10184.41,UNION HOSPITAL OF CECIL COUNTY
2.82,2.76,39.55808,-76.99107,9229.64,8707.71,CARROLL HOSPITAL CENTER
3.19,3.10,38.76970,-76.07697,12147.32,11437.13,MEMORIAL HOSPITAL AT EASTON
2.88,2.81,39.29994,-76.62138,9712.71,9129.99,MARYLAND GENERAL  HOSPITAL
2.90,2.84,38.55963,-76.59455,9841.17,9331.84,CALVERT MEMORIAL HOSPITAL
2.91,2.83,39.35852,-76.78208,9907.25,9323.53,NORTHWEST HOSPITAL CENTER
3.28,3.19,39.13732,-76.62228,12862.77,12119.86,BALTIMORE WASHINGTON  MEDICAL CENTER
2.69,2.63,39.39017,-76.62216,8184.55,7693.64,GREATER BALTIMORE MEDICAL CENTER
3.05,2.97,39.21273,-76.88526,11018.29,10375.17,HOWARD COUNTY GENERAL HOSPITAL
2.78,2.71,38.74827,-76.87590,8857.12,8335.47,SOUTHERN MARYLAND HOSPITAL CENTER
2.70,2.65,39.08690,-76.88163,8280.05,7841.28,LAUREL REGIONAL MEDICAL CENTER
2.74,2.67,39.35962,-76.58851,8576.25,8061.75,GOOD SAMARITAN HOSPITAL
4.80,2.57,42.59584,-72.59255,24809.18,7269.40,BAYSTATE FRANKLIN MEDICAL CENTER
3.52,2.91,42.27872,-71.06625,14688.19,9949.81,CARNEY HOSPITAL
3.96,2.49,41.69217,-71.16474,18149.08,6632.00,SAINT ANNE'S HOSPITAL
2.80,2.46,42.56407,-70.87543,9042.33,6401.53,BEVERLY HOSPITAL CORPORATION
5.99,2.89,42.36227,-71.06941,34180.48,9733.00,MASSACHUSETTS GENERAL HOSPITAL
3.23,2.45,41.70928,-71.14519,12461.50,6296.03,SOUTHCOAST HOSPITAL GROUP, INC
3.91,2.62,42.12077,-72.60525,17776.50,7642.14,BAYSTATE MEDICAL CENTER
3.61,2.47,42.72846,-71.16830,15463.59,6490.27,HOLY FAMILY HOSPITAL
3.68,3.06,42.33719,-71.10939,15954.54,11106.21,BETH ISRAEL DEACONESS MEDICAL CENTER
3.27,2.51,42.58660,-71.98678,12768.98,6751.46,HEYWOOD HOSPITAL
2.81,2.39,42.17644,-70.95398,9145.47,5841.00,SOUTH SHORE HOSPITAL
4.25,2.73,42.33600,-71.10704,20451.67,8498.42,BRIGHAM AND WOMEN'S HOSPITAL
4.90,3.17,42.34951,-71.06331,25577.23,11973.55,TUFTS MEDICAL CENTER
4.87,2.92,42.27720,-71.75922,25380.50,10014.21,UMASS MEMORIAL MEDICAL CENTER INC
3.01,2.52,42.48585,-71.20686,10686.58,6852.50,LAHEY CLINIC HOSPITAL
3.41,2.48,42.45741,-83.20513,13839.42,6510.92,PROVIDENCE HOSPITAL AND MEDICAL CENTERS
3.76,2.48,42.29077,-83.21504,16610.55,6554.18,OAKWOOD HOSPITAL AND MEDICAL CENTER
2.50,2.34,42.08955,-86.47781,6698.54,5417.23,LAKELAND HOSPITAL, ST JOSEPH
3.80,2.84,42.96881,-85.66649,16890.32,9398.05,SPECTRUM HEALTH - BUTTERWORTH CAMPUS
3.33,2.30,43.58941,-83.86908,13254.67,5097.94,MCLAREN BAY REGION
2.91,2.34,42.61490,-82.96060,9909.89,5449.74,HENRY FORD MACOMB HOSPITAL
6.24,3.49,42.36762,-83.08461,36170.47,14448.29,HENRY FORD HOSPITAL
2.74,2.32,45.80941,-88.04422,8570.33,5292.00,DICKINSON COUNTY MEMORIAL HOSPITAL
2.42,2.56,42.95817,-85.66253,6072.05,7139.80,SAINT MARY'S HEALTH CARE
3.05,2.40,43.22169,-86.24283,11022.74,5938.87,MERCY HEALTH PARTNERS, HACKLEY CAMPUS
3.82,2.34,42.25117,-84.39240,17050.96,5416.57,ALLEGIANCE HEALTH
4.11,2.45,44.76156,-85.64143,19377.69,6293.50,MUNSON MEDICAL CENTER
3.65,2.51,42.51418,-83.19259,15714.13,6756.55,WILLIAM BEAUMONT HOSPITAL
3.73,2.52,43.01399,-83.73250,16370.97,6863.20,MCLAREN FLINT
3.33,2.39,42.27424,-83.36580,13259.73,5822.91,OAKWOOD ANNAPOLIS HOSPITAL
2.87,2.58,42.46176,-83.37629,9614.61,7286.26,BOTSFORD HOSPITAL
3.48,2.44,42.70417,-84.55488,14439.21,6229.86,MCLAREN - GREATER LANSING
4.42,2.33,42.27302,-84.95775,21817.56,5370.14,OAKLAWN HOSPITAL
2.84,2.42,42.58900,-82.89799,9404.00,6057.88,MOUNT CLEMENS REGIONAL MEDICAL CENTER
3.68,2.36,42.61826,-83.09239,15958.86,5567.07,WILLIAM BEAUMONT HOSPITAL-TROY
3.12,2.58,42.23506,-83.27602,11588.81,7343.44,OAKWOOD HERITAGE HOSPITAL
3.46,2.41,45.01403,-93.32177,14247.50,5983.93,NORTH MEMORIAL MEDICAL CENTER
3.20,2.37,46.79380,-92.09573,12202.82,5699.55,ESSENTIA HEALTH ST MARY'S MEDICAL CENTER
3.97,2.68,46.79308,-92.09379,18300.64,8126.40,ESSENTIA HEALTH DULUTH
4.86,2.66,45.57390,-94.16942,25304.16,7958.95,ST CLOUD HOSPITAL
6.85,2.79,44.94214,-93.10858,40979.59,8966.21,UNITED HOSPITAL
4.25,2.65,47.41117,-92.93183,20473.69,7879.11,UNIVERSITY MEDICAL CENTER-MESABI/ MESABA CLINICS
3.19,2.41,46.79634,-92.08793,12140.96,5974.42,ST LUKES HOSPITAL
2.49,2.32,44.93031,-93.36276,6575.06,5250.44,PARK NICOLLET METHODIST HOSPITAL
6.60,2.64,44.95248,-93.26196,38999.40,7825.38,ABBOTT NORTHWESTERN HOSPITAL
5.10,2.61,44.94898,-93.10016,27150.62,7591.43,ST JOSEPH'S HOSPITAL
3.21,2.40,46.36166,-94.20573,12318.62,5938.00,ESSENTIA HEALTH ST JOSEPH'S MEDICAL CENTER
6.01,3.11,44.96766,-93.23640,34331.84,11479.83,UNIVERSITY OF MINNESOTA  MEDICAL CENTER, FAIRVIEW
3.04,2.41,44.16396,-94.00412,10933.92,5981.76,MAYO CLINIC HEALTH SYSTEM - MANKATO
6.36,2.86,44.95570,-93.09429,37106.53,9543.64,REGIONS HOSPITAL
7.05,2.59,45.18355,-93.36789,42505.15,7429.97,MERCY HOSPITAL
3.48,2.60,32.33069,-90.17030,14407.68,7502.01,UNIVERSITY OF MISSISSIPPI MED CENTER
5.59,2.36,30.39599,-88.89061,31050.52,5582.98,BILOXI REGIONAL MEDICAL CENTER
5.32,2.36,30.36674,-89.11535,28871.28,5609.65,MEMORIAL HOSPITAL AT GULFPORT
5.70,2.38,32.35265,-90.87788,31862.59,5766.07,RIVER REGION HEALTH SYSTEM
4.13,2.30,30.37516,-88.53226,19563.78,5138.44,SINGING RIVER HOSPITAL
3.01,2.30,32.33616,-90.15652,10741.49,5091.73,ST DOMINIC-JACKSON MEMORIAL HOSPITAL
3.47,2.40,31.71155,-91.06066,14360.62,5932.00,JEFFERSON COUNTY HOSPITAL
4.93,2.35,32.28805,-90.25566,25844.31,5497.45,CENTRAL MISSISSIPPI MEDICAL CENTER
2.92,2.34,31.31872,-89.32955,10022.95,5405.36,FORREST GENERAL HOSPITAL
2.56,2.39,33.41099,-91.03479,7135.69,5823.00,DELTA REGIONAL MEDICAL CENTER
4.69,2.22,32.28618,-90.03434,23908.09,4444.91,CROSSGATES RIVER OAKS HOSPITAL
2.69,2.38,33.51824,-90.19832,8168.97,5759.50,GREENWOOD LEFLORE HOSPITAL
3.72,2.32,32.31643,-90.17922,16310.24,5233.00,MISSISSIPPI BAPTIST MEDICAL CENTER
3.38,2.41,34.30697,-89.91569,13646.91,5957.56,TRI LAKES MEDICAL CENTER
2.58,2.25,32.40962,-88.67770,7345.18,4708.00,ALLIANCE HEALTH CENTER
3.56,2.31,37.06032,-94.52747,15026.19,5177.06,ST JOHN'S REGIONAL MEDICAL CENTER
3.37,2.31,38.78060,-90.48379,13520.54,5202.37,SSM ST JOSEPH HEALTH CENTER
3.26,2.49,39.77393,-94.77089,12709.41,6637.00,HEARTLAND REGIONAL MEDICAL CENTER
2.91,2.24,38.57670,-92.17352,9952.39,4644.88,ST MARYS HEALTH CENTER
3.01,2.29,36.23658,-90.04315,10669.88,5036.56,TWIN RIVERS REGIONAL MEDICAL CENTER
4.17,2.33,38.64281,-90.44448,19867.17,5353.00,MERCY HOSPITAL ST LOUIS
4.45,2.39,39.00717,-94.55925,22073.02,5845.10,RESEARCH MEDICAL CENTER
3.26,2.50,38.63524,-90.26508,12701.00,6656.77,BARNES JEWISH HOSPITAL
3.22,2.34,37.14560,-93.28037,12395.87,5398.17,COX MEDICAL CENTER
2.60,2.78,39.08401,-94.57591,7479.92,8928.23,TRUMAN MEDICAL CENTER HOSPITAL HILL
4.48,2.33,39.24809,-94.64928,22288.63,5376.48,ST LUKES NORTHLAND HOSPITAL
3.37,2.33,37.17999,-93.27409,13523.59,5310.79,ST JOHN'S REGIONAL HEALTH CENTER
2.97,2.25,38.50661,-90.38025,10406.69,4752.77,ST ANTHONY'S MEDICAL CENTER
2.81,2.37,36.73801,-91.87553,9109.30,5639.33,OZARKS MEDICAL CENTER
3.80,2.53,38.63268,-90.31089,16902.86,6926.57,SSM ST MARYS HEALTH CENTER
3.34,2.27,39.14957,-94.55148,13294.67,4903.00,NORTH KANSAS CITY HOSPITAL
3.03,2.73,38.97543,-94.39536,10871.98,8523.16,TRUMAN MEDICAL CENTER LAKEWOOD
3.74,2.36,38.75097,-90.43255,16416.92,5563.12,SSM DEPAUL HEALTH CENTER
3.98,2.70,38.62280,-90.24049,18335.08,8251.50,ST LOUIS UNIVERSITY HOSPITAL
3.52,2.29,37.31072,-89.53990,14692.57,4996.43,SOUTHEAST MISSOURI HOSPITAL
3.39,2.32,37.79962,-90.44045,13688.26,5308.23,MINERAL AREA REGIONAL MEDICAL CENTER
2.96,2.38,36.78510,-90.42779,10327.28,5766.14,POPLAR BLUFF REGIONAL MEDICAL CENTER
3.78,2.37,37.05238,-94.52777,16740.53,5703.47,FREEMAN HEALTH SYSTEM - FREEMAN WEST
3.25,2.26,39.27591,-94.42572,12613.57,4812.21,LIBERTY HOSPITAL
3.47,2.32,38.77576,-90.23906,14343.94,5247.91,CHRISTIAN HOSPITAL NORTHEAST
4.04,2.36,38.58425,-90.22739,18798.09,5595.71,ST ALEXIUS HOSPITAL
3.13,2.39,45.78958,-108.51283,11678.87,5820.20,BILLINGS CLINIC HOSPITAL
3.30,2.34,48.21465,-114.32386,12980.36,5456.32,KALISPELL REGIONAL MEDICAL CENTER
4.40,2.59,41.25522,-95.97892,21648.46,7411.85,THE NEBRASKA MEDICAL CENTER
4.74,2.43,41.23897,-96.03162,24305.74,6174.10,ALEGENT HEALTH BERGAN MERCY MEDICAL CENTER
4.16,2.45,41.32182,-96.02133,19740.19,6303.29,ALEGENT HEALTH IMMANUEL MEDICAL CENTER
5.19,2.62,42.03257,-97.45100,27852.54,7642.35,FAITH REGIONAL HEALTH SERVICES
4.70,2.39,39.52637,-119.79456,24051.35,5850.52,RENOWN REGIONAL MEDICAL CENTER
7.17,2.54,36.13459,-115.13576,43459.55,6972.50,SUNRISE HOSPITAL AND MEDICAL CENTER
5.51,2.56,36.16380,-115.16574,30357.55,7195.20,VALLEY HOSPITAL MEDICAL CENTER
7.23,2.41,36.21599,-115.25095,43981.25,5943.67,MOUNTAINVIEW HOSPITAL
7.61,2.44,36.09056,-115.24058,46958.09,6240.82,SPRING VALLEY HOSPITAL MEDICAL CENTER
2.82,2.40,43.19846,-71.56230,9203.50,5902.33,CONCORD HOSPITAL
4.02,2.46,43.06469,-70.78916,18680.73,6344.67,PORTSMOUTH REGIONAL HOSPITAL
8.44,2.56,40.78556,-74.17598,53450.88,7124.00,CLARA MAASS MEDICAL CENTER
5.54,2.44,40.35684,-74.66166,30657.67,6227.67,UNIVERSITY MEDICAL CENTER AT PRINCETON
5.34,2.43,40.98359,-74.10047,29052.25,6158.00,VALLEY HOSPITAL
4.88,2.86,39.94152,-75.11680,25402.00,9556.01,COOPER UNIVERSITY HOSPITAL
6.99,2.65,40.73417,-74.04977,42068.97,7861.50,CHRIST HOSPITAL
9.00,2.74,40.90215,-74.16634,57868.39,8569.76,ST JOSEPH'S REGIONAL MEDICAL CENTER
11.96,2.78,40.21634,-74.74143,81226.16,8904.32,ST FRANCIS MEDICAL CENTER
6.51,2.38,39.78261,-74.91670,38265.79,5731.72,VIRTUA WEST JERSEY HOSPITALS BERLIN
6.41,2.61,40.66005,-74.21417,37489.75,7539.42,TRINITAS REGIONAL MEDICAL CENTER
12.48,2.92,40.49581,-74.44980,85321.96,9978.26,ROBERT WOOD JOHNSON UNIVERSITY HOSPITAL
7.94,2.61,40.51891,-74.28183,49539.72,7582.20,RARITAN BAY MEDICAL CENTER
6.18,2.35,39.96484,-74.21708,35653.47,5491.53,COMMUNITY MEDICAL CENTER
17.88,2.98,40.90400,-73.96847,127807.48,10498.17,ENGLEWOOD HOSPITAL AND MEDICAL CENTER
9.51,2.73,40.56804,-74.59579,61918.24,8494.88,SOMERSET MEDICAL CENTER
6.04,2.46,39.35775,-74.43449,34584.51,6375.03,ATLANTICARE REGIONAL MEDICAL CENTER - CITY DIV
7.56,2.48,40.21065,-74.03566,46521.58,6523.26,JERSEY SHORE UNIVERSITY MEDICAL CENTER
5.96,2.54,40.29563,-73.98518,33957.91,7002.09,MONMOUTH MEDICAL CENTER
14.17,3.31,40.76190,-74.30335,98584.93,13047.71,SAINT BARNABAS MEDICAL CENTER
8.80,2.42,40.07503,-74.21832,56342.63,6029.73,KIMBALL MEDICAL CENTER
9.71,2.66,39.82811,-75.00895,63501.62,7980.93,KENNEDY UNIVERSITY HOSPITAL - STRATFORD DIV
4.20,2.74,40.74323,-74.17431,20087.83,8576.63,SAINT MICHAEL'S MEDICAL CENTER, INC
6.94,2.35,40.21575,-74.67273,41648.58,5490.92,ROBERT WOOD JOHNSON UNIVERSITY HOSPITAL HAMILTON
10.28,3.53,40.73925,-74.19276,67935.21,14777.89,UMDNJ UNIVERSITY HOSPITAL
2.75,2.60,35.65960,-105.94578,8688.47,7485.42,ST VINCENT HOSPITAL
2.76,2.52,36.72387,-108.21749,8698.65,6860.45,SAN JUAN REGIONAL MEDICAL CENTER
6.31,2.40,33.42340,-104.52748,36698.29,5937.96,EASTERN NEW MEXICO MEDICAL CENTER
3.09,2.42,32.29186,-106.73470,11335.49,6065.82,MEMORIAL MEDICAL CENTER INC
4.67,2.59,42.65345,-73.77543,23794.88,7405.25,ALBANY MEDICAL CENTER HOSPITAL
3.19,2.29,43.09840,-75.27819,12130.92,5056.92,FAXTON-ST LUKE'S HEALTHCARE
7.48,3.16,40.87987,-73.87996,45911.75,11870.00,MONTEFIORE MEDICAL CENTER
3.90,2.59,43.09378,-79.05038,17682.96,7373.19,NIAGARA FALLS MEMORIAL MEDICAL CENTER
3.27,2.55,41.09642,-73.92501,12723.89,7046.83,NYACK HOSPITAL
5.45,2.75,40.77686,-73.70212,29954.36,8665.57,NORTH SHORE UNIVERSITY HOSPITAL
4.67,2.60,43.05571,-76.14981,23789.07,7499.41,ST JOSEPH'S HOSPITAL HEALTH CENTER
4.97,2.41,42.81963,-73.91653,26178.21,5992.67,ELLIS HOSPITAL
4.26,2.43,43.00561,-76.17002,20544.53,6152.49,COMMUNITY-GENERAL HOSPITAL OF GREATER SYRACUSE
4.92,2.94,40.73265,-73.98162,25729.55,10173.18,BETH ISRAEL MEDICAL CENTER
3.35,2.29,43.08561,-73.79712,13359.19,5070.67,SARATOGA HOSPITAL
5.08,2.99,43.04269,-76.14043,27010.27,10535.80,UNIVERSITY HOSPITAL S U N Y HEALTH SCIENCE CENTER
3.82,2.53,40.69327,-73.29412,17104.40,6908.23,GOOD SAMARITAN HOSPITAL MEDICAL CENTER
8.26,3.79,40.90922,-73.11520,52016.09,16841.00,UNIVERSITY HOSPITAL ( STONY BROOK )
3.07,2.44,35.43754,-80.60147,11179.47,6176.94,CAROLINAS MEDICAL CENTER-NORTHEAST
2.82,2.39,35.57658,-82.54922,9194.00,5842.46,MEMORIAL MISSION HOSPITAL AND ASHEVILLE SURGERY CE
2.64,2.34,35.95000,-80.00000,7772.81,5462.39,HIGH POINT REGIONAL HOSPITAL
3.40,2.50,36.07581,-80.29779,13743.00,6653.25,FORSYTH MEMORIAL HOSPITAL
3.09,2.34,35.32080,-82.46812,11301.59,5447.57,MARGARET R PARDEE MEMORIAL HOSPITAL
3.08,2.34,35.38994,-82.48815,11267.83,5429.65,PARK RIDGE HEALTH
4.03,2.50,35.03156,-78.93205,18747.19,6700.50,CAPE FEAR VALLEY MEDICAL CENTER
4.84,2.96,36.00850,-78.94006,25129.41,10319.47,DUKE UNIVERSITY HOSPITAL
3.46,2.41,35.27341,-81.13688,14283.90,5940.02,GASTON MEMORIAL HOSPITAL
3.59,2.59,35.60726,-77.40477,15308.50,7433.90,PITT COUNTY MEMORIAL HOSPITAL
3.16,2.53,34.63723,-79.01213,11896.48,6914.69,SOUTHEASTERN REGIONAL MEDICAL CENTER
3.40,2.41,35.22196,-80.83287,13810.21,5952.50,PRESBYTERIAN HOSPITAL
3.24,2.80,35.90529,-79.04963,12552.31,9086.69,UNIVERSITY OF NORTH CAROLINA HOSPITAL
4.05,2.47,35.78523,-78.58836,18929.95,6428.53,WAKEMED, RALEIGH CAMPUS
2.96,2.46,35.30715,-78.63474,10272.56,6393.66,BETSY JOHNSON REGIONAL  HOSPITAL
3.95,2.38,35.72399,-81.65874,18075.37,5751.89,GRACE HOSPITAL INC
3.32,2.50,36.09251,-79.78855,13146.36,6716.36,MOSES H CONE MEMORIAL HOSPITAL, THE
2.88,2.34,34.90228,-79.71125,9683.75,5453.27,SANDHILLS REGIONAL MEDICAL CENTER
4.86,3.01,35.20397,-80.83908,25309.54,10711.57,CAROLINAS MEDICAL CENTER/BEHAV HEALTH
3.98,2.31,35.81801,-78.70283,18337.82,5211.18,REX HOSPITAL
5.56,2.32,35.73751,-81.33702,30789.33,5305.79,FRYE REGIONAL MEDICAL CENTER
2.92,2.47,35.11420,-77.06568,10034.14,6449.16,CAROLINA EAST MEDICAL CENTER
3.03,2.45,34.23786,-77.94764,10851.67,6278.72,NEW HANOVER REGIONAL MEDICAL CENTER
2.92,2.51,35.97538,-77.85012,9984.09,6755.91,NASH GENERAL HOSPITAL
3.00,2.81,39.13707,-84.50392,10620.33,9107.33,UNIVERSITY HOSPITAL, INC
3.89,2.39,40.03064,-83.03440,17606.20,5829.32,RIVERSIDE METHODIST HOSPITAL
3.83,2.38,41.44642,-82.70864,17183.94,5732.83,FIRELANDS REGIONAL MEDICAL CENTER
2.83,2.34,39.95805,-83.02191,9260.16,5426.32,MOUNT CARMEL HEALTH
2.66,2.37,39.97510,-82.01812,7959.44,5667.23,GENESIS HEALTHCARE SYSTEM
4.91,2.42,39.78778,-84.23493,25700.10,6044.39,GOOD SAMARITAN HOSPITAL
3.66,2.33,41.23549,-80.79865,15846.63,5326.73,TRUMBULL MEMORIAL HOSPITAL
2.85,2.36,41.11441,-80.65565,9475.77,5563.59,ST ELIZABETH HEALTH CENTER
3.22,2.32,40.74115,-84.11804,12328.69,5291.37,ST RITA'S MEDICAL CENTER
2.43,2.32,39.71750,-82.57772,6119.69,5297.54,FAIRFIELD MEDICAL CENTER
5.68,2.92,39.99445,-83.01872,31724.26,10018.90,OHIO STATE UNIVERSITY HOSPITALS
3.69,2.26,41.66317,-81.24696,16094.27,4831.47,LAKE HEALTH
5.44,2.94,41.66810,-83.54275,29854.50,10174.79,MERCY ST VINCENT MEDICAL CENTER
2.80,2.28,41.36649,-82.09708,9050.77,4929.90,EMH REGIONAL MEDICAL CENTER
3.11,2.26,39.43061,-81.46454,11470.93,4820.64,MARIETTA MEMORIAL HOSPITAL
3.40,2.30,40.02984,-80.74312,13809.18,5103.00,BELMONT COMMUNITY HOSPITAL
3.60,2.25,41.37028,-81.83189,15386.27,4757.73,SOUTHWEST GENERAL HEALTH CENTER
2.45,2.37,39.39463,-82.96979,6256.34,5647.56,ADENA REGIONAL MEDICAL CENTER
2.95,2.31,41.43688,-82.23761,10257.81,5182.02,MERCY REGIONAL MEDICAL CENTER
2.57,2.38,40.04876,-82.45029,7270.18,5713.28,LICKING MEMORIAL HOSPITAL
3.24,2.42,39.08023,-84.14459,12517.39,6049.86,MERCY HOSPITAL CLERMONT
3.74,2.36,39.63778,-84.24864,16440.52,5591.58,KETTERING MEDICAL CENTER - SYCAMORE
3.32,2.50,36.14687,-95.96841,13150.18,6700.54,HILLCREST MEDICAL CENTER
3.79,2.29,35.52531,-97.58461,16885.99,5070.59,DEACONESS HOSPITAL
3.43,2.57,35.47800,-97.52352,14012.62,7208.68,ST ANTHONY HOSPITAL
3.13,2.34,36.06135,-95.95154,11672.84,5442.53,SAINT FRANCIS HOSPITAL, INC
3.84,2.33,36.13393,-95.96718,17274.26,5352.84,ST JOHN MEDICAL CENTER, INC
2.37,2.52,35.95999,-95.39306,5628.33,6813.58,WAGONER COMMUNITY HOSPITAL
2.85,2.35,42.42112,-123.34326,9461.50,5494.14,THREE RIVERS COMMUNITY HOSPITAL
4.55,2.57,45.50973,-122.77368,22870.18,7202.85,PROVIDENCE ST VINCENT MEDICAL CENTER
5.25,3.41,45.49956,-122.68802,28366.54,13836.44,OHSU HOSPITAL AND CLINICS
3.17,2.38,44.06773,-121.26817,11974.43,5774.98,ST CHARLES MEDICAL CENTER - BEND
3.77,2.71,43.38402,-124.23280,16686.18,8314.32,BAY AREA HOSPITAL
4.20,2.79,40.35127,-79.84949,20058.72,9000.88,UPMC MCKEESPORT
3.91,2.43,42.11102,-80.07912,17767.44,6156.21,SAINT VINCENT HEALTH CENTER
3.01,2.41,41.01409,-80.35398,10683.27,5947.73,JAMESON MEMORIAL HOSPITAL
4.00,2.93,40.43609,-79.98537,18472.49,10043.53,UPMC MERCY
3.63,2.46,40.68423,-76.18761,15584.94,6380.62,SCHUYLKILL MEDICAL CENTER - SOUTH JACKSON STREET
5.22,2.46,40.60811,-75.39260,28085.55,6387.45,ST LUKE'S HOSPITAL BETHLEHEM
3.43,2.31,40.04093,-76.32139,13980.90,5172.07,LANCASTER REGIONAL MEDICAL CENTER
3.95,2.33,40.52204,-78.39824,18095.90,5371.81,ALTOONA REGIONAL HEALTH SYSTEM
7.02,2.40,40.00955,-75.78622,42267.56,5921.62,BRANDYWINE HOSPITAL
3.94,2.53,41.98012,-76.52072,18040.31,6933.25,ROBERT PACKER HOSPITAL
5.69,2.32,40.86153,-76.77801,31793.35,5280.55,SUNBURY COMMUNITY HOSPITAL
3.06,2.35,41.11492,-78.77515,11112.43,5529.20,DUBOIS REGIONAL MEDICAL CENTER
6.13,2.38,40.11139,-75.09250,35308.08,5738.69,HOLY REDEEMER HOSPITAL AND MEDICAL CENTER
3.31,2.53,40.32674,-78.92197,13096.52,6897.12,CONEMAUGH VALLEY MEMORIAL HOSPITAL
2.99,2.37,41.64205,-80.14579,10516.03,5633.26,MEADVILLE MEDICAL CENTER
2.75,2.30,41.96144,-78.65938,8674.82,5121.75,BRADFORD REGIONAL MEDICAL CENTER
8.52,3.16,39.97194,-75.16352,54121.06,11868.88,ST JOSEPH'S HOSPITAL
4.39,2.47,40.60000,-75.47000,21548.89,6446.83,LEHIGH VALLEY HOSPITAL
4.27,2.32,41.25860,-75.86729,20610.85,5271.00,WILKES-BARRE GENERAL HOSPITAL
4.97,2.38,40.01883,-75.32115,26157.74,5777.32,MAIN LINE HOSPITAL BRYN MAWR CAMPUS
2.91,2.27,40.30103,-79.55505,9892.34,4874.56,EXCELA HEALTH WESTMORELAND REGIONAL HOSPITAL
7.50,2.96,39.92871,-75.26873,46042.23,10298.67,MERCY FITZGERALD HOSPITAL
2.93,2.29,40.81645,-79.52199,10044.03,5031.10,ACMH HOSPITAL
5.45,2.65,40.44190,-79.96044,29899.50,7904.67,UPMC PRESBYTERIAN SHADYSIDE
3.40,2.27,40.86656,-79.88351,13803.57,4914.17,BUTLER MEMORIAL HOSPITAL
2.89,2.30,40.83130,-75.72794,9774.96,5141.87,GNADEN HUETTEN MEMORIAL HOSPITAL
5.95,2.65,40.60798,-75.46817,33855.01,7846.14,SACRED HEART HOSPITAL
4.32,2.47,40.99225,-75.17466,21026.91,6430.00,POCONO MEDICAL CENTER
2.88,2.38,41.23235,-80.49626,9647.94,5719.39,SHARON REGIONAL HEALTH SYSTEM
11.55,3.28,39.94560,-75.15561,77948.35,12857.24,PENNSYLVANIA HOSP OF THE UNIV OF PA HEALTH SYS
3.44,2.71,41.83350,-71.43529,14092.59,8325.02,ROGER WILLIAMS MEDICAL CENTER
5.00,3.16,41.81254,-71.40760,26340.93,11863.00,RHODE ISLAND HOSPITAL
5.14,2.56,41.70541,-71.47790,27515.48,7193.24,KENT COUNTY MEMORIAL HOSPITAL
4.28,3.00,32.78272,-79.94543,20707.73,10608.67,MUSC MEDICAL CENTER
2.52,2.36,34.42133,-79.36606,6817.27,5547.55,MCLEOD MEDICAL CENTER - DILLON
4.22,2.45,34.96733,-81.94021,20266.46,6288.39,SPARTANBURG REGIONAL MEDICAL CENTER
4.28,2.56,34.02839,-81.03539,20744.09,7188.91,PALMETTO HEALTH RICHLAND
3.58,2.36,32.92341,-80.66980,15217.22,5576.73,COLLETON MEDICAL CENTER
4.19,2.39,34.19543,-79.76256,19964.15,5808.38,MCLEOD REGIONAL MEDICAL CENTER-PEE DEE
4.99,2.41,32.80878,-80.04216,26315.79,5947.96,BON SECOURS-ST FRANCIS XAVIER HOSPITAL
4.36,2.29,34.00533,-81.11393,21358.67,5029.58,LEXINGTON MEDICAL CENTER
3.46,2.26,33.70704,-78.89487,14280.81,4830.81,GRAND STRAND REG MED CENTER
3.52,2.49,43.53460,-96.71136,14755.79,6585.97,AVERA MCKENNAN HOSPITAL & UNIVERSITY HEALTH CENTER
3.09,2.34,35.63906,-88.83207,11370.45,5417.50,JACKSON-MADISON COUNTY GENERAL HOSPITAL
5.29,2.35,36.24440,-86.75204,28638.83,5492.98,SKYLINE MEDICAL CENTER
2.71,2.27,36.58587,-82.25703,8375.00,4901.57,WELLMONT BRISTOL REGIONAL MEDICAL CENTER
9.41,2.89,36.14316,-86.80048,61086.64,9730.73,VANDERBILT UNIVERSITY HOSPITAL
3.82,2.46,35.13640,-90.01928,17072.42,6339.23,METHODIST HEALTHCARE MEMPHIS HOSPITALS
3.50,2.34,36.30767,-82.38497,14550.86,5422.95,JOHNSON CITY MEDICAL CENTER
3.03,2.25,36.43222,-84.94250,10896.77,4683.62,JAMESTOWN REGIONAL MEDICAL CENTER
4.77,2.33,36.17752,-86.60840,24575.08,5315.95,SUMMIT MEDICAL CENTER
4.13,2.43,35.03467,-85.26735,19520.94,6119.15,PARKRIDGE MEDICAL CENTER
5.23,2.56,36.15310,-86.80910,28222.00,7154.89,CENTENNIAL MEDICAL CENTER
2.68,2.27,35.91765,-84.10080,8095.34,4880.94,PARKWEST MEDICAL CENTER
3.28,2.29,35.17731,-84.86873,12836.15,5056.68,SKYRIDGE MEDICAL CENTER
4.75,2.49,26.17446,-97.67014,24419.42,6579.75,VHS HARLINGEN HOSPITAL COMPANY LLC
5.01,2.67,32.72621,-97.32659,26458.75,8021.08,JPS HEALTH NETWORK
4.66,2.37,27.77751,-97.39515,23694.11,5653.38,CHRISTUS SPOHN HOSPITAL CORPUS CHRISTI
5.37,2.31,30.30491,-97.74540,29322.20,5155.73,SETON MEDICAL CENTER AUSTIN
3.51,2.38,29.43360,-98.49265,14644.06,5739.57,BAPTIST MEDICAL CENTER
6.51,2.34,32.33824,-95.29122,38303.37,5462.68,EAST TEXAS MEDICAL CENTER
6.19,2.40,29.66575,-95.18131,35729.33,5865.55,BAYSHORE MEDICAL CENTER
4.00,2.51,29.42561,-98.48946,18527.91,6783.02,NIX HEALTH CARE SYSTEM
3.22,2.33,31.11326,-97.80076,12351.88,5342.81,METROPLEX HOSPITAL
4.86,2.43,29.70719,-95.40048,25276.00,6146.27,ST LUKES EPISCOPAL HOSPITAL
2.43,2.42,35.19934,-101.92186,6132.73,6086.20,NORTHWEST TEXAS HOSPITAL
3.33,3.17,29.50783,-98.57875,13200.13,11971.63,UNIVERSITY HEALTH SYSTEM
2.00,2.26,31.95131,-97.31947,2749.94,4784.51,LAKE WHITNEY MEDICAL CENTER
4.74,2.93,29.68674,-95.38652,24323.18,10075.73,HARRIS COUNTY HOSPITAL DISTRICT
4.11,2.39,33.71085,-96.58493,19349.05,5828.41,TEXOMA MEDICAL CENTER
3.47,2.32,30.07104,-94.11927,14330.70,5274.83,MEMORIAL HERMANN BAPTIST BEAUMONT HOSPITAL
5.22,2.43,29.50795,-98.57224,28103.78,6107.52,METHODIST HOSPITAL
6.21,2.38,33.15951,-96.63675,35924.06,5713.66,MEDICAL CENTER OF MCKINNEY
5.63,2.36,29.73074,-95.36108,31319.86,5570.19,RIVERSIDE GENERAL HOSPITAL
4.25,2.43,32.88076,-96.76226,20473.17,6104.08,TEXAS HEALTH PRESBYTERIAN HOSPITAL  DALLAS
3.40,2.35,32.97514,-96.72397,13760.95,5513.86,METHODIST RICHARDSON MEDICAL CENTER
6.20,2.50,29.54043,-95.12730,35866.00,6668.91,CLEAR LAKE REGIONAL MEDICAL CENTER
6.00,2.36,32.91132,-96.77424,34293.80,5602.20,MEDICAL CITY DALLAS HOSPITAL
3.16,2.32,32.67614,-97.32079,11874.13,5260.88,HUGULEY HEALTH SYSTEM
3.70,2.59,29.35295,-98.54601,16135.06,7395.42,SOUTHWEST GENERAL HOSPITAL
6.05,2.35,31.73882,-95.64435,34619.37,5545.32,PALESTINE REGIONAL MEDICAL CENTER
3.70,2.39,27.69288,-97.34476,16147.77,5816.01,CORPUS CHRISTI MEDICAL CENTER,THE
5.29,2.60,26.25286,-98.20590,28672.94,7468.43,DOCTORS HOSPITAL AT RENAISSANCE
3.17,2.40,40.04365,-111.71457,11975.72,5921.72,MOUNTAIN VIEW HOSPITAL
2.78,2.36,37.09986,-113.55271,8867.61,5593.28,DIXIE REGIONAL MEDICAL CENTER
4.40,2.53,40.88620,-111.86916,21642.38,6904.23,LAKEVIEW HOSPITAL
3.66,2.38,40.58979,-111.97499,15830.81,5748.78,JORDAN VALLEY MEDICAL CENTER
4.26,3.10,44.47966,-73.19412,20524.82,11382.93,FLETCHER ALLEN HOSPITAL OF VERMONT
4.05,2.66,43.59828,-72.95512,18882.82,7947.36,RUTLAND REGIONAL MEDICAL CENTER
3.16,2.38,38.40552,-78.85730,11863.01,5781.35,ROCKINGHAM MEMORIAL HOSPITAL
3.19,2.36,39.19345,-78.19599,12158.19,5576.44,WINCHESTER MEDICAL CENTER INC
2.97,2.36,36.83716,-76.34786,10396.39,5610.87,BON SECOURS MARYVIEW MEDICAL CENTER
2.65,2.37,38.09436,-78.98659,7893.30,5670.13,AUGUSTA HEALTH
2.76,2.32,37.41368,-79.16870,8717.77,5238.65,CENTRA  HEALTH, INC
4.46,2.44,38.31158,-77.48061,22114.37,6247.89,MARY WASHINGTON HOSPITAL, INC
3.73,2.31,37.26336,-80.03166,16415.22,5206.04,LEWISGALE MEDICAL CENTER
3.01,2.42,38.88916,-77.12796,10676.60,6081.94,VIRGINIA HOSPITAL CENTER - ARLINGTON
3.73,2.46,37.58440,-77.51252,16339.47,6396.24,BON SECOURS - ST MARYS HOSPITAL OF RICHMOND
4.47,2.37,37.18253,-77.35957,22238.48,5649.93,SOUTHSIDE REGIONAL MEDICAL CENTER
3.46,2.49,37.54014,-77.40666,14282.04,6606.07,BON SECOURS - RICHMOND COMMUNITY HOSPITAL
3.96,2.29,37.51021,-77.59525,18148.64,5027.09,CJW MEDICAL CENTER
3.33,2.33,36.67083,-80.92343,13208.77,5323.47,TWIN COUNTY REGIONAL HOSPITAL
3.08,2.28,37.37161,-80.22098,11289.82,4990.10,CATAWBA HOSPITAL
3.87,2.45,48.41789,-122.32370,17499.33,6286.78,SKAGIT VALLEY HOSPITAL
7.01,2.46,47.80329,-122.33420,42208.47,6397.82,SWEDISH EDMONDS HOSPITAL
2.90,2.49,47.60869,-122.32128,9818.69,6609.54,SWEDISH MEDICAL CENTER
3.48,2.41,48.77371,-122.47344,14404.07,5990.14,ST JOSEPH MEDICAL CENTER
4.28,2.49,46.13039,-122.94110,20744.80,6578.23,PEACHEALTH ST JOHN MEDICAL CENTER
4.53,2.48,45.62460,-122.58145,22710.63,6517.68,PEACEHEALTH SOUTHWEST MEDICAL CENTER
3.63,2.40,46.28132,-119.28218,15591.09,5889.82,KADLEC REGIONAL MEDICAL CENTER
4.07,2.51,47.24670,-122.44841,19042.39,6756.69,ST JOSEPH MEDICAL CENTER
3.53,2.47,47.29252,-122.32729,14829.54,6429.95,ST FRANCIS COMMUNITY HOSPITAL
2.90,2.58,39.65498,-79.95814,9842.64,7331.29,WEST VIRGINIA UNIVERSITY HOSPITALS
2.60,2.34,39.32836,-80.23964,7495.62,5464.22,UNITED HOSPITAL CENTER
3.90,2.61,38.34739,-81.62600,17694.79,7576.79,CHARLESTON AREA MEDICAL CENTER
3.15,2.36,38.35553,-81.72560,11798.29,5565.64,THOMAS MEMORIAL HOSPITAL
2.78,2.59,44.52660,-89.56580,8865.09,7405.32,MINISTRY ST MICHAELS HOSPITAL OF STEVENS POINT
3.57,2.45,43.80136,-91.23958,15150.21,6333.21,MAYO CLINIC HLTH SYSTEM- FRANCISCAN MED CTR, INC
2.79,2.35,44.24830,-88.40268,8941.76,5473.73,ST ELIZABETH HSPTL
2.94,2.42,44.79461,-91.51111,10150.92,6065.22,SACRED HEART HSPTL
3.92,2.35,43.77292,-87.71108,17891.11,5535.21,AURORA SHEBOYGAN MEM MED CTR
2.62,2.35,44.18700,-88.45431,7619.62,5477.24,THEDA CLARK MED CTR
2.59,2.33,44.01282,-88.60296,7372.74,5317.06,MERCY MED CTR OF OSHKOSH
3.57,2.51,43.06195,-87.87861,15143.95,6782.60,COLUMBIA ST MARYS HSPTL  MILW (COL & MILW CAMPUS)
2.89,2.37,42.68685,-89.03244,9729.72,5668.54,MERCY HLTH SYS CORP
2.83,2.31,44.81192,-91.51352,9271.22,5191.41,MAYO CLINIC HEALTH SYSTEM EAU CLAIRE HOSPITAL
3.16,2.43,42.98566,-87.93565,11882.40,6171.06,WHEATON FRANCISCAN HEALTHCARE- ST FRANCIS
3.25,2.43,43.05867,-89.40269,12624.14,6130.14,ST MARY'S HOSPITAL
3.93,2.50,43.79515,-91.24798,17980.59,6657.11,GUNDERSEN LUTH MED CTR
3.14,2.43,42.73444,-87.82788,11719.39,6155.57,WHEATON FRANCISCAN HEALTHCARE- ALL SAINTS
3.44,2.41,43.16402,-88.13829,14094.43,5982.00,COMMUNITY MEM HSPTL
4.28,2.52,42.98958,-87.95079,20669.34,6869.85,AURORA ST LUKES MEDICAL CENTER
3.85,2.73,43.04008,-88.02523,17301.71,8508.07,FROEDTERT MEM LUTHERAN HSPTL
2.81,2.24,29.65197,-95.47754,9132.27,4637.27,WESTBURY COMMUNITY HOSPITAL, LLC
3.89,2.31,31.21673,-85.36307,17627.13,5175.62,SOUTHEAST ALABAMA MEDICAL CENTER
2.97,2.27,34.80175,-87.67514,10376.14,4912.09,ELIZA COFFEE MEMORIAL HOSPITAL
2.62,2.25,34.36605,-86.42127,7605.59,4709.09,MARSHALL MEDICAL CENTER NORTH
3.06,2.31,33.59616,-86.66750,11076.00,5165.09,ST VINCENT'S EAST
3.02,2.32,31.45215,-85.63140,10753.74,5304.78,DALE MEDICAL CENTER
2.79,2.31,32.63806,-85.40413,9009.40,5167.10,EAST ALABAMA MEDICAL CENTER AND SNF
4.60,2.73,33.50619,-86.80210,23252.00,8495.28,UNIVERSITY OF ALABAMA HOSPITAL
3.45,2.25,33.66767,-85.83420,14154.55,4686.45,STRINGFELLOW MEMORIAL HOSPITAL
6.64,2.30,34.00941,-85.97078,39277.07,5128.44,GADSDEN REGIONAL MEDICAL CENTER
3.31,2.27,33.65640,-85.82284,13107.00,4871.08,NORTHEAST ALABAMA REGIONAL MED CENTER
2.91,2.28,34.59052,-86.97262,9930.84,4986.83,DECATUR GENERAL HOSPITAL
3.95,2.35,33.20521,-87.52546,18125.89,5505.13,D C H REGIONAL MEDICAL CENTER
6.13,2.43,33.51420,-86.74859,35241.61,6163.48,TRINITY MEDICAL CENTER
3.61,2.27,30.69697,-88.08081,15418.17,4855.00,MOBILE INFIRMARY
3.72,2.29,33.37328,-86.99163,16315.91,5012.73,MEDICAL WEST, AN AFFILIATE OF UAB HEALTH SYSTEM
3.62,2.24,34.69279,-86.57179,15547.87,4642.68,CRESTWOOD MEDICAL CENTER
7.65,2.24,33.46420,-86.77409,47264.78,4609.00,BROOKWOOD MEDICAL CENTER
7.35,2.72,60.94901,-149.17033,44884.58,8387.77,PROVIDENCE ALASKA MEDICAL CENTER
5.57,3.31,64.83188,-147.73905,30892.19,13035.79,FAIRBANKS MEMORIAL HOSPITAL
5.78,2.39,33.65965,-112.37283,32548.36,5819.00,BANNER DEL E WEBB MEDICAL CENTER
3.49,2.69,32.17796,-110.93203,14455.21,8178.89,UNIVERSITY OF ARIZONA MEDICAL CTR- SOUTH CAM, THE
4.09,2.33,34.75031,-92.33897,19180.96,5339.35,ST VINCENT INFIRMARY MEDICAL CENTER
3.29,2.30,35.25046,-91.70056,12892.23,5080.97,WHITE COUNTY MEDICAL CENTER
4.25,2.56,34.74866,-92.35422,20463.33,7195.16,UAMS MEDICAL CENTER
