size_charge,size_pay,lat,lon,charge,pay,AcquiredInfect,AcquiredConditions,PatientSafetySummary,name
2.66,2.57,35.83746,-90.70386,6087.92,5635.73,0.50,0.75,0.03,ST BERNARDS MEDICAL CTR
5.18,2.48,36.18082,-94.13644,18859.51,5191.88,0.50,0.69,0.30,NW ARKANSAS HOSPITALS LLC
2.74,2.50,34.35877,-92.78638,6498.73,5304.27,0.00,0.00,0.00,HOT SPRING COUNTY MEDICAL CENTER
4.44,2.44,34.57290,-92.58508,15089.27,4968.28,0.50,0.89,0.72,SALINE MEMORIAL HOSPITAL
3.56,2.47,34.74866,-92.35422,10663.19,5141.13,0.50,0.44,0.21,BAPTIST HEALTH MEDICAL CENTER-LITTLE ROCK
11.73,3.42,37.63362,-122.08802,52002.20,9965.00,0.50,0.60,0.07,ST ROSE HOSPITAL
12.76,3.18,38.54384,-122.47401,57207.37,8716.71,0.50,0.75,0.33,ST HELENA HOSPITAL
8.07,3.07,32.68425,-117.08161,33469.04,8192.84,0.00,0.00,0.00,PARADISE VALLEY HOSPITAL
9.48,2.77,32.77495,-117.01467,40605.82,6648.64,0.83,0.71,0.33,GROSSMONT HOSPITAL
7.91,2.72,39.74221,-121.85000,32685.55,6403.52,0.83,0.71,0.48,ENLOE MEDICAL CENTER
8.26,3.20,37.82206,-122.26275,34428.73,8811.00,0.50,0.64,0.32,ALTA BATES SUMMIT MEDICAL CENTER
4.07,2.95,34.67486,-118.15771,13243.54,7552.69,0.50,0.68,0.45,ANTELOPE VALLEY HOSPITAL MED CENTER
6.23,3.28,36.73000,-119.78000,24182.32,9226.05,0.50,0.71,0.00,COMMUNITY REGIONAL MEDICAL CENTER
7.27,3.04,32.75143,-117.16083,29420.82,8016.82,0.33,0.62,0.70,SCRIPPS MERCY HOSPITAL
6.74,2.77,36.83532,-119.76562,26768.00,6625.36,0.50,0.66,0.58,SAINT AGNES MEDICAL CENTER
6.77,3.44,34.04932,-118.21746,26883.52,10027.19,0.25,0.74,0.99,WHITE MEMORIAL MEDICAL CENTER
5.04,3.45,33.92963,-118.20332,18125.80,10093.63,0.67,0.79,0.33,SAINT FRANCIS MEDICAL CENTER
5.83,3.02,38.57155,-121.46874,22126.78,7904.96,0.83,0.78,0.80,SUTTER GENERAL HOSPITAL
5.51,2.71,33.12535,-117.07336,20508.63,6321.24,0.50,0.55,0.70,PALOMAR MEDICAL CENTER
3.74,3.25,34.09638,-118.32518,11547.51,9056.67,0.00,0.00,0.00,HOLLYWOOD COMMUNITY HOSPITAL OF HOLLYWOOD
13.12,3.12,36.98999,-121.98357,59036.51,8418.46,0.50,0.64,0.64,DOMINICAN HOSPITAL
6.37,3.81,34.07389,-117.35111,24861.94,11933.71,0.33,0.81,0.07,ARROWHEAD REGIONAL MEDICAL CENTER
9.15,3.98,36.69761,-121.63320,38953.12,12753.27,0.25,0.89,0.28,NATIVIDAD MEDICAL CENTER
5.08,3.18,35.41172,-119.03972,18363.69,8743.44,0.00,0.00,0.00,GOOD SAMARITAN HOSPITAL
6.76,4.96,38.00655,-122.13312,26860.58,17724.00,0.50,0.66,0.28,CONTRA COSTA REGIONAL MEDICAL CENTER
5.33,3.33,33.80733,-118.19305,19612.18,9493.29,0.00,0.00,0.00,PACIFIC HOSPITAL OF LONG BEACH
6.47,3.22,33.91173,-117.19590,25379.92,8936.87,0.50,0.78,0.52,RIVERSIDE COUNTY REGIONAL MEDICAL CENTER
8.40,3.85,35.38318,-118.96997,35154.94,12131.60,0.50,0.78,0.42,KERN MEDICAL CENTER
16.87,3.04,37.94748,-122.53677,78034.53,8024.64,0.50,0.64,0.16,MARIN GENERAL HOSPITAL
30.00,6.45,34.06034,-118.21014,144522.67,25270.17,0.67,0.70,0.03,LAC+USC MEDICAL CENTER
4.39,3.36,34.24018,-118.39632,14833.48,9622.04,0.00,0.00,0.00,PACIFICA HOSPITAL OF THE VALLEY
13.26,4.08,37.25153,-121.94684,59783.27,13277.82,0.33,0.64,0.03,GOOD SAMARITAN HOSPITAL
3.36,3.09,34.08802,-117.89341,9637.04,8273.00,0.67,0.68,0.29,CITRUS VALLEY MEDICAL CENTER-IC CAMPUS
5.26,2.83,34.42951,-119.72333,19259.02,6954.12,0.67,0.72,0.32,SANTA BARBARA COTTAGE HOSPITAL
6.98,2.81,34.13364,-118.15275,27942.73,6850.18,0.67,0.65,0.58,HUNTINGTON MEMORIAL HOSPITAL
8.97,2.89,33.80861,-118.18661,38036.00,7277.73,0.67,0.65,0.28,LONG BEACH MEMORIAL MEDICAL CENTER
8.10,3.07,37.69824,-122.08730,33647.18,8176.91,0.67,0.61,0.54,EDEN MEDICAL CENTER
9.09,2.99,38.66956,-121.31378,38658.62,7752.12,0.67,0.66,0.30,MERCY SAN JUAN MEDICAL CENTER
5.92,3.16,33.87472,-118.14862,22589.80,8608.51,0.00,0.00,0.00,BELLFLOWER MEDICAL CENTER
7.61,3.41,33.65189,-117.91203,31164.01,9885.28,0.00,0.00,0.00,COLLEGE HOSPITAL COSTA MESA
8.47,2.64,33.56100,-117.66530,35507.36,6014.73,0.67,0.59,0.13,MISSION HOSPITAL REGIONAL MED CENTER
9.52,3.12,33.71466,-117.93322,40832.54,8396.62,0.50,0.86,0.33,FOUNTAIN VALLEY REGIONAL HOSPITAL & MEDICAL CENTER
18.57,3.79,38.55484,-121.45628,86670.73,11817.82,0.50,0.50,0.03,UNIVERSITY OF CALIFORNIA DAVIS MEDICAL CENTER
14.84,3.22,34.07664,-118.37955,67777.05,8923.85,1.00,0.59,0.48,CEDARS-SINAI MEDICAL CENTER
6.06,3.18,34.03556,-118.30962,23318.06,8729.87,0.00,0.00,0.00,LOS ANGELES METROPOLITAN MEDICAL CTR
4.07,3.15,34.01936,-118.18661,13234.41,8592.22,0.50,0.90,0.64,LOS ANGELES COMMUNITY HOSPITAL
3.75,3.14,34.22139,-118.45660,11601.30,8544.00,0.00,0.00,0.00,MISSION COMMUNITY HOSPITAL - PANORAMA
6.39,2.83,34.02303,-118.39741,24959.92,6942.00,0.00,0.00,0.00,BROTMAN MEDICAL CENTER
7.34,3.43,34.06958,-118.26344,29788.76,10000.08,0.00,0.00,0.00,SILVER LAKE MEDICAL CENTER
6.29,2.59,33.81559,-118.00704,24459.20,5720.83,0.00,0.00,0.00,ANAHEIM GENERAL HOSPITAL
3.49,2.48,40.57315,-105.05741,10272.85,5186.24,0.50,0.69,0.96,POUDRE VALLEY HOSPITAL
5.23,2.50,38.86559,-104.82182,19096.84,5292.16,0.50,0.70,0.38,CENTURA HEALTH-PENROSE ST FRANCIS HEALTH SERVICES
3.73,2.70,41.33722,-72.10380,11511.83,6293.92,0.50,0.72,0.93,LAWRENCE & MEMORIAL HOSPITAL
6.74,3.47,41.30400,-72.93502,26767.25,10184.42,0.67,0.41,0.03,YALE-NEW HAVEN HOSPITAL
4.46,2.84,39.69005,-75.68408,15189.81,7009.38,0.67,0.59,0.39,CHRISTIANA CARE HEALTH SERVICES INC.
3.84,3.85,38.91770,-77.02193,12051.48,12134.80,0.50,0.66,0.01,HOWARD UNIVERSITY HOSPITAL
4.11,3.06,38.94397,-76.99040,13448.31,8112.57,0.50,0.57,0.25,PROVIDENCE HOSPITAL
6.44,3.19,38.92944,-77.01473,25219.32,8767.64,0.33,0.59,0.02,WASHINGTON HOSPITAL CENTER
4.22,3.22,30.34913,-81.66391,13975.75,8935.71,0.50,0.62,0.00,SHANDS JACKSONVILLE MEDICAL CENTER
5.27,2.66,28.52517,-81.37729,19293.32,6087.80,0.67,0.47,0.29,ORLANDO HEALTH
5.29,2.60,28.57345,-81.36990,19398.51,5782.56,0.83,0.66,0.25,FLORIDA HOSPITAL
5.82,2.86,25.78846,-80.21644,22075.21,7109.28,0.83,0.56,0.01,UNIVERSITY OF MIAMI HOSPITAL
4.14,2.58,26.62849,-81.87423,13564.58,5698.69,0.67,0.53,0.16,LEE MEMORIAL HOSPITAL
4.80,2.55,26.15053,-81.79919,16902.04,5525.12,0.67,0.62,0.39,NAPLES COMMUNITY HOSPITAL
4.87,2.41,28.08771,-80.61362,17258.50,4837.00,0.67,0.59,0.17,HOLMES REGIONAL MEDICAL CENTER
3.88,4.11,25.79143,-80.21250,12249.23,13430.03,0.83,0.49,0.05,JACKSON MEMORIAL HOSPITAL
6.52,2.79,25.86166,-80.21398,25631.32,6736.67,0.50,0.84,0.70,NORTH SHORE MEDICAL CENTER
4.41,2.55,28.54917,-81.52746,14958.36,5528.57,0.50,0.70,0.58,HEALTH CENTRAL
5.66,2.88,25.81317,-80.13996,21306.82,7224.09,0.67,0.47,0.25,MOUNT SINAI MEDICAL CENTER
4.14,2.96,26.10282,-80.14245,13598.92,7587.33,0.75,0.76,0.97,BROWARD HEALTH BROWARD GENERAL MEDICAL CENTER
5.08,2.48,28.02768,-81.72466,18323.72,5194.94,0.50,0.62,0.03,WINTER HAVEN HOSPITAL
5.10,2.41,29.17594,-82.13898,18431.09,4831.64,0.50,0.60,0.94,MUNROE REGIONAL MEDICAL CENTER
3.75,2.39,28.25431,-82.71447,11591.13,4739.08,0.50,0.96,0.39,MORTON PLANT NORTH BAY HOSPITAL
4.76,2.45,27.78088,-82.65126,16728.89,5035.16,0.50,0.69,0.58,ST ANTHONY'S HOSPITAL
5.27,2.63,27.98242,-82.49025,19321.32,5949.11,0.67,0.60,0.30,ST JOSEPH'S HOSPITAL
6.17,2.64,26.59805,-80.09271,23860.29,5986.10,1.00,0.60,0.28,JFK MEDICAL CENTER
5.98,2.59,30.31525,-81.66398,22904.43,5722.74,0.67,0.47,0.13,BAPTIST MEDICAL CENTER
4.36,2.64,29.86371,-81.31749,14718.45,5987.49,0.67,0.76,0.30,FLAGLER HOSPITAL
3.19,2.40,28.33522,-80.72319,8760.07,4781.67,0.50,0.64,0.97,WUESTHOFF MEDICAL CENTER  ROCKLEDGE
3.27,2.65,27.65832,-80.39307,9168.88,6037.18,0.67,0.76,0.99,INDIAN RIVER MEDICAL CENTER
4.42,2.49,27.50001,-81.43962,15017.94,5209.25,0.50,0.61,0.86,FLORIDA HOSPITAL HEARTLAND MEDICAL CENTER
6.91,3.52,29.64155,-82.34844,27616.00,10427.48,0.67,0.54,0.30,SHANDS HOSPITAL AT THE UNIVERSITY OF FLORIDA
4.25,2.49,27.95192,-82.80379,14152.52,5246.54,0.67,0.62,0.10,MORTON PLANT HOSPITAL
5.32,2.48,27.30187,-82.45428,19572.32,5170.00,0.33,0.68,0.96,DOCTORS HOSPITAL OF SARASOTA
6.00,2.94,25.70558,-80.29311,23001.63,7521.30,0.00,0.00,0.00,LARKIN COMMUNITY HOSPITAL
12.54,2.52,30.28793,-81.60103,56109.69,5374.25,0.33,0.49,0.25,MEMORIAL HOSPITAL JACKSONVILLE
7.04,2.92,25.88563,-80.32635,28283.24,7425.24,0.67,0.79,0.91,PALMETTO GENERAL HOSPITAL
10.23,2.75,28.19342,-82.46987,44399.11,6541.67,0.50,0.78,0.43,MEDICAL CENTER OF TRINITY
4.53,2.47,26.52735,-81.83337,15543.07,5118.40,0.50,0.59,0.64,GULF COAST MEDICAL CENTER LEE MEM HEALTH SYSTEM
9.47,2.48,26.21219,-80.25478,40594.00,5171.95,0.00,0.00,0.00,UNIVERSITY HOSPITAL AND MEDICAL CENTER
7.09,2.53,30.16550,-81.73775,28497.44,5417.62,0.33,0.69,0.58,ORANGE PARK MEDICAL CENTER
7.04,2.41,26.98884,-82.09877,28288.64,4812.00,0.50,0.80,0.58,FAWCETT MEMORIAL HOSPITAL
3.83,2.40,26.63958,-81.94164,12036.74,4791.44,0.50,0.53,0.21,CAPE CORAL HOSPITAL
7.69,3.02,27.43392,-80.34350,31581.06,7927.00,0.83,0.54,0.30,LAWNWOOD REGIONAL MEDICAL CENTER & HEART INSTITUTE
6.93,2.77,27.91458,-82.80382,27722.97,6657.55,0.50,0.49,0.25,LARGO MEDICAL CENTER
5.33,2.49,28.00237,-82.57309,19620.21,5208.71,0.00,0.00,0.00,TOWN & COUNTRY HOSPITAL
7.66,2.80,27.28861,-80.29431,31384.12,6808.27,0.50,0.65,0.54,ST LUCIE MEDICAL CENTER
4.00,3.18,25.74731,-80.31765,12874.26,8702.70,0.50,0.85,0.78,WESTCHESTER GENERAL HOSPITAL
2.77,2.54,33.74445,-84.91753,6671.64,5509.32,0.00,0.00,0.00,TANNER MEDICAL CENTER VILLA RICA
4.18,3.14,33.47091,-81.98988,13766.85,8545.46,0.67,0.45,0.38,MEDICAL COLLEGE OF GA HOSPITALS AND CLINICS
5.93,3.25,33.96770,-84.55011,22654.73,9075.82,0.67,0.62,0.45,WELLSTAR KENNESTONE HOSPITAL
5.29,2.78,32.03185,-81.09158,19399.53,6700.98,0.67,0.61,0.25,MEMORIAL HEALTH UNIV MED CEN INC
3.26,2.46,30.82614,-83.97393,9137.62,5095.35,0.50,0.75,0.48,JOHN D ARCHBOLD MEMORIAL HOSPITAL
4.63,2.52,32.61642,-83.63065,16081.35,5379.01,0.50,0.74,0.74,HOUSTON MEDICAL CENTER
3.05,2.65,33.78956,-84.28077,8065.64,6060.16,0.50,0.84,0.11,DEKALB MEDICAL CENTER
4.96,3.12,33.75205,-84.38272,17754.54,8421.91,0.33,0.56,0.00,GRADY MEMORIAL HOSPITAL
3.54,2.43,32.50679,-84.95933,10562.84,4923.51,0.83,0.68,0.70,ST FRANCIS HOSPITAL INC
6.95,3.10,33.87683,-84.02136,27790.69,8298.69,0.50,0.78,0.45,EMORY EASTSIDE MEDICAL CENTER
4.65,2.73,33.68000,-84.42685,16169.47,6434.64,0.50,0.85,0.28,SOUTH FULTON MEDICAL CENTER
4.82,3.06,21.30780,-157.85505,17028.59,8117.12,0.67,0.69,0.45,THE QUEENS MEDICAL CENTER
3.60,3.74,20.88519,-156.48928,10839.41,11535.00,0.67,0.89,0.20,MAUI MEMORIAL MEDICAL CENTER
4.42,3.31,19.71761,-155.11327,14980.28,9408.01,0.50,0.82,0.67,HILO MEDICAL CENTER
4.90,2.90,21.38095,-157.75759,17424.54,7325.80,0.00,0.00,0.00,CASTLE MEDICAL CENTER
4.30,2.59,43.61359,-116.25484,14384.76,5749.64,0.67,0.79,0.25,ST ALPHONSUS REGIONAL MEDICAL CENTER
4.07,2.59,43.65510,-116.69360,13250.55,5753.43,0.00,0.00,0.00,WEST VALLEY MEDICAL CENTER
4.33,2.57,47.69645,-116.79476,14524.80,5622.64,0.50,0.71,0.48,KOOTENAI MEDICAL CENTER
5.69,2.56,41.52896,-88.13550,21424.99,5597.80,0.50,0.75,0.83,PROVENA ST JOSEPH MEDICAL CENTER
5.15,2.69,42.06550,-87.68428,18712.00,6258.75,0.33,0.55,0.58,EVANSTON HOSPITAL
3.99,2.72,39.93563,-91.39833,12820.70,6412.19,0.50,0.55,0.93,BLESSING HOSPITAL
3.68,3.22,41.86011,-87.69571,11237.55,8952.45,0.33,0.66,0.01,MT SINAI HOSPITAL MEDICAL CENTER
4.67,2.59,42.07012,-88.33180,16255.00,5725.55,0.50,0.82,0.25,SHERMAN HOSPITAL
4.71,2.86,41.83195,-87.79266,16479.26,7125.02,0.50,0.79,0.58,MACNEAL  HOSPITAL
6.67,3.14,41.66900,-87.81414,26386.77,8532.05,0.50,0.72,0.96,PALOS COMMUNITY HOSPITAL
4.94,2.64,40.70200,-89.59222,17649.50,5974.50,0.67,0.57,0.03,SAINT FRANCIS MEDICAL CENTER
2.70,2.82,38.57057,-90.10769,6275.47,6908.68,0.00,0.00,0.00,TOUCHETTE REGIONAL HOSPITAL INC
5.84,2.97,41.96698,-87.64941,22210.22,7671.22,0.50,0.70,0.43,LOUIS A WEISS MEMORIAL HOSPITAL
3.38,2.98,41.87259,-87.76181,9728.16,7721.31,0.25,0.88,0.72,LORETTO HOSPITAL
4.27,2.59,40.11739,-88.22714,14250.80,5754.45,0.50,0.62,0.21,PROVENA COVENANT MEDICAL CENTER- URBANA
3.87,2.88,41.95453,-87.65225,12221.53,7225.60,0.00,0.00,0.00,THOREK MEMORIAL HOSPITAL
4.53,3.37,41.80555,-87.92059,15543.69,9681.00,0.50,0.68,0.54,HINSDALE HOSPITAL
3.58,3.29,41.87381,-87.67421,10741.73,9293.09,0.83,0.55,0.16,JOHN H STROGER JR HOSPITAL
8.09,2.68,38.70148,-90.14382,33601.92,6202.51,0.00,0.00,0.00,GATEWAY REGIONAL MEDICAL CENTER
3.52,2.64,40.49639,-88.99106,10437.96,5967.66,0.00,0.00,0.00,BROMENN HEALTHCARE
4.41,2.57,39.80893,-89.65530,14946.77,5653.62,0.83,0.57,0.11,MEMORIAL MEDICAL CENTER
4.79,2.61,41.12049,-87.87187,16860.85,5835.45,0.50,0.69,0.97,PROVENA ST MARYS HOSPITAL
3.34,2.60,39.82659,-88.93119,9515.54,5782.85,0.50,0.71,0.83,ST MARYS HOSPITAL
3.95,2.71,41.52283,-87.71111,12647.71,6366.47,0.50,0.75,0.33,FRANCISCAN ST JAMES HEALTH
4.05,3.07,41.75746,-87.58559,13137.19,8191.81,0.00,0.00,0.00,JACKSON PARK HOSPITAL
5.44,3.07,41.90414,-87.68254,20178.43,8165.69,0.75,0.50,0.54,ST MARY & ELIZABETH MED CTR-DIVISION CAMPUS
5.74,3.45,41.93641,-87.65295,21676.93,10077.90,0.50,0.78,0.86,ADVOCATE ILLINOIS MASONIC MEDICAL CENTER
4.70,2.70,41.12572,-87.88526,16421.68,6309.36,0.50,0.72,0.82,RIVERSIDE MEDICAL CENTER
3.43,2.47,38.51081,-89.99014,9972.43,5147.50,0.50,0.65,0.07,ST ELIZABETH HOSPITAL
4.26,2.63,41.60726,-87.66060,14204.09,5955.37,0.50,0.65,0.76,INGALLS MEMORIAL HOSPITAL
3.29,2.89,41.97310,-87.67090,9269.38,7258.84,0.00,0.00,0.00,METHODIST HOSPITAL OF CHICAGO
4.28,3.10,41.90078,-87.69925,14313.25,8315.75,0.50,0.86,0.70,NORWEGIAN-AMERICAN HOSPITAL
7.04,2.54,42.03576,-88.32575,28280.25,5480.09,0.50,0.65,0.99,PROVENA - SAINT JOSEPH HOSPITAL
5.06,2.63,42.26584,-89.07428,18225.79,5932.29,0.50,0.65,0.76,SWEDISH AMERICAN HOSPITAL
5.31,2.49,41.76076,-88.15016,19503.33,5236.42,0.50,0.69,0.30,EDWARD HOSPITAL
4.14,2.57,41.56720,-87.69566,13564.83,5656.83,0.50,0.80,0.64,ADVOCATE SOUTH SUBURBAN HOSPITAL
5.28,2.49,42.00413,-88.01745,19355.41,5249.24,0.67,0.79,0.89,ALEXIAN BROTHERS MEDICAL CENTER
3.34,2.48,41.48200,-90.57158,9525.54,5158.45,0.50,0.59,0.64,TRINITY ROCK ISLAND
6.99,3.89,41.89477,-87.62131,28032.47,12310.40,0.50,0.61,0.94,NORTHWESTERN MEMORIAL HOSPITAL
6.01,2.57,42.05260,-88.14173,23052.08,5644.33,0.50,0.80,0.58,ST ALEXIUS MEDICAL CENTER
5.07,2.80,41.91465,-88.05724,18298.96,6777.30,0.00,0.00,0.00,ADVENTIST GLENOAKS
3.55,2.69,41.59920,-87.35764,10616.16,6257.76,0.50,0.65,0.94,METHODIST HOSPITALS INC
5.26,2.43,41.61055,-86.72511,19249.04,4922.74,0.00,0.00,0.00,INDIANA UNIVERSITY HEALTH LA PORTE HOSPITAL
3.84,2.43,40.44665,-86.12707,12056.19,4927.90,0.50,0.80,0.54,HOWARD REGIONAL HEALTH SYSTEM
3.40,2.49,38.28244,-85.74923,9846.64,5245.30,0.50,0.84,0.48,CLARK MEMORIAL HOSPITAL
3.42,2.47,40.48720,-86.15548,9926.37,5112.56,0.50,0.75,0.82,ST JOSEPH HOSPITAL & HEALTH CENTER INC
3.86,2.57,39.48518,-87.40893,12176.94,5659.18,0.50,0.62,0.33,UNION HOSPITAL INC
3.47,3.16,39.78091,-86.17629,10167.78,8600.11,0.33,0.70,0.28,WILLIAM N WISHARD MEMORIAL HOSPITAL
4.18,2.64,41.07820,-85.14936,13780.80,5989.35,0.50,0.69,0.10,ST JOSEPH HOSPITAL
2.83,2.63,39.86405,-84.88413,6959.84,5922.59,1.00,0.64,0.28,REID HOSPITAL & HEALTH CARE SERVICES
3.98,2.54,39.16006,-86.54038,12796.80,5470.56,0.50,0.56,0.25,INDIANA UNIVERSITY HEALTH BLOOMINGTON HOSPITAL
5.92,4.01,39.79009,-86.16260,22591.50,12937.62,0.50,0.51,0.80,INDIANA UNIVERSITY HEALTH
4.23,2.66,41.68479,-86.25217,14066.17,6087.22,0.67,0.60,0.08,MEMORIAL HOSPITAL OF SOUTH BEND
4.66,2.68,39.78704,-86.07673,16239.33,6205.63,0.50,0.82,0.83,COMMUNITY HOSPITAL EAST
4.72,2.48,37.98293,-87.57072,16544.98,5183.67,0.83,0.66,0.14,DEACONESS HOSPITAL INC
3.71,2.55,40.09594,-85.68152,11411.49,5538.49,0.00,0.00,0.00,SAINT JOHN'S HEALTH SYSTEM
5.06,2.71,40.19679,-85.41573,18246.32,6333.84,0.67,0.62,0.85,INDIANA UNIVERSITY HEALTH BALL MEMORIAL HOSPITAL
4.26,2.45,37.96320,-87.50292,14198.09,5017.18,0.67,0.68,0.32,ST MARY'S MEDICAL CENTER OF EVANSVILLE INC
3.99,2.57,40.39424,-86.83516,12803.85,5646.53,0.67,0.82,0.17,FRANCISCAN ST ELIZABETH HEALTH - LAFAYETTE EAST
3.91,2.57,39.21585,-85.89683,12430.57,5617.32,0.50,0.76,0.96,COLUMBUS REGIONAL HOSPITAL
4.33,2.49,41.39576,-87.36689,14545.84,5213.53,0.50,0.84,0.51,FRANCISCAN ST ANTHONY HEALTH - CROWN POINT
4.00,2.63,41.26886,-95.83923,12864.93,5957.70,0.00,0.00,0.00,ALEGENT HEALTH MERCY HOSPITAL
3.24,2.45,41.66411,-91.52841,9023.65,5036.39,0.50,0.65,0.48,MERCY HOSPITAL
3.76,2.47,41.26786,-95.83505,11678.47,5142.17,0.00,0.00,0.00,JENNIE EDMUNDSON HOSPITAL
4.21,2.49,40.81009,-91.17356,13916.11,5210.96,0.00,0.00,0.00,GREAT RIVER MEDICAL CENTER
8.73,4.15,41.66092,-91.54800,36851.32,13623.68,0.17,0.39,0.64,UNIVERSITY OF IOWA HOSPITAL & CLINICS
3.42,2.55,43.15063,-93.21718,9953.58,5526.21,0.50,0.82,0.64,MERCY MEDICAL CENTER-NORTH IOWA
2.87,2.56,42.46407,-92.34532,7163.52,5585.80,0.00,0.00,0.00,COVENANT MEDICAL CENTER
3.18,2.37,42.49227,-90.67404,8725.09,4599.91,0.50,0.75,0.96,MERCY MEDICAL CENTER-DUBUQUE
4.49,2.58,41.59886,-93.62344,15358.13,5691.00,0.83,0.75,0.29,MERCY MEDICAL CENTER-DES MOINES
3.68,3.15,41.61534,-93.64316,11278.02,8570.93,0.00,0.00,0.00,BROADLAWNS MEDICAL CENTER
3.32,2.52,42.52665,-92.33957,9409.45,5357.85,0.50,0.81,0.07,ALLEN MEMORIAL HOSPITAL
3.81,2.54,39.05128,-95.69572,11910.34,5496.87,0.67,0.71,0.11,STORMONT-VAIL HEALTHCARE
4.16,2.57,37.70405,-97.31386,13669.33,5617.36,0.67,0.69,0.21,VIA CHRISTI HOSPITALS WICHITA INC
4.67,2.53,39.30739,-94.91854,16291.74,5454.61,0.00,0.00,0.00,CUSHING MEMORIAL HOSPITAL
3.28,2.52,39.07816,-84.46695,9233.29,5384.35,0.50,0.81,0.51,ST ELIZABETH FT THOMAS
2.97,2.53,38.47021,-82.63498,7645.48,5458.58,0.67,0.60,0.54,KING'S DAUGHTERS' MEDICAL CENTER
3.34,2.58,36.99641,-86.43006,9558.48,5704.63,0.67,0.53,0.33,THE MEDICAL CENTER AT BOWLING GREEN
3.69,2.54,39.06704,-84.49946,11299.56,5490.77,0.33,0.59,0.80,ST ELIZABETH MEDICAL CENTER NORTH
3.34,2.51,38.50697,-82.69222,9533.99,5354.75,0.50,0.80,0.91,OUR LADY OF BELLEFONTE HOSPITAL
2.70,2.70,37.76518,-87.10197,6294.70,6285.62,0.50,0.66,0.30,OWENSBORO MEDICAL HEALTH SYSTEM
4.32,2.73,38.24927,-85.75081,14490.35,6426.40,0.67,0.51,0.08,JEWISH HOSPITAL & ST MARY'S HEALTHCARE
3.59,2.55,39.01660,-84.63078,10782.23,5529.76,0.50,0.75,0.64,ST ELIZABETH FLORENCE
3.78,2.54,37.64378,-84.77272,11750.25,5473.03,0.00,0.00,0.00,EPHRAIM MCDOWELL REGIONAL MEDICAL CENTER
4.83,3.18,38.03282,-84.50674,17069.80,8721.00,0.33,0.62,0.33,UNIVERSITY OF KENTUCKY HOSPITAL
4.17,2.53,36.92128,-84.11838,13747.85,5450.76,0.25,0.79,0.83,BAPTIST REGIONAL MEDICAL CENTER
4.68,2.81,38.24806,-85.75125,16294.50,6874.06,0.50,0.35,0.39,NORTON HOSPITALS INC
3.55,2.40,37.07404,-88.62685,10611.94,4777.00,0.50,0.80,0.39,WESTERN BAPTIST HOSPITAL
5.12,2.54,38.11425,-82.60321,18557.75,5465.17,0.00,0.00,0.00,THREE RIVERS MEDICAL CENTER
4.04,2.40,38.23898,-85.63941,13074.50,4776.77,0.67,0.57,0.74,BAPTIST HOSPITAL EAST
4.38,2.59,37.08724,-84.61828,14807.59,5744.65,0.67,0.60,0.17,LAKE CUMBERLAND REGIONAL HOSPITAL
4.28,3.13,38.24802,-85.74464,14289.87,8477.86,0.25,0.81,0.08,UNIVERSITY OF LOUISVILLE HOSPITAL
3.72,2.52,30.20227,-92.01906,11460.82,5361.36,0.50,0.74,0.30,LAFAYETTE GENERAL MEDICAL CENTER
5.71,2.61,30.46813,-90.45814,21552.27,5835.00,0.75,0.71,0.74,NORTH OAKS MEDICAL CENTER LLC
2.46,2.64,30.54354,-92.07608,5090.36,5975.36,0.33,0.74,0.03,OPELOUSAS GENERAL HEALTH SYSTEM
6.98,2.37,30.21521,-93.22682,27988.82,4644.64,0.50,0.64,0.64,CHRISTUS ST PATRICK HOSPITAL
6.29,2.73,30.01875,-90.19452,24479.81,6422.38,0.67,0.61,0.63,OCHSNER FOUNDATION HOSPITAL
6.41,2.60,30.20458,-93.19774,25057.88,5790.29,0.50,0.80,0.07,LAKE CHARLES MEMORIAL HOSPITAL
7.15,2.94,29.92432,-90.37174,28833.19,7534.50,0.00,0.00,0.00,ST CHARLES PARISH HOSPITAL
3.67,2.65,30.15052,-92.03698,11188.55,6036.91,0.50,0.71,0.58,OUR LADY OF LOURDES REGIONAL MEDICAL CENTER INC
5.53,2.46,32.48393,-93.77884,20619.00,5102.86,0.50,0.64,0.63,WILLIS KNIGHTON MEDICAL CENTER
4.31,2.58,43.90901,-69.89611,14440.69,5663.28,0.00,0.00,0.00,MID COAST HOSPITAL
5.15,2.65,44.80988,-68.74929,18697.38,6030.08,0.50,0.59,0.38,EASTERN MAINE MEDICAL CENTER
3.32,2.66,44.10276,-70.20093,9447.54,6093.80,0.00,0.00,0.00,ST MARYS REGIONAL MEDICAL CENTER
4.70,2.70,45.25378,-69.44547,16442.49,6284.77,0.50,0.49,0.51,MAINE GENERAL MEDICAL CENTER
5.37,3.10,47.26827,-68.59140,19819.73,8321.93,0.00,0.00,0.00,NORTHERN MAINE MEDICAL CENTER
5.25,2.81,44.14436,-69.08577,19208.28,6851.17,0.00,0.00,0.00,PENOBSCOT BAY MEDICAL CENTER
3.06,2.97,39.62183,-77.68219,8116.59,7637.52,0.00,0.00,0.00,MERITUS MEDICAL CENTER
5.27,5.04,39.28817,-76.62438,19293.29,18141.61,0.00,0.00,0.00,UNIVERSITY OF MARYLAND MEDICAL CENTER
3.15,3.04,38.93090,-76.92161,8553.63,8040.40,0.00,0.00,0.00,PRINCE GEORGES HOSPITAL CENTER
3.37,3.26,39.01578,-77.03591,9698.86,9117.05,0.00,0.00,0.00,HOLY CROSS HOSPITAL
3.42,3.30,39.42366,-77.41386,9934.10,9344.04,0.00,0.00,0.00,FREDERICK MEMORIAL HOSPITAL
3.36,3.26,39.54345,-76.09153,9655.09,9108.58,0.00,0.00,0.00,HARFORD MEMORIAL HOSPITAL
4.79,4.59,39.38813,-76.61068,16879.43,15882.10,0.00,0.00,0.00,SAINT JOSEPH MEDICAL CENTER
8.22,7.82,39.29688,-76.59242,34232.34,32200.78,0.00,0.00,0.00,JOHNS HOPKINS HOSPITAL THE
3.23,3.13,39.35262,-76.66196,8983.16,8453.82,0.00,0.00,0.00,SINAI HOSPITAL OF BALTIMORE
3.32,3.21,39.28833,-76.64912,9440.05,8873.63,0.00,0.00,0.00,BON SECOURS HOSPITAL
3.66,3.54,39.35169,-76.47919,11174.37,10534.21,0.00,0.00,0.00,FRANKLIN SQUARE HOSPITAL CENTER
3.08,2.98,38.98482,-77.00139,8214.21,7721.34,0.00,0.00,0.00,WASHINGTON ADVENTIST HOSPITAL
3.28,3.17,39.15402,-77.05431,9214.92,8695.48,0.00,0.00,0.00,MONTGOMERY GENERAL HOSPITAL INC
3.72,3.59,38.36248,-75.59799,11476.99,10802.66,0.00,0.00,0.00,PENINSULA REGIONAL MEDICAL CENTER
3.48,3.36,38.99743,-77.11048,10260.64,9651.96,0.00,0.00,0.00,SUBURBAN HOSPITAL
3.07,2.98,38.99014,-76.53398,8180.44,7689.75,0.00,0.00,0.00,ANNE ARUNDEL MEDICAL CENTER
3.10,3.01,39.32930,-76.61432,8331.10,7849.40,0.00,0.00,0.00,UNION MEMORIAL HOSPITAL
2.89,2.81,39.64928,-78.73206,7256.92,6831.02,0.00,0.00,0.00,WESTERN MARYLAND REGIONAL MEDICAL CENTER
3.40,3.28,38.29124,-76.63579,9829.24,9239.49,0.00,0.00,0.00,SAINT MARY'S HOSPITAL
4.61,4.42,39.29100,-76.54623,15964.91,15019.27,0.00,0.00,0.00,JOHNS HOPKINS BAYVIEW MEDICAL CENTER
3.59,3.47,39.60859,-75.83201,10819.08,10184.41,0.00,0.00,0.00,UNION HOSPITAL OF CECIL COUNTY
3.28,3.18,39.55808,-76.99107,9229.64,8707.71,0.00,0.00,0.00,CARROLL HOSPITAL CENTER
3.86,3.72,38.76970,-76.07697,12147.32,11437.13,0.00,0.00,0.00,MEMORIAL HOSPITAL AT EASTON
3.38,3.26,39.29994,-76.62138,9712.71,9129.99,0.00,0.00,0.00,MARYLAND GENERAL  HOSPITAL
3.40,3.30,38.55963,-76.59455,9841.17,9331.84,0.00,0.00,0.00,CALVERT MEMORIAL HOSPITAL
3.41,3.30,39.35852,-76.78208,9907.25,9323.53,0.00,0.00,0.00,NORTHWEST HOSPITAL CENTER
4.00,3.85,39.13732,-76.62228,12862.77,12119.86,0.00,0.00,0.00,BALTIMORE WASHINGTON  MEDICAL CENTER
3.07,2.98,39.39017,-76.62216,8184.55,7693.64,0.00,0.00,0.00,GREATER BALTIMORE MEDICAL CENTER
3.63,3.51,39.21273,-76.88526,11018.29,10375.17,0.00,0.00,0.00,HOWARD COUNTY GENERAL HOSPITAL
3.21,3.10,38.74827,-76.87590,8857.12,8335.47,0.00,0.00,0.00,SOUTHERN MARYLAND HOSPITAL CENTER
3.09,3.01,39.08690,-76.88163,8280.05,7841.28,0.00,0.00,0.00,LAUREL REGIONAL MEDICAL CENTER
3.15,3.05,39.35962,-76.58851,8576.25,8061.75,0.00,0.00,0.00,GOOD SAMARITAN HOSPITAL
6.36,2.89,42.59584,-72.59255,24809.18,7269.40,0.00,0.00,0.00,BAYSTATE FRANKLIN MEDICAL CENTER
4.36,3.42,42.27872,-71.06625,14688.19,9949.81,0.00,0.00,0.00,CARNEY HOSPITAL
5.04,2.77,41.69217,-71.16474,18149.08,6632.00,0.50,1.00,0.86,SAINT ANNE'S HOSPITAL
3.24,2.72,42.56407,-70.87543,9042.33,6401.53,0.50,0.62,0.64,BEVERLY HOSPITAL CORPORATION
8.21,3.38,42.36227,-71.06941,34180.48,9733.00,0.50,0.44,0.16,MASSACHUSETTS GENERAL HOSPITAL
3.92,2.70,41.70928,-71.14519,12461.50,6296.03,0.25,0.51,0.89,SOUTHCOAST HOSPITAL GROUP INC
4.97,2.97,42.12077,-72.60525,17776.50,7642.14,0.33,0.61,0.83,BAYSTATE MEDICAL CENTER
4.51,2.74,42.72846,-71.16830,15463.59,6490.27,0.50,0.74,0.33,HOLY FAMILY HOSPITAL
4.61,3.65,42.33719,-71.10939,15954.54,11106.21,0.33,0.71,0.33,BETH ISRAEL DEACONESS MEDICAL CENTER
3.98,2.79,42.58660,-71.98678,12768.98,6751.46,0.00,0.00,0.00,HEYWOOD HOSPITAL
3.26,2.61,42.17644,-70.95398,9145.47,5841.00,0.67,0.70,0.48,SOUTH SHORE HOSPITAL
5.50,3.14,42.33600,-71.10704,20451.67,8498.42,0.67,0.40,0.20,BRIGHAM AND WOMEN'S HOSPITAL
6.51,3.82,42.34951,-71.06331,25577.23,11973.55,0.50,0.64,0.86,TUFTS MEDICAL CENTER
6.47,3.43,42.27720,-71.75922,25380.50,10014.21,0.50,0.36,0.30,UMASS MEMORIAL MEDICAL CENTER INC
3.57,2.81,42.48585,-71.20686,10686.58,6852.50,0.67,0.76,0.16,LAHEY CLINIC HOSPITAL
4.19,2.74,42.45741,-83.20513,13839.42,6510.92,0.83,0.57,0.48,PROVIDENCE HOSPITAL AND MEDICAL CENTERS
4.74,2.75,42.29077,-83.21504,16610.55,6554.18,0.33,0.49,0.70,OAKWOOD HOSPITAL AND MEDICAL CENTER
2.78,2.53,42.08955,-86.47781,6698.54,5417.23,0.33,0.69,0.89,LAKELAND HOSPITAL ST JOSEPH
4.79,3.31,42.96881,-85.66649,16890.32,9398.05,0.33,0.66,0.83,SPECTRUM HEALTH - BUTTERWORTH CAMPUS
4.07,2.46,43.58941,-83.86908,13254.67,5097.94,0.33,0.55,0.99,MCLAREN BAY REGION
3.41,2.53,42.61490,-82.96060,9909.89,5449.74,0.50,0.66,0.54,HENRY FORD MACOMB HOSPITAL
8.60,4.31,42.36762,-83.08461,36170.47,14448.29,0.67,0.47,0.08,HENRY FORD HOSPITAL
3.15,2.50,45.80941,-88.04422,8570.33,5292.00,0.00,0.00,0.00,DICKINSON COUNTY MEMORIAL HOSPITAL
2.66,2.87,42.95817,-85.66253,6072.05,7139.80,0.50,0.54,0.91,SAINT MARY'S HEALTH CARE
3.63,2.63,43.22169,-86.24283,11022.74,5938.87,0.00,0.00,0.00,MERCY HEALTH PARTNERS HACKLEY CAMPUS
4.82,2.53,42.25117,-84.39240,17050.96,5416.57,0.50,0.85,0.99,ALLEGIANCE HEALTH
5.28,2.70,44.76156,-85.64143,19377.69,6293.50,0.50,0.41,0.58,MUNSON MEDICAL CENTER
4.56,2.79,42.51418,-83.19259,15714.13,6756.55,0.67,0.60,0.16,WILLIAM BEAUMONT HOSPITAL
4.69,2.81,43.01399,-83.73250,16370.97,6863.20,0.50,0.60,0.33,MCLAREN FLINT
4.08,2.61,42.27424,-83.36580,13259.73,5822.91,0.50,0.70,0.48,OAKWOOD ANNAPOLIS HOSPITAL
3.36,2.90,42.46176,-83.37629,9614.61,7286.26,0.50,0.79,0.25,BOTSFORD HOSPITAL
4.31,2.69,42.70417,-84.55488,14439.21,6229.86,0.33,0.76,0.21,MCLAREN - GREATER LANSING
5.77,2.52,42.27302,-84.95775,21817.56,5370.14,0.00,0.00,0.00,OAKLAWN HOSPITAL
3.31,2.65,42.58900,-82.89799,9404.00,6057.88,0.67,0.61,0.64,MOUNT CLEMENS REGIONAL MEDICAL CENTER
4.61,2.56,42.61826,-83.09239,15958.86,5567.07,0.83,0.60,0.63,WILLIAM BEAUMONT HOSPITAL-TROY
3.75,2.91,42.23506,-83.27602,11588.81,7343.44,0.50,0.60,0.93,OAKWOOD HERITAGE HOSPITAL
4.27,2.64,45.01403,-93.32177,14247.50,5983.93,0.67,0.69,0.83,NORTH MEMORIAL MEDICAL CENTER
3.87,2.58,46.79380,-92.09573,12202.82,5699.55,0.83,0.75,0.80,ESSENTIA HEALTH ST MARY'S MEDICAL CENTER
5.07,3.06,46.79308,-92.09379,18300.64,8126.40,0.00,0.00,0.00,ESSENTIA HEALTH DULUTH
6.45,3.03,45.57390,-94.16942,25304.16,7958.95,0.50,0.61,0.38,ST CLOUD HOSPITAL
9.55,3.23,44.94214,-93.10858,40979.59,8966.21,0.50,0.86,0.33,UNITED HOSPITAL
5.50,3.01,47.41117,-92.93183,20473.69,7879.11,0.00,0.00,0.00,UNIVERSITY MEDICAL CENTER-MESABI/ MESABA CLINICS
3.85,2.64,46.79634,-92.08793,12140.96,5974.42,0.50,0.71,0.30,ST LUKES HOSPITAL
2.76,2.49,44.93031,-93.36276,6575.06,5250.44,0.67,0.72,0.94,PARK NICOLLET METHODIST HOSPITAL
9.16,3.00,44.95248,-93.26196,38999.40,7825.38,0.50,0.70,0.64,ABBOTT NORTHWESTERN HOSPITAL
6.82,2.96,44.94898,-93.10016,27150.62,7591.43,0.33,0.66,0.58,ST JOSEPH'S HOSPITAL
3.89,2.63,46.36166,-94.20573,12318.62,5938.00,0.00,0.00,0.00,ESSENTIA HEALTH ST JOSEPH'S MEDICAL CENTER
8.24,3.72,44.96766,-93.23640,34331.84,11479.83,0.67,0.56,0.58,UNIVERSITY OF MINNESOTA  MEDICAL CENTER FAIRVIEW
3.62,2.64,44.16396,-94.00412,10933.92,5981.76,0.50,0.57,0.76,MAYO CLINIC HEALTH SYSTEM - MANKATO
8.79,3.34,44.95570,-93.09429,37106.53,9543.64,0.50,0.79,0.17,REGIONS HOSPITAL
9.85,2.92,45.18355,-93.36789,42505.15,7429.97,0.50,0.74,0.96,MERCY HOSPITAL
4.30,2.94,32.33069,-90.17030,14407.68,7502.01,0.67,0.51,0.07,UNIVERSITY OF MISSISSIPPI MED CENTER
7.59,2.56,30.39599,-88.89061,31050.52,5582.98,0.50,0.80,0.48,BILOXI REGIONAL MEDICAL CENTER
7.16,2.56,30.36674,-89.11535,28871.28,5609.65,0.50,0.66,0.69,MEMORIAL HOSPITAL AT GULFPORT
7.75,2.60,32.35265,-90.87788,31862.59,5766.07,0.50,0.80,0.38,RIVER REGION HEALTH SYSTEM
5.32,2.47,30.37516,-88.53226,19563.78,5138.44,0.50,0.70,0.03,SINGING RIVER HOSPITAL
3.58,2.46,32.33616,-90.15652,10741.49,5091.73,0.50,0.60,0.45,ST DOMINIC-JACKSON MEMORIAL HOSPITAL
4.29,2.63,31.71155,-91.06066,14360.62,5932.00,0.00,0.00,0.00,JEFFERSON COUNTY HOSPITAL
6.56,2.54,32.28805,-90.25566,25844.31,5497.45,0.50,0.81,0.08,CENTRAL MISSISSIPPI MEDICAL CENTER
3.44,2.52,31.31872,-89.32955,10022.95,5405.36,0.50,0.57,0.54,FORREST GENERAL HOSPITAL
2.87,2.61,33.41099,-91.03479,7135.69,5823.00,0.33,0.85,0.51,DELTA REGIONAL MEDICAL CENTER
6.18,2.33,32.28618,-90.03434,23908.09,4444.91,0.50,0.69,0.07,CROSSGATES RIVER OAKS HOSPITAL
3.07,2.59,33.51824,-90.19832,8168.97,5759.50,0.00,0.00,0.00,GREENWOOD LEFLORE HOSPITAL
4.68,2.49,32.31643,-90.17922,16310.24,5233.00,0.67,0.44,0.86,MISSISSIPPI BAPTIST MEDICAL CENTER
4.15,2.63,34.30697,-89.91569,13646.91,5957.56,0.00,0.00,0.00,TRI LAKES MEDICAL CENTER
2.91,2.39,32.40962,-88.67770,7345.18,4708.00,0.00,0.00,0.00,ALLIANCE HEALTH CENTER
4.42,2.48,37.06032,-94.52747,15026.19,5177.06,0.00,0.00,0.00,ST JOHN'S REGIONAL MEDICAL CENTER
4.13,2.48,38.78060,-90.48379,13520.54,5202.37,0.50,0.76,0.38,SSM ST JOSEPH HEALTH CENTER
3.97,2.77,39.77393,-94.77089,12709.41,6637.00,0.50,0.59,0.51,HEARTLAND REGIONAL MEDICAL CENTER
3.42,2.37,38.57670,-92.17352,9952.39,4644.88,0.50,0.86,0.01,ST MARYS HEALTH CENTER
3.56,2.45,36.23658,-90.04315,10669.88,5036.56,0.00,0.00,0.00,TWIN RIVERS REGIONAL MEDICAL CENTER
5.38,2.51,38.64281,-90.44448,19867.17,5353.00,0.83,0.57,0.74,MERCY HOSPITAL ST LOUIS
5.82,2.61,39.00717,-94.55925,22073.02,5845.10,0.33,0.82,0.05,RESEARCH MEDICAL CENTER
3.97,2.77,38.63524,-90.26508,12701.00,6656.77,0.50,0.56,0.12,BARNES JEWISH HOSPITAL
3.91,2.52,37.14560,-93.28037,12395.87,5398.17,0.50,0.61,0.86,COX MEDICAL CENTER
2.93,3.22,39.08401,-94.57591,7479.92,8928.23,0.33,0.59,0.02,TRUMAN MEDICAL CENTER HOSPITAL HILL
5.86,2.52,39.24809,-94.64928,22288.63,5376.48,0.00,0.00,0.00,ST LUKES NORTHLAND HOSPITAL
4.13,2.51,37.17999,-93.27409,13523.59,5310.79,0.67,0.61,0.25,ST JOHN'S REGIONAL HEALTH CENTER
3.51,2.40,38.50661,-90.38025,10406.69,4752.77,0.67,0.57,0.14,ST ANTHONY'S MEDICAL CENTER
3.26,2.57,36.73801,-91.87553,9109.30,5639.33,0.00,0.00,0.00,OZARKS MEDICAL CENTER
4.80,2.82,38.63268,-90.31089,16902.86,6926.57,0.83,0.78,0.58,SSM ST MARYS HEALTH CENTER
4.08,2.43,39.14957,-94.55148,13294.67,4903.00,0.50,0.59,0.64,NORTH KANSAS CITY HOSPITAL
3.60,3.14,38.97543,-94.39536,10871.98,8523.16,0.00,0.00,0.00,TRUMAN MEDICAL CENTER LAKEWOOD
4.70,2.56,38.75097,-90.43255,16416.92,5563.12,0.67,0.69,0.43,SSM DEPAUL HEALTH CENTER
5.08,3.09,38.62280,-90.24049,18335.08,8251.50,0.50,0.46,0.05,ST LOUIS UNIVERSITY HOSPITAL
4.36,2.44,37.31072,-89.53990,14692.57,4996.43,0.50,0.72,0.08,SOUTHEAST MISSOURI HOSPITAL
4.16,2.51,37.79962,-90.44045,13688.26,5308.23,0.00,0.00,0.00,MINERAL AREA REGIONAL MEDICAL CENTER
3.50,2.60,36.78510,-90.42779,10327.28,5766.14,0.50,0.60,0.39,POPLAR BLUFF REGIONAL MEDICAL CENTER
4.76,2.58,37.05238,-94.52777,16740.53,5703.47,0.83,0.68,0.86,FREEMAN HEALTH SYSTEM - FREEMAN WEST
3.95,2.41,39.27591,-94.42572,12613.57,4812.21,0.33,0.60,0.33,LIBERTY HOSPITAL
4.29,2.49,38.77576,-90.23906,14343.94,5247.91,0.67,0.75,0.05,CHRISTIAN HOSPITAL NORTHEAST
5.17,2.56,38.58425,-90.22739,18798.09,5595.71,0.50,0.59,0.33,ST ALEXIUS HOSPITAL
3.76,2.61,45.78958,-108.51283,11678.87,5820.20,0.50,0.86,0.89,BILLINGS CLINIC HOSPITAL
4.02,2.53,48.21465,-114.32386,12980.36,5456.32,0.50,0.84,0.58,KALISPELL REGIONAL MEDICAL CENTER
5.73,2.92,41.25522,-95.97892,21648.46,7411.85,0.50,0.53,0.51,THE NEBRASKA MEDICAL CENTER
6.26,2.68,41.23897,-96.03162,24305.74,6174.10,0.50,0.46,0.83,ALEGENT HEALTH BERGAN MERCY MEDICAL CENTER
5.36,2.70,41.32182,-96.02133,19740.19,6303.29,0.25,0.71,0.51,ALEGENT HEALTH IMMANUEL MEDICAL CENTER
6.96,2.97,42.03257,-97.45100,27852.54,7642.35,0.00,0.00,0.00,FAITH REGIONAL HEALTH SERVICES
6.21,2.61,39.52637,-119.79456,24051.35,5850.52,0.50,0.66,0.17,RENOWN REGIONAL MEDICAL CENTER
10.04,2.83,36.13459,-115.13576,43459.55,6972.50,0.67,0.69,0.10,SUNRISE HOSPITAL AND MEDICAL CENTER
7.45,2.88,36.16380,-115.16574,30357.55,7195.20,0.67,0.70,0.54,VALLEY HOSPITAL MEDICAL CENTER
10.14,2.63,36.21599,-115.25095,43981.25,5943.67,0.67,0.57,0.14,MOUNTAINVIEW HOSPITAL
10.73,2.69,36.09056,-115.24058,46958.09,6240.82,0.67,0.79,0.13,SPRING VALLEY HOSPITAL MEDICAL CENTER
3.27,2.62,43.19846,-71.56230,9203.50,5902.33,0.33,0.64,0.94,CONCORD HOSPITAL
5.15,2.71,43.06469,-70.78916,18680.73,6344.67,0.50,0.76,0.48,PORTSMOUTH REGIONAL HOSPITAL
12.01,2.86,40.78556,-74.17598,53450.88,7124.00,0.67,0.84,0.96,CLARA MAASS MEDICAL CENTER
7.51,2.69,40.35684,-74.66166,30657.67,6227.67,0.50,0.56,0.21,UNIVERSITY MEDICAL CENTER AT PRINCETON
7.19,2.67,40.98359,-74.10047,29052.25,6158.00,0.50,0.79,0.21,VALLEY HOSPITAL
6.47,3.34,39.94152,-75.11680,25402.00,9556.01,0.67,0.42,0.03,COOPER UNIVERSITY HOSPITAL
9.77,3.01,40.73417,-74.04977,42068.97,7861.50,0.00,0.00,0.00,CHRIST HOSPITAL
12.89,3.15,40.90215,-74.16634,57868.39,8569.76,0.17,0.54,0.94,ST JOSEPH'S REGIONAL MEDICAL CENTER
17.50,3.22,40.21634,-74.74143,81226.16,8904.32,0.50,0.69,0.11,ST FRANCIS MEDICAL CENTER
9.01,2.59,39.78261,-74.91670,38265.79,5731.72,0.50,0.53,0.74,VIRTUA WEST JERSEY HOSPITALS BERLIN
8.86,2.95,40.66005,-74.21417,37489.75,7539.42,0.50,0.75,0.39,TRINITAS REGIONAL MEDICAL CENTER
18.31,3.43,40.49581,-74.44980,85321.96,9978.26,0.67,0.51,0.01,ROBERT WOOD JOHNSON UNIVERSITY HOSPITAL
11.24,2.95,40.51891,-74.28183,49539.72,7582.20,0.75,0.69,0.69,RARITAN BAY MEDICAL CENTER
8.50,2.54,39.96484,-74.21708,35653.47,5491.53,0.50,0.47,0.89,COMMUNITY MEDICAL CENTER
26.70,3.53,40.90400,-73.96847,127807.48,10498.17,0.67,0.81,0.54,ENGLEWOOD HOSPITAL AND MEDICAL CENTER
13.69,3.13,40.56804,-74.59579,61918.24,8494.88,0.50,0.68,0.30,SOMERSET MEDICAL CENTER
8.29,2.72,39.35775,-74.43449,34584.51,6375.03,0.67,0.65,0.89,ATLANTICARE REGIONAL MEDICAL CENTER - CITY DIV
10.64,2.75,40.21065,-74.03566,46521.58,6523.26,0.50,0.59,0.07,JERSEY SHORE UNIVERSITY MEDICAL CENTER
8.16,2.84,40.29563,-73.98518,33957.91,7002.09,0.50,0.50,0.86,MONMOUTH MEDICAL CENTER
20.93,4.03,40.76190,-74.30335,98584.93,13047.71,0.83,0.54,0.03,SAINT BARNABAS MEDICAL CENTER
12.58,2.65,40.07503,-74.21832,56342.63,6029.73,0.50,0.71,0.76,KIMBALL MEDICAL CENTER
14.00,3.03,39.82811,-75.00895,63501.62,7980.93,0.67,0.60,0.69,KENNEDY UNIVERSITY HOSPITAL - STRATFORD DIV
5.42,3.15,40.74323,-74.17431,20087.83,8576.63,0.50,0.69,0.51,SAINT MICHAEL'S MEDICAL CENTER INC
9.68,2.54,40.21575,-74.67273,41648.58,5490.92,0.50,0.68,0.80,ROBERT WOOD JOHNSON UNIVERSITY HOSPITAL HAMILTON
14.87,4.38,40.73925,-74.19276,67935.21,14777.89,0.33,0.55,0.11,UMDNJ UNIVERSITY HOSPITAL
3.17,2.94,35.65960,-105.94578,8688.47,7485.42,0.50,0.65,0.30,ST VINCENT HOSPITAL
3.17,2.81,36.72387,-108.21749,8698.65,6860.45,0.50,0.71,0.83,SAN JUAN REGIONAL MEDICAL CENTER
8.70,2.63,33.42340,-104.52748,36698.29,5937.96,0.50,0.79,0.13,EASTERN NEW MEXICO MEDICAL CENTER
3.70,2.65,32.29186,-106.73470,11335.49,6065.82,0.50,0.64,0.03,MEMORIAL MEDICAL CENTER INC
6.16,2.92,42.65345,-73.77543,23794.88,7405.25,0.67,0.60,0.64,ALBANY MEDICAL CENTER HOSPITAL
3.85,2.46,43.09840,-75.27819,12130.92,5056.92,0.50,0.60,0.17,FAXTON-ST LUKE'S HEALTHCARE
10.52,3.80,40.87987,-73.87996,45911.75,11870.00,0.50,0.39,0.45,MONTEFIORE MEDICAL CENTER
4.95,2.91,43.09378,-79.05038,17682.96,7373.19,0.00,0.00,0.00,NIAGARA FALLS MEMORIAL MEDICAL CENTER
3.97,2.85,41.09642,-73.92501,12723.89,7046.83,0.67,0.78,0.76,NYACK HOSPITAL
7.37,3.17,40.77686,-73.70212,29954.36,8665.57,0.33,0.61,0.69,NORTH SHORE UNIVERSITY HOSPITAL
6.16,2.94,43.05571,-76.14981,23789.07,7499.41,0.83,0.38,0.20,ST JOSEPH'S HOSPITAL HEALTH CENTER
6.63,2.64,42.81963,-73.91653,26178.21,5992.67,0.50,0.69,0.21,ELLIS HOSPITAL
5.51,2.67,43.00561,-76.17002,20544.53,6152.49,0.00,0.00,0.00,COMMUNITY-GENERAL HOSPITAL OF GREATER SYRACUSE
6.54,3.47,40.73265,-73.98162,25729.55,10173.18,0.50,0.60,0.39,BETH ISRAEL MEDICAL CENTER
4.10,2.46,43.08561,-73.79712,13359.19,5070.67,0.50,0.59,0.30,SARATOGA HOSPITAL
6.79,3.54,43.04269,-76.14043,27010.27,10535.80,0.67,0.41,0.03,UNIVERSITY HOSPITAL S U N Y HEALTH SCIENCE CENTER
4.83,2.82,40.69327,-73.29412,17104.40,6908.23,0.50,0.70,0.74,GOOD SAMARITAN HOSPITAL MEDICAL CENTER
11.73,4.78,40.90922,-73.11520,52016.09,16841.00,0.50,0.60,0.45,UNIVERSITY HOSPITAL ( STONY BROOK )
3.66,2.68,35.43754,-80.60147,11179.47,6176.94,0.67,0.65,0.16,CAROLINAS MEDICAL CENTER-NORTHEAST
3.27,2.61,35.57658,-82.54922,9194.00,5842.46,0.67,0.40,0.82,MEMORIAL MISSION HOSPITAL AND ASHEVILLE SURGERY CE
2.99,2.54,35.95000,-80.00000,7772.81,5462.39,0.50,0.66,0.39,HIGH POINT REGIONAL HOSPITAL
4.17,2.77,36.07581,-80.29779,13743.00,6653.25,0.50,0.53,0.39,FORSYTH MEMORIAL HOSPITAL
3.69,2.53,35.32080,-82.46812,11301.59,5447.57,0.00,0.00,0.00,MARGARET R PARDEE MEMORIAL HOSPITAL
3.68,2.53,35.38994,-82.48815,11267.83,5429.65,0.00,0.00,0.00,PARK RIDGE HEALTH
5.16,2.78,35.03156,-78.93205,18747.19,6700.50,0.50,0.50,0.19,CAPE FEAR VALLEY MEDICAL CENTER
6.42,3.49,36.00850,-78.94006,25129.41,10319.47,0.67,0.44,0.76,DUKE UNIVERSITY HOSPITAL
4.28,2.63,35.27341,-81.13688,14283.90,5940.02,0.50,0.70,0.70,GASTON MEMORIAL HOSPITAL
4.48,2.93,35.60726,-77.40477,15308.50,7433.90,0.50,0.46,0.01,PITT COUNTY MEMORIAL HOSPITAL
3.81,2.82,34.63723,-79.01213,11896.48,6914.69,0.50,0.71,0.64,SOUTHEASTERN REGIONAL MEDICAL CENTER
4.18,2.63,35.22196,-80.83287,13810.21,5952.50,0.50,0.64,0.14,PRESBYTERIAN HOSPITAL
3.94,3.25,35.90529,-79.04963,12552.31,9086.69,0.67,0.41,0.01,UNIVERSITY OF NORTH CAROLINA HOSPITAL
5.20,2.73,35.78523,-78.58836,18929.95,6428.53,0.33,0.50,0.80,WAKEMED RALEIGH CAMPUS
3.49,2.72,35.30715,-78.63474,10272.56,6393.66,0.00,0.00,0.00,BETSY JOHNSON REGIONAL  HOSPITAL
5.03,2.59,35.72399,-81.65874,18075.37,5751.89,0.00,0.00,0.00,GRACE HOSPITAL INC
4.05,2.78,36.09251,-79.78855,13146.36,6716.36,0.67,0.66,0.51,MOSES H CONE MEMORIAL HOSPITAL THE
3.37,2.53,34.90228,-79.71125,9683.75,5453.27,0.00,0.00,0.00,SANDHILLS REGIONAL MEDICAL CENTER
6.46,3.57,35.20397,-80.83908,25309.54,10711.57,0.67,0.64,0.25,CAROLINAS MEDICAL CENTER/BEHAV HEALTH
5.08,2.49,35.81801,-78.70283,18337.82,5211.18,0.50,0.65,0.54,REX HOSPITAL
7.54,2.50,35.73751,-81.33702,30789.33,5305.79,0.50,0.68,0.17,FRYE REGIONAL MEDICAL CENTER
3.44,2.73,35.11420,-77.06568,10034.14,6449.16,0.33,0.74,0.91,CAROLINA EAST MEDICAL CENTER
3.60,2.70,34.23786,-77.94764,10851.67,6278.72,0.83,0.70,0.58,NEW HANOVER REGIONAL MEDICAL CENTER
3.43,2.79,35.97538,-77.85012,9984.09,6755.91,0.50,0.65,0.14,NASH GENERAL HOSPITAL
3.55,3.26,39.13707,-84.50392,10620.33,9107.33,0.67,0.45,0.21,UNIVERSITY HOSPITAL INC
4.93,2.61,40.03064,-83.03440,17606.20,5829.32,0.83,0.71,0.21,RIVERSIDE METHODIST HOSPITAL
4.85,2.59,41.44642,-82.70864,17183.94,5732.83,0.50,0.86,0.19,FIRELANDS REGIONAL MEDICAL CENTER
3.29,2.53,39.95805,-83.02191,9260.16,5426.32,0.67,0.42,0.02,MOUNT CARMEL HEALTH
3.03,2.58,39.97510,-82.01812,7959.44,5667.23,0.50,0.79,0.93,GENESIS HEALTHCARE SYSTEM
6.53,2.65,39.78778,-84.23493,25700.10,6044.39,0.67,0.56,0.16,GOOD SAMARITAN HOSPITAL
4.59,2.51,41.23549,-80.79865,15846.63,5326.73,0.67,0.56,0.01,TRUMBULL MEMORIAL HOSPITAL
3.33,2.56,41.11441,-80.65565,9475.77,5563.59,0.83,0.49,0.21,ST ELIZABETH HEALTH CENTER
3.89,2.50,40.74115,-84.11804,12328.69,5291.37,0.67,0.74,0.07,ST RITA'S MEDICAL CENTER
2.67,2.50,39.71750,-82.57772,6119.69,5297.54,0.50,0.82,0.91,FAIRFIELD MEDICAL CENTER
7.72,3.44,39.99445,-83.01872,31724.26,10018.90,0.67,0.50,0.03,OHIO STATE UNIVERSITY HOSPITALS
4.64,2.41,41.66317,-81.24696,16094.27,4831.47,0.50,0.74,0.39,LAKE HEALTH
7.35,3.47,41.66810,-83.54275,29854.50,10174.79,0.50,0.70,0.05,MERCY ST VINCENT MEDICAL CENTER
3.24,2.43,41.36649,-82.09708,9050.77,4929.90,0.67,0.75,0.98,EMH REGIONAL MEDICAL CENTER
3.72,2.41,39.43061,-81.46454,11470.93,4820.64,0.50,0.71,1.00,MARIETTA MEMORIAL HOSPITAL
4.18,2.46,40.02984,-80.74312,13809.18,5103.00,0.00,0.00,0.00,BELMONT COMMUNITY HOSPITAL
4.50,2.40,41.37028,-81.83189,15386.27,4757.73,0.50,0.71,0.74,SOUTHWEST GENERAL HEALTH CENTER
2.69,2.57,39.39463,-82.96979,6256.34,5647.56,0.50,0.50,0.25,ADENA REGIONAL MEDICAL CENTER
3.48,2.48,41.43688,-82.23761,10257.81,5182.02,0.50,0.82,0.70,MERCY REGIONAL MEDICAL CENTER
2.89,2.59,40.04876,-82.45029,7270.18,5713.28,0.50,0.76,0.97,LICKING MEMORIAL HOSPITAL
3.93,2.65,39.08023,-84.14459,12517.39,6049.86,0.50,0.79,0.82,MERCY HOSPITAL CLERMONT
4.70,2.56,39.63778,-84.24864,16440.52,5591.58,0.50,0.82,0.25,KETTERING MEDICAL CENTER - SYCAMORE
4.05,2.78,36.14687,-95.96841,13150.18,6700.54,0.83,0.76,0.32,HILLCREST MEDICAL CENTER
4.79,2.46,35.52531,-97.58461,16885.99,5070.59,0.75,0.76,0.48,DEACONESS HOSPITAL
4.22,2.88,35.47800,-97.52352,14012.62,7208.68,0.67,0.59,0.33,ST ANTHONY HOSPITAL
3.76,2.53,36.06135,-95.95154,11672.84,5442.53,0.83,0.61,0.45,SAINT FRANCIS HOSPITAL INC
4.87,2.51,36.13393,-95.96718,17274.26,5352.84,0.50,0.51,0.11,ST JOHN MEDICAL CENTER INC
2.57,2.80,35.95999,-95.39306,5628.33,6813.58,0.00,0.00,0.00,WAGONER COMMUNITY HOSPITAL
3.33,2.54,42.42112,-123.34326,9461.50,5494.14,0.00,0.00,0.00,THREE RIVERS COMMUNITY HOSPITAL
5.97,2.88,45.50973,-122.77368,22870.18,7202.85,0.33,0.55,0.14,PROVIDENCE ST VINCENT MEDICAL CENTER
7.06,4.19,45.49956,-122.68802,28366.54,13836.44,0.67,0.47,0.07,OHSU HOSPITAL AND CLINICS
3.82,2.60,44.06773,-121.26817,11974.43,5774.98,0.67,0.70,0.38,ST CHARLES MEDICAL CENTER - BEND
4.75,3.10,43.38402,-124.23280,16686.18,8314.32,0.00,0.00,0.00,BAY AREA HOSPITAL
5.42,3.23,40.35127,-79.84949,20058.72,9000.88,0.50,0.55,0.58,UPMC MCKEESPORT
4.97,2.67,42.11102,-80.07912,17767.44,6156.21,0.50,0.72,0.58,SAINT VINCENT HEALTH CENTER
3.57,2.63,41.01409,-80.35398,10683.27,5947.73,0.50,0.75,0.88,JAMESON MEMORIAL HOSPITAL
5.11,3.44,40.43609,-79.98537,18472.49,10043.53,0.83,0.61,0.08,UPMC MERCY
4.53,2.72,40.68423,-76.18761,15584.94,6380.62,0.00,0.00,0.00,SCHUYLKILL MEDICAL CENTER - SOUTH JACKSON STREET
7.00,2.72,40.60811,-75.39260,28085.55,6387.45,0.67,0.54,0.58,ST LUKE'S HOSPITAL BETHLEHEM
4.22,2.48,40.04093,-76.32139,13980.90,5172.07,0.50,0.75,0.54,LANCASTER REGIONAL MEDICAL CENTER
5.03,2.52,40.52204,-78.39824,18095.90,5371.81,0.83,0.61,0.39,ALTOONA REGIONAL HEALTH SYSTEM
9.80,2.63,40.00955,-75.78622,42267.56,5921.62,0.50,0.74,0.64,BRANDYWINE HOSPITAL
5.02,2.83,41.98012,-76.52072,18040.31,6933.25,0.50,0.65,0.48,ROBERT PACKER HOSPITAL
7.74,2.50,40.86153,-76.77801,31793.35,5280.55,0.00,0.00,0.00,SUNBURY COMMUNITY HOSPITAL
3.65,2.55,41.11492,-78.77515,11112.43,5529.20,0.50,0.76,0.43,DUBOIS REGIONAL MEDICAL CENTER
8.43,2.59,40.11139,-75.09250,35308.08,5738.69,0.50,0.72,0.70,HOLY REDEEMER HOSPITAL AND MEDICAL CENTER
4.04,2.82,40.32674,-78.92197,13096.52,6897.12,0.50,0.61,0.03,CONEMAUGH VALLEY MEMORIAL HOSPITAL
3.53,2.57,41.64205,-80.14579,10516.03,5633.26,0.50,0.86,0.93,MEADVILLE MEDICAL CENTER
3.17,2.47,41.96144,-78.65938,8674.82,5121.75,0.00,0.00,0.00,BRADFORD REGIONAL MEDICAL CENTER
12.15,3.80,39.97194,-75.16352,54121.06,11868.88,0.00,0.00,0.00,ST JOSEPH'S HOSPITAL
5.71,2.73,40.60000,-75.47000,21548.89,6446.83,0.67,0.59,0.54,LEHIGH VALLEY HOSPITAL
5.53,2.50,41.25860,-75.86729,20610.85,5271.00,0.50,0.60,0.80,WILKES-BARRE GENERAL HOSPITAL
6.62,2.60,40.01883,-75.32115,26157.74,5777.32,0.50,0.71,0.86,MAIN LINE HOSPITAL BRYN MAWR CAMPUS
3.41,2.42,40.30103,-79.55505,9892.34,4874.56,0.67,0.80,0.17,EXCELA HEALTH WESTMORELAND REGIONAL HOSPITAL
10.55,3.49,39.92871,-75.26873,46042.23,10298.67,0.67,0.65,0.17,MERCY FITZGERALD HOSPITAL
3.44,2.45,40.81645,-79.52199,10044.03,5031.10,0.00,0.00,0.00,ACMH HOSPITAL
7.36,3.02,40.44190,-79.96044,29899.50,7904.67,0.83,0.55,0.11,UPMC PRESBYTERIAN SHADYSIDE
4.18,2.43,40.86656,-79.88351,13803.57,4914.17,0.33,0.86,0.70,BUTLER MEMORIAL HOSPITAL
3.39,2.47,40.83130,-75.72794,9774.96,5141.87,0.00,0.00,0.00,GNADEN HUETTEN MEMORIAL HOSPITAL
8.14,3.01,40.60798,-75.46817,33855.01,7846.14,0.00,0.00,0.00,SACRED HEART HOSPITAL
5.61,2.73,40.99225,-75.17466,21026.91,6430.00,0.50,0.90,0.64,POCONO MEDICAL CENTER
3.36,2.59,41.23235,-80.49626,9647.94,5719.39,0.50,0.80,0.76,SHARON REGIONAL HEALTH SYSTEM
16.85,4.00,39.94560,-75.15561,77948.35,12857.24,0.50,0.56,0.70,PENNSYLVANIA HOSP OF THE UNIV OF PA HEALTH SYS
4.24,3.10,41.83350,-71.43529,14092.59,8325.02,0.50,0.55,0.30,ROGER WILLIAMS MEDICAL CENTER
6.66,3.80,41.81254,-71.40760,26340.93,11863.00,0.33,0.49,0.07,RHODE ISLAND HOSPITAL
6.89,2.88,41.70541,-71.47790,27515.48,7193.24,0.50,0.50,0.39,KENT COUNTY MEMORIAL HOSPITAL
5.55,3.55,32.78272,-79.94543,20707.73,10608.67,0.33,0.76,0.70,MUSC MEDICAL CENTER
2.80,2.55,34.42133,-79.36606,6817.27,5547.55,0.00,0.00,0.00,MCLEOD MEDICAL CENTER - DILLON
5.46,2.70,34.96733,-81.94021,20266.46,6288.39,0.33,0.60,0.54,SPARTANBURG REGIONAL MEDICAL CENTER
5.55,2.88,34.02839,-81.03539,20744.09,7188.91,0.33,0.44,0.21,PALMETTO HEALTH RICHLAND
4.46,2.56,32.92341,-80.66980,15217.22,5576.73,0.00,0.00,0.00,COLLETON MEDICAL CENTER
5.40,2.60,34.19543,-79.76256,19964.15,5808.38,0.50,0.50,0.80,MCLEOD REGIONAL MEDICAL CENTER-PEE DEE
6.65,2.63,32.80878,-80.04216,26315.79,5947.96,0.50,0.61,0.70,BON SECOURS-ST FRANCIS XAVIER HOSPITAL
5.68,2.45,34.00533,-81.11393,21358.67,5029.58,0.67,0.64,0.48,LEXINGTON MEDICAL CENTER
4.28,2.41,33.70704,-78.89487,14280.81,4830.81,0.67,0.50,0.58,GRAND STRAND REG MED CENTER
4.37,2.76,43.53460,-96.71136,14755.79,6585.97,0.67,0.60,0.82,AVERA MCKENNAN HOSPITAL & UNIVERSITY HEALTH CENTER
3.70,2.53,35.63906,-88.83207,11370.45,5417.50,0.67,0.54,0.28,JACKSON-MADISON COUNTY GENERAL HOSPITAL
7.11,2.54,36.24440,-86.75204,28638.83,5492.98,0.50,0.71,0.86,SKYLINE MEDICAL CENTER
3.11,2.42,36.58587,-82.25703,8375.00,4901.57,0.50,0.62,0.48,WELLMONT BRISTOL REGIONAL MEDICAL CENTER
13.52,3.38,36.14316,-86.80048,61086.64,9730.73,0.50,0.44,0.43,VANDERBILT UNIVERSITY HOSPITAL
4.83,2.71,35.13640,-90.01928,17072.42,6339.23,0.67,0.51,0.38,METHODIST HEALTHCARE MEMPHIS HOSPITALS
4.33,2.53,36.30767,-82.38497,14550.86,5422.95,0.83,0.50,0.21,JOHNSON CITY MEDICAL CENTER
3.61,2.38,36.43222,-84.94250,10896.77,4683.62,0.00,0.00,0.00,JAMESTOWN REGIONAL MEDICAL CENTER
6.31,2.51,36.17752,-86.60840,24575.08,5315.95,0.50,0.76,0.30,SUMMIT MEDICAL CENTER
5.31,2.67,35.03467,-85.26735,19520.94,6119.15,0.50,0.56,0.33,PARKRIDGE MEDICAL CENTER
7.03,2.87,36.15310,-86.80910,28222.00,7154.89,0.67,0.69,0.82,CENTENNIAL MEDICAL CENTER
3.06,2.42,35.91765,-84.10080,8095.34,4880.94,0.33,0.72,0.83,PARKWEST MEDICAL CENTER
3.99,2.46,35.17731,-84.86873,12836.15,5056.68,0.50,0.69,0.38,SKYRIDGE MEDICAL CENTER
6.28,2.76,26.17446,-97.67014,24419.42,6579.75,0.50,0.68,0.58,VHS HARLINGEN HOSPITAL COMPANY LLC
6.68,3.04,32.72621,-97.32659,26458.75,8021.08,0.67,0.80,0.01,JPS HEALTH NETWORK
6.14,2.57,27.77751,-97.39515,23694.11,5653.38,0.83,0.57,0.96,CHRISTUS SPOHN HOSPITAL CORPUS CHRISTI
7.25,2.48,30.30491,-97.74540,29322.20,5155.73,0.17,0.56,0.64,SETON MEDICAL CENTER AUSTIN
4.35,2.59,29.43360,-98.49265,14644.06,5739.57,0.67,0.61,0.25,BAPTIST MEDICAL CENTER
9.02,2.54,32.33824,-95.29122,38303.37,5462.68,0.50,0.55,0.93,EAST TEXAS MEDICAL CENTER
8.51,2.62,29.66575,-95.18131,35729.33,5865.55,0.50,0.51,0.45,BAYSHORE MEDICAL CENTER
5.12,2.80,29.42561,-98.48946,18527.91,6783.02,0.00,0.00,0.00,NIX HEALTH CARE SYSTEM
3.90,2.51,31.11326,-97.80076,12351.88,5342.81,0.00,0.00,0.00,METROPLEX HOSPITAL
6.45,2.67,29.70719,-95.40048,25276.00,6146.27,0.67,0.44,0.01,ST LUKES EPISCOPAL HOSPITAL
2.67,2.66,35.19934,-101.92186,6132.73,6086.20,0.83,0.82,0.25,NORTHWEST TEXAS HOSPITAL
4.06,3.82,29.50783,-98.57875,13200.13,11971.63,0.50,0.56,0.00,UNIVERSITY HEALTH SYSTEM
2.00,2.40,31.95131,-97.31947,2749.94,4784.51,0.00,0.00,0.00,LAKE WHITNEY MEDICAL CENTER
6.26,3.45,29.68674,-95.38652,24323.18,10075.73,0.83,0.79,0.30,HARRIS COUNTY HOSPITAL DISTRICT
5.28,2.61,33.71085,-96.58493,19349.05,5828.41,0.50,0.57,0.21,TEXOMA MEDICAL CENTER
4.29,2.50,30.07104,-94.11927,14330.70,5274.83,0.83,0.64,0.86,MEMORIAL HERMANN BAPTIST BEAUMONT HOSPITAL
7.01,2.66,29.50795,-98.57224,28103.78,6107.52,0.67,0.62,0.58,METHODIST HOSPITAL
8.55,2.59,33.15951,-96.63675,35924.06,5713.66,0.67,0.65,0.03,MEDICAL CENTER OF MCKINNEY
7.64,2.56,29.73074,-95.36108,31319.86,5570.19,0.00,0.00,0.00,RIVERSIDE GENERAL HOSPITAL
5.50,2.66,32.88076,-96.76226,20473.17,6104.08,0.67,0.66,0.03,TEXAS HEALTH PRESBYTERIAN HOSPITAL  DALLAS
4.17,2.55,32.97514,-96.72397,13760.95,5513.86,0.75,0.80,0.30,METHODIST RICHARDSON MEDICAL CENTER
8.54,2.77,29.54043,-95.12730,35866.00,6668.91,0.67,0.51,0.21,CLEAR LAKE REGIONAL MEDICAL CENTER
8.23,2.56,32.91132,-96.77424,34293.80,5602.20,0.83,0.51,0.07,MEDICAL CITY DALLAS HOSPITAL
3.80,2.50,32.67614,-97.32079,11874.13,5260.88,0.83,0.70,0.33,HUGULEY HEALTH SYSTEM
4.64,2.92,29.35295,-98.54601,16135.06,7395.42,0.75,0.72,0.45,SOUTHWEST GENERAL HOSPITAL
8.29,2.55,31.73882,-95.64435,34619.37,5545.32,0.00,0.00,0.00,PALESTINE REGIONAL MEDICAL CENTER
4.65,2.61,27.69288,-97.34476,16147.77,5816.01,0.50,0.60,0.86,CORPUS CHRISTI MEDICAL CENTERTHE
7.12,2.93,26.25286,-98.20590,28672.94,7468.43,0.33,0.66,0.45,DOCTORS HOSPITAL AT RENAISSANCE
3.82,2.63,40.04365,-111.71457,11975.72,5921.72,0.00,0.00,0.00,MOUNTAIN VIEW HOSPITAL
3.21,2.56,37.09986,-113.55271,8867.61,5593.28,0.67,0.61,0.25,DIXIE REGIONAL MEDICAL CENTER
5.73,2.82,40.88620,-111.86916,21642.38,6904.23,0.00,0.00,0.00,LAKEVIEW HOSPITAL
4.58,2.59,40.58979,-111.97499,15830.81,5748.78,0.50,0.59,0.30,JORDAN VALLEY MEDICAL CENTER
5.51,3.71,44.47966,-73.19412,20524.82,11382.93,0.67,0.50,0.14,FLETCHER ALLEN HOSPITAL OF VERMONT
5.19,3.03,43.59828,-72.95512,18882.82,7947.36,0.00,0.00,0.00,RUTLAND REGIONAL MEDICAL CENTER
3.80,2.60,38.40552,-78.85730,11863.01,5781.35,0.50,0.70,0.93,ROCKINGHAM MEMORIAL HOSPITAL
3.86,2.56,39.19345,-78.19599,12158.19,5576.44,0.67,0.60,0.74,WINCHESTER MEDICAL CENTER INC
3.51,2.57,36.83716,-76.34786,10396.39,5610.87,0.50,0.68,0.96,BON SECOURS MARYVIEW MEDICAL CENTER
3.02,2.58,38.09436,-78.98659,7893.30,5670.13,0.50,0.82,1.00,AUGUSTA HEALTH
3.18,2.49,37.41368,-79.16870,8717.77,5238.65,0.50,0.70,0.58,CENTRA  HEALTH INC
5.82,2.69,38.31158,-77.48061,22114.37,6247.89,0.67,0.74,0.17,MARY WASHINGTON HOSPITAL INC
4.70,2.49,37.26336,-80.03166,16415.22,5206.04,0.50,0.49,0.08,LEWISGALE MEDICAL CENTER
3.57,2.66,38.88916,-77.12796,10676.60,6081.94,1.00,0.57,0.58,VIRGINIA HOSPITAL CENTER - ARLINGTON
4.68,2.72,37.58440,-77.51252,16339.47,6396.24,0.50,0.66,0.70,BON SECOURS - ST MARYS HOSPITAL OF RICHMOND
5.85,2.57,37.18253,-77.35957,22238.48,5649.93,0.50,0.76,0.86,SOUTHSIDE REGIONAL MEDICAL CENTER
4.28,2.76,37.54014,-77.40666,14282.04,6606.07,0.00,0.00,0.00,BON SECOURS - RICHMOND COMMUNITY HOSPITAL
5.04,2.45,37.51021,-77.59525,18148.64,5027.09,0.83,0.53,0.32,CJW MEDICAL CENTER
4.07,2.51,36.67083,-80.92343,13208.77,5323.47,0.00,0.00,0.00,TWIN COUNTY REGIONAL HOSPITAL
3.69,2.44,37.37161,-80.22098,11289.82,4990.10,0.00,0.00,0.00,CATAWBA HOSPITAL
4.91,2.70,48.41789,-122.32370,17499.33,6286.78,0.50,0.94,0.33,SKAGIT VALLEY HOSPITAL
9.79,2.72,47.80329,-122.33420,42208.47,6397.82,0.50,0.71,0.64,SWEDISH EDMONDS HOSPITAL
3.40,2.76,47.60869,-122.32128,9818.69,6609.54,0.33,0.56,0.14,SWEDISH MEDICAL CENTER
4.30,2.64,48.77371,-122.47344,14404.07,5990.14,0.50,0.68,0.33,ST JOSEPH MEDICAL CENTER
5.55,2.76,46.13039,-122.94110,20744.80,6578.23,0.50,0.70,0.21,PEACHEALTH ST JOHN MEDICAL CENTER
5.94,2.74,45.62460,-122.58145,22710.63,6517.68,0.67,0.54,0.82,PEACEHEALTH SOUTHWEST MEDICAL CENTER
4.54,2.62,46.28132,-119.28218,15591.09,5889.82,0.33,0.78,0.54,KADLEC REGIONAL MEDICAL CENTER
5.22,2.79,47.24670,-122.44841,19042.39,6756.69,0.67,0.66,0.21,ST JOSEPH MEDICAL CENTER
4.39,2.73,47.29252,-122.32729,14829.54,6429.95,0.50,0.71,0.02,ST FRANCIS COMMUNITY HOSPITAL
3.40,2.90,39.65498,-79.95814,9842.64,7331.29,0.83,0.31,0.05,WEST VIRGINIA UNIVERSITY HOSPITALS
2.94,2.54,39.32836,-80.23964,7495.62,5464.22,0.67,0.61,0.76,UNITED HOSPITAL CENTER
4.95,2.95,38.34739,-81.62600,17694.79,7576.79,0.67,0.59,0.11,CHARLESTON AREA MEDICAL CENTER
3.79,2.56,38.35553,-81.72560,11798.29,5565.64,0.50,0.70,0.43,THOMAS MEMORIAL HOSPITAL
3.21,2.92,44.52660,-89.56580,8865.09,7405.32,0.00,0.00,0.00,MINISTRY ST MICHAELS HOSPITAL OF STEVENS POINT
4.45,2.71,43.80136,-91.23958,15150.21,6333.21,0.25,0.66,0.70,MAYO CLINIC HLTH SYSTEM- FRANCISCAN MED CTR INC
3.22,2.54,44.24830,-88.40268,8941.76,5473.73,0.50,0.79,0.11,ST ELIZABETH HSPTL
3.46,2.65,44.79461,-91.51111,10150.92,6065.22,0.67,0.64,0.14,SACRED HEART HSPTL
4.99,2.55,43.77292,-87.71108,17891.11,5535.21,0.00,0.00,0.00,AURORA SHEBOYGAN MEM MED CTR
2.96,2.54,44.18700,-88.45431,7619.62,5477.24,0.75,0.84,0.01,THEDA CLARK MED CTR
2.91,2.51,44.01282,-88.60296,7372.74,5317.06,0.00,0.00,0.00,MERCY MED CTR OF OSHKOSH
4.45,2.80,43.06195,-87.87861,15143.95,6782.60,0.83,0.68,0.25,COLUMBIA ST MARYS HSPTL  MILW (COL & MILW CAMPUS)
3.38,2.58,42.68685,-89.03244,9729.72,5668.54,0.50,0.64,0.43,MERCY HLTH SYS CORP
3.29,2.48,44.81192,-91.51352,9271.22,5191.41,0.25,0.55,0.70,MAYO CLINIC HEALTH SYSTEM EAU CLAIRE HOSPITAL
3.80,2.68,42.98566,-87.93565,11882.40,6171.06,0.50,0.70,0.58,WHEATON FRANCISCAN HEALTHCARE- ST FRANCIS
3.95,2.67,43.05867,-89.40269,12624.14,6130.14,0.67,0.78,0.70,ST MARY'S HOSPITAL
5.01,2.77,43.79515,-91.24798,17980.59,6657.11,0.17,0.61,0.21,GUNDERSEN LUTH MED CTR
3.77,2.67,42.73444,-87.82788,11719.39,6155.57,0.50,0.68,0.13,WHEATON FRANCISCAN HEALTHCARE- ALL SAINTS
4.24,2.64,43.16402,-88.13829,14094.43,5982.00,0.50,0.60,0.91,COMMUNITY MEM HSPTL
5.54,2.81,42.98958,-87.95079,20669.34,6869.85,0.50,0.65,0.38,AURORA ST LUKES MEDICAL CENTER
4.87,3.14,43.04008,-88.02523,17301.71,8508.07,0.67,0.36,0.11,FROEDTERT MEM LUTHERAN HSPTL
3.26,2.37,29.65197,-95.47754,9132.27,4637.27,0.00,0.00,0.00,WESTBURY COMMUNITY HOSPITAL LLC
4.94,2.48,31.21673,-85.36307,17627.13,5175.62,0.50,0.51,0.21,SOUTHEAST ALABAMA MEDICAL CENTER
3.51,2.43,34.80175,-87.67514,10376.14,4912.09,0.50,0.65,0.03,ELIZA COFFEE MEMORIAL HOSPITAL
2.96,2.39,34.36605,-86.42127,7605.59,4709.09,0.00,0.00,0.00,MARSHALL MEDICAL CENTER NORTH
3.64,2.48,33.59616,-86.66750,11076.00,5165.09,0.67,0.79,0.01,ST VINCENT'S EAST
3.58,2.50,31.45215,-85.63140,10753.74,5304.78,0.00,0.00,0.00,DALE MEDICAL CENTER
3.24,2.48,32.63806,-85.40413,9009.40,5167.10,0.50,0.80,0.14,EAST ALABAMA MEDICAL CENTER AND SNF
6.05,3.13,33.50619,-86.80210,23252.00,8495.28,0.67,0.45,0.11,UNIVERSITY OF ALABAMA HOSPITAL
4.25,2.38,33.66767,-85.83420,14154.55,4686.45,0.00,0.00,0.00,STRINGFELLOW MEMORIAL HOSPITAL
9.21,2.47,34.00941,-85.97078,39277.07,5128.44,0.67,0.68,0.28,GADSDEN REGIONAL MEDICAL CENTER
4.05,2.42,33.65640,-85.82284,13107.00,4871.08,0.50,0.60,0.05,NORTHEAST ALABAMA REGIONAL MED CENTER
3.42,2.44,34.59052,-86.97262,9930.84,4986.83,0.50,0.78,0.54,DECATUR GENERAL HOSPITAL
5.04,2.54,33.20521,-87.52546,18125.89,5505.13,0.67,0.66,0.21,D C H REGIONAL MEDICAL CENTER
8.42,2.67,33.51420,-86.74859,35241.61,6163.48,0.67,0.28,0.11,TRINITY MEDICAL CENTER
4.50,2.42,30.69697,-88.08081,15418.17,4855.00,0.67,0.55,0.25,MOBILE INFIRMARY
4.68,2.45,33.37328,-86.99163,16315.91,5012.73,0.50,0.68,0.07,MEDICAL WEST AN AFFILIATE OF UAB HEALTH SYSTEM
4.53,2.37,34.69279,-86.57179,15547.87,4642.68,0.50,0.78,0.33,CRESTWOOD MEDICAL CENTER
10.79,2.37,33.46420,-86.77409,47264.78,4609.00,0.50,0.65,0.30,BROOKWOOD MEDICAL CENTER
10.32,3.11,60.94901,-149.17033,44884.58,8387.77,0.50,0.81,0.91,PROVIDENCE ALASKA MEDICAL CENTER
7.56,4.03,64.83188,-147.73905,30892.19,13035.79,0.00,0.00,0.00,FAIRBANKS MEMORIAL HOSPITAL
7.89,2.61,33.65965,-112.37283,32548.36,5819.00,0.50,0.78,0.97,BANNER DEL E WEBB MEDICAL CENTER
4.31,3.07,32.17796,-110.93203,14455.21,8178.89,0.50,1.00,0.28,UNIVERSITY OF ARIZONA MEDICAL CTR- SOUTH CAM THE
5.25,2.51,34.75031,-92.33897,19180.96,5339.35,0.67,0.64,0.83,ST VINCENT INFIRMARY MEDICAL CENTER
4.00,2.46,35.25046,-91.70056,12892.23,5080.97,0.50,0.61,0.64,WHITE COUNTY MEDICAL CENTER
5.50,2.88,34.74866,-92.35422,20463.33,7195.16,0.50,0.51,0.33,UAMS MEDICAL CENTER
