size_charge,size_pay,lat,lon,state,charge,pay,AcquiredInfect,AcquiredConditions,PatientSafetySummary,name
6.05,2.19,31.21673,-85.36307,AL,26000,6000,50,51,21,Southeast Alabama Medical Center
5.51,2.11,34.80175,-87.67514,AL,23000,6000,50,65,2,Eliza Coffee Memorial Hospital
5.85,2.15,33.59616,-86.66750,AL,25000,6000,66,78,1,St Vincent'S East
7.82,2.51,33.25607,-86.81035,AL,34000,8000,83,70,63,Shelby Baptist Medical Center
3.84,2.17,34.74649,-87.69895,AL,15000,6000,50,91,33,Helen Keller Memorial Hospital
4.77,2.38,32.32785,-86.27750,AL,19000,7000,50,67,54,Baptist Medical Center South
5.62,2.19,32.36656,-86.28572,AL,23000,6000,50,68,82,Jackson Hospital & Clinic Inc
3.15,2.16,32.63806,-85.40413,AL,11000,6000,50,80,13,East Alabama Medical Center And Snf
5.95,2.58,33.50619,-86.80210,AL,25000,8000,66,45,11,University Of Alabama Hospital
5.35,2.13,34.20768,-86.87489,AL,22000,6000,50,63,79,Cullman Regional Medical Center
6.52,2.30,34.72007,-86.58108,AL,28000,7000,50,65,44,Huntsville Hospital
15.57,2.23,34.00941,-85.97078,AL,73000,7000,66,67,27,Gadsden Regional Medical Center
11.48,2.39,34.00426,-86.00339,AL,53000,7000,75,81,90,Riverview Regional Medical Center
9.18,2.10,31.23767,-85.45625,AL,41000,6000,50,55,79,Flowers Hospital
4.50,2.04,33.50734,-86.78958,AL,18000,6000,50,72,21,St Vincent'S Birmingham
3.03,2.12,32.94573,-85.98570,AL,11000,6000,50,71,5,Russell Hospital
4.33,2.10,33.65640,-85.82284,AL,17000,6000,50,60,5,Northeast Alabama Regional Med Center
2.28,2.13,34.59052,-86.97262,AL,7000,6000,50,77,54,Decatur General Hospital
2.95,2.76,30.70623,-88.09909,AL,10000,9000,25,61,2,Univ Of South Alabama Medical Center
5.55,2.19,33.83218,-87.30385,AL,23000,6000,50,78,95,Walker Baptist Medical Center
5.07,2.11,30.68199,-88.19897,AL,21000,6000,83,86,0,Providence Hospital
4.67,2.26,33.20521,-87.52546,AL,19000,7000,66,66,21,D C H Regional Medical Center
4.48,2.01,30.51916,-87.88842,AL,18000,6000,50,90,17,Thomas Hospital
7.22,2.38,33.49854,-86.84633,AL,31000,7000,66,70,8,Baptist Medical Center-Princeton
15.86,2.74,33.51420,-86.74859,AL,74000,9000,66,27,11,Trinity Medical Center
2.71,2.08,32.43516,-88.32614,AL,9000,6000,0,0,0,Bryan W Whitfield Mem Hosp Inc
5.77,2.18,30.69697,-88.08081,AL,24000,6000,66,55,24,Mobile Infirmary
5.69,2.47,32.43020,-87.05515,AL,24000,8000,50,91,32,Vaughan Reg Med Center Parkway Campus
8.21,2.16,34.69279,-86.57179,AL,36000,6000,50,77,33,Crestwood Medical Center
18.40,2.18,33.46420,-86.77409,AL,87000,6000,50,65,29,Brookwood Medical Center
3.63,2.00,30.68546,-88.13170,AL,14000,5000,50,81,6,Springhill Medical Center
9.57,2.26,33.16547,-86.25380,AL,43000,7000,0,0,0,Coosa Valley Medical Center
10.73,3.53,60.94901,-149.17033,AK,49000,13000,50,81,90,Providence Alaska Medical Center
5.70,2.80,33.50277,-112.17044,AZ,24000,9000,0,0,0,Maryvale Hospital
6.54,2.64,33.46514,-112.05797,AZ,28000,9000,50,48,69,Banner Good Samaritan Medical Center
4.86,2.48,32.25294,-110.88135,AZ,20000,8000,50,48,3,Tucson Medical Center
9.14,2.93,34.73471,-112.03149,AZ,41000,10000,50,73,82,Verde Valley Medical Center
5.88,2.36,32.22734,-111.00065,AZ,25000,7000,33,75,63,Carondelet St  Marys Hospital
6.60,2.25,32.22685,-110.85520,AZ,28000,7000,66,55,21,Carondelet St Josephs Hospital
5.65,2.46,34.56017,-112.48217,AZ,24000,8000,25,67,17,Yavapai Regional Medical Center
5.78,2.56,32.68274,-114.63506,AZ,24000,8000,50,63,69,Yuma Regional Medical Center
7.39,2.39,33.56894,-112.07108,AZ,32000,7000,50,80,16,John C Lincoln North Mountain Hospital
6.75,2.57,32.88123,-111.71067,AZ,29000,8000,50,81,11,Casa Grande Regional Medical Center
10.43,3.28,35.20923,-111.64486,AZ,47000,12000,66,78,88,Flagstaff Medical Center
7.36,2.96,33.48073,-112.07948,AZ,32000,10000,33,52,11,St Joseph'S Hospital And Medical Center
5.83,2.64,33.52511,-112.10189,AZ,24000,9000,50,71,56,Phoenix Baptist Hospital
8.19,2.36,33.29750,-111.87461,AZ,36000,7000,50,78,54,Chandler Regional Medical Center
7.75,2.36,33.48885,-111.92387,AZ,34000,7000,66,76,54,Scottsdale Healthcare-Osborn Medical Center
8.94,2.21,33.60432,-112.28378,AZ,40000,7000,83,75,95,Banner Boswell Medical Center
6.20,3.20,32.24152,-110.94631,AZ,26000,11000,50,37,39,University Of Arizona Medical Ctr-Universit The
6.08,2.43,33.39097,-111.87638,AZ,26000,8000,66,80,56,Banner Desert Medical Center
6.23,2.34,34.47988,-114.33938,AZ,26000,7000,50,70,56,Havasu Regional Medical Center
2.50,2.72,36.13579,-111.23718,AZ,8000,9000,0,0,0,Tuba City Regional Health Care Corporation
6.28,2.29,32.32103,-111.01102,AZ,27000,7000,50,71,20,Northwest Medical Center
8.42,2.40,33.58235,-111.88527,AZ,37000,7000,66,68,63,Scottsdale Healthcare-Shea Medical Center
7.49,2.24,33.41128,-111.68916,AZ,33000,7000,50,70,63,Banner Baywood Medical Center
7.09,2.46,33.60949,-112.18129,AZ,31000,8000,66,73,76,Banner Thunderbird Medical Center
5.90,2.36,33.66596,-112.11618,AZ,25000,7000,50,73,69,John C Lincoln Deer Valley Hospital
9.04,2.26,33.65965,-112.37283,AZ,40000,7000,50,77,97,Banner Del E Webb Medical Center
5.03,2.44,33.65497,-112.20040,AZ,21000,8000,50,90,39,Arrowhead Hospital
12.00,2.37,35.11068,-114.55505,AZ,55000,7000,50,87,63,Western Arizona Regional Medical Ctr
6.52,3.05,33.65947,-111.95626,AZ,28000,11000,66,53,95,Mayo Clinic Hospital
5.84,2.52,33.46202,-112.35299,AZ,25000,8000,75,65,69,West Valley Hospital
7.41,2.54,33.47818,-112.25744,AZ,32000,8000,50,58,69,Banner Estrella Medical Center
8.04,2.42,33.28686,-111.75246,AZ,35000,8000,50,63,63,Mercy Gilbert Medical Center
7.83,2.43,33.39128,-111.61125,AZ,34000,8000,50,60,11,Mountain Vista Medical Center Lp
6.33,2.30,33.38269,-111.72100,AZ,27000,7000,50,70,57,Banner Gateway Medical Center
6.00,2.24,36.10940,-94.16036,AR,25000,7000,33,77,74,Washington Regional Med Ctr At North Hills
5.33,2.25,34.75031,-92.33897,AR,22000,7000,66,63,82,St Vincent Infirmary Medical Center
4.62,2.10,36.31007,-94.18471,AR,18000,6000,50,67,44,Mercy Medical Center
3.69,2.14,35.25046,-91.70056,AR,14000,6000,50,61,63,White County Medical Center
4.63,2.73,34.74866,-92.35422,AR,19000,9000,50,51,33,Uams Medical Center
2.90,2.28,35.83746,-90.70386,AR,10000,7000,50,75,2,St Bernards Medical Ctr
5.53,2.19,36.18082,-94.13644,AR,23000,6000,50,68,29,Nw Arkansas Hospitals Llc
4.63,2.16,34.46784,-93.06667,AR,19000,6000,66,66,85,St Josephs Mercy Health Center Inc
3.63,2.09,36.34295,-92.39442,AR,14000,6000,50,65,57,Baxter Regional Medical Center
3.89,2.11,34.77770,-92.12539,AR,15000,6000,50,60,13,Baptist Health Medical Center North Little Rock
5.26,2.24,35.28275,-93.14901,AR,22000,7000,0,0,0,St Marys Regional Medical Center
5.46,2.53,35.14320,-90.18837,AR,23000,8000,0,0,0,Crittenden Memorial Hospital
4.32,2.19,35.37445,-94.41868,AR,17000,6000,50,53,85,Sparks Regional Medical Center
7.17,2.22,35.35395,-94.35262,AR,31000,7000,50,66,11,St Edward Mercy Medical Center
7.42,2.47,34.18894,-92.01886,AR,32000,8000,50,75,4,Jefferson Regional Medical Center
9.36,2.26,34.48600,-93.03521,AR,42000,7000,50,51,8,National Park Medical Center
5.71,2.23,34.74866,-92.35422,AR,24000,7000,50,43,21,Baptist Health Medical Center-Little Rock
6.73,2.26,35.80838,-90.66658,AR,29000,7000,50,57,69,Nea Baptist Memorial Hospital
5.16,2.31,35.76927,-91.63408,AR,21000,7000,33,63,37,White River Medical Center
20.81,3.42,37.63362,-122.08802,CA,99000,13000,50,60,6,St Rose Hospital
10.89,2.60,37.59283,-122.38249,CA,50000,8000,50,71,33,Peninsula Medical Center
11.94,2.81,38.32472,-122.29671,CA,55000,9000,50,72,82,Queen Of The Valley Medical Center
9.57,3.08,38.57053,-121.45216,CA,43000,11000,83,53,27,Mercy General Hospital
5.11,3.45,34.06505,-118.23913,CA,21000,13000,0,0,0,Pacific Alliance Medical Center
14.53,2.92,33.97659,-117.38184,CA,68000,10000,50,65,57,Riverside Community Hospital
5.42,2.90,32.68425,-117.08161,CA,22000,10000,0,0,0,Paradise Valley Hospital
5.58,3.35,32.75426,-117.16592,CA,23000,12000,50,72,69,University Of California San Diego Medical Center
7.88,2.57,32.77495,-117.01467,CA,35000,8000,83,71,33,Grossmont Hospital
7.97,2.65,39.50528,-121.54100,CA,35000,9000,50,73,63,Oroville Hospital
9.71,2.68,35.38736,-119.01690,CA,44000,9000,33,85,79,Bakersfield Memorial Hospital
9.62,4.18,37.31288,-121.93329,CA,43000,16000,66,65,1,Santa Clara Valley Medical Center
8.77,2.39,39.74221,-121.85000,CA,39000,7000,83,71,48,Enloe Medical Center
9.61,3.18,37.82206,-122.26275,CA,43000,11000,50,63,32,Alta Bates Summit Medical Center
8.26,2.86,32.78037,-115.56848,CA,37000,10000,50,97,69,El Centro Regional Medical Center
14.02,3.75,37.79100,-122.43125,CA,65000,14000,83,63,11,California Pacific Medical Ctr-Pacific Campus Hosp
6.34,2.82,34.67486,-118.15771,CA,27000,10000,50,67,44,Antelope Valley Hospital Med Center
9.21,2.69,36.32737,-119.29548,CA,41000,9000,50,56,12,Kaweah Delta Medical Center
10.42,3.12,34.12834,-118.25777,CA,47000,11000,50,72,44,Glendale Mem Hospital & Hlth Center
7.46,3.03,36.73000,-119.78000,CA,33000,11000,50,71,0,Community Regional Medical Center
8.16,3.43,34.09643,-118.29103,CA,36000,13000,75,76,74,Hollywood Presbyterian Medical Center
13.14,2.73,33.78036,-117.86495,CA,61000,9000,50,60,88,St Joseph Hospital
8.97,2.91,32.75143,-117.16083,CA,40000,10000,33,62,69,Scripps Mercy Hospital
12.51,2.53,33.73798,-118.30525,CA,58000,8000,50,81,81,Providence Little Co Of Mary Med Ctr San Pedro
7.85,2.97,37.95337,-122.33672,CA,35000,10000,50,63,18,Doctors Medical Center-San Pablo
8.99,2.61,34.21674,-119.15631,CA,40000,9000,50,63,6,St Johns Regional Medical Center
12.96,2.79,37.96987,-121.28873,CA,60000,9000,83,68,97,St Josephs Med Center Of Stockton
7.08,2.59,36.83532,-119.76562,CA,31000,8000,50,66,57,Saint Agnes Medical Center
6.59,2.45,34.10130,-117.63651,CA,28000,8000,50,66,85,San Antonio Community Hospital
13.11,3.05,32.79949,-117.15394,CA,61000,11000,66,62,11,Sharp Memorial Hospital
7.38,3.20,38.13118,-122.23732,CA,32000,11000,50,81,29,Sutter Solano Medical Center
10.02,2.75,33.92798,-117.43847,CA,45000,9000,50,88,24,Parkview Community Hospital Medical Center
11.91,3.37,34.04932,-118.21746,CA,55000,12000,25,73,98,White Memorial Medical Center
8.80,3.40,33.92963,-118.20332,CA,39000,12000,66,78,33,Saint Francis Medical Center
11.97,3.31,38.57155,-121.46874,CA,55000,12000,83,77,79,Sutter General Hospital
9.74,3.03,34.07558,-118.28424,CA,44000,11000,0,0,0,Temple Community Hospital
9.36,2.78,34.02685,-118.48651,CA,42000,9000,50,76,21,Santa Monica - Ucla Med Ctr & Orthopaedic Hospital
8.40,2.51,33.12535,-117.07336,CA,37000,8000,50,55,69,Palomar Medical Center
10.62,2.77,34.22014,-118.53410,CA,48000,9000,33,56,44,Northridge Hospital Medical Center
7.54,2.65,36.32362,-119.66726,CA,33000,9000,50,88,24,Adventist Medical Center
16.68,3.53,37.36257,-121.84974,CA,78000,13000,50,70,1,Regional Medical Center Of San Jose
8.38,2.99,34.19494,-118.46319,CA,37000,10000,50,77,76,Valley Presbyterian Hospital
9.01,2.68,33.18402,-117.29661,CA,40000,9000,50,57,21,Tri-City Medical Center
11.28,2.79,34.13495,-117.27603,CA,52000,9000,50,66,48,St Bernardine Medical Center
17.79,3.22,34.10081,-118.10588,CA,84000,12000,0,0,0,San Gabriel Valley Medical Center
9.42,2.66,39.13822,-121.59436,CA,42000,9000,50,51,21,Rideout Memorial Hospital
3.74,2.46,34.07225,-117.43197,CA,14000,8000,66,62,63,Kaiser Foundation Hospital Fontana
12.75,3.31,37.78963,-122.41700,CA,59000,12000,75,70,29,Saint Francis Memorial Hospital
14.95,3.17,37.32710,-121.93863,CA,70000,11000,66,71,37,O'Connor Hospital
6.38,3.32,34.28029,-119.25410,CA,27000,12000,50,48,2,Ventura County Medical Center
14.10,2.47,33.89465,-117.92716,CA,66000,8000,66,71,90,St Jude Medical Center
12.56,2.54,33.96860,-118.04831,CA,58000,8000,50,46,16,Presbyterian Intercommunity Hospital
10.03,2.78,38.44369,-122.70138,CA,45000,9000,66,86,57,Santa Rosa Memorial Hospital
17.20,3.29,37.51164,-120.83800,CA,81000,12000,33,86,16,Emanuel Medical Center Inc
20.02,3.11,37.91341,-122.04163,CA,95000,11000,50,62,33,John Muir Medical Center - Walnut Creek Campus
9.91,3.15,33.77991,-118.18602,CA,45000,11000,50,82,94,St Mary Medical Center
17.86,3.56,36.92821,-121.79360,CA,84000,13000,0,0,0,Watsonville Community Hospital
21.87,3.29,37.55717,-121.98126,CA,104000,12000,50,53,88,Washington Hospital
9.99,2.58,34.58305,-118.14490,CA,45000,8000,50,86,54,Palmdale Regional Medical Center
8.75,2.83,34.12865,-117.86501,CA,39000,10000,0,0,0,East Valley Hospital Medical Center
16.73,2.97,32.61972,-117.02278,CA,79000,10000,50,71,57,Sharp Chula Vista Medical Center
7.07,2.49,33.62229,-117.92995,CA,31000,8000,50,70,51,Hoag Memorial Hospital Presbyterian
14.93,2.70,33.84780,-117.93661,CA,70000,9000,50,73,57,Ahmc Anaheim Regional Medical Center
10.32,4.11,37.75676,-122.40461,CA,47000,16000,75,51,12,San Francisco General Hospital
7.00,3.30,33.77483,-117.91329,CA,30000,12000,50,85,98,Garden Grove Hospital & Medical Center
11.95,2.97,34.07709,-117.75063,CA,55000,10000,33,73,97,Pomona Valley Hospital Medical Center
15.31,2.60,34.15601,-118.32834,CA,72000,8000,50,80,97,Providence Saint Joseph Medical Ctr
9.48,2.43,34.28920,-118.74484,CA,43000,8000,50,90,92,Simi Valley Hospital & Health Care Services
8.07,2.63,34.13973,-118.03534,CA,36000,9000,50,45,10,Methodist Hospital Of Southern Ca
13.27,3.11,34.14987,-118.23117,CA,61000,11000,66,75,88,Glendale Adventist Medical Center
15.25,2.66,33.83862,-116.54557,CA,71000,9000,66,81,2,Desert Regional Medical Center
5.25,3.34,34.07389,-117.35111,CA,22000,12000,33,81,6,Arrowhead Regional Medical Center
7.73,2.78,36.06956,-119.02748,CA,34000,9000,0,0,0,Sierra View District Hospital
10.98,4.08,34.06675,-118.44613,CA,50000,16000,50,27,33,Ronald Reagan Ucla Medical Center
5.44,2.30,34.03721,-117.20474,CA,23000,7000,50,92,69,Redlands Community Hospital
12.89,3.19,33.80733,-118.19305,CA,60000,11000,0,0,0,Pacific Hospital Of Long Beach
15.74,2.81,34.27915,-118.46006,CA,74000,10000,50,80,24,Providence Holy Cross Medical Center
8.00,2.94,40.58654,-122.39168,CA,35000,10000,83,71,44,Mercy Medical Center Redding
13.69,3.04,37.67947,-122.47447,CA,64000,11000,50,62,24,Seton Medical Center
8.90,2.35,34.03009,-118.47833,CA,40000,7000,50,81,76,Saint John'S Health Center
17.56,4.27,33.91173,-117.19590,CA,83000,17000,50,77,52,Riverside County Regional Medical Center
11.55,2.55,35.37279,-119.02817,CA,53000,8000,50,70,82,Mercy Hospital
5.32,2.63,34.50107,-117.17285,CA,22000,9000,50,87,20,St Mary Medical Center
10.98,3.31,37.85593,-122.25730,CA,50000,12000,50,56,8,Alta Bates Summit Medical Center - Alta Bates Camp
12.83,2.69,37.36934,-122.08047,CA,59000,9000,66,48,6,El Camino Hospital
10.71,2.61,38.76514,-121.24979,CA,49000,9000,66,77,16,Sutter Roseville Medical Center
8.06,2.54,37.74409,-121.43469,CA,36000,8000,0,0,0,Sutter Tracy Community Hospital
5.50,3.84,37.79943,-122.23307,CA,23000,15000,66,57,12,Alameda County Medical Center
10.58,3.54,34.05076,-117.26395,CA,48000,13000,50,55,16,Loma Linda University Medical Center
7.08,2.69,33.87236,-117.56809,CA,31000,9000,50,78,81,Corona Regional Medical Center
9.54,3.13,36.65910,-121.64630,CA,43000,11000,50,70,37,Salinas Valley Memorial Hospital
9.68,2.86,37.97780,-120.37150,CA,44000,10000,0,0,0,Sonora Regional Medical Center
16.88,2.58,38.12186,-121.28665,CA,79000,8000,100,70,94,Lodi Memorial Hospital
6.14,2.77,32.95813,-115.55388,CA,26000,9000,50,91,92,Pioneers Memorial Healthcare District
13.87,3.90,33.78798,-117.89026,CA,64000,15000,66,56,11,University Of California Irvine Med Center
5.13,2.88,34.01501,-118.10064,CA,21000,10000,50,88,74,Beverly Hospital
12.55,2.54,33.81131,-118.34364,CA,58000,8000,66,67,88,Torrance Memorial Medical Center
9.90,2.55,33.83891,-118.35677,CA,45000,8000,50,86,94,Providence Little Company Of Mary Med Ctr Torrance
9.42,2.82,37.94748,-122.53677,CA,42000,10000,50,63,16,Marin General Hospital
13.24,3.12,38.26174,-122.04662,CA,61000,11000,50,68,29,Northbay Medical Center
9.67,3.97,33.83043,-118.29402,CA,44000,15000,66,75,2,Lac/Harbor-Ucla Med Center
12.12,2.79,37.25153,-121.94684,CA,56000,9000,33,63,3,Good Samaritan Hospital
8.74,3.03,34.08802,-117.89341,CA,39000,11000,66,67,29,Citrus Valley Medical Center-Ic Campus
5.80,2.54,33.75117,-116.96028,CA,24000,8000,50,73,82,Hemet Valley Medical Center
11.52,2.77,33.93530,-118.13030,CA,53000,9000,50,90,82,Downey Regional Medical Center
7.40,2.41,34.27459,-119.25812,CA,32000,8000,50,53,8,Community Memorial Hospital San Buenaventura
11.77,3.11,34.42951,-119.72333,CA,54000,11000,66,72,32,Santa Barbara Cottage Hospital
8.78,2.60,32.89810,-117.24217,CA,39000,8000,50,75,37,Scripps Green Hospital
7.06,2.56,33.82557,-117.99493,CA,31000,8000,50,91,98,West Anaheim Medical Center
10.41,2.69,34.13364,-118.15275,CA,47000,9000,66,65,57,Huntington Memorial Hospital
30.00,6.21,37.43436,-122.18013,CA,144000,26000,50,58,27,Stanford Hospital
5.84,2.87,37.34027,-120.46817,CA,25000,10000,50,77,37,Mercy Medical Center
20.67,5.15,37.76421,-122.45716,CA,98000,21000,66,52,90,Ucsf Medical Center
7.37,2.63,35.38338,-119.01969,CA,32000,9000,33,86,6,San Joaquin Community Hospital
19.85,2.89,37.66540,-120.99743,CA,94000,10000,66,66,9,Doctors Medical Center
5.89,2.86,33.89307,-118.29506,CA,25000,10000,50,96,98,Memorial Hospital Of Gardena
11.28,3.06,34.05336,-118.26558,CA,52000,11000,50,68,79,Good Samaritan Hospital
18.33,2.46,34.20285,-118.62962,CA,87000,8000,50,61,13,West Hills Hospital & Medical Center
9.15,2.87,33.80861,-118.18661,CA,41000,10000,66,65,27,Long Beach Memorial Medical Center
8.05,2.94,37.69824,-122.08730,CA,36000,10000,66,61,54,Eden Medical Center
13.94,2.79,37.98396,-122.03464,CA,65000,9000,50,76,97,John Muir Medical Center - Concord Campus
10.32,3.16,34.06389,-118.27347,CA,47000,11000,50,80,98,Saint Vincent Medical Center
10.95,2.48,33.03634,-117.28487,CA,50000,8000,50,65,5,Scripps Memorial Hospital - Encinitas
6.53,2.79,37.63058,-122.09502,CA,28000,9000,66,76,33,Kaiser Foundation Hospital Fremont/Hayward
8.42,2.70,38.66956,-121.31378,CA,37000,9000,66,66,29,Mercy San Juan Medical Center
8.87,3.00,37.98224,-121.80362,CA,40000,10000,50,58,24,Sutter Delta Medical Center
10.41,2.98,33.68179,-116.23394,CA,47000,10000,50,70,16,John F Kennedy Memorial Hospital Inc
20.33,3.20,34.20777,-118.88305,CA,96000,11000,50,51,69,Los Robles Hospital & Medical Center
12.04,2.59,33.80441,-118.06665,CA,55000,8000,50,50,48,Los Alamitos Medical Center
13.20,2.70,37.66867,-120.97339,CA,61000,9000,66,80,54,Memorial  Medical Center
9.46,2.40,33.56100,-117.66530,CA,43000,7000,66,58,12,Mission Hospital Regional Med Center
11.88,2.99,33.71466,-117.93322,CA,55000,10000,50,86,33,Fountain Valley Regional Hospital & Medical Center
16.58,2.49,33.76335,-116.40628,CA,78000,8000,50,56,39,Eisenhower Medical Center
12.05,2.64,33.84932,-118.15323,CA,55000,9000,83,80,12,Lakewood Regional Medical Center
4.78,2.70,34.02561,-117.68583,CA,19000,9000,0,0,0,Chino Valley Medical Center
7.67,3.01,38.46387,-121.41645,CA,34000,10000,50,60,57,Methodist Hospital Of Sacramento
18.94,3.96,38.55484,-121.45628,CA,90000,15000,50,50,3,University Of California Davis Medical Center
9.90,2.49,33.60883,-117.70881,CA,45000,8000,50,70,90,Saddleback Memorial Medical Center
7.78,3.12,35.76216,-119.23889,CA,34000,11000,0,0,0,Delano Regional Medical Center
13.91,2.44,34.39755,-118.55330,CA,65000,8000,50,60,21,Henry Mayo Newhall Memorial Hospital
15.28,3.31,34.07664,-118.37955,CA,71000,12000,100,58,48,Cedars-Sinai Medical Center
8.61,2.25,32.99711,-117.05783,CA,38000,7000,50,85,78,Pomerado Hospital
4.82,3.22,34.01936,-118.18661,CA,19000,12000,50,90,63,Los Angeles Community Hospital
6.52,2.41,33.70167,-117.95566,CA,28000,8000,50,82,88,Orange Coast Memorial Medical Center
9.72,3.04,37.03560,-121.57109,CA,44000,11000,50,91,3,Saint Louise Regional Hospital
7.84,2.51,33.55876,-117.18329,CA,34000,8000,66,73,74,Southwest Healthcare System
5.60,3.06,34.22139,-118.45660,CA,23000,11000,0,0,0,Mission Community Hospital - Panorama
14.53,3.29,34.04924,-118.13842,CA,68000,12000,0,0,0,Monterey Park Hospital
12.98,3.19,34.06760,-118.12291,CA,60000,11000,50,93,85,Garfield Medical Center
8.99,2.80,33.95076,-118.34828,CA,40000,9000,50,71,99,Centinela Hospital Medical Center
18.18,2.56,34.05723,-118.36025,CA,86000,8000,50,63,69,Olympia Medical Center
11.94,2.65,34.02303,-118.39741,CA,55000,9000,0,0,0,Brotman Medical Center
6.18,2.58,34.16028,-118.44948,CA,26000,8000,0,0,0,Sherman Oaks Hospital
7.05,2.46,32.77629,-117.05730,CA,31000,8000,75,78,63,Alvarado Hospital Medical Center
13.19,2.53,34.17067,-118.53200,CA,61000,8000,50,57,63,Providence Tarzana Medical Center
7.90,2.66,40.58532,-122.38702,CA,35000,9000,50,78,98,Shasta Regional Medical Center
7.66,2.50,40.41481,-104.70890,CO,34000,8000,50,73,57,North Colorado Medical Center
6.65,2.46,40.18134,-105.12769,CO,29000,8000,50,71,76,Longmont United Hospital
6.34,2.24,39.76893,-105.09006,CO,27000,7000,50,47,79,Exempla Lutheran Medical Center
5.88,2.28,40.57315,-105.05741,CO,25000,7000,50,68,95,Poudre Valley Hospital
6.33,3.32,39.72730,-104.99157,CO,27000,12000,66,66,13,Denver Health Medical Center
6.58,2.34,38.23421,-104.62292,CO,28000,7000,50,53,29,Centura Health-St Mary Corwin Medical Center
8.00,2.58,39.74615,-104.96682,CO,35000,8000,66,47,17,Presbyterian/St Luke'S Medical Center
7.21,2.33,39.71712,-105.12874,CO,31000,7000,33,67,16,Centura Health-St Anthony Hospital
5.91,2.30,38.28184,-104.61256,CO,25000,7000,66,68,29,Parkview Medical Center Inc
7.82,2.36,38.83903,-104.80024,CO,34000,7000,66,68,33,Memorial Hospital Central
6.00,2.47,39.09046,-108.56190,CO,25000,8000,50,48,57,St Marys Hospital And Medical Center
7.20,3.15,39.74234,-104.84156,CO,31000,11000,66,66,69,University Of Colorado Hospital Anschutz Inpatient
6.91,2.41,39.74601,-104.96909,CO,30000,8000,66,71,90,Exempla Saint Joseph Hospital
5.10,2.17,40.41320,-105.05139,CO,21000,6000,50,92,69,Mckee Medical Center
6.06,2.19,38.86559,-104.82182,CO,26000,6000,50,70,37,Centura Health-Penrose St Francis Health Services
8.62,3.38,39.73231,-104.93396,CO,38000,12000,75,50,32,Rose Medical Center
9.37,2.35,39.65399,-104.98116,CO,42000,7000,33,47,17,Swedish Medical Center
8.86,2.36,39.67005,-104.97490,CO,40000,7000,50,75,79,Centura Health-Porter Adventist Hospital
8.51,2.38,39.68859,-104.83205,CO,38000,7000,50,61,13,Medical Center Of Aurora The
6.45,2.36,39.84960,-105.01825,CO,28000,7000,50,61,48,Centura Health-St Anthony North Hospital
9.90,2.26,39.52910,-104.87121,CO,45000,7000,50,76,79,Sky Ridge Medical Center
10.81,2.17,39.57629,-104.98610,CO,49000,6000,50,78,54,Centura Health-Littleton Adventist Hospital
3.35,2.13,40.45184,-105.19608,CO,12000,6000,50,78,44,Medical Center Of The Rockies
7.85,2.88,41.30978,-72.93806,CT,35000,10000,66,57,8,Hospital Of St Raphael
6.35,2.86,41.77507,-72.69941,CT,27000,10000,50,53,85,St Francis Hospital & Medical Center
7.64,2.46,41.55959,-73.05941,CT,33000,8000,33,57,69,Waterbury Hospital
12.62,3.41,41.05562,-73.55390,CT,58000,13000,50,52,10,Stamford Hospital
3.23,2.44,41.33722,-72.10380,CT,12000,8000,50,72,92,Lawrence & Memorial Hospital
7.81,3.18,41.18881,-73.16645,CT,34000,11000,50,51,21,Bridgeport Hospital
3.21,2.43,41.79153,-73.13382,CT,12000,8000,25,78,54,Charlotte Hungerford Hospital
4.39,2.38,41.86708,-72.45056,CT,17000,7000,50,90,13,Rockville General Hospital
3.60,2.73,41.55241,-73.03554,CT,13000,9000,50,56,39,Saint Marys Hospital
5.12,2.40,41.54874,-72.80148,CT,21000,7000,50,60,79,Midstate Medical Center
7.49,2.52,41.03431,-73.63020,CT,33000,8000,50,48,63,Greenwich Hospital Association
7.07,2.54,41.55473,-72.64872,CT,31000,8000,33,61,92,Middlesex Hospital
4.10,2.88,41.71622,-72.22399,CT,16000,10000,0,0,0,Windham Comm Mem Hosp & Hatch Hosp
8.30,3.36,41.30400,-72.93502,CT,37000,12000,66,41,3,Yale-New Haven Hospital
3.96,2.39,41.54301,-72.08799,CT,15000,7000,50,70,44,William W Backus Hospital
6.17,3.02,41.75412,-72.67927,CT,26000,11000,50,47,9,Hartford Hospital
6.14,2.85,41.20049,-73.20281,CT,26000,10000,66,78,63,St Vincent'S Medical Center
4.66,2.32,41.67540,-72.93617,CT,19000,7000,50,73,33,Bristol Hospital
5.42,2.68,41.33493,-73.08978,CT,22000,9000,50,77,92,Griffin Hospital
4.81,2.78,41.40474,-73.44739,CT,19000,9000,50,66,57,Danbury Hospital
6.22,2.70,41.11147,-73.42010,CT,26000,9000,50,72,92,Norwalk Hospital Association
5.46,2.67,41.66107,-72.78671,CT,23000,9000,50,52,8,Hospital Of Central Connecticut The
4.70,3.24,41.73545,-72.79489,CT,19000,12000,25,60,8,John Dempsey Hospital
4.71,2.64,39.69005,-75.68408,DE,19000,9000,66,58,39,Christiana Care Health Services Inc.
3.79,2.48,39.74954,-75.56662,DE,14000,8000,50,81,79,St Francis Hospital
3.88,2.62,39.15135,-75.52309,DE,15000,9000,50,58,90,Bayhealth - Kent General Hospital
3.32,2.55,38.64231,-75.60660,DE,12000,8000,0,0,0,Nanticoke Memorial Hospital
8.26,2.80,38.77159,-75.14210,DE,37000,9000,50,90,81,Beebe Medical Center
9.32,3.02,38.90106,-77.05079,DC,42000,11000,50,50,13,George Washington Univ Hospital
10.55,5.06,38.91770,-77.02193,DC,48000,21000,50,66,0,Howard University Hospital
8.99,3.35,38.91221,-77.07588,DC,40000,12000,66,65,0,Georgetown University Hospital
5.32,2.87,38.94397,-76.99040,DC,22000,10000,50,57,24,Providence Hospital
7.13,2.87,38.92944,-77.01473,DC,31000,10000,33,58,1,Washington Hospital Center
7.98,2.99,30.34913,-81.66391,FL,35000,10000,50,62,0,Shands Jacksonville Medical Center
7.35,2.40,26.50479,-80.06979,FL,32000,7000,50,53,99,Bethesda Memorial Hospital
8.18,2.55,28.52517,-81.37729,FL,36000,8000,66,47,29,Orlando Health
7.51,2.33,28.57345,-81.36990,FL,33000,7000,83,66,24,Florida Hospital
11.94,2.62,25.68309,-80.34038,FL,55000,9000,50,62,85,Baptist Hospital Of Miami Inc
10.73,2.65,25.78846,-80.21644,FL,49000,9000,83,56,0,University Of Miami Hospital
5.61,2.26,26.62849,-81.87423,FL,23000,7000,66,52,16,Lee Memorial Hospital
6.65,2.43,29.20117,-81.05828,FL,29000,8000,66,76,79,Halifax Health Medical Center
6.43,2.19,26.15053,-81.79919,FL,27000,6000,66,62,39,Naples Community Hospital
6.82,2.11,28.08771,-80.61362,FL,29000,6000,66,58,17,Holmes Regional Medical Center
8.18,3.89,25.79143,-80.21250,FL,36000,15000,83,48,4,Jackson Memorial Hospital
7.33,2.10,28.83363,-82.33561,FL,32000,6000,50,55,44,Citrus Memorial Hospital
5.21,2.33,30.47650,-87.21219,FL,21000,7000,50,41,39,Sacred Heart Hospital
4.07,2.16,30.15963,-85.64818,FL,16000,6000,66,73,43,Bay Medical Center
5.31,2.17,28.63051,-80.82437,FL,22000,6000,50,68,98,Parrish Medical Center
13.41,2.82,25.86166,-80.21398,FL,62000,10000,50,83,69,North Shore Medical Center
6.25,2.30,28.54917,-81.52746,FL,27000,7000,50,70,57,Health Central
8.45,2.47,27.76332,-82.64325,FL,37000,8000,50,82,20,Bayfront Medical Center Inc
10.55,2.66,25.81317,-80.13996,FL,48000,9000,66,47,24,Mount Sinai Medical Center
7.00,2.30,27.49789,-82.56220,FL,30000,7000,50,55,29,Manatee Memorial Hospital
7.39,2.53,26.01867,-80.17981,FL,32000,8000,83,63,76,Memorial Regional Hospital
7.36,2.82,26.10282,-80.14245,FL,32000,10000,75,76,97,Broward Health Broward General Medical Center
4.36,2.16,30.30835,-81.68919,FL,17000,6000,50,68,82,St Vincent'S Medical Center
4.77,2.20,29.04263,-81.31635,FL,19000,6000,50,86,98,Florida Hospital Deland
8.01,2.10,28.26092,-82.18802,FL,35000,6000,50,62,88,Florida Hospital Zephyrhills
8.41,2.12,26.94042,-82.04094,FL,37000,6000,50,72,85,Charlotte Regional Medical Center
8.75,2.18,28.55140,-81.72120,FL,39000,6000,0,0,0,South Lake Hospital
6.27,2.13,28.02768,-81.72466,FL,27000,6000,50,62,2,Winter Haven Hospital
6.00,2.10,28.13321,-82.75839,FL,25000,6000,0,0,0,Helen Ellis Memorial Hospital
5.91,2.22,28.82358,-81.71133,FL,25000,7000,50,71,48,Florida Hospital Waterman
9.98,2.54,25.74067,-80.21244,FL,45000,8000,0,0,0,Mercy Hospital Inc
5.82,2.20,29.17594,-82.13898,FL,24000,6000,50,60,94,Munroe Regional Medical Center
5.15,2.18,27.78088,-82.65126,FL,21000,6000,50,68,57,St Anthony'S Hospital
5.27,2.16,29.24333,-81.10760,FL,22000,6000,50,67,95,Florida Hospital Memorial Medical Center
8.02,2.16,26.18711,-80.11941,FL,35000,6000,83,57,37,Holy Cross Hospital Inc
5.83,2.40,27.98242,-82.49025,FL,24000,7000,66,60,29,St Joseph'S Hospital
6.74,2.14,26.98905,-82.09559,FL,29000,6000,50,68,43,Peace River Regional Medical Center
9.97,2.26,26.59805,-80.09271,FL,45000,7000,100,60,27,Jfk Medical Center
5.50,2.14,28.80659,-81.86906,FL,23000,6000,33,67,24,Leesburg Regional Medical Center
5.85,2.24,26.27623,-80.12220,FL,25000,7000,75,72,57,Broward Health North Broward Medical Center
5.49,2.17,27.31827,-82.53140,FL,23000,6000,33,37,69,Sarasota Memorial Hospital
7.90,2.29,30.31525,-81.66398,FL,35000,7000,66,47,12,Baptist Medical Center
6.55,2.31,29.86371,-81.31749,FL,28000,7000,66,76,29,Flagler Hospital
5.30,2.16,28.33522,-80.72319,FL,22000,6000,50,63,97,Wuesthoff Medical Center  Rockledge
5.33,2.16,30.43066,-87.23191,FL,22000,6000,50,72,17,Baptist Hospital
8.78,2.14,27.89590,-81.56547,FL,39000,6000,0,0,0,Lake Wales Medical Center
3.20,2.19,27.65832,-80.39307,FL,11000,6000,66,76,99,Indian River Medical Center
6.66,2.25,26.61563,-81.65945,FL,29000,7000,50,78,33,Lehigh Regional Medical Center
5.57,2.20,27.50001,-81.43962,FL,23000,6000,50,61,85,Florida Hospital Heartland Medical Center
8.04,2.31,28.29946,-81.41021,FL,35000,7000,50,63,51,Osceola Regional Medical Center
4.99,3.00,29.64155,-82.34844,FL,20000,10000,66,53,29,Shands Hospital At The University Of Florida
7.65,2.09,30.27449,-81.40071,FL,34000,6000,66,93,69,Baptist Medical Center  Beaches
6.53,2.42,29.47897,-81.18915,FL,28000,8000,50,51,39,Florida Hospital Flagler
8.91,2.10,30.73540,-86.56171,FL,40000,6000,50,90,97,North Okaloosa Medical Center
6.90,2.69,25.47971,-80.43038,FL,30000,9000,50,86,69,Homestead Hospital
4.45,2.16,27.95192,-82.80379,FL,18000,6000,66,62,9,Morton Plant Hospital
7.94,2.77,27.93740,-82.45927,FL,35000,9000,66,66,0,Tampa General Hospital
8.26,2.29,25.96994,-80.14533,FL,37000,7000,50,63,79,Aventura Hospital And Medical Center
5.11,2.29,30.45726,-84.26175,FL,21000,7000,66,57,63,Tallahassee Memorial Healthcare
6.51,2.24,28.18120,-81.64018,FL,28000,7000,50,72,57,Heart Of Florida Regional Medical Center
5.29,2.90,30.26389,-81.44283,FL,22000,10000,83,62,90,Mayo Clinic
5.98,2.21,28.06172,-81.95304,FL,25000,7000,50,52,3,Lakeland Regional Medical Center
5.98,2.21,28.81611,-81.28351,FL,25000,7000,50,56,97,Central Florida Regional Hospital
12.35,2.79,26.12647,-80.20519,FL,57000,9000,50,81,6,Plantation General Hospital
7.20,2.19,26.35875,-80.10203,FL,31000,6000,66,46,43,Boca Raton Regional Hospital
7.17,2.18,28.07111,-82.42342,FL,31000,6000,50,68,37,Florida Hospital Tampa
8.94,2.17,26.83035,-80.08655,FL,40000,6000,100,56,37,Palm Beach Gardens Medical Center
5.85,2.12,28.36005,-80.62309,FL,25000,6000,50,87,57,Cape Canaveral Hospital
11.47,2.19,30.28793,-81.60103,FL,53000,6000,33,48,24,Memorial Hospital Jacksonville
12.81,2.76,25.88563,-80.32635,FL,59000,9000,66,78,90,Palmetto General Hospital
7.44,2.16,26.26259,-80.20292,FL,32000,6000,50,51,97,Northwest Medical Center
11.67,2.15,28.19342,-82.46987,FL,53000,6000,50,77,43,Medical Center Of Trinity
6.77,2.27,26.20644,-80.11086,FL,29000,7000,33,88,99,Broward Health Imperial Point Medical Center
8.23,2.19,29.66085,-82.41172,FL,36000,6000,33,52,17,North Florida Regional Medical Center
9.95,2.68,25.73195,-80.38580,FL,45000,9000,33,51,79,Kendall Regional Medical Center
10.25,2.06,29.17550,-82.13680,FL,46000,6000,83,55,85,Ocala Regional Medical Center
8.97,2.11,27.48213,-82.62126,FL,40000,6000,50,75,69,Blake Medical Center
8.96,2.21,27.84359,-80.48849,FL,40000,7000,0,0,0,Sebastian River Medical Center
6.65,2.34,26.52735,-81.83337,FL,29000,7000,50,58,63,Gulf Coast Medical Center Lee Mem Health System
12.24,2.42,30.45448,-86.63362,FL,56000,8000,50,72,63,Fort Walton Beach Medical Center
13.10,2.19,26.21219,-80.25478,FL,61000,6000,0,0,0,University Hospital And Medical Center
13.29,2.36,30.16550,-81.73775,FL,62000,7000,33,68,57,Orange Park Medical Center
11.61,2.20,26.12354,-80.25951,FL,53000,6000,50,57,74,Westside Regional Medical Center
7.79,2.11,30.51624,-87.21856,FL,34000,6000,50,65,4,West Florida Hospital
5.32,2.25,29.64481,-81.69431,FL,22000,7000,50,78,48,Putnam Community Medical Center
9.09,2.22,26.98884,-82.09877,FL,41000,7000,50,80,57,Fawcett Memorial Hospital
16.02,2.36,27.82545,-82.70122,FL,75000,7000,50,65,33,Northside Hospital
9.57,2.43,30.18657,-85.66513,FL,43000,8000,50,63,99,Gulf Coast Medical Center
8.77,2.28,27.93259,-82.28759,FL,39000,7000,66,67,21,Brandon Regional Hospital
5.66,2.10,26.63958,-81.94164,FL,24000,6000,50,52,21,Cape Coral Hospital
12.78,2.42,27.43392,-80.34350,FL,59000,8000,83,53,29,Lawnwood Regional Medical Center & Heart Institute
8.45,2.16,27.91458,-82.80382,FL,38000,6000,50,48,24,Largo Medical Center
7.24,2.19,26.92138,-80.09708,FL,32000,6000,50,61,54,Jupiter Medical Center
5.77,2.25,30.47616,-84.23140,FL,24000,7000,50,66,57,Capital Regional Medical Center
7.94,2.18,28.36128,-82.68883,FL,35000,6000,66,67,90,Regional Medical Center Bayonet Point
11.85,2.21,26.43709,-80.12728,FL,54000,7000,83,72,92,Delray Medical Center
8.61,2.25,27.71350,-82.36512,FL,38000,7000,33,66,33,South Bay Hospital
9.65,2.29,27.28861,-80.29431,FL,43000,7000,50,65,54,St Lucie Medical Center
10.03,2.08,28.53585,-82.53404,FL,45000,6000,66,71,57,Oak Hill Hospital
11.12,2.49,26.01394,-80.30980,FL,51000,8000,66,71,63,Memorial Hospital West
9.39,2.14,26.21388,-81.73257,FL,42000,6000,33,80,33,Physicians Regional Medical Center - Pine Ridge
7.96,2.30,26.70181,-80.05055,FL,35000,7000,50,58,63,Good Samaritan Medical Center
9.17,2.72,26.75635,-80.06322,FL,41000,9000,100,85,74,St Mary'S Medical Center
4.65,2.17,26.08155,-80.36449,FL,19000,6000,100,57,48,Cleveland Clinic Hospital
6.29,2.11,28.94952,-81.95843,FL,27000,6000,33,80,94,Villages Regional Hospital The
10.59,2.44,25.72132,-80.27116,FL,48000,8000,0,0,0,Doctors Hospital Inc
8.84,2.07,28.24311,-81.30279,FL,39000,6000,50,86,41,St Cloud Regional Medical Center
5.78,2.07,30.25377,-81.58270,FL,24000,6000,50,77,29,St Vincent'S Medical Center Southside
4.31,2.30,34.78963,-84.98398,GA,17000,7000,50,76,10,Hamilton Medical Center
3.32,2.36,32.88710,-84.33393,GA,12000,7000,0,0,0,Upson Regional Medical Center
4.43,2.17,31.22516,-82.34898,GA,18000,6000,50,93,33,Satilla Regional Medical Center
7.03,2.19,34.17863,-84.13992,GA,30000,6000,66,63,46,Northside Hospital Forsyth
4.06,2.24,33.94791,-83.40531,GA,16000,7000,50,78,95,St Mary'S Hospital
7.05,2.62,31.59023,-84.15756,GA,31000,9000,50,53,11,Phoebe Putney Memorial Hospital
6.91,2.19,34.24569,-84.49068,GA,30000,6000,50,72,10,Northside Hospital Cherokee
5.23,2.63,33.79230,-84.32107,GA,22000,9000,50,41,8,Emory University Hospital
4.94,2.29,33.56970,-85.07276,GA,20000,7000,25,78,90,Tanner Medical Center - Carrollton
4.21,2.25,33.03204,-85.05781,GA,16000,7000,50,78,95,West Georgia Medical Center
7.33,2.32,32.02825,-81.09977,GA,32000,7000,83,81,1,Candler Hospital
4.04,2.58,31.17425,-81.48459,GA,16000,8000,50,61,17,Southeast Georgia Health System- Brunswick Campus
5.33,2.29,33.47096,-81.98176,GA,22000,7000,50,51,21,University Hospital
5.49,2.35,34.30335,-83.81737,GA,23000,7000,66,58,44,Northeast Georgia Medical Center Inc
7.75,2.29,34.19990,-84.79378,GA,34000,7000,50,62,39,Cartersville Medical Center
8.07,2.32,33.23886,-84.26706,GA,36000,7000,33,78,69,Spalding Regional Medical Center
4.33,3.02,33.47091,-81.98988,GA,17000,11000,66,45,37,Medical College Of Ga Hospitals And Clinics
7.37,2.33,33.96770,-84.55011,GA,32000,7000,66,62,44,Wellstar Kennestone Hospital
5.15,2.47,32.03185,-81.09158,GA,21000,8000,66,61,24,Memorial Health Univ Med Cen Inc
5.96,2.22,30.82614,-83.97393,GA,25000,7000,50,75,48,John D Archbold Memorial Hospital
5.81,2.13,31.98515,-81.15475,GA,24000,6000,66,72,33,St Joseph'S Hospital - Savannah
5.33,2.44,34.26000,-85.17000,GA,22000,8000,50,67,88,Floyd Medical Center
5.90,2.79,32.46602,-84.98695,GA,25000,9000,33,86,63,Medical Center The
4.85,2.36,32.61642,-83.63065,GA,20000,7000,50,73,74,Houston Medical Center
4.88,2.38,33.96117,-83.39832,GA,20000,7000,50,68,92,Athens Regional Medical Center
5.52,2.33,32.41483,-81.76990,GA,23000,7000,50,82,39,East Georgia Regional Medical Center
3.88,2.41,33.78956,-84.28077,GA,15000,8000,50,83,11,Dekalb Medical Center
4.34,2.52,33.76810,-84.38616,GA,17000,8000,33,45,9,Emory University Hospital Midtown
4.11,2.96,33.75205,-84.38272,GA,16000,10000,33,56,0,Grady Memorial Hospital
4.51,2.13,33.90877,-84.35180,GA,18000,6000,50,55,3,Saint Joseph'S Hospital Of Atlanta Inc
6.82,2.28,33.81003,-84.39568,GA,29000,7000,33,57,44,Piedmont Hospital
3.86,2.34,33.96351,-84.01769,GA,15000,7000,50,90,44,Gwinnett Medical Center
4.59,2.10,31.50971,-82.86341,GA,18000,6000,0,0,0,Coffee Regional Medical Center
4.70,2.42,33.68072,-84.00200,GA,19000,8000,50,56,33,Rockdale Medical Center
4.28,2.32,32.18558,-83.17874,GA,17000,7000,0,0,0,Dodge County Hospital
5.75,2.32,31.47069,-83.50473,GA,24000,7000,16,80,32,Tift Regional Medical Center
3.50,2.14,31.97683,-83.78280,GA,13000,6000,0,0,0,Crisp Regional Hospital
5.25,2.56,32.83041,-83.63476,GA,22000,8000,66,48,44,Medical Center Of Central Georgia
12.14,2.87,33.76372,-84.37315,GA,56000,10000,50,71,11,Atlanta Medical Center
6.03,2.28,30.86250,-83.28630,GA,25000,7000,66,67,74,South Georgia Medical Center
6.13,2.48,32.54026,-82.95741,GA,26000,8000,0,0,0,Fairview Park Hospital
3.91,2.17,32.50679,-84.95933,GA,15000,6000,83,67,69,St Francis Hospital Inc
7.42,2.51,33.85638,-84.60446,GA,32000,8000,50,56,33,Wellstar Cobb Hospital
4.34,2.28,33.08014,-83.23210,GA,17000,7000,50,88,4,Oconee Regional Medical Center
7.06,2.21,33.90903,-84.35410,GA,31000,7000,66,63,19,Northside Hospital
5.30,2.27,32.84705,-83.61823,GA,22000,7000,66,62,9,Coliseum Medical Center
5.63,2.45,33.57843,-84.38897,GA,23000,8000,50,78,24,Southern Regional Medical Center
4.92,2.15,34.25704,-85.16467,GA,20000,6000,50,87,24,Redmond Regional Medical Center
6.28,2.36,33.48259,-82.09038,GA,27000,7000,50,58,8,Doctors Hospital
6.25,2.24,33.73938,-84.73111,GA,27000,7000,50,91,57,Wellstar Douglas Hospital
4.48,2.28,32.48040,-84.98468,GA,18000,7000,0,0,0,Doctors Hospital
5.32,2.26,33.51144,-84.22200,GA,22000,7000,50,91,92,Henry Medical Center Inc
6.03,2.42,33.87683,-84.02136,GA,26000,8000,50,77,44,Emory Eastside Medical Center
7.42,2.19,32.86625,-83.69421,GA,32000,6000,0,0,0,Coliseum Northside Hospital
4.82,2.10,33.45252,-84.50697,GA,19000,6000,50,60,33,Piedmont Fayette Hospital
14.48,2.63,33.68000,-84.42685,GA,67000,9000,50,85,28,South Fulton Medical Center
3.35,2.20,33.70365,-84.14697,GA,12000,6000,50,83,78,Dekalb Medical Center At Hillandale
5.75,2.23,33.39118,-84.81563,GA,24000,7000,50,88,5,Piedmont Newnan Hospital Inc
4.31,2.08,34.06670,-84.17643,GA,17000,6000,50,77,88,Emory Johns Creek Hospital
6.92,3.11,21.30780,-157.85505,HI,30000,11000,66,68,44,The Queens Medical Center
6.19,3.83,20.88519,-156.48928,HI,26000,15000,66,88,20,Maui Memorial Medical Center
5.44,3.12,19.71761,-155.11327,HI,23000,11000,50,82,67,Hilo Medical Center
5.21,2.81,21.38095,-157.75759,HI,21000,10000,0,0,0,Castle Medical Center
5.84,2.56,21.32239,-157.85662,HI,25000,8000,50,73,4,Kuakini Medical Center
7.22,2.54,21.30226,-157.85092,HI,31000,8000,75,83,16,Straub Clinic And Hospital
7.77,3.05,21.38328,-157.93828,HI,34000,11000,0,0,0,Pali Momi Medical Center
3.70,2.20,42.59072,-114.49627,ID,14000,7000,50,63,29,St Lukes Magic Valley Rmc
3.99,2.33,43.61218,-116.19234,ID,15000,7000,66,61,16,St Lukes Regional Medical Center
5.17,2.35,43.61359,-116.25484,ID,21000,7000,66,78,24,St Alphonsus Regional Medical Center
4.88,2.21,43.55374,-116.57267,ID,20000,7000,0,0,0,Saint Alphonsus Medical Center - Nampa
7.15,2.58,43.46987,-111.99208,ID,31000,8000,66,66,57,Eastern Idaho Regional Medical Center
4.79,2.80,42.87331,-112.42180,ID,19000,9000,33,76,39,Portneuf Medical Center
3.85,2.25,47.69645,-116.79476,ID,15000,7000,50,71,48,Kootenai Medical Center
8.18,2.45,38.90068,-90.16026,IL,36000,8000,50,81,24,Alton Memorial Hospital
6.43,2.26,41.52896,-88.13550,IL,27000,7000,50,75,82,Provena St Joseph Medical Center
14.96,3.17,41.91082,-87.84451,IL,70000,11000,33,81,57,Loyola Gottlieb Memorial Hospital
6.37,2.50,42.06550,-87.68428,IL,27000,8000,33,55,57,Evanston Hospital
5.88,2.53,39.93563,-91.39833,IL,25000,8000,50,55,92,Blessing Hospital
6.66,3.18,41.86011,-87.69571,IL,29000,11000,33,66,0,Mt Sinai Hospital Medical Center
4.74,2.32,41.11319,-88.83500,IL,19000,7000,0,0,0,St Marys Hospital
5.99,2.34,42.07012,-88.33180,IL,25000,7000,50,82,24,Sherman Hospital
3.73,2.21,39.12680,-88.55059,IL,14000,7000,0,0,0,St Anthonys Memorial Hospital
3.78,2.24,38.52908,-89.11604,IL,14000,7000,50,86,17,St Marys Hospital
7.19,2.24,40.95560,-90.36618,IL,31000,7000,0,0,0,Galesburg Cottage Hospital
4.10,2.15,38.32292,-88.91026,IL,16000,6000,50,81,90,Good Samaritan Regional Hlth Center
5.76,2.62,41.72636,-87.56727,IL,24000,9000,50,65,74,Advocate Trinity Hospital
6.62,2.84,41.89141,-87.77618,IL,28000,10000,50,72,92,West Suburban Medical Center
5.91,2.45,42.05624,-87.74012,IL,25000,8000,50,75,85,Skokie Hospital
6.62,2.14,38.90787,-90.17207,IL,28000,6000,0,0,0,Saint Anthony'S Health Center
7.69,2.53,39.80726,-89.64496,IL,34000,8000,50,58,79,St Johns Hospital
5.02,2.62,41.83195,-87.79266,IL,21000,9000,50,78,57,Macneal  Hospital
5.63,2.39,39.74629,-90.25907,IL,24000,7000,0,0,0,Passavant Area Hospital
6.02,2.20,41.66900,-87.81414,IL,25000,6000,50,72,95,Palos Community Hospital
5.88,2.54,41.87870,-87.80322,IL,25000,8000,50,70,85,Rush Oak Park Hospital
6.30,4.12,41.79660,-87.88627,IL,27000,16000,83,63,37,Adventist La Grange Memorial Hospital
4.98,2.37,40.70200,-89.59222,IL,20000,7000,66,57,3,Saint Francis Medical Center
8.01,2.77,42.02578,-87.68371,IL,35000,9000,50,75,37,Rhc St Francis Hospital
7.93,2.84,41.96698,-87.64941,IL,35000,10000,50,70,43,Louis A Weiss Memorial Hospital
4.52,2.85,41.87259,-87.76181,IL,18000,10000,25,87,72,Loretto Hospital
8.58,2.46,42.37840,-87.83329,IL,38000,8000,50,73,62,Vista Medical Center East
10.70,3.68,41.78829,-87.60485,IL,49000,14000,66,66,11,The University Of Chicago Medical Center
6.91,2.37,40.11696,-88.21506,IL,30000,7000,33,63,13,Carle Foundation Hospital
5.99,2.26,40.13811,-87.64569,IL,25000,7000,0,0,0,Provena United Samaritans Medctr-Logan
4.58,2.22,41.36897,-88.42537,IL,18000,7000,0,0,0,Morris Hospital & Healthcare Centers
4.99,2.90,41.77813,-87.63330,IL,20000,10000,50,100,78,St Bernard Hospital
6.10,2.30,40.11739,-88.22714,IL,26000,7000,50,62,21,Provena Covenant Medical Center- Urbana
12.09,2.74,41.97532,-87.69958,IL,56000,9000,50,85,51,Swedish Covenant Hospital
6.39,2.35,42.31832,-88.27920,IL,27000,7000,50,83,24,Centegra Health System - Mc Henry Hospital
9.18,2.88,41.98743,-87.81440,IL,41000,10000,66,62,69,Resurrection Medical Center
4.86,2.40,41.65880,-87.67729,IL,20000,7000,50,65,94,Metrosouth Medical Center
7.60,3.31,41.87497,-87.66927,IL,33000,12000,50,42,33,Rush University Medical Center
6.12,2.22,41.80555,-87.92059,IL,26000,7000,50,67,54,Hinsdale Hospital
3.29,3.25,41.87381,-87.67421,IL,12000,12000,83,55,16,John H Stroger Jr Hospital
13.76,2.46,38.70148,-90.14382,IL,64000,8000,0,0,0,Gateway Regional Medical Center
6.84,2.37,40.49639,-88.99106,IL,29000,7000,0,0,0,Bromenn Healthcare
5.12,2.46,41.76946,-87.69239,IL,21000,8000,50,82,94,Holy Cross Hospital
4.33,2.25,39.86644,-88.96090,IL,17000,7000,50,60,69,Decatur Memorial Hospital
5.77,2.17,41.32884,-89.19262,IL,24000,6000,0,0,0,St Margarets Hospital
6.79,2.55,39.80893,-89.65530,IL,29000,8000,83,57,11,Memorial Medical Center
4.97,3.61,41.86927,-87.67052,IL,20000,13000,50,76,29,University Of Illinois Hospital
6.21,2.32,41.12049,-87.87187,IL,26000,7000,50,68,97,Provena St Marys Hospital
4.04,2.91,41.84639,-87.62345,IL,16000,10000,25,46,39,Mercy Hospital And Medical Center
5.68,2.19,40.48254,-88.95519,IL,24000,6000,50,91,29,St Joseph Medical Center
3.82,2.22,37.72790,-89.22058,IL,15000,7000,50,63,90,Memorial Hospital Of Carbondale
2.52,2.24,40.76601,-87.73169,IL,8000,7000,0,0,0,Iroquois Memorial Hospital
6.16,2.62,41.52283,-87.71111,IL,26000,9000,50,75,33,Franciscan St James Health
7.86,2.40,41.78566,-88.32886,IL,35000,7000,50,72,48,Provena Mercy Medical Center
5.57,2.26,42.27597,-88.40019,IL,23000,7000,50,71,56,Centegra Health System - Woodstock Hospital
11.25,3.13,41.75746,-87.58559,IL,51000,11000,0,0,0,Jackson Park Hospital
6.09,2.53,41.72094,-87.69220,IL,26000,8000,16,63,69,Little Company Of Mary Hospital
7.27,2.91,41.90414,-87.68254,IL,32000,10000,75,50,54,St Mary & Elizabeth Med Ctr-Division Campus
6.04,2.63,41.74948,-87.56909,IL,26000,9000,50,87,72,South Shore Hospital
10.12,3.45,41.93641,-87.65295,IL,46000,13000,50,77,85,Advocate Illinois Masonic Medical Center
7.45,2.37,38.55020,-90.02146,IL,33000,7000,66,81,21,Memorial Hospital
5.46,2.39,41.12572,-87.88526,IL,23000,7000,50,72,81,Riverside Medical Center
4.48,2.19,38.51081,-89.99014,IL,18000,6000,50,65,6,St Elizabeth Hospital
4.94,2.37,41.60726,-87.66060,IL,20000,7000,50,65,76,Ingalls Memorial Hospital
6.12,2.75,41.97310,-87.67090,IL,26000,9000,0,0,0,Methodist Hospital Of Chicago
7.02,2.19,41.86362,-87.93567,IL,30000,6000,50,76,92,Elmhurst Memorial Hospital
8.96,2.31,42.27447,-87.95764,IL,40000,7000,50,70,79,Advocate Condell Medical Center
7.35,3.10,41.90078,-87.69925,IL,32000,11000,50,86,69,Norwegian-American Hospital
6.48,2.81,41.72031,-87.73249,IL,28000,10000,50,57,74,Advocate Christ Hospital & Medical Center
7.34,2.46,40.70065,-89.59505,IL,32000,8000,50,78,48,Methodist Medical Center Of Illinois
6.36,2.16,41.88566,-88.34311,IL,27000,6000,50,81,4,Delnor Community Hospital
4.42,2.26,41.54446,-87.98379,IL,17000,7000,50,68,88,Silver Cross Hospital  And Medical Centers
9.76,2.18,42.03576,-88.32575,IL,44000,6000,50,65,99,Provena - Saint Joseph Hospital
6.12,2.61,42.03837,-87.84820,IL,26000,9000,83,77,69,Advocate Lutheran General Hospital
6.80,3.00,41.93418,-87.63579,IL,29000,10000,50,61,29,Saint Joseph Hospital
7.40,2.42,42.26584,-89.07428,IL,32000,8000,50,65,76,Swedish American Hospital
8.11,2.37,41.76076,-88.15016,IL,36000,7000,50,68,29,Edward Hospital
6.02,2.15,42.26634,-89.00900,IL,25000,6000,50,50,29,Saint Anthony Medical Center
5.61,2.42,42.29844,-89.09897,IL,23000,8000,50,87,56,Rockford Memorial Hospital
6.66,2.18,41.87269,-88.15684,IL,29000,6000,66,62,88,Central Dupage Hospital
5.48,2.50,41.56720,-87.69566,IL,23000,8000,50,80,63,Advocate South Suburban Hospital
8.34,2.57,41.94560,-87.76897,IL,37000,8000,50,75,21,Our Lady Of The Resurrection Med Ctr
6.38,2.23,42.06732,-87.99368,IL,27000,7000,66,67,57,Northwest Community Hospital
6.47,2.20,42.00413,-88.01745,IL,28000,6000,66,78,88,Alexian Brothers Medical Center
5.86,3.01,41.86110,-87.83404,IL,25000,10000,66,46,4,Loyola University Medical Center
3.49,2.18,41.48200,-90.57158,IL,13000,6000,50,58,63,Trinity Rock Island
8.17,2.87,41.89477,-87.62131,IL,36000,10000,50,61,94,Northwestern Memorial Hospital
5.62,2.13,41.81791,-88.00907,IL,23000,6000,50,86,95,Advocate Good Samaritan Hospital
3.97,2.08,38.73818,-89.94728,IL,15000,6000,50,87,29,Anderson Hospital
5.99,2.28,42.05260,-88.14173,IL,25000,7000,50,80,57,St Alexius Medical Center
5.20,2.21,42.19586,-88.17286,IL,21000,7000,50,80,95,Advocate Good Shepherd Hospital
6.27,2.33,41.68062,-88.08319,IL,27000,7000,0,0,0,Adventist Bolingbrook Hospital
4.75,2.46,41.59920,-87.35764,IN,19000,8000,50,65,94,Methodist Hospitals Inc
5.43,2.28,40.42687,-86.88197,IN,23000,7000,0,0,0,Franciscan St Elizabeth Health - Lafayette Central
4.56,2.47,41.61514,-87.52413,IN,18000,8000,50,81,74,Franciscan St Margaret Health - Hammond
6.18,2.14,41.61055,-86.72511,IN,26000,6000,0,0,0,Indiana University Health La Porte Hospital
4.27,2.07,40.44665,-86.12707,IN,17000,6000,50,80,54,Howard Regional Health System
4.77,2.44,41.63466,-87.44901,IN,19000,8000,50,78,88,St Catherine Hospital Inc
3.45,2.18,38.28244,-85.74923,IN,13000,6000,50,83,48,Clark Memorial Hospital
4.55,2.39,41.70877,-86.17026,IN,18000,7000,50,88,57,Saint Joseph Regional Medical Center
4.96,2.28,41.70639,-86.89936,IN,20000,7000,0,0,0,Franciscan St Anthony Health - Michigan City
5.90,2.35,41.03874,-85.24876,IN,25000,7000,66,63,32,Lutheran Hospital Of Indiana
8.49,2.72,41.70568,-85.93404,IN,38000,9000,66,53,69,Elkhart General Hospital
4.88,2.29,41.04659,-85.10906,IN,20000,7000,83,60,44,Parkview Regional Medical Center
5.37,2.26,39.48518,-87.40893,IN,22000,7000,50,62,33,Union Hospital Inc
4.16,3.12,39.78091,-86.17629,IN,16000,11000,33,70,27,William N Wishard Memorial Hospital
5.83,2.25,39.72432,-86.10055,IN,24000,7000,0,0,0,Franciscan St Francis Health - Beech Grove
4.61,2.25,41.51266,-87.26125,IN,18000,7000,50,78,85,St Mary Medical Center Inc
5.54,2.25,41.46729,-87.05130,IN,23000,7000,50,75,63,Porter Valparaiso Hospital
3.83,2.08,38.67313,-87.53370,IN,15000,6000,50,72,81,Good Samaritan Hospital
4.20,2.12,38.30195,-85.83409,IN,16000,6000,66,85,85,Floyd Memorial Hospital And Health Services
7.19,2.20,39.41951,-87.40898,IN,31000,6000,50,92,9,Terre Haute Regional Hospital
3.65,2.38,39.86405,-84.88413,IN,14000,7000,100,63,27,Reid Hospital & Health Care Services
7.02,2.56,39.16006,-86.54038,IN,30000,8000,50,56,24,Indiana University Health Bloomington Hospital
6.45,3.06,39.79009,-86.16260,IN,28000,11000,50,51,79,Indiana University Health
9.40,2.97,41.68479,-86.25217,IN,42000,10000,66,60,8,Memorial Hospital Of South Bend
4.13,2.33,39.78704,-86.07673,IN,16000,7000,50,82,82,Community Hospital East
5.74,2.16,37.98293,-87.57072,IN,24000,6000,83,66,13,Deaconess Hospital Inc
7.12,2.50,39.91001,-86.19660,IN,31000,8000,66,47,88,St Vincent Hospital & Health Services
4.08,2.18,40.09594,-85.68152,IN,16000,6000,0,0,0,Saint John'S Health System
6.76,2.53,40.19679,-85.41573,IN,29000,8000,66,62,85,Indiana University Health Ball Memorial Hospital
6.38,2.27,41.49222,-87.52429,IN,27000,7000,50,85,54,Franciscan St Margaret Health - Dyer
4.21,2.15,37.96320,-87.50292,IN,16000,6000,66,67,32,St Mary'S Medical Center Of Evansville Inc
4.75,2.28,40.39424,-86.83516,IN,19000,7000,66,82,17,Franciscan St Elizabeth Health - Lafayette East
3.52,2.21,39.21585,-85.89683,IN,13000,7000,50,76,95,Columbus Regional Hospital
6.98,2.55,40.12998,-85.69436,IN,30000,8000,50,86,37,Community Hospital Of Anderson And Madison County
5.60,2.34,41.55065,-87.50619,IN,23000,7000,50,75,85,Community Hospital
5.18,2.19,41.39576,-87.36689,IN,21000,6000,50,83,51,Franciscan St Anthony Health - Crown Point
5.14,2.10,39.63776,-86.13260,IN,21000,6000,50,68,76,Community Hospital South
6.98,2.31,39.82100,-86.22251,IN,30000,7000,0,0,0,Westview Hospital
8.54,2.68,39.78047,-86.34084,IN,38000,9000,0,0,0,Iu Health West Hospital
5.06,2.31,39.90060,-86.04218,IN,21000,7000,50,77,76,Community Hospital North
8.32,2.46,40.40296,-86.80885,IN,37000,8000,50,83,97,Indiana University Health Arnett Hospital
5.45,2.36,41.60051,-93.61086,IA,23000,7000,0,0,0,Iowa Lutheran Hospital
4.54,2.30,41.26886,-95.83923,IA,18000,7000,0,0,0,Alegent Health Mercy Hospital
4.72,2.10,41.66411,-91.52841,IA,19000,6000,50,65,48,Mercy Hospital
4.25,2.18,42.03321,-93.61164,IA,17000,6000,0,0,0,Mary Greeley Medical Center
4.79,2.21,41.54190,-90.55691,IA,19000,7000,66,58,97,Genesis Medical Center-Davenport
4.92,2.22,41.98570,-91.66093,IA,20000,7000,66,75,90,St Lukes Hospital
5.50,2.12,41.26786,-95.83505,IA,23000,6000,0,0,0,Jennie Edmundson Hospital
5.41,2.28,40.81009,-91.17356,IA,22000,7000,0,0,0,Great River Medical Center
6.24,3.20,41.66092,-91.54800,IA,27000,11000,16,38,63,University Of Iowa Hospital & Clinics
4.43,2.23,43.15063,-93.21718,IA,18000,7000,50,82,63,Mercy Medical Center-North Iowa
4.42,2.08,41.97864,-91.65507,IA,18000,6000,50,80,99,Mercy Medical Center - Cedar Rapids
4.96,2.39,41.86141,-90.18921,IA,20000,7000,0,0,0,Mercy Medical Center-Clinton
6.58,2.41,41.58955,-93.63248,IA,28000,8000,66,37,82,Iowa Methodist Medical Center
5.98,2.32,41.59886,-93.62344,IA,25000,7000,83,75,29,Mercy Medical Center-Des Moines
3.01,2.24,41.02751,-92.38994,IA,10000,7000,0,0,0,Ottumwa Regional Health Center
3.32,2.11,42.52665,-92.33957,IA,12000,6000,50,81,6,Allen Memorial Hospital
3.71,2.33,42.51846,-96.40581,IA,14000,7000,50,60,90,St Lukes Regional Medical Center
5.74,2.25,42.49250,-96.39975,IA,24000,7000,66,71,54,Mercy Medical Center-Sioux City
4.94,2.33,38.83324,-97.61028,KS,20000,7000,50,85,27,Salina Regional Health Center
6.42,2.50,38.87847,-99.29923,KS,27000,8000,50,58,11,Hays Medical Center
3.21,2.15,39.05660,-95.69599,KS,12000,6000,33,51,33,St Francis Health Center Inc
5.96,2.40,38.07731,-97.89183,KS,25000,7000,50,80,90,Hutchinson Regional Medical Center Inc
8.64,2.53,39.05583,-94.60912,KS,38000,8000,66,53,63,University Of Kansas Hospital
5.40,2.13,38.85279,-94.82413,KS,22000,6000,50,58,62,Olathe Medical Center
6.17,2.26,39.05128,-95.69572,KS,26000,7000,66,71,10,Stormont-Vail Healthcare
7.32,2.10,38.99549,-94.69061,KS,32000,6000,66,46,21,Shawnee Mission Medical Center
6.00,2.41,37.70405,-97.31386,KS,25000,8000,66,68,21,Via Christi Hospitals Wichita Inc
9.16,2.40,37.69556,-97.29785,KS,41000,7000,66,52,5,Wesley Medical Center
3.68,2.21,38.97848,-95.24771,KS,14000,7000,0,0,0,Lawrence Memorial Hospital
4.55,2.10,39.20164,-96.60003,KS,18000,6000,0,0,0,Mercy Regional Health Center
3.09,2.07,37.04095,-95.63956,KS,11000,6000,0,0,0,Coffeyville Regional Medical Center
6.36,2.26,39.12677,-94.78643,KS,27000,7000,50,60,82,Providence Medical Center
9.29,2.36,38.91047,-94.65205,KS,42000,7000,50,66,11,Menorah Medical Center
7.36,2.76,39.07816,-84.46695,KY,32000,9000,50,81,51,St Elizabeth Ft Thomas
5.39,2.29,38.47021,-82.63498,KY,22000,7000,66,60,54,King'S Daughters' Medical Center
3.74,2.22,38.03140,-84.52194,KY,14000,7000,83,67,79,Saint Joseph Hospital
5.21,2.29,37.11784,-84.10910,KY,21000,7000,50,75,63,Saint Joseph Hospital London
2.92,2.09,37.71183,-85.87623,KY,10000,6000,83,78,39,Hardin Memorial Hospital
4.45,2.41,36.99641,-86.43006,KY,18000,8000,66,52,33,The Medical Center At Bowling Green
3.86,2.33,37.01079,-85.90342,KY,15000,7000,0,0,0,T J Samson Community Hospital
3.11,2.19,36.60615,-83.74024,KY,11000,6000,0,0,0,Middlesboro Appalachian Regional Healthcare Hospit
3.78,2.46,36.76316,-83.70793,KY,14000,8000,0,0,0,Pineville Community Hospital
5.98,2.45,37.27729,-83.22802,KY,25000,8000,50,87,57,Hazard Arh Regional Medical Center
4.61,2.37,39.06704,-84.49946,KY,18000,7000,33,58,79,St Elizabeth Medical Center North
4.24,2.25,38.50697,-82.69222,KY,17000,7000,50,80,90,Our Lady Of Bellefonte Hospital
3.99,2.61,37.76518,-87.10197,KY,15000,9000,50,66,29,Owensboro Medical Health System
4.41,2.41,38.24927,-85.75081,KY,17000,8000,66,51,8,Jewish Hospital & St Mary'S Healthcare
9.06,2.59,37.47264,-82.52605,KY,41000,8000,75,86,9,Pikeville Medical Center
4.93,2.26,39.01660,-84.63078,KY,20000,7000,50,75,63,St Elizabeth Florence
4.24,2.24,37.64378,-84.77272,KY,17000,7000,0,0,0,Ephraim Mcdowell Regional Medical Center
5.17,2.18,36.86034,-87.49528,KY,21000,6000,50,83,4,Jennie Stuart Medical Center
7.34,3.18,38.03282,-84.50674,KY,32000,11000,33,62,33,University Of Kentucky Hospital
4.28,2.26,37.47273,-86.28820,KY,17000,7000,0,0,0,Twin Lakes Regional Medical Center
4.01,2.27,36.92128,-84.11838,KY,15000,7000,25,78,82,Baptist Regional Medical Center
4.19,2.27,37.36583,-85.33917,KY,16000,7000,0,0,0,Taylor Regional Hospital
5.51,2.43,38.24806,-85.75125,KY,23000,8000,50,35,39,Norton Hospitals Inc
3.26,2.32,37.33959,-87.48988,KY,12000,7000,50,86,17,Regional Medical Center Of Hopkins County
4.58,2.07,37.06431,-88.67523,KY,18000,6000,50,42,20,Lourdes Hospital
5.37,2.28,38.01849,-84.51236,KY,22000,7000,50,71,57,Central Baptist Hospital
4.60,2.11,37.07404,-88.62685,KY,18000,6000,50,80,39,Western Baptist Hospital
4.27,2.19,36.75751,-88.65129,KY,17000,6000,0,0,0,Jackson Purchase Medical Center
4.35,2.08,38.23898,-85.63941,KY,17000,6000,66,57,74,Baptist Hospital East
5.81,2.34,37.08724,-84.61828,KY,24000,7000,66,60,17,Lake Cumberland Regional Hospital
5.90,2.82,38.24802,-85.74464,KY,25000,10000,25,81,8,University Of Louisville Hospital
3.40,2.43,37.09412,-85.29359,KY,12000,8000,0,0,0,Westlake Regional Hospital
5.72,2.33,30.20227,-92.01906,LA,24000,7000,50,73,29,Lafayette General Medical Center
5.40,2.09,29.77956,-90.80568,LA,22000,6000,50,73,92,Thibodaux Regional Medical Center
5.15,2.23,29.59851,-90.71397,LA,21000,7000,25,68,69,Terrebonne General Medical Center
11.03,2.42,30.46813,-90.45814,LA,50000,8000,75,71,74,North Oaks Medical Center Llc
5.81,2.41,30.54354,-92.07608,LA,24000,8000,33,73,3,Opelousas General Health System
5.91,2.21,31.28258,-92.46060,LA,25000,7000,50,65,79,Christus St Frances Cabrini Hospital
7.92,2.35,31.31451,-92.44997,LA,35000,7000,66,40,39,Rapides Regional Medical Center
6.70,2.14,30.21521,-93.22682,LA,29000,6000,50,63,63,Christus St Patrick Hospital
4.51,2.51,30.01875,-90.19452,LA,18000,8000,66,61,62,Ochsner Foundation Hospital
6.08,2.32,29.89089,-90.09395,LA,26000,7000,50,65,85,West Jefferson Medical Center
6.72,2.45,32.49443,-93.75011,LA,29000,8000,50,68,13,Christus Schumpert Health System
8.39,2.30,30.46834,-90.11383,LA,37000,7000,50,70,8,St Tammany Parish Hospital
6.65,2.47,29.92596,-90.09191,LA,29000,8000,66,67,63,Touro Infirmary
4.05,2.08,30.23913,-92.66205,LA,16000,6000,0,0,0,Jennings American Legion Hospital
5.36,2.11,29.98815,-91.78471,LA,22000,6000,0,0,0,Iberia General Hospital And Medical Center
5.87,2.33,30.20458,-93.19774,LA,25000,7000,50,80,6,Lake Charles Memorial Hospital
3.33,2.26,30.40118,-91.11160,LA,12000,7000,83,51,33,Our Lady Of The Lake Regional Medical Center
3.24,2.43,30.45015,-91.15273,LA,12000,8000,33,76,37,Baton Rouge General Medical Center
5.20,2.25,32.51544,-92.63343,LA,21000,7000,50,63,21,Northern Louisiana Medical Center
3.22,2.87,32.48177,-93.76264,LA,12000,10000,100,80,0,Lsu Health Sciences Center - Shreveport
3.89,2.16,30.15052,-92.03698,LA,15000,6000,50,71,57,Our Lady Of Lourdes Regional Medical Center Inc
5.55,2.25,32.48393,-93.77884,LA,23000,7000,50,63,62,Willis Knighton Medical Center
4.64,2.26,32.49997,-92.11359,LA,19000,7000,66,62,98,St Francis Medical Center
6.99,2.35,30.01438,-90.18155,LA,30000,7000,66,68,74,East Jefferson General Hospital
6.31,2.26,32.51315,-92.15713,LA,27000,7000,0,0,0,Glenwood Regional Medical Center
3.63,2.34,30.68494,-92.26601,LA,14000,7000,0,0,0,Mercy Regional Medical Center
6.67,2.80,29.95570,-90.07587,LA,29000,9000,33,41,0,Tulane Medical Center
4.38,2.22,30.43973,-91.00727,LA,17000,7000,50,68,33,Ochsner Medical Center-Baton Rouge
6.09,2.28,30.19775,-92.07724,LA,26000,7000,50,88,74,The Regional Medical Center Of Acadiana
5.26,2.14,32.55761,-93.71874,LA,22000,6000,50,88,94,Willis Knighton Bossier Health Center
4.75,2.49,43.65159,-70.26482,ME,19000,8000,0,0,0,Mercy Hospital
5.37,2.75,43.65325,-70.27533,ME,22000,9000,16,47,0,Maine Medical Center
3.37,2.27,43.47840,-70.49221,ME,12000,7000,0,0,0,Southern Maine Medical Center
4.14,2.41,44.80988,-68.74929,ME,16000,8000,50,58,37,Eastern Maine Medical Center
6.51,2.56,45.25378,-69.44547,ME,28000,8000,50,48,51,Maine General Medical Center
3.38,3.23,39.62183,-77.68219,MD,12000,12000,0,0,0,Meritus Medical Center
3.79,3.61,39.28817,-76.62438,MD,14000,13000,0,0,0,University Of Maryland Medical Center
3.20,3.06,38.93090,-76.92161,MD,11000,11000,0,0,0,Prince Georges Hospital Center
3.06,2.94,39.01578,-77.03591,MD,11000,10000,0,0,0,Holy Cross Hospital
3.12,2.99,39.42366,-77.41386,MD,11000,10000,0,0,0,Frederick Memorial Hospital
2.41,2.32,39.54345,-76.09153,MD,8000,7000,0,0,0,Harford Memorial Hospital
3.16,3.03,39.38813,-76.61068,MD,11000,11000,0,0,0,Saint Joseph Medical Center
3.43,3.27,39.29297,-76.61314,MD,13000,12000,0,0,0,Mercy Medical Center Inc
4.44,4.26,39.29688,-76.59242,MD,18000,17000,0,0,0,Johns Hopkins Hospital The
3.21,3.08,39.27352,-76.67219,MD,12000,11000,0,0,0,Saint Agnes Hospital
3.18,3.05,39.35262,-76.66196,MD,11000,11000,0,0,0,Sinai Hospital Of Baltimore
3.43,3.28,39.28833,-76.64912,MD,13000,12000,0,0,0,Bon Secours Hospital
3.45,3.31,39.35169,-76.47919,MD,13000,12000,0,0,0,Franklin Square Hospital Center
3.63,3.47,38.98482,-77.00139,MD,14000,13000,0,0,0,Washington Adventist Hospital
3.31,3.17,39.15402,-77.05431,MD,12000,11000,0,0,0,Montgomery General Hospital Inc
2.83,2.72,38.36248,-75.59799,MD,10000,9000,0,0,0,Peninsula Regional Medical Center
3.01,2.88,38.99743,-77.11048,MD,10000,10000,0,0,0,Suburban Hospital
2.68,2.60,38.99014,-76.53398,MD,9000,8000,0,0,0,Anne Arundel Medical Center
2.87,2.76,39.32930,-76.61432,MD,10000,9000,0,0,0,Union Memorial Hospital
3.65,3.49,39.64928,-78.73206,MD,14000,13000,0,0,0,Western Maryland Regional Medical Center
3.11,2.97,38.29124,-76.63579,MD,11000,10000,0,0,0,Saint Mary'S Hospital
3.16,3.02,39.29100,-76.54623,MD,11000,11000,0,0,0,Johns Hopkins Bayview Medical Center
3.03,2.91,39.60859,-75.83201,MD,11000,10000,0,0,0,Union Hospital Of Cecil County
3.18,3.09,39.55808,-76.99107,MD,11000,11000,0,0,0,Carroll Hospital Center
3.10,2.97,39.25189,-76.61399,MD,11000,10000,0,0,0,Harbor Hospital
2.55,2.45,38.52905,-76.97068,MD,8000,8000,0,0,0,Civista Medical Center
2.84,2.72,38.76970,-76.07697,MD,10000,9000,0,0,0,Memorial Hospital At Easton
3.15,3.01,39.29994,-76.62138,MD,11000,11000,0,0,0,Maryland General  Hospital
2.24,2.16,38.55963,-76.59455,MD,7000,6000,0,0,0,Calvert Memorial Hospital
2.73,2.62,39.35852,-76.78208,MD,9000,9000,0,0,0,Northwest Hospital Center
2.76,2.64,39.13732,-76.62228,MD,9000,9000,0,0,0,Baltimore Washington  Medical Center
3.33,3.19,39.39017,-76.62216,MD,12000,11000,0,0,0,Greater Baltimore Medical Center
2.72,2.61,39.21273,-76.88526,MD,9000,9000,0,0,0,Howard County General Hospital
3.12,3.00,39.51870,-76.34688,MD,11000,10000,0,0,0,Upper Chesapeake Medical Center
3.46,3.30,38.96851,-76.86203,MD,13000,12000,0,0,0,Doctors'  Community Hospital
2.77,2.66,38.74827,-76.87590,MD,9000,9000,0,0,0,Southern Maryland Hospital Center
2.74,2.63,39.35962,-76.58851,MD,9000,9000,0,0,0,Good Samaritan Hospital
3.25,3.12,39.09796,-77.19799,MD,12000,11000,0,0,0,Shady Grove Adventist Hospital
3.68,3.52,38.72818,-76.99214,MD,14000,13000,0,0,0,Fort Washington Hospital
2.42,2.33,38.33876,-75.21128,MD,8000,7000,0,0,0,Atlantic General Hospital
4.98,2.51,42.54113,-71.76120,MA,20000,8000,50,65,63,Healthalliance Hospitals Inc
3.57,2.60,42.37441,-71.13378,MA,13000,8000,66,85,17,Mount Auburn Hospital
3.10,2.31,41.94236,-71.27364,MA,11000,7000,50,66,13,Sturdy Memorial Hospital
4.14,2.71,42.70912,-71.14877,MA,16000,9000,50,71,79,Lawrence General Hospital
3.26,3.06,42.37451,-71.10418,MA,12000,11000,50,87,94,Cambridge Health Alliance
3.28,2.77,41.65298,-70.27484,MA,12000,9000,50,56,95,Cape Cod Hospital
3.48,2.29,42.33185,-72.65422,MA,13000,7000,50,87,88,Cooley Dickinson Hospital Incthe
3.29,3.05,42.27872,-71.06625,MA,12000,11000,0,0,0,Carney Hospital
3.82,2.49,41.69217,-71.16474,MA,15000,8000,50,100,85,Saint Anne'S Hospital
3.49,2.52,42.20038,-72.62762,MA,13000,8000,0,0,0,Holyoke Medical Center
2.96,2.39,42.81476,-70.89068,MA,10000,7000,0,0,0,Anna Jaques Hospital
3.28,3.50,42.35843,-71.05977,MA,12000,13000,66,51,0,Boston Medical Center Corporation
3.54,2.46,42.56407,-70.87543,MA,13000,8000,50,62,63,Beverly Hospital Corporation
6.49,2.63,42.51078,-70.90712,MA,28000,9000,33,47,69,North Shore Medical Center
2.98,3.12,42.34896,-71.14768,MA,10000,11000,50,68,57,St Elizabeth'S Medical Center
3.53,2.59,51.46599,-1.28140,MA,13000,8000,50,76,20,Berkshire Medical Center Inc
3.74,2.65,42.03597,-71.09792,MA,14000,9000,50,61,57,Signature Healthcare Brockton Hospital
2.72,2.40,41.94445,-70.64511,MA,9000,7000,50,82,24,Jordan Hospital Inc
3.68,2.56,42.64636,-71.34118,MA,14000,8000,50,87,95,Lowell General Hospital
3.84,2.52,42.11449,-72.59502,MA,15000,8000,50,77,76,Mercy Medical Center
3.00,2.47,42.46049,-71.06203,MA,10000,8000,50,52,76,Hallmark Health System
11.01,3.23,42.36227,-71.06941,MA,50000,12000,50,43,16,Massachusetts General Hospital
2.74,2.40,41.90456,-71.09562,MA,9000,7000,50,85,24,Morton Hospital
4.57,2.60,41.70928,-71.14519,MA,18000,8000,25,51,88,Southcoast Hospital Group Inc
4.20,2.81,42.12077,-72.60525,MA,16000,10000,33,61,82,Baystate Medical Center
4.26,2.69,42.72846,-71.16830,MA,17000,9000,50,73,33,Holy Family Hospital
3.39,2.68,42.64529,-71.30052,MA,12000,9000,0,0,0,Saints  Medical Center Inc
3.58,2.27,42.43082,-71.37554,MA,13000,7000,50,43,57,Emerson Hospital
4.76,3.24,42.33719,-71.10939,MA,19000,12000,33,71,33,Beth Israel Deaconess Medical Center
3.33,2.39,42.13234,-71.52825,MA,12000,7000,50,71,95,Milford Regional Medical Center
3.68,2.36,42.17644,-70.95398,MA,14000,7000,66,70,48,South Shore Hospital
4.07,2.30,42.33149,-71.24568,MA,16000,7000,66,70,99,Newton-Wellesley Hospital
3.65,2.85,42.46581,-71.12210,MA,14000,10000,50,58,24,Winchester Hospital
3.10,2.30,42.25232,-71.07515,MA,11000,7000,0,0,0,Milton Hospital Inc
8.22,3.28,42.33600,-71.10704,MA,36000,12000,66,40,20,Brigham And Women'S Hospital
2.59,2.57,42.09864,-71.06607,MA,8000,8000,50,58,92,Good Samaritan Medical Center
4.17,3.28,42.34951,-71.06331,MA,16000,12000,50,63,85,Tufts Medical Center
4.76,2.57,42.30049,-71.12771,MA,19000,8000,50,96,3,Faulkner Hospital
2.48,2.32,42.18869,-71.20197,MA,8000,7000,50,77,81,Norwood Hospital
2.75,2.42,41.56412,-70.62200,MA,9000,8000,50,68,94,Falmouth Hospital
6.00,3.12,42.27720,-71.75922,MA,25000,11000,50,36,29,Umass Memorial Medical Center Inc
3.23,2.59,42.48585,-71.20686,MA,12000,8000,66,76,16,Lahey Clinic Hospital
3.39,2.52,42.28385,-71.41896,MA,12000,8000,50,76,85,Metrowest Medical Center
3.36,2.58,42.26633,-71.79760,MA,12000,8000,33,75,57,St Vincent Hospital
4.03,2.18,42.39466,-83.40537,MI,16000,6000,50,60,63,St Mary Mercy Hospital
2.92,2.33,43.20588,-86.20839,MI,10000,7000,50,76,57,Mercy Health Partners Mercy Campus
5.06,2.72,42.28551,-85.58042,MI,21000,9000,66,82,13,Bronson Methodist Hospital
5.39,2.65,42.45741,-83.20513,MI,22000,9000,83,57,48,Providence Hospital And Medical Centers
4.68,2.52,42.29077,-83.21504,MI,19000,8000,33,48,69,Oakwood Hospital And Medical Center
3.23,2.30,42.08955,-86.47781,MI,12000,7000,33,68,88,Lakeland Hospital St Joseph
4.65,2.96,42.41911,-83.18228,MI,19000,10000,83,46,21,Sinai-Grace Hospital
3.71,2.65,42.61425,-83.27602,MI,14000,9000,66,52,79,St Joseph Mercy Oakland
3.20,2.18,42.95582,-82.43222,MI,11000,6000,50,88,79,St Joseph Mercy Port Huron
4.33,2.42,45.07773,-83.45146,MI,17000,8000,0,0,0,Alpena Regional Medical Center
4.13,2.70,42.96881,-85.66649,MI,16000,9000,33,66,82,Spectrum Health - Butterworth Campus
5.10,2.21,43.58941,-83.86908,MI,21000,7000,33,55,98,Mclaren Bay Region
7.14,3.64,42.28388,-83.72960,MI,31000,14000,50,61,43,University Of Michigan Health System
3.91,2.31,42.61490,-82.96060,MI,15000,7000,50,66,54,Henry Ford Macomb Hospital
4.37,2.97,42.36762,-83.08461,MI,17000,10000,66,47,8,Henry Ford Hospital
3.73,2.50,46.54758,-87.39560,MI,14000,8000,83,67,48,Marquette General Hospital
3.87,2.59,42.95817,-85.66253,MI,15000,8000,50,53,90,Saint Mary'S Health Care
5.42,2.38,43.42857,-83.95556,MI,22000,7000,83,61,63,Covenant Medical Center Inc
4.06,2.28,42.33111,-85.17817,MI,16000,7000,50,83,63,Bronson Battle Creek Hospital
5.88,2.33,43.42612,-83.94185,MI,25000,7000,66,63,57,St Mary'S Of Michigan Medical Center
3.26,2.15,44.24532,-85.38950,MI,12000,6000,0,0,0,Mercy Hospital - Cadillac
3.43,2.24,42.38392,-82.91480,MI,13000,7000,50,62,51,Beaumont Hospital Grosse Pointe
6.10,2.25,42.25117,-84.39240,MI,26000,7000,50,85,98,Allegiance Health
6.84,2.69,44.76156,-85.64143,MI,30000,9000,50,41,57,Munson Medical Center
4.07,2.49,41.91643,-83.39771,MI,16000,8000,50,68,37,Mercy Memorial Hospital System
4.53,3.33,42.35230,-83.05676,MI,18000,12000,66,62,63,Harper University Hospital
3.93,2.41,45.37209,-84.97065,MI,15000,8000,50,77,24,Northern Michigan Regional Hospital
5.13,2.48,42.30489,-85.56152,MI,21000,8000,66,47,76,Borgess Medical Center
5.07,2.26,43.00546,-84.18145,MI,21000,7000,0,0,0,Memorial Healthcare
5.53,2.64,42.51418,-83.19259,MI,23000,9000,66,60,16,William Beaumont Hospital
4.74,3.06,43.02135,-83.70308,MI,19000,11000,66,68,6,Hurley Medical Center
4.39,2.59,43.01399,-83.73250,MI,17000,8000,50,60,33,Mclaren Flint
4.93,2.32,42.27424,-83.36580,MI,20000,7000,50,70,48,Oakwood Annapolis Hospital
4.05,2.32,42.21065,-83.14861,MI,16000,7000,50,70,95,Henry Ford Wyandotte Hospital
3.26,2.72,42.46176,-83.37629,MI,12000,9000,50,78,24,Botsford Hospital
4.53,2.38,42.26181,-83.66003,MI,18000,7000,66,62,33,St Joseph Mercy Hospital
4.54,2.70,42.41975,-82.91442,MI,18000,9000,66,72,9,St John Hospital And Medical Center
5.25,2.48,42.70417,-84.55488,MI,22000,8000,33,76,21,Mclaren - Greater Lansing
4.28,2.41,42.11695,-83.21365,MI,17000,8000,33,70,79,Oakwood Southshore Medical Center
5.04,2.23,43.06290,-83.32082,MI,21000,7000,50,63,90,Lapeer Regional Medical Center
5.40,2.49,42.50514,-83.00422,MI,22000,8000,66,56,85,St John Macomb-Oakland Hospital-Macomb Center
4.53,2.66,42.89254,-83.63621,MI,18000,9000,66,70,13,Genesys Regional Medical Center - Health Park
5.11,3.05,42.63849,-83.29062,MI,21000,11000,75,76,51,Mclaren Oakland
4.65,2.30,42.98625,-82.42802,MI,19000,7000,50,62,29,Port Huron Hospital
4.05,2.45,43.63618,-84.26187,MI,16000,8000,50,72,69,Midmichigan Medical Center-Midland
3.43,2.35,42.58900,-82.89799,MI,13000,7000,66,61,63,Mount Clemens Regional Medical Center
8.23,2.85,42.73767,-84.51698,MI,36000,10000,83,68,1,Edward W Sparrow Hospital
4.40,2.67,42.85736,-85.71774,MI,17000,9000,50,66,48,Metro Health Hospital
3.67,2.55,42.33215,-83.31195,MI,14000,8000,50,82,37,Garden City Hospital
5.56,2.29,42.67850,-83.14771,MI,23000,7000,50,65,79,Crittenton Hospital Medical Center
6.25,2.34,42.61826,-83.09239,MI,27000,7000,83,60,62,William Beaumont Hospital-Troy
4.26,2.28,42.23506,-83.27602,MI,17000,7000,50,60,92,Oakwood Heritage Hospital
5.35,3.11,42.35295,-83.05447,MI,22000,11000,66,65,5,Detroit Receiving Hospital & Univ Health Center
4.75,2.60,42.59290,-83.49920,MI,19000,8000,66,48,54,Huron Valley-Sinai Hospital
5.66,2.21,42.53914,-83.40777,MI,24000,7000,50,53,39,Henry Ford West Bloomfield Hospital
6.72,2.41,45.01403,-93.32177,MN,29000,8000,66,68,82,North Memorial Medical Center
5.00,2.43,46.79380,-92.09573,MN,20000,8000,83,75,79,Essentia Health St Mary'S Medical Center
3.83,3.44,44.97210,-93.26240,MN,15000,13000,33,37,29,Hennepin County Medical Center
6.68,3.09,44.02052,-92.48292,MN,29000,11000,83,42,32,Mayo Clinic - Saint Marys Hospital
3.43,2.89,46.79308,-92.09379,MN,13000,10000,0,0,0,Essentia Health Duluth
6.02,2.66,45.57390,-94.16942,MN,25000,9000,50,61,37,St Cloud Hospital
7.14,2.55,44.94214,-93.10858,MN,31000,8000,50,86,33,United Hospital
3.93,2.41,46.79634,-92.08793,MN,15000,8000,50,71,29,St Lukes Hospital
3.57,2.31,44.93031,-93.36276,MN,13000,7000,66,72,94,Park Nicollet Methodist Hospital
7.05,2.41,44.95248,-93.26196,MN,31000,8000,50,70,63,Abbott Northwestern Hospital
6.95,3.35,44.02354,-92.46588,MN,30000,12000,50,35,97,Mayo Clinic Methodist Hospital
4.98,2.42,44.94898,-93.10016,MN,20000,8000,33,66,57,St Joseph'S Hospital
8.05,2.38,44.88645,-93.32693,MN,36000,7000,66,62,94,Fairview Southdale Hospital
5.69,2.94,44.96766,-93.23640,MN,24000,10000,66,56,57,University Of Minnesota  Medical Center Fairview
4.30,2.41,44.16396,-94.00412,MN,17000,8000,50,57,76,Mayo Clinic Health System - Mankato
4.04,2.28,44.77252,-93.50323,MN,16000,7000,0,0,0,St Francis Regional Medical Center
4.60,2.77,44.95570,-93.09429,MN,18000,9000,50,78,17,Regions Hospital
5.33,2.31,45.18355,-93.36789,MN,22000,7000,50,73,95,Mercy Hospital
8.24,2.35,45.10789,-93.25685,MN,36000,7000,33,85,85,Unity Hospital
4.61,2.36,44.74846,-93.27289,MN,18000,7000,50,83,97,Fairview Ridges Hospital
4.40,2.49,45.02892,-93.03418,MN,17000,8000,50,75,24,Healtheast St John'S Hospital
4.86,2.80,32.33069,-90.17030,MS,20000,9000,66,51,6,University Of Mississippi Med Center
4.69,2.26,34.24336,-88.71753,MS,19000,7000,66,61,48,North Mississippi Medical Center
8.97,2.35,34.93596,-88.55955,MS,40000,7000,50,72,79,Magnolia Regional Health Center
14.73,2.88,30.36674,-89.11535,MS,69000,10000,50,66,69,Memorial Hospital At Gulfport
9.03,2.37,32.35265,-90.87788,MS,40000,7000,50,80,37,River Region Health System
4.30,2.25,34.34899,-89.52062,MS,17000,7000,50,68,24,Baptist Memorial Hospital North Ms
6.85,2.22,30.37516,-88.53226,MS,30000,7000,50,70,3,Singing River Hospital
5.64,2.53,34.19610,-90.55208,MS,24000,8000,0,0,0,Northwest Mississippi Regional Medical Center
5.61,2.30,32.33616,-90.15652,MS,23000,7000,50,60,44,St Dominic-Jackson Memorial Hospital
4.29,2.18,31.57544,-90.45670,MS,17000,6000,0,0,0,King'S Daughters Medical Center-Brookhaven
6.31,2.42,31.69405,-89.13061,MS,27000,8000,50,72,16,South Central Reg Med Ctr
3.40,2.26,33.61860,-88.66204,MS,12000,7000,0,0,0,Clay County Medical Center
8.19,2.30,32.28805,-90.25566,MS,36000,7000,50,81,8,Central Mississippi Medical Center
4.42,2.29,31.31872,-89.32955,MS,17000,7000,50,57,54,Forrest General Hospital
5.82,2.26,32.36736,-88.69896,MS,24000,7000,0,0,0,Anderson Regional Medical Center South Campus
4.87,2.42,33.41099,-91.03479,MS,20000,8000,33,85,51,Delta Regional Medical Center
3.92,2.09,33.74750,-90.71908,MS,15000,6000,0,0,0,Bolivar Medical Center
8.95,2.24,31.32573,-89.36670,MS,40000,7000,50,56,20,Wesley Medical Center
3.51,2.28,31.24000,-90.45000,MS,13000,7000,50,83,81,Southwest Ms Regional Medical Center
4.97,2.36,33.51824,-90.19832,MS,20000,7000,0,0,0,Greenwood Leflore Hospital
4.34,2.26,33.52568,-88.42742,MS,17000,7000,50,67,54,Baptist Mem Hosp/Golden Triangle Inc
5.79,2.09,32.31643,-90.17922,MS,24000,6000,66,43,85,Mississippi Baptist Medical Center
3.45,2.14,32.37280,-88.69954,MS,13000,6000,50,77,39,Anderson Regional Medical Center
11.06,2.16,31.56044,-91.40317,MS,50000,6000,0,0,0,Natchez Community Hospital/Swing Bed
5.83,2.35,34.96927,-89.99709,MS,24000,7000,50,68,11,Baptist Memorial Hospital Desoto
6.14,2.19,37.06032,-94.52747,MO,26000,6000,0,0,0,St John'S Regional Medical Center
5.01,2.38,38.78060,-90.48379,MO,20000,7000,50,76,37,Ssm St Joseph Health Center
5.75,2.63,39.77393,-94.77089,MO,24000,9000,50,58,51,Heartland Regional Medical Center
4.05,2.09,38.69946,-93.22211,MO,16000,6000,50,82,63,Bothwell Regional Health Center
6.18,2.07,38.57670,-92.17352,MO,26000,6000,50,86,0,St Marys Health Center
7.71,2.23,36.23658,-90.04315,MO,34000,7000,0,0,0,Twin Rivers Regional Medical Center
5.30,2.53,37.95144,-91.75940,MO,22000,8000,50,88,48,Phelps County Regional Medical Center
6.17,2.29,38.64281,-90.44448,MO,26000,7000,83,57,74,Mercy Hospital St Louis
3.78,2.12,38.16498,-90.38082,MO,14000,6000,50,83,82,Jefferson Regional Medical Center
5.67,2.47,39.71116,-91.45071,MO,24000,8000,0,0,0,Hannibal Regional Hospital
10.82,2.54,39.00717,-94.55925,MO,49000,8000,33,82,5,Research Medical Center
5.25,2.66,38.63524,-90.26508,MO,22000,9000,50,56,12,Barnes Jewish Hospital
4.42,2.26,37.14560,-93.28037,MO,18000,7000,50,61,85,Cox Medical Center
4.96,2.43,38.56571,-92.18204,MO,20000,8000,50,83,57,Capital Region Medical Center
3.32,3.21,39.08401,-94.57591,MO,12000,12000,33,58,2,Truman Medical Center Hospital Hill
5.73,2.31,37.17999,-93.27409,MO,24000,7000,66,61,24,St John'S Regional Health Center
5.79,2.42,38.94903,-92.31563,MO,24000,8000,66,73,43,Boone Hospital Center
4.58,2.12,38.50661,-90.38025,MO,18000,6000,66,57,13,St Anthony'S Medical Center
6.03,2.21,38.52738,-90.47501,MO,25000,7000,50,65,44,Ssm St Clare Health Center
6.65,2.14,38.93592,-94.60376,MO,29000,6000,50,75,88,St Joseph Medical Center
5.25,2.66,38.63268,-90.31089,MO,22000,9000,83,77,57,Ssm St Marys Health Center
5.18,2.12,36.64970,-93.22138,MO,21000,6000,50,71,79,Skaggs Regional Medical Center
8.70,2.19,39.04749,-94.34105,MO,39000,6000,50,72,39,Centerpoint Medical Center Of Independence Llc
5.42,2.09,39.14957,-94.55148,MO,22000,6000,50,58,63,North Kansas City Hospital
6.11,2.34,38.75097,-90.43255,MO,26000,7000,66,68,43,Ssm Depaul Health Center
7.39,2.92,38.62280,-90.24049,MO,32000,10000,50,46,5,St Louis University Hospital
4.63,2.06,38.63702,-90.44699,MO,19000,6000,66,68,48,Missouri Baptist Medical Center
6.92,2.40,37.31072,-89.53990,MO,30000,7000,50,72,8,Southeast Missouri Hospital
6.82,2.43,36.88988,-89.58365,MO,29000,8000,0,0,0,Missouri Delta Medical Center
9.81,2.39,36.78510,-90.42779,MO,44000,7000,50,60,39,Poplar Bluff Regional Medical Center
6.00,2.29,37.05238,-94.52777,MO,25000,7000,83,67,85,Freeman Health System - Freeman West
7.71,2.53,39.04761,-94.59037,MO,34000,8000,66,50,17,St Lukes Hospital Of Kansas City
5.70,2.58,38.95171,-92.33407,MO,24000,8000,66,60,63,University Of Missouri Health Care
3.41,2.10,37.78031,-90.43967,MO,12000,6000,0,0,0,Parkland Health Center
7.58,2.23,38.58103,-90.45144,MO,33000,7000,50,70,43,Des Peres Hospital
4.68,2.11,39.27591,-94.42572,MO,19000,6000,33,60,33,Liberty Hospital
4.67,2.19,38.65123,-90.50301,MO,19000,6000,66,67,12,St Lukes Hospital
5.50,2.20,38.77576,-90.23906,MO,23000,6000,66,75,4,Christian Hospital Northeast
5.97,2.23,37.30401,-89.57190,MO,25000,7000,50,65,11,St Francis Medical Center
6.20,2.51,38.12027,-92.68146,MO,26000,8000,50,52,8,Lake Regional Health System
4.95,2.40,38.79427,-90.58049,MO,20000,7000,50,75,32,Barnes-Jewish St Peters Hospital
5.10,2.14,38.80334,-90.77619,MO,21000,6000,50,65,82,Ssm St Joseph Hospital West
8.88,2.11,38.94062,-94.37842,MO,40000,6000,0,0,0,Saint Luke'S East Lee'S Summit Hospital
2.54,2.10,38.71535,-90.69847,MO,8000,6000,0,0,0,Progress West Healthcare Center
4.76,2.36,45.78958,-108.51283,MT,19000,7000,50,86,88,Billings Clinic Hospital
5.24,2.38,47.49139,-111.26255,MT,22000,7000,50,61,57,Benefis Hospitals Inc
5.46,2.24,46.87545,-114.00033,MT,23000,7000,50,77,69,St Patrick Hospital
4.45,2.36,45.79337,-108.51928,MT,18000,7000,50,81,54,St Vincent Healthcare
5.37,2.44,40.78318,-96.63709,NE,22000,8000,66,70,63,Bryanlgh Medical Center
5.09,2.66,41.25522,-95.97892,NE,21000,9000,50,52,51,The Nebraska Medical Center
4.47,2.23,40.80816,-96.62689,NE,18000,7000,50,66,20,Saint Elizabeth Regional Medical Center
10.76,3.10,41.26509,-95.95494,NE,49000,11000,50,67,0,Creighton University Medical Center - Saint Joseph
4.74,2.13,41.25797,-96.04164,NE,19000,6000,50,73,33,The Nebraska Methodist Hospital
8.74,2.50,41.23897,-96.03162,NE,39000,8000,50,46,82,Alegent Health Bergan Mercy Medical Center
7.07,2.55,41.45152,-96.49184,NE,31000,8000,0,0,0,Fremont Area Medical Center
5.24,2.50,42.03257,-97.45100,NE,22000,8000,0,0,0,Faith Regional Health Services
7.06,2.41,39.52637,-119.79456,NV,31000,8000,50,66,17,Renown Regional Medical Center
11.22,2.69,36.13459,-115.13576,NV,51000,9000,66,68,9,Sunrise Hospital And Medical Center
14.58,2.71,36.19568,-115.12284,NV,68000,9000,50,62,8,North Vista Hospital
5.98,2.92,36.15896,-115.16558,NV,25000,10000,33,60,0,Umc Of Southern Nevada
6.29,2.21,39.53066,-119.82067,NV,27000,7000,66,76,44,Saint Mary'S Regional Medical Center
10.60,2.40,36.03931,-114.98259,NV,48000,7000,75,76,54,Saint Rose Dominican Hospital - De Lima
8.77,2.76,39.20247,-119.78446,NV,39000,9000,50,56,69,Carson Tahoe Regional Medical Center
13.74,2.71,36.16380,-115.16574,NV,64000,9000,66,70,54,Valley Hospital Medical Center
8.79,2.39,36.11363,-115.12573,NV,39000,7000,83,70,63,Desert Springs Hospital
12.75,2.53,36.21599,-115.25095,NV,59000,8000,66,57,13,Mountainview Hospital
11.59,2.53,36.16586,-115.32436,NV,53000,8000,83,72,27,Summerlin Hospital Medical Center
9.15,2.29,36.00527,-115.11618,NV,41000,7000,50,50,33,Saint Rose Dominican Hospital - Siena Campus
9.18,2.35,36.09056,-115.24058,NV,41000,7000,66,78,12,Spring Valley Hospital Medical Center
7.12,2.19,36.28588,-115.28772,NV,31000,6000,75,66,39,Centennial Hills Hospital Medical Center
5.04,2.35,43.19846,-71.56230,NH,21000,7000,33,63,94,Concord Hospital
6.41,3.05,43.67286,-72.27232,NH,27000,11000,50,38,0,Mary Hitchcock Memorial Hospital
3.71,2.30,43.00792,-71.46807,NH,14000,7000,50,57,21,Elliot Hospital
6.05,2.44,43.21231,-70.87499,NH,26000,8000,50,73,3,Wentworth-Douglass Hospital
3.55,2.35,42.75623,-71.46059,NH,13000,7000,50,81,54,Southern Nh Medical Center
4.92,2.21,42.98369,-70.93511,NH,20000,7000,0,0,0,Exeter Hospital Inc
7.64,2.29,43.06469,-70.78916,NH,33000,7000,50,76,48,Portsmouth Regional Hospital
5.25,2.51,42.99121,-71.47426,NH,22000,8000,33,63,92,Catholic Medical Center
14.36,2.87,40.88346,-74.05564,NJ,67000,10000,50,58,85,Hackensack University Medical Center
14.00,3.52,40.71011,-74.21368,NJ,65000,13000,66,56,11,Newark Beth Israel Medical Center
10.47,2.81,40.79576,-73.99575,NJ,48000,9000,25,62,32,Palisades Medical Ctr-Ny Presbyterian Healthcare S
7.87,2.65,40.53142,-74.86080,NJ,35000,9000,75,55,69,Hunterdon Medical Center
8.61,2.68,40.84945,-74.13768,NJ,38000,9000,50,56,85,St Mary'S Hospital Passaic
8.49,2.64,40.88275,-74.01021,NJ,38000,9000,66,67,57,Holy Name Medical Center
13.14,2.88,40.78556,-74.17598,NJ,61000,10000,66,83,95,Clara Maass Medical Center
13.77,2.92,40.35684,-74.66166,NJ,64000,10000,50,56,21,University Medical Center At Princeton
4.44,2.33,39.08752,-74.81657,NJ,18000,7000,50,73,48,Cape Regional Medical Center Inc
7.91,2.48,40.98359,-74.10047,NJ,35000,8000,50,78,21,Valley Hospital
12.92,3.09,39.94152,-75.11680,NJ,60000,11000,66,42,2,Cooper University Hospital
8.46,2.72,40.78883,-74.46620,NJ,38000,9000,66,43,39,Morristown Memorial Hospital
13.88,2.88,40.73417,-74.04977,NJ,64000,10000,0,0,0,Christ Hospital
9.61,2.43,40.95858,-74.31000,NJ,43000,8000,50,62,1,Chilton Hospital
16.27,3.11,40.90215,-74.16634,NJ,76000,11000,16,53,94,St Joseph'S Regional Medical Center
15.49,2.77,40.21634,-74.74143,NJ,72000,9000,50,68,11,St Francis Medical Center
13.33,2.38,39.78261,-74.91670,NJ,62000,7000,50,52,74,Virtua West Jersey Hospitals Berlin
14.28,2.27,40.61288,-74.29092,NJ,66000,7000,50,80,44,Robert Wood Johnson University Hospital At Rahway
8.27,2.77,40.66005,-74.21417,NJ,37000,9000,50,75,39,Trinitas Regional Medical Center
14.88,2.40,41.05754,-74.76857,NJ,69000,7000,50,77,79,Newton Memorial Hospital
14.49,2.66,39.92695,-75.09537,NJ,67000,9000,50,70,10,Our Lady Of Lourdes Medical Center
11.20,2.52,39.44743,-75.05838,NJ,51000,8000,50,62,1,South Jersey Healthcare Regional Medical Center
14.40,2.28,40.35309,-74.06484,NJ,67000,7000,33,61,69,Riverview Medical Center
20.50,3.22,40.49581,-74.44980,NJ,97000,12000,66,51,1,Robert Wood Johnson University Hospital
14.86,2.74,40.51891,-74.28183,NJ,69000,9000,75,68,69,Raritan Bay Medical Center
12.05,2.89,40.74132,-74.03369,NJ,55000,10000,0,0,0,Hoboken University Medical Center
12.08,2.29,39.96484,-74.21708,NJ,56000,7000,50,47,88,Community Medical Center
10.84,2.67,40.90400,-73.96847,NJ,49000,9000,66,81,54,Englewood Hospital And Medical Center
11.10,2.28,39.31464,-74.59391,NJ,51000,7000,16,72,82,Shore Medical Center
21.69,3.01,40.56804,-74.59579,NJ,103000,11000,50,67,29,Somerset Medical Center
13.36,2.52,40.89538,-74.46479,NJ,62000,8000,50,63,69,Saint Clare'S Hospital
7.50,2.71,40.71264,-74.35460,NJ,33000,9000,50,52,57,Overlook Hospital
12.13,2.29,40.07832,-74.13009,NJ,56000,7000,50,57,48,Ocean Medical Center
11.70,2.91,40.81058,-74.20459,NJ,54000,10000,50,68,43,Mountainside Hospital
11.43,2.61,39.98588,-74.79393,NJ,52000,9000,66,55,54,Virtua Memorial Hospital Of Burlington County
11.51,2.62,40.70180,-75.17825,NJ,53000,9000,0,0,0,St Luke'S Warren Hospital
14.48,2.49,39.35775,-74.43449,NJ,67000,8000,66,65,88,Atlanticare Regional Medical Center - City Div
9.96,2.39,39.58815,-75.18044,NJ,45000,7000,0,0,0,South Jersey Healthcare-Elmer Hospital
14.18,2.86,40.50214,-74.46015,NJ,66000,10000,50,53,29,Saint Peter'S University Hospital
12.79,2.54,40.21065,-74.03566,NJ,59000,8000,50,58,6,Jersey Shore University Medical Center
13.65,3.26,40.71663,-74.05013,NJ,63000,12000,83,73,82,Libertyhealth-Jersey City Medical Center Campus
13.74,2.86,40.29563,-73.98518,NJ,64000,10000,50,50,85,Monmouth Medical Center
14.96,3.18,40.76190,-74.30335,NJ,70000,11000,83,53,2,Saint Barnabas Medical Center
11.99,2.43,39.84392,-75.14985,NJ,55000,8000,50,70,33,Underwood - Memorial Hospital
11.10,2.68,40.75402,-74.21335,NJ,51000,9000,50,73,57,East Orange General Hospital
12.25,2.50,40.07503,-74.21832,NJ,56000,8000,50,71,76,Kimball Medical Center
13.51,2.72,39.82811,-75.00895,NJ,63000,9000,66,60,69,Kennedy University Hospital - Stratford Div
17.53,2.75,40.23629,-74.75256,NJ,83000,9000,50,77,57,Capital Health System-Fuld Campus
7.84,2.97,40.74323,-74.17431,NJ,34000,10000,50,68,51,Saint Michael'S Medical Center Inc
11.39,2.55,40.55784,-74.34970,NJ,52000,8000,50,71,57,Jfk Medical Ctr - Anthony M. Yelencsics Community
17.31,2.46,40.21575,-74.67273,NJ,81000,8000,50,67,79,Robert Wood Johnson University Hospital Hamilton
8.91,2.35,40.23861,-74.31289,NJ,40000,7000,33,68,13,Centrastate Medical Center
10.48,2.28,40.40516,-74.19203,NJ,48000,7000,50,81,98,Bayshore Community Hospital
8.54,2.27,39.66213,-74.26392,NJ,38000,7000,50,62,69,Southern Ocean Medical Center
12.42,2.43,40.85399,-74.82906,NJ,57000,8000,0,0,0,Hackettstown Regional Medical Center
8.73,3.72,40.73925,-74.19276,NJ,39000,14000,33,55,11,Umdnj University Hospital
5.45,3.32,35.08838,-106.61590,NM,23000,12000,83,46,11,Unm Hospital
5.23,2.93,35.65960,-105.94578,NM,22000,10000,50,65,29,St Vincent Hospital
5.58,2.62,36.72387,-108.21749,NM,23000,9000,50,71,82,San Juan Regional Medical Center
10.61,2.46,33.42340,-104.52748,NM,48000,8000,50,78,12,Eastern New Mexico Medical Center
7.75,2.39,32.29186,-106.73470,NM,34000,7000,50,63,3,Memorial Medical Center Inc
4.85,2.40,35.08102,-106.63392,NM,20000,7000,33,51,3,Presbyterian Hospital
6.93,2.18,34.41937,-103.23173,NM,30000,6000,0,0,0,Plains Regional Medical Center  Clovis
2.76,2.34,35.52808,-108.74258,NM,9000,7000,0,0,0,Rehoboth Mckinley Christian Health Ser
4.71,2.14,32.32310,-106.72900,NM,19000,6000,50,68,16,Mountain View Regional Medical Center
7.27,2.63,41.92720,-73.99535,NY,32000,9000,50,83,39,Kingston Hospital
3.93,2.66,42.87482,-78.84942,NY,15000,9000,33,45,8,Kaleida Health
4.10,4.22,40.83139,-73.90306,NY,16000,17000,50,60,54,Bronx-Lebanon Hospital Center
3.81,2.16,42.09299,-75.93704,NY,14000,6000,50,73,99,Our Lady Of Lourdes Memorial Hospital Inc
9.79,3.25,42.65345,-73.77543,NY,44000,12000,66,60,63,Albany Medical Center Hospital
3.41,3.58,40.70141,-73.81630,NY,12000,13000,0,78,39,Jamaica Hospital Medical Center
4.41,3.00,40.61384,-73.94851,NY,17000,10000,0,0,0,New York Community Hospital Of Brooklyn Inc.
7.18,2.51,41.69441,-73.93432,NY,31000,8000,83,82,54,Vassar Brothers Medical Center
7.68,3.74,40.79041,-73.95386,NY,34000,14000,83,38,5,Mount Sinai Hospital
5.78,3.62,40.72548,-73.55287,NY,24000,14000,50,88,4,Nassau University Medical Center
4.97,3.15,40.63588,-74.10556,NY,20000,11000,66,52,20,Richmond University Medical Center
5.64,2.65,43.06066,-77.10072,NY,24000,9000,0,0,0,Newark-Wayne Community Hospital
6.74,2.73,40.72567,-73.24189,NY,29000,9000,50,58,37,Southside Hospital
5.01,2.28,43.09840,-75.27819,NY,20000,7000,50,60,17,Faxton-St Luke'S Healthcare
7.68,2.57,40.87946,-73.41621,NY,34000,8000,50,66,39,Huntington Hospital
8.73,3.84,40.80556,-73.96131,NY,39000,15000,33,56,5,St Luke'S Roosevelt Hospital
3.84,2.18,42.95425,-74.21527,NY,15000,6000,0,0,0,St Mary'S Hospital At Amsterdam
9.08,3.36,40.74722,-73.82521,NY,41000,12000,66,63,79,New York Hospital Medical Center Of Queens
5.65,3.83,40.68983,-73.97794,NY,24000,15000,83,71,13,Brooklyn Hospital Center At Downtown Campus
5.00,2.13,42.65583,-73.80372,NY,20000,6000,33,47,54,St Peter'S Hospital
11.58,3.82,40.87987,-73.87996,NY,53000,15000,50,38,44,Montefiore Medical Center
4.96,2.44,40.94161,-73.83650,NY,20000,8000,33,63,12,Lawrence Hospital Center
6.62,3.83,40.71016,-74.00464,NY,28000,15000,50,72,33,New York Downtown Hospital
9.29,2.83,41.71846,-73.92710,NY,42000,10000,50,80,79,St Francis Hospital
3.32,2.22,43.00584,-78.17670,NY,12000,7000,0,0,0,United Memorial Medical Center
4.06,2.31,42.92866,-78.84819,NY,16000,7000,50,55,29,Sisters Of Charity Hospital
2.41,4.12,40.81770,-73.92401,NY,8000,16000,75,83,39,Lincoln Medical & Mental Health Center
4.18,2.31,42.10076,-76.82800,NY,16000,7000,50,65,33,Arnot Ogden Medical Center
9.13,3.81,40.76487,-73.95398,NY,41000,14000,33,32,74,New York-Presbyterian Hospital
9.39,2.71,41.09642,-73.92501,NY,42000,9000,66,77,76,Nyack Hospital
11.05,3.25,40.77686,-73.70212,NY,50000,12000,33,61,69,North Shore University Hospital
6.22,2.51,40.93376,-72.67383,NY,26000,8000,0,0,0,Peconic Bay Medical Center
6.70,2.38,42.09221,-76.79733,NY,29000,7000,0,0,0,St Joseph'S Hospital Inc
15.34,3.24,40.77362,-73.96093,NY,72000,12000,33,46,11,Lenox Hill Hospital
3.42,2.32,43.19244,-77.58590,NY,13000,7000,66,46,17,Rochester General Hospital
12.46,2.75,41.44138,-74.36821,NY,57000,9000,50,62,69,Orange Regional Medical Center
3.91,4.04,40.85407,-73.84688,NY,15000,16000,50,70,74,Jacobi Medical Center
4.48,3.87,40.74465,-73.88620,NY,18000,15000,25,83,32,Elmhurst Hospital Center
6.45,2.59,41.36763,-74.68150,NY,28000,8000,0,0,0,Bon Secours Community Hospital
4.15,2.99,42.69590,-74.92278,NY,16000,10000,50,83,76,Mary Imogene Bassett Hospital
4.96,2.54,43.05571,-76.14981,NY,20000,8000,83,37,20,St Joseph'S Hospital Health Center
9.20,2.56,40.78000,-72.97763,NY,41000,8000,33,60,32,Brookhaven Memorial Hospital Medical Center
10.65,3.89,40.68964,-73.99657,NY,48000,15000,0,0,0,Long Island College Hospital
5.53,2.23,42.81963,-73.91653,NY,23000,7000,50,68,21,Ellis Hospital
6.80,3.26,43.96519,-75.91511,NY,29000,12000,50,85,63,Samaritan Medical Center
8.97,2.69,41.11299,-74.13732,NY,40000,9000,66,82,82,Good Samaritan Hospital Of Suffern
6.01,2.66,43.00561,-76.17002,NY,25000,9000,0,0,0,Community-General Hospital Of Greater Syracuse
6.00,2.96,40.58440,-74.08507,NY,25000,10000,66,71,37,Staten Island University Hospital
6.05,2.45,41.19677,-73.72572,NY,26000,8000,50,68,69,Northern Westchester Hospital
3.67,2.36,43.13562,-77.60602,NY,14000,7000,50,43,10,Highland Hospital
10.73,2.95,40.74083,-73.64306,NY,49000,10000,66,50,74,Winthrop-University Hospital
8.85,3.52,40.73265,-73.98162,NY,40000,13000,50,60,39,Beth Israel Medical Center
4.10,2.15,42.73354,-73.67249,NY,16000,6000,50,76,62,Samaritan Hospital
5.99,2.54,40.87062,-73.62249,NY,25000,8000,50,82,85,Glen Cove Hospital
12.21,2.66,40.80462,-73.67023,NY,56000,9000,83,72,94,St Francis Hospital Roslyn
5.95,3.18,40.91276,-73.78720,NY,25000,11000,50,83,6,Sound Shore Medical Center Of Westschester
4.19,2.21,43.30652,-73.64663,NY,16000,7000,50,63,90,Glens Falls Hospital
4.96,3.46,40.75543,-73.81532,NY,20000,13000,25,72,63,Flushing Hospital Medical Center
10.99,3.96,40.63937,-73.99851,NY,50000,15000,50,45,54,Maimonides Medical Center
10.73,3.56,40.75332,-73.70899,NY,49000,13000,50,45,90,Long Island Jewish Medical Center
5.43,4.77,40.58549,-73.96558,NY,22000,19000,25,72,29,Coney Island Hospital
10.45,2.83,40.65189,-73.63096,NY,47000,10000,50,52,43,South Nassau Communities Hospital
8.95,3.17,40.65957,-73.93378,NY,40000,11000,25,77,95,Kingsbrook Jewish Medical Center
6.91,4.37,40.65660,-73.94468,NY,30000,17000,25,73,24,Kings County Hospital Center
4.22,2.52,43.04139,-76.13803,NY,17000,8000,50,41,1,Crouse Hospital
4.61,4.07,40.74178,-73.98236,NY,18000,16000,50,63,24,Bellevue Hospital Center
6.69,3.02,40.96967,-73.88447,NY,29000,11000,50,75,85,St John'S Riverside Hospital
9.73,3.19,40.74335,-73.97408,NY,44000,11000,33,63,21,Nyu Hospitals Center
5.96,2.21,43.22952,-75.44361,NY,25000,7000,0,0,0,Rome Memorial Hospital Inc
3.65,2.94,42.92531,-78.83111,NY,14000,10000,66,63,13,Erie County Medical Center
5.12,3.57,40.70419,-73.91754,NY,21000,13000,50,81,16,Wyckoff Heights Medical Center
9.13,2.86,40.59411,-73.65106,NY,41000,10000,0,0,0,Long Beach Medical Center
4.04,2.46,43.19054,-77.70177,NY,16000,8000,50,45,82,Unity Hospital Of Rochester
3.85,3.67,40.71730,-73.80353,NY,15000,14000,25,83,28,Queens Hospital Center
6.19,2.24,42.74285,-73.67673,NY,26000,7000,50,52,69,Seton Health System-St Mary'S Campus
4.48,3.62,40.65533,-73.91221,NY,18000,14000,50,62,54,Brookdale Hospital Medical Center
15.83,4.11,41.08773,-73.80395,NY,74000,16000,50,42,63,Westchester Medical Center
5.18,3.32,40.66762,-73.97850,NY,21000,12000,33,55,29,New York Methodist Hospital
5.71,3.06,43.04269,-76.14043,NY,24000,11000,66,41,3,University Hospital S U N Y Health Science Center
4.07,2.31,43.08176,-75.26587,NY,16000,7000,66,62,24,St Elizabeth Medical Center
7.25,2.66,40.68896,-73.63259,NY,32000,9000,50,62,37,Mercy Medical Center
7.80,2.84,41.10880,-73.86355,NY,34000,10000,0,0,0,Phelps Memorial Hospital Assn
6.53,2.54,41.50307,-74.01517,NY,28000,8000,33,81,95,St Luke'S Cornwall Hospital
6.64,2.48,41.29201,-73.89529,NY,29000,8000,50,82,76,Hudson Valley Hospital Center
6.19,2.44,41.38421,-73.66323,NY,26000,8000,0,0,0,Putnam Hospital Center
4.63,2.32,42.14073,-77.04745,NY,19000,7000,0,0,0,Corning Hospital
4.80,2.34,42.84782,-78.81264,NY,19000,7000,50,68,13,Mercy Hospital
4.21,2.91,43.12266,-77.62360,NY,16000,10000,50,55,21,Strong Memorial Hospital
12.77,2.91,40.69327,-73.29412,NY,59000,10000,50,70,74,Good Samaritan Hospital Medical Center
5.89,2.54,41.02614,-73.76978,NY,25000,8000,50,62,44,White Plains Hospital Center
5.86,4.00,40.64666,-74.02049,NY,25000,15000,50,67,5,Lutheran Medical Center
2.79,2.24,42.47286,-76.53849,NY,9000,7000,50,78,16,Cayuga Medical Center At Ithaca
6.61,2.71,40.83778,-73.85417,NY,28000,9000,50,66,16,New York Westchester Square Medical Center
7.51,2.62,40.77481,-73.47968,NY,33000,9000,50,56,20,Plainview Hospital
6.46,2.43,40.72593,-73.47844,NY,28000,8000,50,62,56,St Joseph Hospital
3.71,3.73,40.65508,-73.94521,NY,14000,14000,50,66,8,University Hospital Of Brooklyn ( Downstate )
7.49,2.98,40.72931,-73.85219,NY,33000,10000,50,55,13,Forest Hills Hospital
6.38,2.49,40.68104,-73.68633,NY,27000,8000,50,66,69,Franklin Hospital
4.89,2.43,41.70887,-74.73736,NY,20000,8000,0,0,0,Catskill Regional Medical Center
8.76,3.41,40.90922,-73.11520,NY,39000,12000,50,60,44,University Hospital ( Stony Brook )
5.26,2.45,42.11422,-75.95851,NY,22000,8000,66,48,92,United Health Services Hospitals Inc
9.14,4.48,40.59803,-73.75296,NY,41000,18000,50,63,7,St John'S Episcopal Hospital At South Shore
5.05,3.90,40.69947,-73.94279,NY,21000,15000,50,78,77,Woodhull Medical And Mental Health Center
5.29,3.73,40.67816,-73.93768,NY,22000,14000,50,62,90,Interfaith Medical Center
6.38,3.97,40.85263,-73.89184,NY,27000,15000,50,62,44,St Barnabas Hospital
8.62,2.39,40.85738,-73.18681,NY,38000,7000,50,76,88,St Catherine Of Siena Hospital
4.36,2.33,35.43754,-80.60147,NC,17000,7000,66,65,16,Carolinas Medical Center-Northeast
3.83,2.37,35.57658,-82.54922,NC,15000,7000,66,40,81,Memorial Mission Hospital And Asheville Surgery Ce
5.86,2.43,35.95000,-80.00000,NC,25000,8000,50,66,39,High Point Regional Hospital
4.82,2.34,34.75124,-79.46789,NC,19000,7000,0,0,0,Scotland Memorial Hospital
3.28,2.43,35.39772,-77.95250,NC,12000,8000,50,81,8,Wayne Memorial Hospital
3.48,2.22,35.36251,-81.96692,NC,13000,7000,0,0,0,Rutherford Hospital Inc
4.76,2.56,36.07581,-80.29779,NC,19000,8000,50,52,39,Forsyth Memorial Hospital
6.04,2.34,35.68172,-80.47072,NC,26000,7000,50,80,76,Rowan Regional Medical Center
4.17,2.20,35.32080,-82.46812,NC,16000,6000,0,0,0,Margaret R Pardee Memorial Hospital
5.44,2.08,35.46894,-79.18668,NC,23000,6000,50,77,21,Central Carolina Hospital
4.23,2.28,35.30288,-81.53571,NC,17000,7000,50,71,63,Cleveland Regional Medical Center
3.96,2.39,35.00670,-78.32412,NC,15000,7000,0,0,0,Sampson Regional Medical Center
4.40,2.33,35.29053,-77.58307,NC,17000,7000,50,63,63,Lenoir Memorial Hospital
7.63,2.60,35.03156,-78.93205,NC,33000,8000,50,50,18,Cape Fear Valley Medical Center
6.49,3.20,36.00850,-78.94006,NC,28000,11000,66,43,76,Duke University Hospital
4.46,2.33,35.27341,-81.13688,NC,18000,7000,50,70,69,Gaston Memorial Hospital
4.95,2.17,35.79986,-80.87863,NC,20000,6000,50,62,95,Iredell Memorial Hospital Inc
5.26,2.81,35.60726,-77.40477,NC,22000,10000,50,46,1,Pitt County Memorial Hospital
3.74,2.33,34.76273,-77.38582,NC,14000,7000,50,58,17,Onslow Memorial Hospital
4.78,3.01,36.09062,-80.27161,NC,19000,11000,83,55,57,North Carolina Baptist Hospital
5.69,2.67,34.63723,-79.01213,NC,24000,9000,50,71,63,Southeastern Regional Medical Center
3.35,2.58,36.19878,-81.65223,NC,12000,8000,0,0,0,Watauga Medical Center
5.94,2.46,35.22196,-80.83287,NC,25000,8000,50,63,13,Presbyterian Hospital
3.03,2.29,36.49464,-79.73929,NC,11000,7000,0,0,0,Morehead Memorial Hospital
3.52,3.11,35.90529,-79.04963,NC,13000,11000,66,41,1,University Of North Carolina Hospital
5.09,2.51,35.78523,-78.58836,NC,21000,8000,33,50,79,Wakemed Raleigh Campus
2.99,2.25,36.06347,-79.50208,NC,10000,7000,33,60,16,Alamance Regional Medical Center
4.56,2.53,35.30715,-78.63474,NC,18000,8000,0,0,0,Betsy Johnson Regional  Hospital
4.70,2.20,35.82915,-78.61922,NC,19000,6000,50,81,79,Duke Health Raleigh Hospital
5.41,2.49,35.72399,-81.65874,NC,22000,8000,0,0,0,Grace Hospital Inc
8.96,2.55,35.50624,-78.32511,NC,40000,8000,50,55,24,Johnston Memorial Hospital
4.12,2.46,36.09251,-79.78855,NC,16000,8000,66,66,51,Moses H Cone Memorial Hospital The
5.80,2.34,35.21029,-80.82084,NC,24000,7000,50,53,51,Carolinas Med Center-Mercy
5.39,2.29,34.90228,-79.71125,NC,22000,7000,0,0,0,Sandhills Regional Medical Center
5.08,2.55,36.32690,-76.22370,NC,21000,8000,50,76,54,Albemarle Hospital Authority
6.03,2.98,35.20397,-80.83908,NC,25000,10000,66,63,24,Carolinas Medical Center/Behav Health
4.78,2.17,35.81801,-78.70283,NC,19000,6000,50,65,54,Rex Hospital
4.71,2.30,35.20554,-79.45645,NC,19000,7000,66,60,44,Firsthealth Moore Regional Hospital
7.17,2.14,35.73751,-81.33702,NC,31000,6000,50,67,17,Frye Regional Medical Center
3.44,2.26,35.36457,-80.19450,NC,13000,7000,0,0,0,Stanly Regional Medical Center
4.01,2.20,35.71177,-79.81489,NC,15000,7000,50,55,29,Randolph Hospital
5.34,2.40,35.71850,-77.94518,NC,22000,7000,50,68,88,Wilson Medical Center
7.25,2.23,35.54775,-80.85563,NC,32000,7000,50,82,4,Lake Norman Regional Medical Center
3.34,2.42,35.11420,-77.06568,NC,12000,8000,33,73,90,Carolina East Medical Center
7.14,2.33,35.83976,-77.07310,NC,31000,7000,0,0,0,Martin General Hospital
4.79,2.50,34.23786,-77.94764,NC,19000,8000,83,70,57,New Hanover Regional Medical Center
3.44,2.44,34.72615,-76.75452,NC,13000,8000,0,0,0,Carteret General Hospital
4.94,2.33,35.71664,-81.26661,NC,20000,7000,50,72,63,Catawba Valley Medical Center
4.40,2.30,35.81875,-80.82896,NC,17000,7000,0,0,0,Davis Regional Medical Center
3.98,2.49,35.97538,-77.85012,NC,15000,8000,50,65,13,Nash General Hospital
3.99,2.31,36.43295,-77.64729,NC,15000,7000,0,0,0,Halifax Regional Medical Center Inc
4.63,2.41,36.04960,-78.90617,NC,19000,8000,50,51,69,Durham Regional Hospital
3.16,2.25,35.30611,-80.74708,NC,11000,7000,50,75,42,Carolinas Med Ctr-University
5.95,2.25,35.74046,-78.78127,NC,25000,7000,50,72,13,Wakemed Cary Hospital
2.72,2.30,48.23258,-101.28843,ND,9000,7000,50,72,48,Trinity Hospitals
3.83,2.40,46.88496,-96.78609,ND,15000,7000,66,61,48,Sanford Medical Center Fargo
3.46,2.44,46.80798,-100.78229,ND,13000,8000,50,77,5,Medcenter One
4.52,2.43,47.91045,-97.06742,ND,18000,8000,83,53,1,Altru Hospital
4.22,2.26,46.83250,-96.82805,ND,17000,7000,33,77,20,Essentia Health-Fargo
4.24,2.29,39.08582,-84.34886,OH,17000,7000,50,72,85,Mercy Hospital Anderson
5.28,3.22,39.13707,-84.50392,OH,22000,12000,66,45,21,University Hospital Inc
8.02,2.59,40.03064,-83.03440,OH,35000,8000,83,71,21,Riverside Methodist Hospital
4.35,2.43,38.75320,-82.97800,OH,17000,8000,50,61,69,Southern Ohio Medical Center
3.92,2.13,40.73578,-84.08630,OH,15000,6000,75,61,13,Lima Memorial Health System
2.84,2.09,40.51393,-81.45644,OH,10000,6000,0,0,0,Union Hospital
3.77,2.12,40.57098,-83.12972,OH,14000,6000,50,91,48,Marion General Hospital
2.57,2.28,40.11479,-82.94677,OH,8000,7000,50,66,12,Mount Carmel St Ann'S Hospital
4.57,2.32,39.20680,-84.38093,OH,18000,7000,50,76,94,Jewish Hospital Llc
5.62,2.59,39.96098,-82.99077,OH,23000,8000,66,78,21,Grant Medical Center
8.23,2.34,41.01476,-81.58913,OH,36000,7000,50,77,43,Summa Health System Barberton Hospital
7.03,2.44,41.08161,-81.50007,OH,30000,8000,66,63,33,Summa Health Systems Hospitals
6.24,2.24,41.44642,-82.70864,OH,27000,7000,50,86,18,Firelands Regional Medical Center
4.70,2.13,39.70022,-83.92782,OH,19000,6000,0,0,0,Greene Memorial Hospital
5.63,2.37,41.07747,-81.53042,OH,24000,7000,66,70,63,Akron General Medical Center
3.37,2.38,39.95805,-83.02191,OH,12000,7000,66,42,1,Mount Carmel Health
2.90,2.12,40.82041,-81.93422,OH,10000,6000,0,0,0,Wooster Community Hospital
3.97,2.31,39.97510,-82.01812,OH,15000,7000,50,78,92,Genesis Healthcare System
3.86,2.07,41.38265,-81.73127,OH,15000,6000,50,75,94,Parma Community General Hospital
4.49,2.71,41.61788,-83.61632,OH,18000,9000,66,68,6,University Of Toledo Medical Center
7.54,2.43,39.74547,-84.18523,OH,33000,8000,66,45,1,Miami Valley Hospital
7.05,2.40,39.78778,-84.23493,OH,31000,7000,66,56,16,Good Samaritan Hospital
5.31,2.24,38.84439,-82.23902,OH,22000,7000,0,0,0,Holzer Medical Center
4.25,2.14,41.23549,-80.79865,OH,17000,6000,66,56,0,Trumbull Memorial Hospital
