size_charge,size_pay,lat,lon,charge,pay,AcquiredInfect,AcquiredConditions,PatientSafetySummary,name
6.05,2.19,31.21673,-85.36307,25581.00,6426.39,0.50,0.51,0.21,SOUTHEAST ALABAMA MEDICAL CENTER
5.51,2.11,34.80175,-87.67514,22928.33,6046.74,0.50,0.65,0.03,ELIZA COFFEE MEMORIAL HOSPITAL
5.85,2.15,33.59616,-86.66750,24594.07,6213.86,0.67,0.79,0.01,ST VINCENT'S EAST
7.82,2.51,33.25607,-86.81035,34376.94,8037.47,0.83,0.70,0.64,SHELBY BAPTIST MEDICAL CENTER
3.84,2.17,34.74649,-87.69895,14626.59,6317.00,0.50,0.91,0.33,HELEN KELLER MEMORIAL HOSPITAL
4.77,2.38,32.32785,-86.27750,19261.41,7375.44,0.50,0.68,0.54,BAPTIST MEDICAL CENTER SOUTH
5.62,2.19,32.36656,-86.28572,23469.31,6455.38,0.50,0.69,0.83,JACKSON HOSPITAL & CLINIC INC
3.15,2.16,32.63806,-85.40413,11207.14,6293.14,0.50,0.80,0.14,EAST ALABAMA MEDICAL CENTER AND SNF
5.95,2.58,33.50619,-86.80210,25077.21,8382.12,0.67,0.45,0.11,UNIVERSITY OF ALABAMA HOSPITAL
5.35,2.13,34.20768,-86.87489,22116.34,6133.25,0.50,0.64,0.80,CULLMAN REGIONAL MEDICAL CENTER
6.52,2.30,34.72007,-86.58108,27937.50,6961.01,0.50,0.65,0.45,HUNTSVILLE HOSPITAL
15.57,2.23,34.00941,-85.97078,72863.16,6638.47,0.67,0.68,0.28,GADSDEN REGIONAL MEDICAL CENTER
11.48,2.39,34.00426,-86.00339,52571.65,7424.24,0.75,0.81,0.91,RIVERVIEW REGIONAL MEDICAL CENTER
9.18,2.10,31.23767,-85.45625,41132.29,6000.24,0.50,0.55,0.80,FLOWERS HOSPITAL
4.50,2.04,33.50734,-86.78958,17898.84,5675.12,0.50,0.72,0.21,ST VINCENT'S BIRMINGHAM
3.03,2.12,32.94573,-85.98570,10587.92,6102.15,0.50,0.71,0.05,RUSSELL HOSPITAL
4.33,2.10,33.65640,-85.82284,17064.53,5969.25,0.50,0.60,0.05,NORTHEAST ALABAMA REGIONAL MED CENTER
2.28,2.13,34.59052,-86.97262,6896.67,6123.27,0.50,0.78,0.54,DECATUR GENERAL HOSPITAL
2.95,2.76,30.70623,-88.09909,10222.33,9255.92,0.25,0.61,0.03,UNIV OF SOUTH ALABAMA MEDICAL CENTER
5.55,2.19,33.83218,-87.30385,23120.57,6443.36,0.50,0.79,0.96,WALKER BAPTIST MEDICAL CENTER
5.07,2.11,30.68199,-88.19897,20744.70,6022.30,0.83,0.86,0.01,PROVIDENCE HOSPITAL
4.67,2.26,33.20521,-87.52546,18758.39,6792.73,0.67,0.66,0.21,D C H REGIONAL MEDICAL CENTER
4.48,2.01,30.51916,-87.88842,17816.00,5561.00,0.50,0.90,0.17,THOMAS HOSPITAL
7.22,2.38,33.49854,-86.84633,31412.98,7372.56,0.67,0.70,0.08,BAPTIST MEDICAL CENTER-PRINCETON
15.86,2.74,33.51420,-86.74859,74281.27,9162.47,0.67,0.28,0.11,TRINITY MEDICAL CENTER
2.71,2.08,32.43516,-88.32614,9024.50,5863.42,0.00,0.00,0.00,BRYAN W WHITFIELD MEM HOSP INC
5.77,2.18,30.69697,-88.08081,24186.63,6358.96,0.67,0.55,0.25,MOBILE INFIRMARY
5.69,2.47,32.43020,-87.05515,23798.04,7827.61,0.50,0.91,0.32,VAUGHAN REG MED CENTER PARKWAY CAMPUS
8.21,2.16,34.69279,-86.57179,36300.50,6259.75,0.50,0.78,0.33,CRESTWOOD MEDICAL CENTER
18.40,2.18,33.46420,-86.77409,86913.43,6361.21,0.50,0.65,0.30,BROOKWOOD MEDICAL CENTER
3.63,2.00,30.68546,-88.13170,13595.10,5489.10,0.50,0.81,0.07,SPRINGHILL MEDICAL CENTER
9.57,2.26,33.16547,-86.25380,43061.00,6776.18,0.00,0.00,0.00,COOSA VALLEY MEDICAL CENTER
10.73,3.53,60.94901,-149.17033,48853.76,13086.93,0.50,0.81,0.91,PROVIDENCE ALASKA MEDICAL CENTER
5.70,2.80,33.50277,-112.17044,23846.38,9476.94,0.00,0.00,0.00,MARYVALE HOSPITAL
6.54,2.64,33.46514,-112.05797,28038.15,8660.56,0.50,0.49,0.70,BANNER GOOD SAMARITAN MEDICAL CENTER
4.86,2.48,32.25294,-110.88135,19703.47,7866.89,0.50,0.49,0.03,TUCSON MEDICAL CENTER
9.14,2.93,34.73471,-112.03149,40928.00,10104.55,0.50,0.74,0.83,VERDE VALLEY MEDICAL CENTER
5.88,2.36,32.22734,-111.00065,24771.71,7276.35,0.33,0.75,0.64,CARONDELET ST  MARYS HOSPITAL
6.60,2.25,32.22685,-110.85520,28321.33,6733.67,0.67,0.55,0.21,CARONDELET ST JOSEPHS HOSPITAL
5.65,2.46,34.56017,-112.48217,23598.22,7792.50,0.25,0.68,0.17,YAVAPAI REGIONAL MEDICAL CENTER
5.78,2.56,32.68274,-114.63506,24269.21,8268.14,0.50,0.64,0.70,YUMA REGIONAL MEDICAL CENTER
7.39,2.39,33.56894,-112.07108,32229.82,7405.64,0.50,0.80,0.16,JOHN C LINCOLN NORTH MOUNTAIN HOSPITAL
6.75,2.57,32.88123,-111.71067,29087.84,8341.29,0.50,0.81,0.11,CASA GRANDE REGIONAL MEDICAL CENTER
10.43,3.28,35.20923,-111.64486,47339.85,11850.65,0.67,0.79,0.89,FLAGSTAFF MEDICAL CENTER
7.36,2.96,33.48073,-112.07948,32099.17,10255.63,0.33,0.53,0.11,ST JOSEPH'S HOSPITAL AND MEDICAL CENTER
5.83,2.64,33.52511,-112.10189,24494.81,8642.88,0.50,0.71,0.57,PHOENIX BAPTIST HOSPITAL
8.19,2.36,33.29750,-111.87461,36241.62,7278.66,0.50,0.79,0.54,CHANDLER REGIONAL MEDICAL CENTER
7.75,2.36,33.48885,-111.92387,34028.68,7262.73,0.67,0.76,0.54,SCOTTSDALE HEALTHCARE-OSBORN MEDICAL CENTER
8.94,2.21,33.60432,-112.28378,39962.81,6552.00,0.83,0.75,0.96,BANNER BOSWELL MEDICAL CENTER
6.20,3.20,32.24152,-110.94631,26354.18,11466.75,0.50,0.38,0.39,UNIVERSITY OF ARIZONA MEDICAL CTR-UNIVERSIT THE
6.08,2.43,33.39097,-111.87638,25747.98,7648.29,0.67,0.80,0.57,BANNER DESERT MEDICAL CENTER
6.23,2.34,34.47988,-114.33938,26490.50,7181.17,0.50,0.70,0.57,HAVASU REGIONAL MEDICAL CENTER
2.50,2.72,36.13579,-111.23718,7976.50,9062.33,0.00,0.00,0.00,TUBA CITY REGIONAL HEALTH CARE CORPORATION
6.28,2.29,32.32103,-111.01102,26728.85,6906.69,0.50,0.71,0.20,NORTHWEST MEDICAL CENTER
8.42,2.40,33.58235,-111.88527,37360.32,7453.00,0.67,0.69,0.64,SCOTTSDALE HEALTHCARE-SHEA MEDICAL CENTER
7.49,2.24,33.41128,-111.68916,32761.00,6674.63,0.50,0.70,0.64,BANNER BAYWOOD MEDICAL CENTER
7.09,2.46,33.60949,-112.18129,30740.21,7751.88,0.67,0.74,0.76,BANNER THUNDERBIRD MEDICAL CENTER
5.90,2.36,33.66596,-112.11618,24828.84,7298.89,0.50,0.74,0.70,JOHN C LINCOLN DEER VALLEY HOSPITAL
9.04,2.26,33.65965,-112.37283,40418.89,6787.95,0.50,0.78,0.97,BANNER DEL E WEBB MEDICAL CENTER
5.03,2.44,33.65497,-112.20040,20535.94,7667.94,0.50,0.90,0.39,ARROWHEAD HOSPITAL
12.00,2.37,35.11068,-114.55505,55127.09,7309.09,0.50,0.88,0.64,WESTERN ARIZONA REGIONAL MEDICAL CTR
6.52,3.05,33.65947,-111.95626,27907.68,10716.26,0.67,0.54,0.96,MAYO CLINIC HOSPITAL
5.84,2.52,33.46202,-112.35299,24534.17,8063.74,0.75,0.65,0.69,WEST VALLEY HOSPITAL
7.41,2.54,33.47818,-112.25744,32371.91,8153.18,0.50,0.59,0.70,BANNER ESTRELLA MEDICAL CENTER
8.04,2.42,33.28686,-111.75246,35480.75,7591.30,0.50,0.64,0.64,MERCY GILBERT MEDICAL CENTER
7.83,2.43,33.39128,-111.61125,34420.59,7602.76,0.50,0.60,0.11,MOUNTAIN VISTA MEDICAL CENTER LP
6.33,2.30,33.38269,-111.72100,26984.82,7002.27,0.50,0.70,0.58,BANNER GATEWAY MEDICAL CENTER
6.00,2.24,36.10940,-94.16036,25368.61,6665.39,0.33,0.78,0.74,WASHINGTON REGIONAL MED CTR AT NORTH HILLS
5.33,2.25,34.75031,-92.33897,22036.07,6726.44,0.67,0.64,0.83,ST VINCENT INFIRMARY MEDICAL CENTER
4.62,2.10,36.31007,-94.18471,18475.92,6009.08,0.50,0.68,0.45,MERCY MEDICAL CENTER
3.69,2.14,35.25046,-91.70056,13882.64,6174.73,0.50,0.61,0.64,WHITE COUNTY MEDICAL CENTER
4.63,2.73,34.74866,-92.35422,18557.63,9112.18,0.50,0.51,0.33,UAMS MEDICAL CENTER
2.90,2.28,35.83746,-90.70386,9977.10,6900.80,0.50,0.75,0.03,ST BERNARDS MEDICAL CTR
5.53,2.19,36.18082,-94.13644,23037.96,6445.73,0.50,0.69,0.30,NW ARKANSAS HOSPITALS LLC
4.63,2.16,34.46784,-93.06667,18540.00,6301.12,0.67,0.66,0.86,ST JOSEPHS MERCY HEALTH CENTER INC
3.63,2.09,36.34295,-92.39442,13598.27,5916.33,0.50,0.65,0.58,BAXTER REGIONAL MEDICAL CENTER
3.89,2.11,34.77770,-92.12539,14863.11,6015.24,0.50,0.60,0.14,BAPTIST HEALTH MEDICAL CENTER NORTH LITTLE ROCK
5.26,2.24,35.28275,-93.14901,21653.00,6658.67,0.00,0.00,0.00,ST MARYS REGIONAL MEDICAL CENTER
5.46,2.53,35.14320,-90.18837,22668.88,8099.91,0.00,0.00,0.00,CRITTENDEN MEMORIAL HOSPITAL
4.32,2.19,35.37445,-94.41868,17001.12,6442.10,0.50,0.54,0.86,SPARKS REGIONAL MEDICAL CENTER
7.17,2.22,35.35395,-94.35262,31135.15,6594.30,0.50,0.66,0.11,ST EDWARD MERCY MEDICAL CENTER
7.42,2.47,34.18894,-92.01886,32418.14,7802.30,0.50,0.75,0.05,JEFFERSON REGIONAL MEDICAL CENTER
9.36,2.26,34.48600,-93.03521,42039.76,6785.06,0.50,0.51,0.08,NATIONAL PARK MEDICAL CENTER
5.71,2.23,34.74866,-92.35422,23914.56,6633.80,0.50,0.44,0.21,BAPTIST HEALTH MEDICAL CENTER-LITTLE ROCK
6.73,2.26,35.80838,-90.66658,28988.96,6799.83,0.50,0.57,0.70,NEA BAPTIST MEMORIAL HOSPITAL
5.16,2.31,35.76927,-91.63408,21160.80,7033.53,0.33,0.64,0.38,WHITE RIVER MEDICAL CENTER
20.81,3.42,37.63362,-122.08802,98865.45,12548.75,0.50,0.60,0.07,ST ROSE HOSPITAL
10.89,2.60,37.59283,-122.38249,49639.52,8475.00,0.50,0.71,0.33,PENINSULA MEDICAL CENTER
11.94,2.81,38.32472,-122.29671,54845.65,9490.82,0.50,0.72,0.83,QUEEN OF THE VALLEY MEDICAL CENTER
9.57,3.08,38.57053,-121.45216,43077.83,10834.91,0.83,0.54,0.28,MERCY GENERAL HOSPITAL
5.11,3.45,34.06505,-118.23913,20942.16,12696.84,0.00,0.00,0.00,PACIFIC ALLIANCE MEDICAL CENTER
14.53,2.92,33.97659,-117.38184,67719.62,10049.46,0.50,0.65,0.58,RIVERSIDE COMMUNITY HOSPITAL
5.42,2.90,32.68425,-117.08161,22486.21,9942.00,0.00,0.00,0.00,PARADISE VALLEY HOSPITAL
5.58,3.35,32.75426,-117.16592,23278.25,12181.00,0.50,0.72,0.70,UNIVERSITY OF CALIFORNIA SAN DIEGO MEDICAL CENTER
7.88,2.57,32.77495,-117.01467,34700.48,8308.94,0.83,0.71,0.33,GROSSMONT HOSPITAL
7.97,2.65,39.50528,-121.54100,35117.24,8718.00,0.50,0.74,0.64,OROVILLE HOSPITAL
9.71,2.68,35.38736,-119.01690,43782.81,8855.57,0.33,0.85,0.80,BAKERSFIELD MEMORIAL HOSPITAL
9.62,4.18,37.31288,-121.93329,43307.31,16315.31,0.67,0.65,0.02,SANTA CLARA VALLEY MEDICAL CENTER
8.77,2.39,39.74221,-121.85000,39078.95,7428.51,0.83,0.71,0.48,ENLOE MEDICAL CENTER
9.61,3.18,37.82206,-122.26275,43281.33,11357.69,0.50,0.64,0.32,ALTA BATES SUMMIT MEDICAL CENTER
8.26,2.86,32.78037,-115.56848,36555.97,9746.06,0.50,0.97,0.70,EL CENTRO REGIONAL MEDICAL CENTER
14.02,3.75,37.79100,-122.43125,65150.00,14174.72,0.83,0.64,0.11,CALIFORNIA PACIFIC MEDICAL CTR-PACIFIC CAMPUS HOSP
6.34,2.82,34.67486,-118.15771,27011.70,9584.00,0.50,0.68,0.45,ANTELOPE VALLEY HOSPITAL MED CENTER
9.21,2.69,36.32737,-119.29548,41292.00,8936.66,0.50,0.56,0.12,KAWEAH DELTA MEDICAL CENTER
10.42,3.12,34.12834,-118.25777,47278.53,11059.21,0.50,0.72,0.45,GLENDALE MEM HOSPITAL & HLTH CENTER
7.46,3.03,36.73000,-119.78000,32617.09,10614.06,0.50,0.71,0.00,COMMUNITY REGIONAL MEDICAL CENTER
8.16,3.43,34.09643,-118.29103,36058.18,12579.45,0.75,0.76,0.74,HOLLYWOOD PRESBYTERIAN MEDICAL CENTER
13.14,2.73,33.78036,-117.86495,60804.32,9127.03,0.50,0.60,0.89,ST JOSEPH HOSPITAL
8.97,2.91,32.75143,-117.16083,40091.63,10018.08,0.33,0.62,0.70,SCRIPPS MERCY HOSPITAL
12.51,2.53,33.73798,-118.30525,57690.09,8098.00,0.50,0.81,0.82,PROVIDENCE LITTLE CO OF MARY MED CTR SAN PEDRO
7.85,2.97,37.95337,-122.33672,34509.19,10305.88,0.50,0.64,0.19,DOCTORS MEDICAL CENTER-SAN PABLO
8.99,2.61,34.21674,-119.15631,40190.58,8515.19,0.50,0.64,0.07,ST JOHNS REGIONAL MEDICAL CENTER
12.96,2.79,37.96987,-121.28873,59902.02,9426.67,0.83,0.69,0.97,ST JOSEPHS MED CENTER OF STOCKTON
7.08,2.59,36.83532,-119.76562,30716.22,8417.49,0.50,0.66,0.58,SAINT AGNES MEDICAL CENTER
6.59,2.45,34.10130,-117.63651,28269.58,7740.58,0.50,0.66,0.86,SAN ANTONIO COMMUNITY HOSPITAL
13.11,3.05,32.79949,-117.15394,60663.88,10708.02,0.67,0.62,0.11,SHARP MEMORIAL HOSPITAL
7.38,3.20,38.13118,-122.23732,32217.79,11448.29,0.50,0.81,0.29,SUTTER SOLANO MEDICAL CENTER
10.02,2.75,33.92798,-117.43847,45297.50,9203.33,0.50,0.89,0.25,PARKVIEW COMMUNITY HOSPITAL MEDICAL CENTER
11.91,3.37,34.04932,-118.21746,54685.86,12279.86,0.25,0.74,0.99,WHITE MEMORIAL MEDICAL CENTER
8.80,3.40,33.92963,-118.20332,39235.58,12437.05,0.67,0.79,0.33,SAINT FRANCIS MEDICAL CENTER
11.97,3.31,38.57155,-121.46874,54996.44,11988.22,0.83,0.78,0.80,SUTTER GENERAL HOSPITAL
9.74,3.03,34.07558,-118.28424,43924.12,10591.84,0.00,0.00,0.00,TEMPLE COMMUNITY HOSPITAL
9.36,2.78,34.02685,-118.48651,42040.42,9371.29,0.50,0.76,0.21,SANTA MONICA - UCLA MED CTR & ORTHOPAEDIC HOSPITAL
8.40,2.51,33.12535,-117.07336,37263.92,8002.75,0.50,0.55,0.70,PALOMAR MEDICAL CENTER
10.62,2.77,34.22014,-118.53410,48278.64,9289.95,0.33,0.56,0.45,NORTHRIDGE HOSPITAL MEDICAL CENTER
7.54,2.65,36.32362,-119.66726,33000.97,8709.45,0.50,0.89,0.25,ADVENTIST MEDICAL CENTER
16.68,3.53,37.36257,-121.84974,78375.50,13102.88,0.50,0.70,0.02,REGIONAL MEDICAL CENTER OF SAN JOSE
8.38,2.99,34.19494,-118.46319,37139.47,10395.65,0.50,0.78,0.76,VALLEY PRESBYTERIAN HOSPITAL
9.01,2.68,33.18402,-117.29661,40278.42,8866.70,0.50,0.57,0.21,TRI-CITY MEDICAL CENTER
11.28,2.79,34.13495,-117.27603,51560.12,9416.06,0.50,0.66,0.48,ST BERNARDINE MEDICAL CENTER
17.79,3.22,34.10081,-118.10588,83886.31,11555.44,0.00,0.00,0.00,SAN GABRIEL VALLEY MEDICAL CENTER
9.42,2.66,39.13822,-121.59436,42322.41,8751.82,0.50,0.51,0.21,RIDEOUT MEMORIAL HOSPITAL
3.74,2.46,34.07225,-117.43197,14128.54,7749.08,0.67,0.62,0.64,KAISER FOUNDATION HOSPITAL FONTANA
12.75,3.31,37.78963,-122.41700,58840.40,11987.47,0.75,0.70,0.30,SAINT FRANCIS MEMORIAL HOSPITAL
14.95,3.17,37.32710,-121.93863,69804.68,11292.89,0.67,0.71,0.38,O'CONNOR HOSPITAL
6.38,3.32,34.28029,-119.25410,27232.00,12030.00,0.50,0.49,0.03,VENTURA COUNTY MEDICAL CENTER
14.10,2.47,33.89465,-117.92716,65558.68,7817.18,0.67,0.71,0.91,ST JUDE MEDICAL CENTER
12.56,2.54,33.96860,-118.04831,57933.48,8165.81,0.50,0.46,0.16,PRESBYTERIAN INTERCOMMUNITY HOSPITAL
10.03,2.78,38.44369,-122.70138,45347.56,9359.38,0.67,0.86,0.58,SANTA ROSA MEMORIAL HOSPITAL
17.20,3.29,37.51164,-120.83800,80939.38,11882.58,0.33,0.86,0.16,EMANUEL MEDICAL CENTER INC
20.02,3.11,37.91341,-122.04163,94948.09,10982.66,0.50,0.62,0.33,JOHN MUIR MEDICAL CENTER - WALNUT CREEK CAMPUS
9.91,3.15,33.77991,-118.18602,44766.69,11207.92,0.50,0.82,0.94,ST MARY MEDICAL CENTER
17.86,3.56,36.92821,-121.79360,84240.15,13255.85,0.00,0.00,0.00,WATSONVILLE COMMUNITY HOSPITAL
21.87,3.29,37.55717,-121.98126,104133.85,11892.26,0.50,0.54,0.89,WASHINGTON HOSPITAL
9.99,2.58,34.58305,-118.14490,45157.85,8380.94,0.50,0.86,0.54,PALMDALE REGIONAL MEDICAL CENTER
8.75,2.83,34.12865,-117.86501,39016.91,9625.64,0.00,0.00,0.00,EAST VALLEY HOSPITAL MEDICAL CENTER
16.73,2.97,32.61972,-117.02278,78610.97,10291.54,0.50,0.71,0.58,SHARP CHULA VISTA MEDICAL CENTER
7.07,2.49,33.62229,-117.92995,30662.07,7918.47,0.50,0.70,0.51,HOAG MEMORIAL HOSPITAL PRESBYTERIAN
14.93,2.70,33.84780,-117.93661,69681.73,8978.63,0.50,0.74,0.58,AHMC ANAHEIM REGIONAL MEDICAL CENTER
10.32,4.11,37.75676,-122.40461,46787.50,15955.55,0.75,0.51,0.12,SAN FRANCISCO GENERAL HOSPITAL
7.00,3.30,33.77483,-117.91329,30324.50,11953.65,0.50,0.85,0.98,GARDEN GROVE HOSPITAL & MEDICAL CENTER
11.95,2.97,34.07709,-117.75063,54879.73,10302.45,0.33,0.74,0.98,POMONA VALLEY HOSPITAL MEDICAL CENTER
15.31,2.60,34.15601,-118.32834,71543.54,8485.00,0.50,0.80,0.97,PROVIDENCE SAINT JOSEPH MEDICAL CTR
9.48,2.43,34.28920,-118.74484,42612.00,7638.20,0.50,0.90,0.93,SIMI VALLEY HOSPITAL & HEALTH CARE SERVICES
8.07,2.63,34.13973,-118.03534,35605.04,8598.53,0.50,0.45,0.11,METHODIST HOSPITAL OF SOUTHERN CA
13.27,3.11,34.14987,-118.23117,61426.95,11014.61,0.67,0.75,0.89,GLENDALE ADVENTIST MEDICAL CENTER
15.25,2.66,33.83862,-116.54557,71251.48,8748.10,0.67,0.81,0.03,DESERT REGIONAL MEDICAL CENTER
5.25,3.34,34.07389,-117.35111,21648.73,12122.82,0.33,0.81,0.07,ARROWHEAD REGIONAL MEDICAL CENTER
7.73,2.78,36.06956,-119.02748,33949.23,9375.82,0.00,0.00,0.00,SIERRA VIEW DISTRICT HOSPITAL
10.98,4.08,34.06675,-118.44613,50049.69,15813.62,0.50,0.28,0.33,RONALD REAGAN UCLA MEDICAL CENTER
5.44,2.30,34.03721,-117.20474,22560.55,6960.73,0.50,0.93,0.70,REDLANDS COMMUNITY HOSPITAL
12.89,3.19,33.80733,-118.19305,59556.14,11384.14,0.00,0.00,0.00,PACIFIC HOSPITAL OF LONG BEACH
15.74,2.81,34.27915,-118.46006,73690.00,9509.55,0.50,0.80,0.25,PROVIDENCE HOLY CROSS MEDICAL CENTER
8.00,2.94,40.58654,-122.39168,35270.77,10154.13,0.83,0.71,0.45,MERCY MEDICAL CENTER REDDING
13.69,3.04,37.67947,-122.47447,63549.11,10670.44,0.50,0.62,0.25,SETON MEDICAL CENTER
8.90,2.35,34.03009,-118.47833,39720.29,7206.58,0.50,0.81,0.76,SAINT JOHN'S HEALTH CENTER
17.56,4.27,33.91173,-117.19590,82741.71,16757.10,0.50,0.78,0.52,RIVERSIDE COUNTY REGIONAL MEDICAL CENTER
11.55,2.55,35.37279,-119.02817,52906.83,8239.65,0.50,0.70,0.83,MERCY HOSPITAL
5.32,2.63,34.50107,-117.17285,21985.75,8610.83,0.50,0.88,0.20,ST MARY MEDICAL CENTER
10.98,3.31,37.85593,-122.25730,50046.63,12002.97,0.50,0.56,0.08,ALTA BATES SUMMIT MEDICAL CENTER - ALTA BATES CAMP
12.83,2.69,37.36934,-122.08047,59249.12,8918.35,0.67,0.49,0.07,EL CAMINO HOSPITAL
10.71,2.61,38.76514,-121.24979,48717.78,8523.74,0.67,0.78,0.16,SUTTER ROSEVILLE MEDICAL CENTER
8.06,2.54,37.74409,-121.43469,35589.70,8167.96,0.00,0.00,0.00,SUTTER TRACY COMMUNITY HOSPITAL
5.50,3.84,37.79943,-122.23307,22881.39,14634.56,0.67,0.57,0.13,ALAMEDA COUNTY MEDICAL CENTER
10.58,3.54,34.05076,-117.26395,48093.90,13116.92,0.50,0.55,0.16,LOMA LINDA UNIVERSITY MEDICAL CENTER
7.08,2.69,33.87236,-117.56809,30715.76,8932.59,0.50,0.79,0.82,CORONA REGIONAL MEDICAL CENTER
9.54,3.13,36.65910,-121.64630,42936.97,11111.97,0.50,0.70,0.38,SALINAS VALLEY MEMORIAL HOSPITAL
9.68,2.86,37.97780,-120.37150,43630.92,9751.00,0.00,0.00,0.00,SONORA REGIONAL MEDICAL CENTER
16.88,2.58,38.12186,-121.28665,79351.29,8360.50,1.00,0.70,0.94,LODI MEMORIAL HOSPITAL
6.14,2.77,32.95813,-115.55388,26029.62,9291.81,0.50,0.91,0.93,PIONEERS MEMORIAL HEALTHCARE DISTRICT
13.87,3.90,33.78798,-117.89026,64406.00,14920.95,0.67,0.56,0.11,UNIVERSITY OF CALIFORNIA IRVINE MED CENTER
5.13,2.88,34.01501,-118.10064,21046.47,9850.27,0.50,0.89,0.74,BEVERLY HOSPITAL
12.55,2.54,33.81131,-118.34364,57854.02,8194.17,0.67,0.68,0.89,TORRANCE MEMORIAL MEDICAL CENTER
9.90,2.55,33.83891,-118.35677,44694.49,8225.77,0.50,0.86,0.94,PROVIDENCE LITTLE COMPANY OF MARY MED CTR TORRANCE
9.42,2.82,37.94748,-122.53677,42330.15,9537.10,0.50,0.64,0.16,MARIN GENERAL HOSPITAL
13.24,3.12,38.26174,-122.04662,61278.33,11062.06,0.50,0.69,0.30,NORTHBAY MEDICAL CENTER
9.67,3.97,33.83043,-118.29402,43543.31,15245.85,0.67,0.75,0.03,LAC/HARBOR-UCLA MED CENTER
12.12,2.79,37.25153,-121.94684,55715.56,9394.59,0.33,0.64,0.03,GOOD SAMARITAN HOSPITAL
8.74,3.03,34.08802,-117.89341,38933.89,10624.58,0.67,0.68,0.29,CITRUS VALLEY MEDICAL CENTER-IC CAMPUS
5.80,2.54,33.75117,-116.96028,24336.76,8162.10,0.50,0.74,0.83,HEMET VALLEY MEDICAL CENTER
11.52,2.77,33.93530,-118.13030,52735.50,9327.18,0.50,0.90,0.83,DOWNEY REGIONAL MEDICAL CENTER
7.40,2.41,34.27459,-119.25812,32307.37,7531.89,0.50,0.54,0.08,COMMUNITY MEMORIAL HOSPITAL SAN BUENAVENTURA
11.77,3.11,34.42951,-119.72333,53999.13,11010.60,0.67,0.72,0.32,SANTA BARBARA COTTAGE HOSPITAL
8.78,2.60,32.89810,-117.24217,39130.20,8472.53,0.50,0.75,0.38,SCRIPPS GREEN HOSPITAL
7.06,2.56,33.82557,-117.99493,30595.00,8289.78,0.50,0.91,0.98,WEST ANAHEIM MEDICAL CENTER
10.41,2.69,34.13364,-118.15275,47229.93,8895.80,0.67,0.65,0.58,HUNTINGTON MEMORIAL HOSPITAL
30.00,6.21,37.43436,-122.18013,144497.20,26377.85,0.50,0.59,0.28,STANFORD HOSPITAL
5.84,2.87,37.34027,-120.46817,24572.39,9824.28,0.50,0.78,0.38,MERCY MEDICAL CENTER
20.67,5.15,37.76421,-122.45716,98194.33,21104.23,0.67,0.53,0.91,UCSF MEDICAL CENTER
7.37,2.63,35.38338,-119.01969,32171.00,8597.94,0.33,0.86,0.07,SAN JOAQUIN COMMUNITY HOSPITAL
19.85,2.89,37.66540,-120.99743,94124.13,9883.70,0.67,0.66,0.10,DOCTORS MEDICAL CENTER
5.89,2.86,33.89307,-118.29506,24803.36,9783.45,0.50,0.96,0.99,MEMORIAL HOSPITAL OF GARDENA
11.28,3.06,34.05336,-118.26558,51575.27,10775.57,0.50,0.69,0.80,GOOD SAMARITAN HOSPITAL
18.33,2.46,34.20285,-118.62962,86541.67,7756.44,0.50,0.61,0.14,WEST HILLS HOSPITAL & MEDICAL CENTER
9.15,2.87,33.80861,-118.18661,40993.94,9793.87,0.67,0.65,0.28,LONG BEACH MEMORIAL MEDICAL CENTER
8.05,2.94,37.69824,-122.08730,35523.00,10158.10,0.67,0.61,0.54,EDEN MEDICAL CENTER
13.94,2.79,37.98396,-122.03464,64754.55,9432.11,0.50,0.76,0.98,JOHN MUIR MEDICAL CENTER - CONCORD CAMPUS
10.32,3.16,34.06389,-118.27347,46792.41,11224.38,0.50,0.80,0.99,SAINT VINCENT MEDICAL CENTER
10.95,2.48,33.03634,-117.28487,49945.32,7895.63,0.50,0.65,0.05,SCRIPPS MEMORIAL HOSPITAL - ENCINITAS
6.53,2.79,37.63058,-122.09502,27997.64,9397.27,0.67,0.76,0.33,KAISER FOUNDATION HOSPITAL FREMONT/HAYWARD
8.42,2.70,38.66956,-121.31378,37359.39,8948.06,0.67,0.66,0.30,MERCY SAN JUAN MEDICAL CENTER
8.87,3.00,37.98224,-121.80362,39601.06,10460.18,0.50,0.59,0.25,SUTTER DELTA MEDICAL CENTER
10.41,2.98,33.68179,-116.23394,47230.59,10338.91,0.50,0.70,0.16,JOHN F KENNEDY MEMORIAL HOSPITAL INC
20.33,3.20,34.20777,-118.88305,96479.18,11441.86,0.50,0.51,0.70,LOS ROBLES HOSPITAL & MEDICAL CENTER
12.04,2.59,33.80441,-118.06665,55321.00,8434.73,0.50,0.50,0.48,LOS ALAMITOS MEDICAL CENTER
13.20,2.70,37.66867,-120.97339,61107.62,8945.03,0.67,0.80,0.54,MEMORIAL  MEDICAL CENTER
9.46,2.40,33.56100,-117.66530,42548.14,7489.32,0.67,0.59,0.13,MISSION HOSPITAL REGIONAL MED CENTER
11.88,2.99,33.71466,-117.93322,54515.08,10396.08,0.50,0.86,0.33,FOUNTAIN VALLEY REGIONAL HOSPITAL & MEDICAL CENTER
16.58,2.49,33.76335,-116.40628,77883.50,7938.81,0.50,0.56,0.39,EISENHOWER MEDICAL CENTER
12.05,2.64,33.84932,-118.15323,55372.21,8691.00,0.83,0.80,0.13,LAKEWOOD REGIONAL MEDICAL CENTER
4.78,2.70,34.02561,-117.68583,19286.08,8975.38,0.00,0.00,0.00,CHINO VALLEY MEDICAL CENTER
7.67,3.01,38.46387,-121.41645,33615.40,10480.70,0.50,0.60,0.58,METHODIST HOSPITAL OF SACRAMENTO
18.94,3.96,38.55484,-121.45628,89605.91,15212.22,0.50,0.50,0.03,UNIVERSITY OF CALIFORNIA DAVIS MEDICAL CENTER
9.90,2.49,33.60883,-117.70881,44725.18,7915.53,0.50,0.70,0.91,SADDLEBACK MEMORIAL MEDICAL CENTER
7.78,3.12,35.76216,-119.23889,34182.64,11031.27,0.00,0.00,0.00,DELANO REGIONAL MEDICAL CENTER
13.91,2.44,34.39755,-118.55330,64638.20,7666.00,0.50,0.60,0.21,HENRY MAYO NEWHALL MEMORIAL HOSPITAL
15.28,3.31,34.07664,-118.37955,71432.45,11993.28,1.00,0.59,0.48,CEDARS-SINAI MEDICAL CENTER
8.61,2.25,32.99711,-117.05783,38324.83,6717.50,0.50,0.85,0.78,POMERADO HOSPITAL
4.82,3.22,34.01936,-118.18661,19474.53,11543.00,0.50,0.90,0.64,LOS ANGELES COMMUNITY HOSPITAL
6.52,2.41,33.70167,-117.95566,27932.00,7505.77,0.50,0.82,0.89,ORANGE COAST MEMORIAL MEDICAL CENTER
9.72,3.04,37.03560,-121.57109,43808.42,10642.08,0.50,0.91,0.03,SAINT LOUISE REGIONAL HOSPITAL
7.84,2.51,33.55876,-117.18329,34490.08,8004.46,0.67,0.74,0.74,SOUTHWEST HEALTHCARE SYSTEM
5.60,3.06,34.22139,-118.45660,23379.70,10774.00,0.00,0.00,0.00,MISSION COMMUNITY HOSPITAL - PANORAMA
14.53,3.29,34.04924,-118.13842,67685.73,11883.00,0.00,0.00,0.00,MONTEREY PARK HOSPITAL
12.98,3.19,34.06760,-118.12291,60021.23,11408.92,0.50,0.94,0.86,GARFIELD MEDICAL CENTER
8.99,2.80,33.95076,-118.34828,40197.29,9483.95,0.50,0.71,1.00,CENTINELA HOSPITAL MEDICAL CENTER
18.18,2.56,34.05723,-118.36025,85823.16,8247.26,0.50,0.64,0.70,OLYMPIA MEDICAL CENTER
11.94,2.65,34.02303,-118.39741,54859.15,8693.45,0.00,0.00,0.00,BROTMAN MEDICAL CENTER
6.18,2.58,34.16028,-118.44948,26239.42,8343.84,0.00,0.00,0.00,SHERMAN OAKS HOSPITAL
7.05,2.46,32.77629,-117.05730,30537.54,7769.17,0.75,0.79,0.64,ALVARADO HOSPITAL MEDICAL CENTER
13.19,2.53,34.17067,-118.53200,61045.15,8108.61,0.50,0.57,0.64,PROVIDENCE TARZANA MEDICAL CENTER
7.90,2.66,40.58532,-122.38702,34778.86,8789.00,0.50,0.79,0.98,SHASTA REGIONAL MEDICAL CENTER
7.66,2.50,40.41481,-104.70890,33569.65,7950.27,0.50,0.74,0.58,NORTH COLORADO MEDICAL CENTER
6.65,2.46,40.18134,-105.12769,28566.08,7751.50,0.50,0.71,0.76,LONGMONT UNITED HOSPITAL
6.34,2.24,39.76893,-105.09006,27038.71,6682.68,0.50,0.47,0.80,EXEMPLA LUTHERAN MEDICAL CENTER
5.88,2.28,40.57315,-105.05741,24759.12,6857.60,0.50,0.69,0.96,POUDRE VALLEY HOSPITAL
6.33,3.32,39.72730,-104.99157,26961.87,12039.93,0.67,0.66,0.14,DENVER HEALTH MEDICAL CENTER
6.58,2.34,38.23421,-104.62292,28248.17,7178.33,0.50,0.54,0.30,CENTURA HEALTH-ST MARY CORWIN MEDICAL CENTER
8.00,2.58,39.74615,-104.96682,35283.94,8357.75,0.67,0.47,0.17,PRESBYTERIAN/ST LUKE'S MEDICAL CENTER
7.21,2.33,39.71712,-105.12874,31345.14,7125.29,0.33,0.68,0.16,CENTURA HEALTH-ST ANTHONY HOSPITAL
5.91,2.30,38.28184,-104.61256,24889.74,6965.17,0.67,0.69,0.30,PARKVIEW MEDICAL CENTER INC
7.82,2.36,38.83903,-104.80024,34398.95,7284.52,0.67,0.69,0.33,MEMORIAL HOSPITAL CENTRAL
6.00,2.47,39.09046,-108.56190,25339.33,7833.19,0.50,0.49,0.58,ST MARYS HOSPITAL AND MEDICAL CENTER
7.20,3.15,39.74234,-104.84156,31325.70,11204.70,0.67,0.66,0.70,UNIVERSITY OF COLORADO HOSPITAL ANSCHUTZ INPATIENT
6.91,2.41,39.74601,-104.96909,29868.47,7545.27,0.67,0.71,0.91,EXEMPLA SAINT JOSEPH HOSPITAL
5.10,2.17,40.41320,-105.05139,20862.47,6323.74,0.50,0.93,0.70,MCKEE MEDICAL CENTER
6.06,2.19,38.86559,-104.82182,25653.51,6433.31,0.50,0.70,0.38,CENTURA HEALTH-PENROSE ST FRANCIS HEALTH SERVICES
8.62,3.38,39.73231,-104.93396,38346.91,12322.47,0.75,0.50,0.32,ROSE MEDICAL CENTER
9.37,2.35,39.65399,-104.98116,42068.24,7225.81,0.33,0.47,0.17,SWEDISH MEDICAL CENTER
8.86,2.36,39.67005,-104.97490,39556.39,7254.83,0.50,0.75,0.80,CENTURA HEALTH-PORTER ADVENTIST HOSPITAL
8.51,2.38,39.68859,-104.83205,37822.03,7352.00,0.50,0.61,0.14,MEDICAL CENTER OF AURORA THE
6.45,2.36,39.84960,-105.01825,27573.50,7299.31,0.50,0.61,0.48,CENTURA HEALTH-ST ANTHONY NORTH HOSPITAL
9.90,2.26,39.52910,-104.87121,44718.46,6772.85,0.50,0.76,0.80,SKY RIDGE MEDICAL CENTER
10.81,2.17,39.57629,-104.98610,49240.56,6347.56,0.50,0.79,0.54,CENTURA HEALTH-LITTLETON ADVENTIST HOSPITAL
3.35,2.13,40.45184,-105.19608,12183.33,6151.33,0.50,0.79,0.45,MEDICAL CENTER OF THE ROCKIES
7.85,2.88,41.30978,-72.93806,34544.21,9836.81,0.67,0.57,0.08,HOSPITAL OF ST RAPHAEL
6.35,2.86,41.77507,-72.69941,27085.60,9776.32,0.50,0.54,0.86,ST FRANCIS HOSPITAL & MEDICAL CENTER
7.64,2.46,41.55959,-73.05941,33470.50,7797.50,0.33,0.57,0.70,WATERBURY HOSPITAL
12.62,3.41,41.05562,-73.55390,58229.82,12503.82,0.50,0.53,0.11,STAMFORD HOSPITAL
3.23,2.44,41.33722,-72.10380,11594.25,7698.00,0.50,0.72,0.93,LAWRENCE & MEMORIAL HOSPITAL
7.81,3.18,41.18881,-73.16645,34346.61,11335.08,0.50,0.51,0.21,BRIDGEPORT HOSPITAL
3.21,2.43,41.79153,-73.13382,11505.05,7609.48,0.25,0.79,0.54,CHARLOTTE HUNGERFORD HOSPITAL
4.39,2.38,41.86708,-72.45056,17333.73,7359.27,0.50,0.90,0.14,ROCKVILLE GENERAL HOSPITAL
3.60,2.73,41.55241,-73.03554,13450.67,9106.50,0.50,0.56,0.39,SAINT MARYS HOSPITAL
5.12,2.40,41.54874,-72.80148,20979.08,7490.42,0.50,0.60,0.80,MIDSTATE MEDICAL CENTER
7.49,2.52,41.03431,-73.63020,32744.62,8089.33,0.50,0.49,0.64,GREENWICH HOSPITAL ASSOCIATION
7.07,2.54,41.55473,-72.64872,30649.19,8147.94,0.33,0.61,0.93,MIDDLESEX HOSPITAL
4.10,2.88,41.71622,-72.22399,15901.94,9844.82,0.00,0.00,0.00,WINDHAM COMM MEM HOSP & HATCH HOSP
8.30,3.36,41.30400,-72.93502,36777.13,12235.28,0.67,0.41,0.03,YALE-NEW HAVEN HOSPITAL
3.96,2.39,41.54301,-72.08799,15208.32,7422.32,0.50,0.70,0.45,WILLIAM W BACKUS HOSPITAL
6.17,3.02,41.75412,-72.67927,26213.86,10539.16,0.50,0.47,0.10,HARTFORD HOSPITAL
6.14,2.85,41.20049,-73.20281,26038.84,9716.23,0.67,0.79,0.64,ST VINCENT'S MEDICAL CENTER
4.66,2.32,41.67540,-72.93617,18696.71,7083.18,0.50,0.74,0.33,BRISTOL HOSPITAL
5.42,2.68,41.33493,-73.08978,22461.50,8857.06,0.50,0.78,0.93,GRIFFIN HOSPITAL
4.81,2.78,41.40474,-73.44739,19456.15,9374.40,0.50,0.66,0.58,DANBURY HOSPITAL
6.22,2.70,41.11147,-73.42010,26440.27,8976.68,0.50,0.72,0.93,NORWALK HOSPITAL ASSOCIATION
5.46,2.67,41.66107,-72.78671,22658.29,8802.41,0.50,0.53,0.08,HOSPITAL OF CENTRAL CONNECTICUT THE
4.70,3.24,41.73545,-72.79489,18905.50,11630.00,0.25,0.60,0.08,JOHN DEMPSEY HOSPITAL
4.71,2.64,39.69005,-75.68408,18954.40,8688.19,0.67,0.59,0.39,CHRISTIANA CARE HEALTH SERVICES INC.
3.79,2.48,39.74954,-75.56662,14383.25,7874.92,0.50,0.81,0.80,ST FRANCIS HOSPITAL
3.88,2.62,39.15135,-75.52309,14836.82,8587.61,0.50,0.59,0.91,BAYHEALTH - KENT GENERAL HOSPITAL
3.32,2.55,38.64231,-75.60660,12022.00,8211.83,0.00,0.00,0.00,NANTICOKE MEMORIAL HOSPITAL
8.26,2.80,38.77159,-75.14210,36556.58,9452.75,0.50,0.90,0.82,BEEBE MEDICAL CENTER
9.32,3.02,38.90106,-77.05079,41850.94,10564.02,0.50,0.50,0.14,GEORGE WASHINGTON UNIV HOSPITAL
10.55,5.06,38.91770,-77.02193,47952.57,20668.57,0.50,0.66,0.01,HOWARD UNIVERSITY HOSPITAL
8.99,3.35,38.91221,-77.07588,40170.31,12166.54,0.67,0.65,0.01,GEORGETOWN UNIVERSITY HOSPITAL
5.32,2.87,38.94397,-76.99040,21962.52,9806.32,0.50,0.57,0.25,PROVIDENCE HOSPITAL
7.13,2.87,38.92944,-77.01473,30956.65,9800.67,0.33,0.59,0.02,WASHINGTON HOSPITAL CENTER
7.98,2.99,30.34913,-81.66391,35181.34,10386.84,0.50,0.62,0.00,SHANDS JACKSONVILLE MEDICAL CENTER
7.35,2.40,26.50479,-80.06979,32071.61,7488.22,0.50,0.54,0.99,BETHESDA MEMORIAL HOSPITAL
8.18,2.55,28.52517,-81.37729,36192.88,8198.46,0.67,0.47,0.29,ORLANDO HEALTH
7.51,2.33,28.57345,-81.36990,32853.05,7134.72,0.83,0.66,0.25,FLORIDA HOSPITAL
11.94,2.62,25.68309,-80.34038,54839.67,8548.79,0.50,0.62,0.86,BAPTIST HOSPITAL OF MIAMI INC
10.73,2.65,25.78846,-80.21644,48819.95,8733.40,0.83,0.56,0.01,UNIVERSITY OF MIAMI HOSPITAL
5.61,2.26,26.62849,-81.87423,23402.48,6775.91,0.67,0.53,0.16,LEE MEMORIAL HOSPITAL
6.65,2.43,29.20117,-81.05828,28596.80,7639.05,0.67,0.76,0.80,HALIFAX HEALTH MEDICAL CENTER
6.43,2.19,26.15053,-81.79919,27495.60,6440.80,0.67,0.62,0.39,NAPLES COMMUNITY HOSPITAL
6.82,2.11,28.08771,-80.61362,29407.93,6028.60,0.67,0.59,0.17,HOLMES REGIONAL MEDICAL CENTER
8.18,3.89,25.79143,-80.21250,36194.08,14877.18,0.83,0.49,0.05,JACKSON MEMORIAL HOSPITAL
7.33,2.10,28.83363,-82.33561,31966.90,5992.00,0.50,0.55,0.45,CITRUS MEMORIAL HOSPITAL
5.21,2.33,30.47650,-87.21219,21441.36,7116.53,0.50,0.41,0.39,SACRED HEART HOSPITAL
4.07,2.16,30.15963,-85.64818,15760.76,6283.37,0.67,0.74,0.43,BAY MEDICAL CENTER
5.31,2.17,28.63051,-80.82437,21919.19,6336.37,0.50,0.69,0.98,PARRISH MEDICAL CENTER
13.41,2.82,25.86166,-80.21398,62152.94,9545.42,0.50,0.84,0.70,NORTH SHORE MEDICAL CENTER
6.25,2.30,28.54917,-81.52746,26606.23,6989.46,0.50,0.70,0.58,HEALTH CENTRAL
8.45,2.47,27.76332,-82.64325,37499.00,7834.10,0.50,0.82,0.20,BAYFRONT MEDICAL CENTER INC
10.55,2.66,25.81317,-80.13996,47922.32,8782.26,0.67,0.47,0.25,MOUNT SINAI MEDICAL CENTER
7.00,2.30,27.49789,-82.56220,30330.31,6956.00,0.50,0.55,0.30,MANATEE MEMORIAL HOSPITAL
7.39,2.53,26.01867,-80.17981,32254.70,8099.35,0.83,0.64,0.76,MEMORIAL REGIONAL HOSPITAL
7.36,2.82,26.10282,-80.14245,32080.19,9552.13,0.75,0.76,0.97,BROWARD HEALTH BROWARD GENERAL MEDICAL CENTER
4.36,2.16,30.30835,-81.68919,17216.02,6285.86,0.50,0.69,0.83,ST VINCENT'S MEDICAL CENTER
4.77,2.20,29.04263,-81.31635,19221.74,6495.11,0.50,0.86,0.99,FLORIDA HOSPITAL DELAND
8.01,2.10,28.26092,-82.18802,35331.50,5995.88,0.50,0.62,0.89,FLORIDA HOSPITAL ZEPHYRHILLS
8.41,2.12,26.94042,-82.04094,37326.56,6069.00,0.50,0.72,0.86,CHARLOTTE REGIONAL MEDICAL CENTER
8.75,2.18,28.55140,-81.72120,39011.32,6373.47,0.00,0.00,0.00,SOUTH LAKE HOSPITAL
6.27,2.13,28.02768,-81.72466,26679.64,6144.45,0.50,0.62,0.03,WINTER HAVEN HOSPITAL
6.00,2.10,28.13321,-82.75839,25370.75,6006.00,0.00,0.00,0.00,HELEN ELLIS MEMORIAL HOSPITAL
5.91,2.22,28.82358,-81.71133,24876.36,6592.25,0.50,0.71,0.48,FLORIDA HOSPITAL WATERMAN
9.98,2.54,25.74067,-80.21244,45093.85,8172.62,0.00,0.00,0.00,MERCY HOSPITAL INC
5.82,2.20,29.17594,-82.13898,24458.22,6469.00,0.50,0.60,0.94,MUNROE REGIONAL MEDICAL CENTER
5.15,2.18,27.78088,-82.65126,21143.93,6360.14,0.50,0.69,0.58,ST ANTHONY'S HOSPITAL
5.27,2.16,29.24333,-81.10760,21711.96,6274.96,0.50,0.68,0.96,FLORIDA HOSPITAL MEMORIAL MEDICAL CENTER
8.02,2.16,26.18711,-80.11941,35381.38,6287.59,0.83,0.57,0.38,HOLY CROSS HOSPITAL INC
5.83,2.40,27.98242,-82.49025,24494.97,7453.91,0.67,0.60,0.30,ST JOSEPH'S HOSPITAL
6.74,2.14,26.98905,-82.09559,29003.50,6166.29,0.50,0.69,0.43,PEACE RIVER REGIONAL MEDICAL CENTER
9.97,2.26,26.59805,-80.09271,45073.72,6802.31,1.00,0.60,0.28,JFK MEDICAL CENTER
5.50,2.14,28.80659,-81.86906,22879.00,6176.65,0.33,0.68,0.25,LEESBURG REGIONAL MEDICAL CENTER
5.85,2.24,26.27623,-80.12220,24602.32,6677.96,0.75,0.72,0.58,BROWARD HEALTH NORTH BROWARD MEDICAL CENTER
5.49,2.17,27.31827,-82.53140,22819.02,6350.86,0.33,0.38,0.70,SARASOTA MEMORIAL HOSPITAL
7.90,2.29,30.31525,-81.66398,34761.84,6929.79,0.67,0.47,0.13,BAPTIST MEDICAL CENTER
6.55,2.31,29.86371,-81.31749,28088.18,7016.65,0.67,0.76,0.30,FLAGLER HOSPITAL
5.30,2.16,28.33522,-80.72319,21875.50,6260.29,0.50,0.64,0.97,WUESTHOFF MEDICAL CENTER  ROCKLEDGE
5.33,2.16,30.43066,-87.23191,22035.16,6284.29,0.50,0.72,0.17,BAPTIST HOSPITAL
8.78,2.14,27.89590,-81.56547,39160.42,6175.00,0.00,0.00,0.00,LAKE WALES MEDICAL CENTER
3.20,2.19,27.65832,-80.39307,11449.82,6451.32,0.67,0.76,0.99,INDIAN RIVER MEDICAL CENTER
6.66,2.25,26.61563,-81.65945,28622.55,6739.45,0.50,0.79,0.33,LEHIGH REGIONAL MEDICAL CENTER
5.57,2.20,27.50001,-81.43962,23196.76,6469.38,0.50,0.61,0.86,FLORIDA HOSPITAL HEARTLAND MEDICAL CENTER
8.04,2.31,28.29946,-81.41021,35478.18,7042.41,0.50,0.64,0.51,OSCEOLA REGIONAL MEDICAL CENTER
4.99,3.00,29.64155,-82.34844,20309.01,10456.01,0.67,0.54,0.30,SHANDS HOSPITAL AT THE UNIVERSITY OF FLORIDA
7.65,2.09,30.27449,-81.40071,33547.26,5937.48,0.67,0.94,0.70,BAPTIST MEDICAL CENTER  BEACHES
6.53,2.42,29.47897,-81.18915,27961.11,7563.39,0.50,0.51,0.39,FLORIDA HOSPITAL FLAGLER
8.91,2.10,30.73540,-86.56171,39810.06,5972.31,0.50,0.90,0.97,NORTH OKALOOSA MEDICAL CENTER
6.90,2.69,25.47971,-80.43038,29838.21,8901.29,0.50,0.86,0.69,HOMESTEAD HOSPITAL
4.45,2.16,27.95192,-82.80379,17668.10,6262.40,0.67,0.62,0.10,MORTON PLANT HOSPITAL
7.94,2.77,27.93740,-82.45927,34990.41,9302.22,0.67,0.66,0.00,TAMPA GENERAL HOSPITAL
8.26,2.29,25.96994,-80.14533,36558.94,6950.06,0.50,0.64,0.80,AVENTURA HOSPITAL AND MEDICAL CENTER
5.11,2.29,30.45726,-84.26175,20929.79,6943.54,0.67,0.57,0.64,TALLAHASSEE MEMORIAL HEALTHCARE
6.51,2.24,28.18120,-81.64018,27883.35,6669.13,0.50,0.72,0.58,HEART OF FLORIDA REGIONAL MEDICAL CENTER
5.29,2.90,30.26389,-81.44283,21803.65,9945.31,0.83,0.62,0.91,MAYO CLINIC
5.98,2.21,28.06172,-81.95304,25231.26,6545.93,0.50,0.53,0.03,LAKELAND REGIONAL MEDICAL CENTER
5.98,2.21,28.81611,-81.28351,25260.68,6541.00,0.50,0.56,0.98,CENTRAL FLORIDA REGIONAL HOSPITAL
12.35,2.79,26.12647,-80.20519,56852.95,9414.65,0.50,0.81,0.06,PLANTATION GENERAL HOSPITAL
7.20,2.19,26.35875,-80.10203,31302.98,6447.51,0.67,0.46,0.43,BOCA RATON REGIONAL HOSPITAL
7.17,2.18,28.07111,-82.42342,31141.28,6403.00,0.50,0.69,0.38,FLORIDA HOSPITAL TAMPA
8.94,2.17,26.83035,-80.08655,39954.17,6354.96,1.00,0.56,0.38,PALM BEACH GARDENS MEDICAL CENTER
5.85,2.12,28.36005,-80.62309,24597.27,6096.36,0.50,0.88,0.58,CAPE CANAVERAL HOSPITAL
11.47,2.19,30.28793,-81.60103,52522.69,6413.12,0.33,0.49,0.25,MEMORIAL HOSPITAL JACKSONVILLE
12.81,2.76,25.88563,-80.32635,59138.45,9266.15,0.67,0.79,0.91,PALMETTO GENERAL HOSPITAL
7.44,2.16,26.26259,-80.20292,32498.39,6289.89,0.50,0.51,0.98,NORTHWEST MEDICAL CENTER
11.67,2.15,28.19342,-82.46987,53473.90,6228.20,0.50,0.78,0.43,MEDICAL CENTER OF TRINITY
6.77,2.27,26.20644,-80.11086,29171.22,6848.33,0.33,0.89,0.99,BROWARD HEALTH IMPERIAL POINT MEDICAL CENTER
8.23,2.19,29.66085,-82.41172,36439.21,6410.75,0.33,0.53,0.17,NORTH FLORIDA REGIONAL MEDICAL CENTER
9.95,2.68,25.73195,-80.38580,44950.31,8856.00,0.33,0.51,0.80,KENDALL REGIONAL MEDICAL CENTER
10.25,2.06,29.17550,-82.13680,46434.29,5766.62,0.83,0.55,0.86,OCALA REGIONAL MEDICAL CENTER
8.97,2.11,27.48213,-82.62126,40090.45,6017.09,0.50,0.75,0.69,BLAKE MEDICAL CENTER
8.96,2.21,27.84359,-80.48849,40033.75,6555.25,0.00,0.00,0.00,SEBASTIAN RIVER MEDICAL CENTER
6.65,2.34,26.52735,-81.83337,28560.88,7172.46,0.50,0.59,0.64,GULF COAST MEDICAL CENTER LEE MEM HEALTH SYSTEM
12.24,2.42,30.45448,-86.63362,56305.78,7571.43,0.50,0.72,0.64,FORT WALTON BEACH MEDICAL CENTER
13.10,2.19,26.21219,-80.25478,60611.17,6431.42,0.00,0.00,0.00,UNIVERSITY HOSPITAL AND MEDICAL CENTER
13.29,2.36,30.16550,-81.73775,61554.03,7260.90,0.33,0.69,0.58,ORANGE PARK MEDICAL CENTER
11.61,2.20,26.12354,-80.25951,53202.29,6493.95,0.50,0.57,0.74,WESTSIDE REGIONAL MEDICAL CENTER
7.79,2.11,30.51624,-87.21856,34216.91,6015.00,0.50,0.65,0.05,WEST FLORIDA HOSPITAL
5.32,2.25,29.64481,-81.69431,21965.88,6733.12,0.50,0.79,0.48,PUTNAM COMMUNITY MEDICAL CENTER
9.09,2.22,26.98884,-82.09877,40689.25,6584.50,0.50,0.80,0.58,FAWCETT MEMORIAL HOSPITAL
16.02,2.36,27.82545,-82.70122,75098.35,7294.59,0.50,0.65,0.33,NORTHSIDE HOSPITAL
9.57,2.43,30.18657,-85.66513,43076.07,7606.00,0.50,0.64,0.99,GULF COAST MEDICAL CENTER
8.77,2.28,27.93259,-82.28759,39084.52,6886.26,0.67,0.68,0.21,BRANDON REGIONAL HOSPITAL
5.66,2.10,26.63958,-81.94164,23648.80,5991.65,0.50,0.53,0.21,CAPE CORAL HOSPITAL
12.78,2.42,27.43392,-80.34350,59009.80,7596.47,0.83,0.54,0.30,LAWNWOOD REGIONAL MEDICAL CENTER & HEART INSTITUTE
8.45,2.16,27.91458,-82.80382,37506.84,6282.32,0.50,0.49,0.25,LARGO MEDICAL CENTER
7.24,2.19,26.92138,-80.09708,31508.56,6456.06,0.50,0.61,0.54,JUPITER MEDICAL CENTER
5.77,2.25,30.47616,-84.23140,24222.96,6706.80,0.50,0.66,0.58,CAPITAL REGIONAL MEDICAL CENTER
7.94,2.18,28.36128,-82.68883,34981.00,6362.91,0.67,0.68,0.91,REGIONAL MEDICAL CENTER BAYONET POINT
11.85,2.21,26.43709,-80.12728,54373.65,6520.00,0.83,0.72,0.93,DELRAY MEDICAL CENTER
8.61,2.25,27.71350,-82.36512,38291.94,6753.81,0.33,0.66,0.33,SOUTH BAY HOSPITAL
9.65,2.29,27.28861,-80.29431,43472.50,6911.50,0.50,0.65,0.54,ST LUCIE MEDICAL CENTER
10.03,2.08,28.53585,-82.53404,45348.35,5883.13,0.67,0.71,0.58,OAK HILL HOSPITAL
11.12,2.49,26.01394,-80.30980,50750.08,7923.35,0.67,0.71,0.64,MEMORIAL HOSPITAL WEST
9.39,2.14,26.21388,-81.73257,42188.82,6183.91,0.33,0.80,0.33,PHYSICIANS REGIONAL MEDICAL CENTER - PINE RIDGE
7.96,2.30,26.70181,-80.05055,35064.08,6986.77,0.50,0.59,0.64,GOOD SAMARITAN MEDICAL CENTER
9.17,2.72,26.75635,-80.06322,41097.38,9086.15,1.00,0.85,0.74,ST MARY'S MEDICAL CENTER
4.65,2.17,26.08155,-80.36449,18638.12,6314.06,1.00,0.57,0.48,CLEVELAND CLINIC HOSPITAL
6.29,2.11,28.94952,-81.95843,26782.20,6033.00,0.33,0.80,0.94,VILLAGES REGIONAL HOSPITAL THE
10.59,2.44,25.72132,-80.27116,48118.17,7652.50,0.00,0.00,0.00,DOCTORS HOSPITAL INC
8.84,2.07,28.24311,-81.30279,39468.45,5831.82,0.50,0.86,0.41,ST CLOUD REGIONAL MEDICAL CENTER
5.78,2.07,30.25377,-81.58270,24241.32,5852.03,0.50,0.78,0.30,ST VINCENT'S MEDICAL CENTER SOUTHSIDE
4.31,2.30,34.78963,-84.98398,16962.51,6976.74,0.50,0.76,0.11,HAMILTON MEDICAL CENTER
3.32,2.36,32.88710,-84.33393,12053.33,7268.27,0.00,0.00,0.00,UPSON REGIONAL MEDICAL CENTER
4.43,2.17,31.22516,-82.34898,17563.44,6333.50,0.50,0.94,0.33,SATILLA REGIONAL MEDICAL CENTER
7.03,2.19,34.17863,-84.13992,30449.50,6431.06,0.67,0.64,0.47,NORTHSIDE HOSPITAL FORSYTH
4.06,2.24,33.94791,-83.40531,15740.29,6698.93,0.50,0.79,0.96,ST MARY'S HOSPITAL
7.05,2.62,31.59023,-84.15756,30564.07,8580.78,0.50,0.54,0.11,PHOEBE PUTNEY MEMORIAL HOSPITAL
6.91,2.19,34.24569,-84.49068,29845.54,6423.23,0.50,0.72,0.10,NORTHSIDE HOSPITAL CHEROKEE
5.23,2.63,33.79230,-84.32107,21517.88,8600.05,0.50,0.41,0.08,EMORY UNIVERSITY HOSPITAL
4.94,2.29,33.56970,-85.07276,20082.40,6922.40,0.25,0.79,0.91,TANNER MEDICAL CENTER - CARROLLTON
4.21,2.25,33.03204,-85.05781,16458.78,6711.48,0.50,0.79,0.96,WEST GEORGIA MEDICAL CENTER
7.33,2.32,32.02825,-81.09977,31932.38,7061.00,0.83,0.81,0.02,CANDLER HOSPITAL
4.04,2.58,31.17425,-81.48459,15598.55,8368.10,0.50,0.61,0.17,SOUTHEAST GEORGIA HEALTH SYSTEM- BRUNSWICK CAMPUS
5.33,2.29,33.47096,-81.98176,22024.95,6904.83,0.50,0.51,0.21,UNIVERSITY HOSPITAL
5.49,2.35,34.30335,-83.81737,22806.33,7238.49,0.67,0.59,0.45,NORTHEAST GEORGIA MEDICAL CENTER INC
7.75,2.29,34.19990,-84.79378,34019.24,6951.71,0.50,0.62,0.39,CARTERSVILLE MEDICAL CENTER
8.07,2.32,33.23886,-84.26706,35644.34,7077.43,0.33,0.79,0.70,SPALDING REGIONAL MEDICAL CENTER
4.33,3.02,33.47091,-81.98988,17032.37,10552.50,0.67,0.45,0.38,MEDICAL COLLEGE OF GA HOSPITALS AND CLINICS
7.37,2.33,33.96770,-84.55011,32160.74,7120.17,0.67,0.62,0.45,WELLSTAR KENNESTONE HOSPITAL
5.15,2.47,32.03185,-81.09158,21142.91,7820.09,0.67,0.61,0.25,MEMORIAL HEALTH UNIV MED CEN INC
5.96,2.22,30.82614,-83.97393,25136.00,6588.00,0.50,0.75,0.48,JOHN D ARCHBOLD MEMORIAL HOSPITAL
5.81,2.13,31.98515,-81.15475,24384.27,6139.09,0.67,0.72,0.33,ST JOSEPH'S HOSPITAL - SAVANNAH
5.33,2.44,34.26000,-85.17000,22030.86,7673.14,0.50,0.68,0.89,FLOYD MEDICAL CENTER
5.90,2.79,32.46602,-84.98695,24838.13,9434.17,0.33,0.86,0.64,MEDICAL CENTER THE
4.85,2.36,32.61642,-83.63065,19639.42,7261.67,0.50,0.74,0.74,HOUSTON MEDICAL CENTER
4.88,2.38,33.96117,-83.39832,19763.21,7355.64,0.50,0.69,0.93,ATHENS REGIONAL MEDICAL CENTER
5.52,2.33,32.41483,-81.76990,22975.24,7144.67,0.50,0.82,0.39,EAST GEORGIA REGIONAL MEDICAL CENTER
3.88,2.41,33.78956,-84.28077,14799.62,7506.84,0.50,0.84,0.11,DEKALB MEDICAL CENTER
4.34,2.52,33.76810,-84.38616,17119.83,8092.49,0.33,0.45,0.10,EMORY UNIVERSITY HOSPITAL MIDTOWN
4.11,2.96,33.75205,-84.38272,15986.90,10231.33,0.33,0.56,0.00,GRADY MEMORIAL HOSPITAL
4.51,2.13,33.90877,-84.35180,17958.23,6109.77,0.50,0.55,0.03,SAINT JOSEPH'S HOSPITAL OF ATLANTA INC
6.82,2.28,33.81003,-84.39568,29436.16,6899.13,0.33,0.57,0.45,PIEDMONT HOSPITAL
3.86,2.34,33.96351,-84.01769,14714.59,7161.64,0.50,0.90,0.45,GWINNETT MEDICAL CENTER
4.59,2.10,31.50971,-82.86341,18333.13,5986.91,0.00,0.00,0.00,COFFEE REGIONAL MEDICAL CENTER
4.70,2.42,33.68072,-84.00200,18897.61,7568.39,0.50,0.56,0.33,ROCKDALE MEDICAL CENTER
4.28,2.32,32.18558,-83.17874,16822.18,7070.27,0.00,0.00,0.00,DODGE COUNTY HOSPITAL
5.75,2.32,31.47069,-83.50473,24085.53,7069.35,0.17,0.80,0.32,TIFT REGIONAL MEDICAL CENTER
3.50,2.14,31.97683,-83.78280,12930.55,6163.18,0.00,0.00,0.00,CRISP REGIONAL HOSPITAL
5.25,2.56,32.83041,-83.63476,21627.93,8276.31,0.67,0.49,0.45,MEDICAL CENTER OF CENTRAL GEORGIA
12.14,2.87,33.76372,-84.37315,55827.08,9783.92,0.50,0.71,0.11,ATLANTA MEDICAL CENTER
6.03,2.28,30.86250,-83.28630,25486.82,6866.11,0.67,0.68,0.74,SOUTH GEORGIA MEDICAL CENTER
6.13,2.48,32.54026,-82.95741,25976.52,7856.65,0.00,0.00,0.00,FAIRVIEW PARK HOSPITAL
3.91,2.17,32.50679,-84.95933,14960.31,6315.72,0.83,0.68,0.70,ST FRANCIS HOSPITAL INC
7.42,2.51,33.85638,-84.60446,32377.20,8001.71,0.50,0.56,0.33,WELLSTAR COBB HOSPITAL
4.34,2.28,33.08014,-83.23210,17118.00,6887.00,0.50,0.89,0.05,OCONEE REGIONAL MEDICAL CENTER
7.06,2.21,33.90903,-84.35410,30585.45,6549.00,0.67,0.64,0.19,NORTHSIDE HOSPITAL
5.30,2.27,32.84705,-83.61823,21864.78,6833.48,0.67,0.62,0.10,COLISEUM MEDICAL CENTER
5.63,2.45,33.57843,-84.38897,23486.35,7736.60,0.50,0.79,0.25,SOUTHERN REGIONAL MEDICAL CENTER
4.92,2.15,34.25704,-85.16467,19966.59,6248.70,0.50,0.88,0.25,REDMOND REGIONAL MEDICAL CENTER
6.28,2.36,33.48259,-82.09038,26744.73,7271.00,0.50,0.59,0.08,DOCTORS HOSPITAL
6.25,2.24,33.73938,-84.73111,26581.94,6671.50,0.50,0.91,0.58,WELLSTAR DOUGLAS HOSPITAL
4.48,2.28,32.48040,-84.98468,17806.76,6889.24,0.00,0.00,0.00,DOCTORS HOSPITAL
5.32,2.26,33.51144,-84.22200,21966.76,6791.47,0.50,0.91,0.93,HENRY MEDICAL CENTER INC
6.03,2.42,33.87683,-84.02136,25500.92,7553.12,0.50,0.78,0.45,EMORY EASTSIDE MEDICAL CENTER
7.42,2.19,32.86625,-83.69421,32375.50,6441.69,0.00,0.00,0.00,COLISEUM NORTHSIDE HOSPITAL
4.82,2.10,33.45252,-84.50697,19497.30,5989.30,0.50,0.60,0.33,PIEDMONT FAYETTE HOSPITAL
14.48,2.63,33.68000,-84.42685,67439.12,8636.96,0.50,0.85,0.28,SOUTH FULTON MEDICAL CENTER
3.35,2.20,33.70365,-84.14697,12211.06,6479.94,0.50,0.84,0.78,DEKALB MEDICAL CENTER AT HILLANDALE
5.75,2.23,33.39118,-84.81563,24130.19,6647.34,0.50,0.89,0.05,PIEDMONT NEWNAN HOSPITAL INC
4.31,2.08,34.06670,-84.17643,16942.91,5865.36,0.50,0.78,0.89,EMORY JOHNS CREEK HOSPITAL
6.92,3.11,21.30780,-157.85505,29913.96,11014.45,0.67,0.69,0.45,THE QUEENS MEDICAL CENTER
6.19,3.83,20.88519,-156.48928,26312.36,14552.55,0.67,0.89,0.20,MAUI MEMORIAL MEDICAL CENTER
5.44,3.12,19.71761,-155.11327,22589.91,11059.55,0.50,0.82,0.67,HILO MEDICAL CENTER
5.21,2.81,21.38095,-157.75759,21415.06,9507.62,0.00,0.00,0.00,CASTLE MEDICAL CENTER
5.84,2.56,21.32239,-157.85662,24557.93,8278.60,0.50,0.74,0.05,KUAKINI MEDICAL CENTER
7.22,2.54,21.30226,-157.85092,31421.43,8173.93,0.75,0.84,0.16,STRAUB CLINIC AND HOSPITAL
7.77,3.05,21.38328,-157.93828,34126.89,10724.33,0.00,0.00,0.00,PALI MOMI MEDICAL CENTER
3.70,2.20,42.59072,-114.49627,13931.47,6501.58,0.50,0.64,0.30,ST LUKES MAGIC VALLEY RMC
3.99,2.33,43.61218,-116.19234,15355.00,7128.97,0.67,0.61,0.16,ST LUKES REGIONAL MEDICAL CENTER
5.17,2.35,43.61359,-116.25484,21244.16,7229.84,0.67,0.79,0.25,ST ALPHONSUS REGIONAL MEDICAL CENTER
4.88,2.21,43.55374,-116.57267,19768.75,6546.75,0.00,0.00,0.00,SAINT ALPHONSUS MEDICAL CENTER - NAMPA
7.15,2.58,43.46987,-111.99208,31081.47,8380.59,0.67,0.66,0.58,EASTERN IDAHO REGIONAL MEDICAL CENTER
4.79,2.80,42.87331,-112.42180,19328.69,9469.38,0.33,0.76,0.39,PORTNEUF MEDICAL CENTER
3.85,2.25,47.69645,-116.79476,14662.91,6752.82,0.50,0.71,0.48,KOOTENAI MEDICAL CENTER
8.18,2.45,38.90068,-90.16026,36157.31,7724.31,0.50,0.81,0.25,ALTON MEMORIAL HOSPITAL
6.43,2.26,41.52896,-88.13550,27477.45,6771.34,0.50,0.75,0.83,PROVENA ST JOSEPH MEDICAL CENTER
14.96,3.17,41.91082,-87.84451,69809.16,11302.42,0.33,0.81,0.58,LOYOLA GOTTLIEB MEMORIAL HOSPITAL
6.37,2.50,42.06550,-87.68428,27188.47,7974.73,0.33,0.55,0.58,EVANSTON HOSPITAL
5.88,2.53,39.93563,-91.39833,24747.39,8106.57,0.50,0.55,0.93,BLESSING HOSPITAL
6.66,3.18,41.86011,-87.69571,28600.50,11346.39,0.33,0.66,0.01,MT SINAI HOSPITAL MEDICAL CENTER
4.74,2.32,41.11319,-88.83500,19089.62,7064.54,0.00,0.00,0.00,ST MARYS HOSPITAL
5.99,2.34,42.07012,-88.33180,25306.77,7188.23,0.50,0.82,0.25,SHERMAN HOSPITAL
3.73,2.21,39.12680,-88.55059,14084.64,6550.91,0.00,0.00,0.00,ST ANTHONYS MEMORIAL HOSPITAL
3.78,2.24,38.52908,-89.11604,14301.47,6678.13,0.50,0.86,0.17,ST MARYS HOSPITAL
7.19,2.24,40.95560,-90.36618,31234.82,6660.09,0.00,0.00,0.00,GALESBURG COTTAGE HOSPITAL
4.10,2.15,38.32292,-88.91026,15930.36,6247.51,0.50,0.81,0.91,GOOD SAMARITAN REGIONAL HLTH CENTER
5.76,2.62,41.72636,-87.56727,24171.29,8549.69,0.50,0.65,0.74,ADVOCATE TRINITY HOSPITAL
6.62,2.84,41.89141,-87.77618,28434.97,9668.37,0.50,0.72,0.93,WEST SUBURBAN MEDICAL CENTER
5.91,2.45,42.05624,-87.74012,24885.84,7746.84,0.50,0.75,0.86,SKOKIE HOSPITAL
6.62,2.14,38.90787,-90.17207,28411.79,6165.86,0.00,0.00,0.00,SAINT ANTHONY'S HEALTH CENTER
7.69,2.53,39.80726,-89.64496,33751.48,8107.38,0.50,0.59,0.80,ST JOHNS HOSPITAL
5.02,2.62,41.83195,-87.79266,20501.77,8575.66,0.50,0.79,0.58,MACNEAL  HOSPITAL
5.63,2.39,39.74629,-90.25907,23506.28,7406.22,0.00,0.00,0.00,PASSAVANT AREA HOSPITAL
6.02,2.20,41.66900,-87.81414,25456.12,6491.90,0.50,0.72,0.96,PALOS COMMUNITY HOSPITAL
5.88,2.54,41.87870,-87.80322,24775.83,8152.57,0.50,0.70,0.85,RUSH OAK PARK HOSPITAL
6.30,4.12,41.79660,-87.88627,26833.38,16013.81,0.83,0.64,0.38,ADVENTIST LA GRANGE MEMORIAL HOSPITAL
4.98,2.37,40.70200,-89.59222,20294.12,7345.14,0.67,0.57,0.03,SAINT FRANCIS MEDICAL CENTER
8.01,2.77,42.02578,-87.68371,35339.93,9322.73,0.50,0.75,0.38,RHC ST FRANCIS HOSPITAL
7.93,2.84,41.96698,-87.64941,34950.55,9643.90,0.50,0.70,0.43,LOUIS A WEISS MEMORIAL HOSPITAL
4.52,2.85,41.87259,-87.76181,18008.71,9712.50,0.25,0.88,0.72,LORETTO HOSPITAL
8.58,2.46,42.37840,-87.83329,38164.47,7764.76,0.50,0.74,0.63,VISTA MEDICAL CENTER EAST
10.70,3.68,41.78829,-87.60485,48681.21,13851.66,0.67,0.66,0.11,THE UNIVERSITY OF CHICAGO MEDICAL CENTER
6.91,2.37,40.11696,-88.21506,29844.73,7323.27,0.33,0.64,0.14,CARLE FOUNDATION HOSPITAL
5.99,2.26,40.13811,-87.64569,25273.46,6780.15,0.00,0.00,0.00,PROVENA UNITED SAMARITANS MEDCTR-LOGAN
4.58,2.22,41.36897,-88.42537,18312.36,6591.64,0.00,0.00,0.00,MORRIS HOSPITAL & HEALTHCARE CENTERS
4.99,2.90,41.77813,-87.63330,20335.81,9966.17,0.50,1.00,0.78,ST BERNARD HOSPITAL
6.10,2.30,40.11739,-88.22714,25856.82,6982.53,0.50,0.62,0.21,PROVENA COVENANT MEDICAL CENTER- URBANA
12.09,2.74,41.97532,-87.69958,55563.76,9143.87,0.50,0.85,0.51,SWEDISH COVENANT HOSPITAL
6.39,2.35,42.31832,-88.27920,27262.23,7202.83,0.50,0.84,0.25,CENTEGRA HEALTH SYSTEM - MC HENRY HOSPITAL
9.18,2.88,41.98743,-87.81440,41145.25,9875.90,0.67,0.62,0.70,RESURRECTION MEDICAL CENTER
4.86,2.40,41.65880,-87.67729,19685.06,7495.00,0.50,0.65,0.94,METROSOUTH MEDICAL CENTER
7.60,3.31,41.87497,-87.66927,33272.48,11992.01,0.50,0.42,0.33,RUSH UNIVERSITY MEDICAL CENTER
6.12,2.22,41.80555,-87.92059,25937.77,6578.23,0.50,0.68,0.54,HINSDALE HOSPITAL
3.29,3.25,41.87381,-87.67421,11905.94,11678.24,0.83,0.55,0.16,JOHN H STROGER JR HOSPITAL
13.76,2.46,38.70148,-90.14382,63896.76,7756.47,0.00,0.00,0.00,GATEWAY REGIONAL MEDICAL CENTER
6.84,2.37,40.49639,-88.99106,29499.91,7341.00,0.00,0.00,0.00,BROMENN HEALTHCARE
5.12,2.46,41.76946,-87.69239,20964.20,7789.35,0.50,0.82,0.94,HOLY CROSS HOSPITAL
4.33,2.25,39.86644,-88.96090,17044.90,6717.19,0.50,0.60,0.70,DECATUR MEMORIAL HOSPITAL
5.77,2.17,41.32884,-89.19262,24205.38,6349.00,0.00,0.00,0.00,ST MARGARETS HOSPITAL
6.79,2.55,39.80893,-89.65530,29283.44,8237.58,0.83,0.57,0.11,MEMORIAL MEDICAL CENTER
4.97,3.61,41.86927,-87.67052,20212.85,13483.76,0.50,0.76,0.30,UNIVERSITY OF ILLINOIS HOSPITAL
6.21,2.32,41.12049,-87.87187,26401.00,7095.90,0.50,0.69,0.97,PROVENA ST MARYS HOSPITAL
4.04,2.91,41.84639,-87.62345,15606.24,10030.44,0.25,0.46,0.39,MERCY HOSPITAL AND MEDICAL CENTER
5.68,2.19,40.48254,-88.95519,23773.40,6414.00,0.50,0.91,0.30,ST JOSEPH MEDICAL CENTER
3.82,2.22,37.72790,-89.22058,14522.98,6595.90,0.50,0.64,0.91,MEMORIAL HOSPITAL OF CARBONDALE
2.52,2.24,40.76601,-87.73169,8072.73,6681.00,0.00,0.00,0.00,IROQUOIS MEMORIAL HOSPITAL
6.16,2.62,41.52283,-87.71111,26154.56,8563.92,0.50,0.75,0.33,FRANCISCAN ST JAMES HEALTH
7.86,2.40,41.78566,-88.32886,34589.83,7485.61,0.50,0.72,0.48,PROVENA MERCY MEDICAL CENTER
5.57,2.26,42.27597,-88.40019,23211.91,6777.18,0.50,0.71,0.57,CENTEGRA HEALTH SYSTEM - WOODSTOCK HOSPITAL
11.25,3.13,41.75746,-87.58559,51433.23,11080.03,0.00,0.00,0.00,JACKSON PARK HOSPITAL
6.09,2.53,41.72094,-87.69220,25770.19,8101.88,0.17,0.64,0.70,LITTLE COMPANY OF MARY HOSPITAL
7.27,2.91,41.90414,-87.68254,31631.20,9984.72,0.75,0.50,0.54,ST MARY & ELIZABETH MED CTR-DIVISION CAMPUS
6.04,2.63,41.74948,-87.56909,25526.65,8618.00,0.50,0.88,0.72,SOUTH SHORE HOSPITAL
10.12,3.45,41.93641,-87.65295,45785.20,12676.60,0.50,0.78,0.86,ADVOCATE ILLINOIS MASONIC MEDICAL CENTER
7.45,2.37,38.55020,-90.02146,32552.84,7339.42,0.67,0.81,0.21,MEMORIAL HOSPITAL
5.46,2.39,41.12572,-87.88526,22661.52,7414.67,0.50,0.72,0.82,RIVERSIDE MEDICAL CENTER
4.48,2.19,38.51081,-89.99014,17779.10,6425.10,0.50,0.65,0.07,ST ELIZABETH HOSPITAL
4.94,2.37,41.60726,-87.66060,20091.06,7327.77,0.50,0.65,0.76,INGALLS MEMORIAL HOSPITAL
6.12,2.75,41.97310,-87.67090,25937.92,9191.38,0.00,0.00,0.00,METHODIST HOSPITAL OF CHICAGO
7.02,2.19,41.86362,-87.93567,30411.94,6436.83,0.50,0.76,0.93,ELMHURST MEMORIAL HOSPITAL
8.96,2.31,42.27447,-87.95764,40026.18,7017.00,0.50,0.70,0.80,ADVOCATE CONDELL MEDICAL CENTER
7.35,3.10,41.90078,-87.69925,32049.53,10958.06,0.50,0.86,0.70,NORWEGIAN-AMERICAN HOSPITAL
6.48,2.81,41.72031,-87.73249,27740.28,9500.38,0.50,0.57,0.74,ADVOCATE CHRIST HOSPITAL & MEDICAL CENTER
7.34,2.46,40.70065,-89.59505,32022.97,7795.11,0.50,0.79,0.48,METHODIST MEDICAL CENTER OF ILLINOIS
6.36,2.16,41.88566,-88.34311,27112.25,6292.12,0.50,0.81,0.05,DELNOR COMMUNITY HOSPITAL
4.42,2.26,41.54446,-87.98379,17496.75,6801.98,0.50,0.69,0.89,SILVER CROSS HOSPITAL  AND MEDICAL CENTERS
9.76,2.18,42.03576,-88.32575,44022.25,6385.33,0.50,0.65,0.99,PROVENA - SAINT JOSEPH HOSPITAL
6.12,2.61,42.03837,-87.84820,25925.60,8516.46,0.83,0.78,0.70,ADVOCATE LUTHERAN GENERAL HOSPITAL
6.80,3.00,41.93418,-87.63579,29321.05,10446.28,0.50,0.61,0.29,SAINT JOSEPH HOSPITAL
7.40,2.42,42.26584,-89.07428,32281.77,7585.68,0.50,0.65,0.76,SWEDISH AMERICAN HOSPITAL
8.11,2.37,41.76076,-88.15016,35846.80,7311.17,0.50,0.69,0.30,EDWARD HOSPITAL
6.02,2.15,42.26634,-89.00900,25458.62,6214.88,0.50,0.50,0.30,SAINT ANTHONY MEDICAL CENTER
5.61,2.42,42.29844,-89.09897,23403.07,7577.31,0.50,0.88,0.57,ROCKFORD MEMORIAL HOSPITAL
6.66,2.18,41.87269,-88.15684,28602.92,6367.73,0.67,0.62,0.89,CENTRAL DUPAGE HOSPITAL
5.48,2.50,41.56720,-87.69566,22744.50,7959.18,0.50,0.80,0.64,ADVOCATE SOUTH SUBURBAN HOSPITAL
8.34,2.57,41.94560,-87.76897,36967.46,8338.62,0.50,0.75,0.21,OUR LADY OF THE RESURRECTION MED CTR
6.38,2.23,42.06732,-87.99368,27230.27,6641.72,0.67,0.68,0.58,NORTHWEST COMMUNITY HOSPITAL
6.47,2.20,42.00413,-88.01745,27698.79,6495.30,0.67,0.79,0.89,ALEXIAN BROTHERS MEDICAL CENTER
5.86,3.01,41.86110,-87.83404,24675.70,10479.35,0.67,0.46,0.05,LOYOLA UNIVERSITY MEDICAL CENTER
3.49,2.18,41.48200,-90.57158,12900.96,6387.50,0.50,0.59,0.64,TRINITY ROCK ISLAND
8.17,2.87,41.89477,-87.62131,36136.70,9832.71,0.50,0.61,0.94,NORTHWESTERN MEMORIAL HOSPITAL
5.62,2.13,41.81791,-88.00907,23478.22,6154.07,0.50,0.86,0.96,ADVOCATE GOOD SAMARITAN HOSPITAL
3.97,2.08,38.73818,-89.94728,15285.27,5896.60,0.50,0.88,0.30,ANDERSON HOSPITAL
5.99,2.28,42.05260,-88.14173,25319.35,6857.73,0.50,0.80,0.58,ST ALEXIUS MEDICAL CENTER
5.20,2.21,42.19586,-88.17286,21351.26,6514.95,0.50,0.80,0.96,ADVOCATE GOOD SHEPHERD HOSPITAL
6.27,2.33,41.68062,-88.08319,26691.38,7104.69,0.00,0.00,0.00,ADVENTIST BOLINGBROOK HOSPITAL
4.75,2.46,41.59920,-87.35764,19118.36,7779.47,0.50,0.65,0.94,METHODIST HOSPITALS INC
5.43,2.28,40.42687,-86.88197,22519.09,6863.83,0.00,0.00,0.00,FRANCISCAN ST ELIZABETH HEALTH - LAFAYETTE CENTRAL
4.56,2.47,41.61514,-87.52413,18206.45,7826.16,0.50,0.81,0.74,FRANCISCAN ST MARGARET HEALTH - HAMMOND
6.18,2.14,41.61055,-86.72511,26258.46,6193.00,0.00,0.00,0.00,INDIANA UNIVERSITY HEALTH LA PORTE HOSPITAL
4.27,2.07,40.44665,-86.12707,16783.50,5829.12,0.50,0.80,0.54,HOWARD REGIONAL HEALTH SYSTEM
4.77,2.44,41.63466,-87.44901,19231.50,7688.67,0.50,0.79,0.89,ST CATHERINE HOSPITAL INC
3.45,2.18,38.28244,-85.74923,12671.41,6358.35,0.50,0.84,0.48,CLARK MEMORIAL HOSPITAL
4.55,2.39,41.70877,-86.17026,18161.21,7444.50,0.50,0.89,0.58,SAINT JOSEPH REGIONAL MEDICAL CENTER
4.96,2.28,41.70639,-86.89936,20200.48,6876.76,0.00,0.00,0.00,FRANCISCAN ST ANTHONY HEALTH - MICHIGAN CITY
5.90,2.35,41.03874,-85.24876,24855.03,7232.27,0.67,0.64,0.32,LUTHERAN HOSPITAL OF INDIANA
8.49,2.72,41.70568,-85.93404,37698.31,9077.00,0.67,0.54,0.70,ELKHART GENERAL HOSPITAL
4.88,2.29,41.04659,-85.10906,19773.21,6928.16,0.83,0.60,0.45,PARKVIEW REGIONAL MEDICAL CENTER
5.37,2.26,39.48518,-87.40893,22229.35,6789.65,0.50,0.62,0.33,UNION HOSPITAL INC
4.16,3.12,39.78091,-86.17629,16219.04,11071.29,0.33,0.70,0.28,WILLIAM N WISHARD MEMORIAL HOSPITAL
5.83,2.25,39.72432,-86.10055,24488.00,6722.62,0.00,0.00,0.00,FRANCISCAN ST FRANCIS HEALTH - BEECH GROVE
4.61,2.25,41.51266,-87.26125,18460.51,6728.51,0.50,0.79,0.86,ST MARY MEDICAL CENTER INC
5.54,2.25,41.46729,-87.05130,23088.19,6726.04,0.50,0.75,0.64,PORTER VALPARAISO HOSPITAL
3.83,2.08,38.67313,-87.53370,14597.18,5879.67,0.50,0.72,0.82,GOOD SAMARITAN HOSPITAL
4.20,2.12,38.30195,-85.83409,16425.51,6072.40,0.67,0.85,0.86,FLOYD MEMORIAL HOSPITAL AND HEALTH SERVICES
7.19,2.20,39.41951,-87.40898,31233.14,6479.86,0.50,0.93,0.10,TERRE HAUTE REGIONAL HOSPITAL
3.65,2.38,39.86405,-84.88413,13666.02,7392.14,1.00,0.64,0.28,REID HOSPITAL & HEALTH CARE SERVICES
7.02,2.56,39.16006,-86.54038,30426.00,8249.21,0.50,0.56,0.25,INDIANA UNIVERSITY HEALTH BLOOMINGTON HOSPITAL
6.45,3.06,39.79009,-86.16260,27584.87,10736.38,0.50,0.51,0.80,INDIANA UNIVERSITY HEALTH
9.40,2.97,41.68479,-86.25217,42241.73,10302.27,0.67,0.60,0.08,MEMORIAL HOSPITAL OF SOUTH BEND
4.13,2.33,39.78704,-86.07673,16055.03,7152.18,0.50,0.82,0.83,COMMUNITY HOSPITAL EAST
5.74,2.16,37.98293,-87.57072,24043.17,6266.98,0.83,0.66,0.14,DEACONESS HOSPITAL INC
7.12,2.50,39.91001,-86.19660,30919.55,7959.76,0.67,0.47,0.89,ST VINCENT HOSPITAL & HEALTH SERVICES
4.08,2.18,40.09594,-85.68152,15811.81,6371.81,0.00,0.00,0.00,SAINT JOHN'S HEALTH SYSTEM
6.76,2.53,40.19679,-85.41573,29114.47,8111.94,0.67,0.62,0.85,INDIANA UNIVERSITY HEALTH BALL MEMORIAL HOSPITAL
6.38,2.27,41.49222,-87.52429,27254.19,6835.94,0.50,0.85,0.54,FRANCISCAN ST MARGARET HEALTH - DYER
4.21,2.15,37.96320,-87.50292,16484.42,6219.19,0.67,0.68,0.32,ST MARY'S MEDICAL CENTER OF EVANSVILLE INC
4.75,2.28,40.39424,-86.83516,19124.55,6891.00,0.67,0.82,0.17,FRANCISCAN ST ELIZABETH HEALTH - LAFAYETTE EAST
3.52,2.21,39.21585,-85.89683,13054.47,6527.67,0.50,0.76,0.96,COLUMBUS REGIONAL HOSPITAL
6.98,2.55,40.12998,-85.69436,30226.55,8226.82,0.50,0.86,0.38,COMMUNITY HOSPITAL OF ANDERSON AND MADISON COUNTY
5.60,2.34,41.55065,-87.50619,23343.06,7163.10,0.50,0.75,0.86,COMMUNITY HOSPITAL
5.18,2.19,41.39576,-87.36689,21258.79,6447.67,0.50,0.84,0.51,FRANCISCAN ST ANTHONY HEALTH - CROWN POINT
5.14,2.10,39.63776,-86.13260,21084.28,6009.33,0.50,0.69,0.76,COMMUNITY HOSPITAL SOUTH
6.98,2.31,39.82100,-86.22251,30207.13,7043.67,0.00,0.00,0.00,WESTVIEW HOSPITAL
8.54,2.68,39.78047,-86.34084,37951.58,8860.33,0.00,0.00,0.00,IU HEALTH WEST HOSPITAL
5.06,2.31,39.90060,-86.04218,20685.42,7021.78,0.50,0.78,0.76,COMMUNITY HOSPITAL NORTH
8.32,2.46,40.40296,-86.80885,36871.56,7781.44,0.50,0.84,0.97,INDIANA UNIVERSITY HEALTH ARNETT HOSPITAL
5.45,2.36,41.60051,-93.61086,22604.23,7295.00,0.00,0.00,0.00,IOWA LUTHERAN HOSPITAL
4.54,2.30,41.26886,-95.83923,18090.31,6989.08,0.00,0.00,0.00,ALEGENT HEALTH MERCY HOSPITAL
4.72,2.10,41.66411,-91.52841,18979.31,5997.23,0.50,0.65,0.48,MERCY HOSPITAL
4.25,2.18,42.03321,-93.61164,16675.54,6367.15,0.00,0.00,0.00,MARY GREELEY MEDICAL CENTER
4.79,2.21,41.54190,-90.55691,19350.24,6511.21,0.67,0.59,0.97,GENESIS MEDICAL CENTER-DAVENPORT
4.92,2.22,41.98570,-91.66093,19985.42,6587.46,0.67,0.75,0.91,ST LUKES HOSPITAL
5.50,2.12,41.26786,-95.83505,22863.08,6096.92,0.00,0.00,0.00,JENNIE EDMUNDSON HOSPITAL
5.41,2.28,40.81009,-91.17356,22420.27,6862.47,0.00,0.00,0.00,GREAT RIVER MEDICAL CENTER
6.24,3.20,41.66092,-91.54800,26526.89,11437.00,0.17,0.39,0.64,UNIVERSITY OF IOWA HOSPITAL & CLINICS
4.43,2.23,43.15063,-93.21718,17573.81,6637.19,0.50,0.82,0.64,MERCY MEDICAL CENTER-NORTH IOWA
4.42,2.08,41.97864,-91.65507,17509.57,5872.05,0.50,0.80,1.00,MERCY MEDICAL CENTER - CEDAR RAPIDS
4.96,2.39,41.86141,-90.18921,20180.35,7409.00,0.00,0.00,0.00,MERCY MEDICAL CENTER-CLINTON
6.58,2.41,41.58955,-93.63248,28214.39,7503.49,0.67,0.38,0.83,IOWA METHODIST MEDICAL CENTER
5.98,2.32,41.59886,-93.62344,25225.48,7098.45,0.83,0.75,0.29,MERCY MEDICAL CENTER-DES MOINES
3.01,2.24,41.02751,-92.38994,10494.08,6656.00,0.00,0.00,0.00,OTTUMWA REGIONAL HEALTH CENTER
3.32,2.11,42.52665,-92.33957,12033.25,6020.00,0.50,0.81,0.07,ALLEN MEMORIAL HOSPITAL
3.71,2.33,42.51846,-96.40581,13994.17,7147.00,0.50,0.60,0.91,ST LUKES REGIONAL MEDICAL CENTER
5.74,2.25,42.49250,-96.39975,24058.90,6744.42,0.67,0.71,0.54,MERCY MEDICAL CENTER-SIOUX CITY
4.94,2.33,38.83324,-97.61028,20070.30,7144.96,0.50,0.85,0.28,SALINA REGIONAL HEALTH CENTER
6.42,2.50,38.87847,-99.29923,27453.69,7980.00,0.50,0.59,0.11,HAYS MEDICAL CENTER
3.21,2.15,39.05660,-95.69599,11511.15,6253.27,0.33,0.51,0.33,ST FRANCIS HEALTH CENTER INC
5.96,2.40,38.07731,-97.89183,25130.58,7498.58,0.50,0.80,0.91,HUTCHINSON REGIONAL MEDICAL CENTER INC
8.64,2.53,39.05583,-94.60912,38470.92,8121.45,0.67,0.54,0.64,UNIVERSITY OF KANSAS HOSPITAL
5.40,2.13,38.85279,-94.82413,22365.55,6137.14,0.50,0.59,0.63,OLATHE MEDICAL CENTER
6.17,2.26,39.05128,-95.69572,26173.94,6762.71,0.67,0.71,0.11,STORMONT-VAIL HEALTHCARE
7.32,2.10,38.99549,-94.69061,31912.08,5994.08,0.67,0.46,0.21,SHAWNEE MISSION MEDICAL CENTER
6.00,2.41,37.70405,-97.31386,25331.10,7516.62,0.67,0.69,0.21,VIA CHRISTI HOSPITALS WICHITA INC
9.16,2.40,37.69556,-97.29785,41011.79,7459.53,0.67,0.53,0.05,WESLEY MEDICAL CENTER
3.68,2.21,38.97848,-95.24771,13851.63,6542.42,0.00,0.00,0.00,LAWRENCE MEMORIAL HOSPITAL
4.55,2.10,39.20164,-96.60003,18124.54,6009.77,0.00,0.00,0.00,MERCY REGIONAL HEALTH CENTER
3.09,2.07,37.04095,-95.63956,10884.77,5823.54,0.00,0.00,0.00,COFFEYVILLE REGIONAL MEDICAL CENTER
6.36,2.26,39.12677,-94.78643,27147.21,6757.34,0.50,0.60,0.83,PROVIDENCE MEDICAL CENTER
9.29,2.36,38.91047,-94.65205,41662.50,7255.50,0.50,0.66,0.11,MENORAH MEDICAL CENTER
7.36,2.76,39.07816,-84.46695,32123.69,9262.46,0.50,0.81,0.51,ST ELIZABETH FT THOMAS
5.39,2.29,38.47021,-82.63498,22341.00,6934.91,0.67,0.60,0.54,KING'S DAUGHTERS' MEDICAL CENTER
3.74,2.22,38.03140,-84.52194,14138.69,6590.31,0.83,0.68,0.80,SAINT JOSEPH HOSPITAL
5.21,2.29,37.11784,-84.10910,21403.55,6935.35,0.50,0.75,0.64,SAINT JOSEPH HOSPITAL LONDON
2.92,2.09,37.71183,-85.87623,10048.68,5931.91,0.83,0.79,0.39,HARDIN MEMORIAL HOSPITAL
4.45,2.41,36.99641,-86.43006,17664.56,7512.91,0.67,0.53,0.33,THE MEDICAL CENTER AT BOWLING GREEN
3.86,2.33,37.01079,-85.90342,14706.00,7130.00,0.00,0.00,0.00,T J SAMSON COMMUNITY HOSPITAL
3.11,2.19,36.60615,-83.74024,11013.73,6423.73,0.00,0.00,0.00,MIDDLESBORO APPALACHIAN REGIONAL HEALTHCARE HOSPIT
3.78,2.46,36.76316,-83.70793,14350.33,7787.53,0.00,0.00,0.00,PINEVILLE COMMUNITY HOSPITAL
5.98,2.45,37.27729,-83.22802,25241.08,7713.48,0.50,0.88,0.58,HAZARD ARH REGIONAL MEDICAL CENTER
4.61,2.37,39.06704,-84.49946,18427.17,7314.43,0.33,0.59,0.80,ST ELIZABETH MEDICAL CENTER NORTH
4.24,2.25,38.50697,-82.69222,16633.07,6716.80,0.50,0.80,0.91,OUR LADY OF BELLEFONTE HOSPITAL
3.99,2.61,37.76518,-87.10197,15386.15,8506.94,0.50,0.66,0.30,OWENSBORO MEDICAL HEALTH SYSTEM
4.41,2.41,38.24927,-85.75081,17435.89,7513.92,0.67,0.51,0.08,JEWISH HOSPITAL & ST MARY'S HEALTHCARE
9.06,2.59,37.47264,-82.52605,40516.86,8429.11,0.75,0.86,0.10,PIKEVILLE MEDICAL CENTER
4.93,2.26,39.01660,-84.63078,20033.85,6768.30,0.50,0.75,0.64,ST ELIZABETH FLORENCE
4.24,2.24,37.64378,-84.77272,16629.89,6685.79,0.00,0.00,0.00,EPHRAIM MCDOWELL REGIONAL MEDICAL CENTER
5.17,2.18,36.86034,-87.49528,21243.90,6383.10,0.50,0.84,0.05,JENNIE STUART MEDICAL CENTER
7.34,3.18,38.03282,-84.50674,31998.48,11346.06,0.33,0.62,0.33,UNIVERSITY OF KENTUCKY HOSPITAL
4.28,2.26,37.47273,-86.28820,16807.82,6772.36,0.00,0.00,0.00,TWIN LAKES REGIONAL MEDICAL CENTER
4.01,2.27,36.92128,-84.11838,15473.75,6837.42,0.25,0.79,0.83,BAPTIST REGIONAL MEDICAL CENTER
4.19,2.27,37.36583,-85.33917,16346.38,6813.15,0.00,0.00,0.00,TAYLOR REGIONAL HOSPITAL
5.51,2.43,38.24806,-85.75125,22913.47,7614.24,0.50,0.35,0.39,NORTON HOSPITALS INC
3.26,2.32,37.33959,-87.48988,11724.36,7072.12,0.50,0.86,0.17,REGIONAL MEDICAL CENTER OF HOPKINS COUNTY
4.58,2.07,37.06431,-88.67523,18309.19,5852.23,0.50,0.42,0.20,LOURDES HOSPITAL
5.37,2.28,38.01849,-84.51236,22239.57,6901.48,0.50,0.71,0.58,CENTRAL BAPTIST HOSPITAL
4.60,2.11,37.07404,-88.62685,18377.86,6011.52,0.50,0.80,0.39,WESTERN BAPTIST HOSPITAL
4.27,2.19,36.75751,-88.65129,16746.18,6446.00,0.00,0.00,0.00,JACKSON PURCHASE MEDICAL CENTER
4.35,2.08,38.23898,-85.63941,17140.89,5891.54,0.67,0.57,0.74,BAPTIST HOSPITAL EAST
5.81,2.34,37.08724,-84.61828,24405.53,7197.76,0.67,0.60,0.17,LAKE CUMBERLAND REGIONAL HOSPITAL
5.90,2.82,38.24802,-85.74464,24872.29,9554.10,0.25,0.81,0.08,UNIVERSITY OF LOUISVILLE HOSPITAL
3.40,2.43,37.09412,-85.29359,12449.92,7615.46,0.00,0.00,0.00,WESTLAKE REGIONAL HOSPITAL
5.72,2.33,30.20227,-92.01906,23949.39,7127.35,0.50,0.74,0.30,LAFAYETTE GENERAL MEDICAL CENTER
5.40,2.09,29.77956,-90.80568,22390.57,5914.40,0.50,0.74,0.93,THIBODAUX REGIONAL MEDICAL CENTER
5.15,2.23,29.59851,-90.71397,21120.65,6609.96,0.25,0.69,0.69,TERREBONNE GENERAL MEDICAL CENTER
11.03,2.42,30.46813,-90.45814,50331.95,7560.14,0.75,0.71,0.74,NORTH OAKS MEDICAL CENTER LLC
5.81,2.41,30.54354,-92.07608,24399.31,7534.85,0.33,0.74,0.03,OPELOUSAS GENERAL HEALTH SYSTEM
5.91,2.21,31.28258,-92.46060,24904.03,6541.10,0.50,0.65,0.80,CHRISTUS ST FRANCES CABRINI HOSPITAL
7.92,2.35,31.31451,-92.44997,34899.69,7230.03,0.67,0.40,0.39,RAPIDES REGIONAL MEDICAL CENTER
6.70,2.14,30.21521,-93.22682,28804.98,6160.12,0.50,0.64,0.64,CHRISTUS ST PATRICK HOSPITAL
4.51,2.51,30.01875,-90.19452,17974.86,8018.53,0.67,0.61,0.63,OCHSNER FOUNDATION HOSPITAL
6.08,2.32,29.89089,-90.09395,25742.11,7059.68,0.50,0.65,0.86,WEST JEFFERSON MEDICAL CENTER
6.72,2.45,32.49443,-93.75011,28930.07,7715.12,0.50,0.69,0.14,CHRISTUS SCHUMPERT HEALTH SYSTEM
8.39,2.30,30.46834,-90.11383,37233.89,6959.91,0.50,0.70,0.08,ST TAMMANY PARISH HOSPITAL
6.65,2.47,29.92596,-90.09191,28597.04,7825.00,0.67,0.68,0.64,TOURO INFIRMARY
4.05,2.08,30.23913,-92.66205,15642.80,5874.67,0.00,0.00,0.00,JENNINGS AMERICAN LEGION HOSPITAL
5.36,2.11,29.98815,-91.78471,22164.74,6045.65,0.00,0.00,0.00,IBERIA GENERAL HOSPITAL AND MEDICAL CENTER
5.87,2.33,30.20458,-93.19774,24691.64,7140.21,0.50,0.80,0.07,LAKE CHARLES MEMORIAL HOSPITAL
3.33,2.26,30.40118,-91.11160,12070.65,6790.42,0.83,0.51,0.33,OUR LADY OF THE LAKE REGIONAL MEDICAL CENTER
3.24,2.43,30.45015,-91.15273,11659.66,7631.71,0.33,0.76,0.38,BATON ROUGE GENERAL MEDICAL CENTER
5.20,2.25,32.51544,-92.63343,21396.47,6739.12,0.50,0.64,0.21,NORTHERN LOUISIANA MEDICAL CENTER
3.22,2.87,32.48177,-93.76264,11531.05,9792.63,1.00,0.80,0.00,LSU HEALTH SCIENCES CENTER - SHREVEPORT
3.89,2.16,30.15052,-92.03698,14876.81,6270.66,0.50,0.71,0.58,OUR LADY OF LOURDES REGIONAL MEDICAL CENTER INC
5.55,2.25,32.48393,-93.77884,23132.09,6741.35,0.50,0.64,0.63,WILLIS KNIGHTON MEDICAL CENTER
4.64,2.26,32.49997,-92.11359,18583.40,6759.06,0.67,0.62,0.99,ST FRANCIS MEDICAL CENTER
6.99,2.35,30.01438,-90.18155,30241.79,7231.08,0.67,0.69,0.74,EAST JEFFERSON GENERAL HOSPITAL
6.31,2.26,32.51315,-92.15713,26909.58,6761.67,0.00,0.00,0.00,GLENWOOD REGIONAL MEDICAL CENTER
3.63,2.34,30.68494,-92.26601,13599.45,7173.18,0.00,0.00,0.00,MERCY REGIONAL MEDICAL CENTER
6.67,2.80,29.95570,-90.07587,28660.93,9464.07,0.33,0.41,0.00,TULANE MEDICAL CENTER
4.38,2.22,30.43973,-91.00727,17294.38,6590.69,0.50,0.69,0.33,OCHSNER MEDICAL CENTER-BATON ROUGE
6.09,2.28,30.19775,-92.07724,25815.80,6864.73,0.50,0.89,0.74,THE REGIONAL MEDICAL CENTER OF ACADIANA
5.26,2.14,32.55761,-93.71874,21687.78,6170.43,0.50,0.89,0.94,WILLIS KNIGHTON BOSSIER HEALTH CENTER
4.75,2.49,43.65159,-70.26482,19133.17,7909.33,0.00,0.00,0.00,MERCY HOSPITAL
5.37,2.75,43.65325,-70.27533,22203.53,9231.13,0.17,0.47,0.01,MAINE MEDICAL CENTER
3.37,2.27,43.47840,-70.49221,12308.87,6825.00,0.00,0.00,0.00,SOUTHERN MAINE MEDICAL CENTER
4.14,2.41,44.80988,-68.74929,16133.54,7520.90,0.50,0.59,0.38,EASTERN MAINE MEDICAL CENTER
6.51,2.56,45.25378,-69.44547,27854.57,8248.52,0.50,0.49,0.51,MAINE GENERAL MEDICAL CENTER
3.38,3.23,39.62183,-77.68219,12315.60,11576.67,0.00,0.00,0.00,MERITUS MEDICAL CENTER
3.79,3.61,39.28817,-76.62438,14359.19,13497.62,0.00,0.00,0.00,UNIVERSITY OF MARYLAND MEDICAL CENTER
3.20,3.06,38.93090,-76.92161,11434.44,10748.44,0.00,0.00,0.00,PRINCE GEORGES HOSPITAL CENTER
3.06,2.94,39.01578,-77.03591,10727.48,10166.04,0.00,0.00,0.00,HOLY CROSS HOSPITAL
3.12,2.99,39.42366,-77.41386,11062.12,10398.45,0.00,0.00,0.00,FREDERICK MEMORIAL HOSPITAL
2.41,2.32,39.54345,-76.09153,7528.60,7076.87,0.00,0.00,0.00,HARFORD MEMORIAL HOSPITAL
3.16,3.03,39.38813,-76.61068,11271.67,10595.33,0.00,0.00,0.00,SAINT JOSEPH MEDICAL CENTER
3.43,3.27,39.29297,-76.61314,12569.86,11815.68,0.00,0.00,0.00,MERCY MEDICAL CENTER INC
4.44,4.26,39.29688,-76.59242,17582.71,16729.29,0.00,0.00,0.00,JOHNS HOPKINS HOSPITAL THE
3.21,3.08,39.27352,-76.67219,11519.23,10828.02,0.00,0.00,0.00,SAINT AGNES HOSPITAL
3.18,3.05,39.35262,-76.66196,11327.40,10686.79,0.00,0.00,0.00,SINAI HOSPITAL OF BALTIMORE
3.43,3.28,39.28833,-76.64912,12594.92,11839.22,0.00,0.00,0.00,BON SECOURS HOSPITAL
3.45,3.31,39.35169,-76.47919,12712.38,11972.32,0.00,0.00,0.00,FRANKLIN SQUARE HOSPITAL CENTER
3.63,3.47,38.98482,-77.00139,13586.91,12764.34,0.00,0.00,0.00,WASHINGTON ADVENTIST HOSPITAL
3.31,3.17,39.15402,-77.05431,11968.06,11286.45,0.00,0.00,0.00,MONTGOMERY GENERAL HOSPITAL INC
2.83,2.72,38.36248,-75.59799,9609.56,9064.42,0.00,0.00,0.00,PENINSULA REGIONAL MEDICAL CENTER
3.01,2.88,38.99743,-77.11048,10489.83,9860.58,0.00,0.00,0.00,SUBURBAN HOSPITAL
2.68,2.60,38.99014,-76.53398,8886.56,8450.36,0.00,0.00,0.00,ANNE ARUNDEL MEDICAL CENTER
2.87,2.76,39.32930,-76.61432,9830.28,9240.44,0.00,0.00,0.00,UNION MEMORIAL HOSPITAL
3.65,3.49,39.64928,-78.73206,13704.17,12881.89,0.00,0.00,0.00,WESTERN MARYLAND REGIONAL MEDICAL CENTER
3.11,2.97,38.29124,-76.63579,10981.50,10322.55,0.00,0.00,0.00,SAINT MARY'S HOSPITAL
3.16,3.02,39.29100,-76.54623,11233.31,10559.20,0.00,0.00,0.00,JOHNS HOPKINS BAYVIEW MEDICAL CENTER
3.03,2.91,39.60859,-75.83201,10616.17,10030.88,0.00,0.00,0.00,UNION HOSPITAL OF CECIL COUNTY
3.18,3.09,39.55808,-76.99107,11352.94,10910.69,0.00,0.00,0.00,CARROLL HOSPITAL CENTER
3.10,2.97,39.25189,-76.61399,10961.93,10304.20,0.00,0.00,0.00,HARBOR HOSPITAL
2.55,2.45,38.52905,-76.97068,8201.00,7709.00,0.00,0.00,0.00,CIVISTA MEDICAL CENTER
2.84,2.72,38.76970,-76.07697,9666.71,9086.71,0.00,0.00,0.00,MEMORIAL HOSPITAL AT EASTON
3.15,3.01,39.29994,-76.62138,11183.14,10512.20,0.00,0.00,0.00,MARYLAND GENERAL  HOSPITAL
2.24,2.16,38.55963,-76.59455,6688.64,6287.45,0.00,0.00,0.00,CALVERT MEMORIAL HOSPITAL
2.73,2.62,39.35852,-76.78208,9102.42,8588.66,0.00,0.00,0.00,NORTHWEST HOSPITAL CENTER
2.76,2.64,39.13732,-76.62228,9244.70,8690.02,0.00,0.00,0.00,BALTIMORE WASHINGTON  MEDICAL CENTER
3.33,3.19,39.39017,-76.62216,12091.89,11406.86,0.00,0.00,0.00,GREATER BALTIMORE MEDICAL CENTER
2.72,2.61,39.21273,-76.88526,9073.83,8529.48,0.00,0.00,0.00,HOWARD COUNTY GENERAL HOSPITAL
3.12,3.00,39.51870,-76.34688,11062.36,10439.07,0.00,0.00,0.00,UPPER CHESAPEAKE MEDICAL CENTER
3.46,3.30,38.96851,-76.86203,12741.22,11922.00,0.00,0.00,0.00,DOCTORS'  COMMUNITY HOSPITAL
2.77,2.66,38.74827,-76.87590,9304.16,8745.78,0.00,0.00,0.00,SOUTHERN MARYLAND HOSPITAL CENTER
2.74,2.63,39.35962,-76.58851,9169.71,8619.62,0.00,0.00,0.00,GOOD SAMARITAN HOSPITAL
3.25,3.12,39.09796,-77.19799,11711.26,11026.31,0.00,0.00,0.00,SHADY GROVE ADVENTIST HOSPITAL
3.68,3.52,38.72818,-76.99214,13853.09,13021.82,0.00,0.00,0.00,FORT WASHINGTON HOSPITAL
2.42,2.33,38.33876,-75.21128,7566.06,7112.17,0.00,0.00,0.00,ATLANTIC GENERAL HOSPITAL
4.98,2.51,42.54113,-71.76120,20282.88,8031.88,0.50,0.65,0.64,HEALTHALLIANCE HOSPITALS INC
3.57,2.60,42.37441,-71.13378,13289.54,8485.46,0.67,0.85,0.17,MOUNT AUBURN HOSPITAL
3.10,2.31,41.94236,-71.27364,10970.46,7045.62,0.50,0.66,0.14,STURDY MEMORIAL HOSPITAL
4.14,2.71,42.70912,-71.14877,16137.12,8992.31,0.50,0.71,0.80,LAWRENCE GENERAL HOSPITAL
3.26,3.06,42.37451,-71.10418,11758.39,10774.44,0.50,0.88,0.94,CAMBRIDGE HEALTH ALLIANCE
3.28,2.77,41.65298,-70.27484,11853.35,9291.03,0.50,0.56,0.96,CAPE COD HOSPITAL
3.48,2.29,42.33185,-72.65422,12817.21,6913.14,0.50,0.88,0.89,COOLEY DICKINSON HOSPITAL INCTHE
3.29,3.05,42.27872,-71.06625,11912.53,10696.33,0.00,0.00,0.00,CARNEY HOSPITAL
3.82,2.49,41.69217,-71.16474,14526.79,7918.43,0.50,1.00,0.86,SAINT ANNE'S HOSPITAL
3.49,2.52,42.20038,-72.62762,12880.00,8090.83,0.00,0.00,0.00,HOLYOKE MEDICAL CENTER
2.96,2.39,42.81476,-70.89068,10264.31,7435.85,0.00,0.00,0.00,ANNA JAQUES HOSPITAL
3.28,3.50,42.35843,-71.05977,11833.71,12918.55,0.67,0.51,0.00,BOSTON MEDICAL CENTER CORPORATION
3.54,2.46,42.56407,-70.87543,13117.67,7775.57,0.50,0.62,0.64,BEVERLY HOSPITAL CORPORATION
6.49,2.63,42.51078,-70.90712,27802.63,8610.67,0.33,0.47,0.70,NORTH SHORE MEDICAL CENTER
2.98,3.12,42.34896,-71.14768,10353.05,11038.19,0.50,0.69,0.58,ST ELIZABETH'S MEDICAL CENTER
3.53,2.59,51.46599,-1.28140,13089.67,8431.95,0.50,0.76,0.20,BERKSHIRE MEDICAL CENTER INC
3.74,2.65,42.03597,-71.09792,14151.71,8717.26,0.50,0.61,0.58,SIGNATURE HEALTHCARE BROCKTON HOSPITAL
2.72,2.40,41.94445,-70.64511,9067.44,7483.17,0.50,0.82,0.25,JORDAN HOSPITAL INC
3.68,2.56,42.64636,-71.34118,13848.91,8278.91,0.50,0.88,0.96,LOWELL GENERAL HOSPITAL
3.84,2.52,42.11449,-72.59502,14617.04,8080.21,0.50,0.78,0.76,MERCY MEDICAL CENTER
3.00,2.47,42.46049,-71.06203,10435.29,7808.00,0.50,0.53,0.76,HALLMARK HEALTH SYSTEM
11.01,3.23,42.36227,-71.06941,50201.16,11609.21,0.50,0.44,0.16,MASSACHUSETTS GENERAL HOSPITAL
2.74,2.40,41.90456,-71.09562,9140.52,7460.52,0.50,0.85,0.25,MORTON HOSPITAL
4.57,2.60,41.70928,-71.14519,18247.78,8491.96,0.25,0.51,0.89,SOUTHCOAST HOSPITAL GROUP INC
4.20,2.81,42.12077,-72.60525,16407.53,9516.47,0.33,0.61,0.83,BAYSTATE MEDICAL CENTER
4.26,2.69,42.72846,-71.16830,16692.83,8937.35,0.50,0.74,0.33,HOLY FAMILY HOSPITAL
3.39,2.68,42.64529,-71.30052,12379.91,8842.18,0.00,0.00,0.00,SAINTS  MEDICAL CENTER INC
3.58,2.27,42.43082,-71.37554,13327.69,6830.00,0.50,0.44,0.58,EMERSON HOSPITAL
4.76,3.24,42.33719,-71.10939,19215.42,11624.88,0.33,0.71,0.33,BETH ISRAEL DEACONESS MEDICAL CENTER
3.33,2.39,42.13234,-71.52825,12073.53,7418.00,0.50,0.71,0.96,MILFORD REGIONAL MEDICAL CENTER
3.68,2.36,42.17644,-70.95398,13829.07,7275.15,0.67,0.70,0.48,SOUTH SHORE HOSPITAL
4.07,2.30,42.33149,-71.24568,15765.28,6985.17,0.67,0.70,0.99,NEWTON-WELLESLEY HOSPITAL
3.65,2.85,42.46581,-71.12210,13680.79,9711.11,0.50,0.59,0.25,WINCHESTER HOSPITAL
3.10,2.30,42.25232,-71.07515,10925.62,6979.58,0.00,0.00,0.00,MILTON HOSPITAL INC
8.22,3.28,42.33600,-71.10704,36387.82,11824.10,0.67,0.40,0.20,BRIGHAM AND WOMEN'S HOSPITAL
2.59,2.57,42.09864,-71.06607,8438.67,8334.70,0.50,0.59,0.93,GOOD SAMARITAN MEDICAL CENTER
4.17,3.28,42.34951,-71.06331,16244.72,11819.45,0.50,0.64,0.86,TUFTS MEDICAL CENTER
4.76,2.57,42.30049,-71.12771,19177.17,8332.00,0.50,0.96,0.03,FAULKNER HOSPITAL
2.48,2.32,42.18869,-71.20197,7870.52,7075.43,0.50,0.78,0.82,NORWOOD HOSPITAL
2.75,2.42,41.56412,-70.62200,9226.95,7580.55,0.50,0.69,0.94,FALMOUTH HOSPITAL
6.00,3.12,42.27720,-71.75922,25354.04,11049.48,0.50,0.36,0.30,UMASS MEMORIAL MEDICAL CENTER INC
3.23,2.59,42.48585,-71.20686,11608.06,8416.61,0.67,0.76,0.16,LAHEY CLINIC HOSPITAL
3.39,2.52,42.28385,-71.41896,12397.80,8052.33,0.50,0.76,0.86,METROWEST MEDICAL CENTER
3.36,2.58,42.26633,-71.79760,12231.33,8367.40,0.33,0.75,0.58,ST VINCENT HOSPITAL
4.03,2.18,42.39466,-83.40537,15587.48,6366.45,0.50,0.60,0.64,ST MARY MERCY HOSPITAL
2.92,2.33,43.20588,-86.20839,10048.32,7150.42,0.50,0.76,0.58,MERCY HEALTH PARTNERS MERCY CAMPUS
5.06,2.72,42.28551,-85.58042,20701.19,9071.32,0.67,0.82,0.14,BRONSON METHODIST HOSPITAL
5.39,2.65,42.45741,-83.20513,22333.16,8730.11,0.83,0.57,0.48,PROVIDENCE HOSPITAL AND MEDICAL CENTERS
4.68,2.52,42.29077,-83.21504,18801.57,8083.36,0.33,0.49,0.70,OAKWOOD HOSPITAL AND MEDICAL CENTER
3.23,2.30,42.08955,-86.47781,11597.94,6984.50,0.33,0.69,0.89,LAKELAND HOSPITAL ST JOSEPH
4.65,2.96,42.41911,-83.18228,18640.13,10271.45,0.83,0.46,0.21,SINAI-GRACE HOSPITAL
3.71,2.65,42.61425,-83.27602,13992.09,8698.46,0.67,0.53,0.80,ST JOSEPH MERCY OAKLAND
3.20,2.18,42.95582,-82.43222,11426.00,6386.92,0.50,0.89,0.80,ST JOSEPH MERCY PORT HURON
4.33,2.42,45.07773,-83.45146,17070.00,7590.58,0.00,0.00,0.00,ALPENA REGIONAL MEDICAL CENTER
4.13,2.70,42.96881,-85.66649,16060.70,8950.64,0.33,0.66,0.83,SPECTRUM HEALTH - BUTTERWORTH CAMPUS
5.10,2.21,43.58941,-83.86908,20888.71,6538.83,0.33,0.55,0.99,MCLAREN BAY REGION
7.14,3.64,42.28388,-83.72960,30991.65,13616.92,0.50,0.61,0.43,UNIVERSITY OF MICHIGAN HEALTH SYSTEM
3.91,2.31,42.61490,-82.96060,14993.60,7022.74,0.50,0.66,0.54,HENRY FORD MACOMB HOSPITAL
4.37,2.97,42.36762,-83.08461,17234.39,10327.05,0.67,0.47,0.08,HENRY FORD HOSPITAL
3.73,2.50,46.54758,-87.39560,14078.14,7956.79,0.83,0.68,0.48,MARQUETTE GENERAL HOSPITAL
3.87,2.59,42.95817,-85.66253,14794.92,8418.58,0.50,0.54,0.91,SAINT MARY'S HEALTH CARE
5.42,2.38,43.42857,-83.95556,22482.69,7386.62,0.83,0.61,0.64,COVENANT MEDICAL CENTER INC
4.06,2.28,42.33111,-85.17817,15726.64,6871.45,0.50,0.84,0.64,BRONSON BATTLE CREEK HOSPITAL
5.88,2.33,43.42612,-83.94185,24743.95,7103.55,0.67,0.64,0.58,ST MARY'S OF MICHIGAN MEDICAL CENTER
3.26,2.15,44.24532,-85.38950,11745.91,6216.45,0.00,0.00,0.00,MERCY HOSPITAL - CADILLAC
3.43,2.24,42.38392,-82.91480,12596.76,6677.10,0.50,0.62,0.51,BEAUMONT HOSPITAL GROSSE POINTE
6.10,2.25,42.25117,-84.39240,25842.33,6718.88,0.50,0.85,0.99,ALLEGIANCE HEALTH
6.84,2.69,44.76156,-85.64143,29509.85,8924.88,0.50,0.41,0.58,MUNSON MEDICAL CENTER
4.07,2.49,41.91643,-83.39771,15756.18,7943.45,0.50,0.69,0.38,MERCY MEMORIAL HOSPITAL SYSTEM
4.53,3.33,42.35230,-83.05676,18033.34,12081.99,0.67,0.62,0.64,HARPER UNIVERSITY HOSPITAL
3.93,2.41,45.37209,-84.97065,15083.45,7541.00,0.50,0.78,0.25,NORTHERN MICHIGAN REGIONAL HOSPITAL
5.13,2.48,42.30489,-85.56152,21007.38,7858.85,0.67,0.47,0.76,BORGESS MEDICAL CENTER
5.07,2.26,43.00546,-84.18145,20714.18,6779.00,0.00,0.00,0.00,MEMORIAL HEALTHCARE
5.53,2.64,42.51418,-83.19259,22996.69,8661.52,0.67,0.60,0.16,WILLIAM BEAUMONT HOSPITAL
4.74,3.06,43.02135,-83.70308,19082.11,10775.70,0.67,0.69,0.07,HURLEY MEDICAL CENTER
4.39,2.59,43.01399,-83.73250,17346.84,8398.98,0.50,0.60,0.33,MCLAREN FLINT
4.93,2.32,42.27424,-83.36580,20054.61,7075.55,0.50,0.70,0.48,OAKWOOD ANNAPOLIS HOSPITAL
4.05,2.32,42.21065,-83.14861,15649.48,7060.28,0.50,0.70,0.96,HENRY FORD WYANDOTTE HOSPITAL
3.26,2.72,42.46176,-83.37629,11760.54,9052.37,0.50,0.79,0.25,BOTSFORD HOSPITAL
4.53,2.38,42.26181,-83.66003,18053.97,7389.73,0.67,0.62,0.33,ST JOSEPH MERCY HOSPITAL
4.54,2.70,42.41975,-82.91442,18097.44,8962.12,0.67,0.72,0.10,ST JOHN HOSPITAL AND MEDICAL CENTER
5.25,2.48,42.70417,-84.55488,21621.98,7864.98,0.33,0.76,0.21,MCLAREN - GREATER LANSING
4.28,2.41,42.11695,-83.21365,16830.08,7520.88,0.33,0.70,0.80,OAKWOOD SOUTHSHORE MEDICAL CENTER
5.04,2.23,43.06290,-83.32082,20556.63,6610.89,0.50,0.64,0.91,LAPEER REGIONAL MEDICAL CENTER
5.40,2.49,42.50514,-83.00422,22355.96,7932.42,0.67,0.56,0.86,ST JOHN MACOMB-OAKLAND HOSPITAL-MACOMB CENTER
4.53,2.66,42.89254,-83.63621,18053.81,8748.77,0.67,0.70,0.14,GENESYS REGIONAL MEDICAL CENTER - HEALTH PARK
5.11,3.05,42.63849,-83.29062,20948.55,10725.73,0.75,0.76,0.51,MCLAREN OAKLAND
4.65,2.30,42.98625,-82.42802,18627.09,6961.22,0.50,0.62,0.30,PORT HURON HOSPITAL
4.05,2.45,43.63618,-84.26187,15644.56,7718.06,0.50,0.72,0.70,MIDMICHIGAN MEDICAL CENTER-MIDLAND
3.43,2.35,42.58900,-82.89799,12588.32,7231.03,0.67,0.61,0.64,MOUNT CLEMENS REGIONAL MEDICAL CENTER
8.23,2.85,42.73767,-84.51698,36435.49,9685.33,0.83,0.69,0.01,EDWARD W SPARROW HOSPITAL
4.40,2.67,42.85736,-85.71774,17399.60,8825.44,0.50,0.66,0.48,METRO HEALTH HOSPITAL
3.67,2.55,42.33215,-83.31195,13763.05,8221.25,0.50,0.82,0.38,GARDEN CITY HOSPITAL
5.56,2.29,42.67850,-83.14771,23162.88,6937.50,0.50,0.65,0.80,CRITTENTON HOSPITAL MEDICAL CENTER
6.25,2.34,42.61826,-83.09239,26589.39,7185.62,0.83,0.60,0.63,WILLIAM BEAUMONT HOSPITAL-TROY
4.26,2.28,42.23506,-83.27602,16709.74,6854.70,0.50,0.60,0.93,OAKWOOD HERITAGE HOSPITAL
5.35,3.11,42.35295,-83.05447,22145.05,11024.05,0.67,0.65,0.05,DETROIT RECEIVING HOSPITAL & UNIV HEALTH CENTER
4.75,2.60,42.59290,-83.49920,19151.12,8455.06,0.67,0.49,0.54,HURON VALLEY-SINAI HOSPITAL
5.66,2.21,42.53914,-83.40777,23663.32,6539.15,0.50,0.54,0.39,HENRY FORD WEST BLOOMFIELD HOSPITAL
6.72,2.41,45.01403,-93.32177,28898.17,7516.52,0.67,0.69,0.83,NORTH MEMORIAL MEDICAL CENTER
5.00,2.43,46.79380,-92.09573,20400.79,7624.63,0.83,0.75,0.80,ESSENTIA HEALTH ST MARY'S MEDICAL CENTER
3.83,3.44,44.97210,-93.26240,14581.54,12647.54,0.33,0.38,0.30,HENNEPIN COUNTY MEDICAL CENTER
6.68,3.09,44.02052,-92.48292,28723.33,10877.12,0.83,0.42,0.32,MAYO CLINIC - SAINT MARYS HOSPITAL
3.43,2.89,46.79308,-92.09379,12589.13,9916.18,0.00,0.00,0.00,ESSENTIA HEALTH DULUTH
6.02,2.66,45.57390,-94.16942,25453.30,8752.00,0.50,0.61,0.38,ST CLOUD HOSPITAL
7.14,2.55,44.94214,-93.10858,31004.89,8243.57,0.50,0.86,0.33,UNITED HOSPITAL
3.93,2.41,46.79634,-92.08793,15057.15,7543.10,0.50,0.71,0.30,ST LUKES HOSPITAL
3.57,2.31,44.93031,-93.36276,13283.42,7010.79,0.67,0.72,0.94,PARK NICOLLET METHODIST HOSPITAL
7.05,2.41,44.95248,-93.26196,30546.77,7526.94,0.50,0.70,0.64,ABBOTT NORTHWESTERN HOSPITAL
6.95,3.35,44.02354,-92.46588,30086.71,12170.50,0.50,0.35,0.97,MAYO CLINIC METHODIST HOSPITAL
4.98,2.42,44.94898,-93.10016,20295.27,7598.05,0.33,0.66,0.58,ST JOSEPH'S HOSPITAL
8.05,2.38,44.88645,-93.32693,35526.22,7388.17,0.67,0.62,0.94,FAIRVIEW SOUTHDALE HOSPITAL
5.69,2.94,44.96766,-93.23640,23796.76,10164.29,0.67,0.56,0.58,UNIVERSITY OF MINNESOTA  MEDICAL CENTER FAIRVIEW
4.30,2.41,44.16396,-94.00412,16892.06,7509.06,0.50,0.57,0.76,MAYO CLINIC HEALTH SYSTEM - MANKATO
4.04,2.28,44.77252,-93.50323,15606.25,6882.17,0.00,0.00,0.00,ST FRANCIS REGIONAL MEDICAL CENTER
4.60,2.77,44.95570,-93.09429,18408.75,9333.04,0.50,0.79,0.17,REGIONS HOSPITAL
5.33,2.31,45.18355,-93.36789,22035.89,7022.11,0.50,0.74,0.96,MERCY HOSPITAL
8.24,2.35,45.10789,-93.25685,36460.53,7232.68,0.33,0.85,0.86,UNITY HOSPITAL
4.61,2.36,44.74846,-93.27289,18423.50,7274.67,0.50,0.84,0.97,FAIRVIEW RIDGES HOSPITAL
4.40,2.49,45.02892,-93.03418,17382.32,7932.16,0.50,0.75,0.25,HEALTHEAST ST JOHN'S HOSPITAL
4.86,2.80,32.33069,-90.17030,19712.12,9468.33,0.67,0.51,0.07,UNIVERSITY OF MISSISSIPPI MED CENTER
4.69,2.26,34.24336,-88.71753,18866.51,6787.37,0.67,0.61,0.48,NORTH MISSISSIPPI MEDICAL CENTER
8.97,2.35,34.93596,-88.55955,40084.38,7225.31,0.50,0.72,0.80,MAGNOLIA REGIONAL HEALTH CENTER
14.73,2.88,30.36674,-89.11535,68678.40,9851.91,0.50,0.66,0.69,MEMORIAL HOSPITAL AT GULFPORT
9.03,2.37,32.35265,-90.87788,40405.35,7336.06,0.50,0.80,0.38,RIVER REGION HEALTH SYSTEM
4.30,2.25,34.34899,-89.52062,16909.63,6752.83,0.50,0.69,0.25,BAPTIST MEMORIAL HOSPITAL NORTH MS
6.85,2.22,30.37516,-88.53226,29552.87,6592.18,0.50,0.70,0.03,SINGING RIVER HOSPITAL
5.64,2.53,34.19610,-90.55208,23567.12,8128.94,0.00,0.00,0.00,NORTHWEST MISSISSIPPI REGIONAL MEDICAL CENTER
5.61,2.30,32.33616,-90.15652,23404.02,6980.62,0.50,0.60,0.45,ST DOMINIC-JACKSON MEMORIAL HOSPITAL
4.29,2.18,31.57544,-90.45670,16850.67,6384.96,0.00,0.00,0.00,KING'S DAUGHTERS MEDICAL CENTER-BROOKHAVEN
6.31,2.42,31.69405,-89.13061,26910.00,7581.58,0.50,0.72,0.16,SOUTH CENTRAL REG MED CTR
3.40,2.26,33.61860,-88.66204,12447.18,6766.00,0.00,0.00,0.00,CLAY COUNTY MEDICAL CENTER
8.19,2.30,32.28805,-90.25566,36195.35,6970.12,0.50,0.81,0.08,CENTRAL MISSISSIPPI MEDICAL CENTER
4.42,2.29,31.31872,-89.32955,17483.78,6949.14,0.50,0.57,0.54,FORREST GENERAL HOSPITAL
5.82,2.26,32.36736,-88.69896,24459.08,6791.75,0.00,0.00,0.00,ANDERSON REGIONAL MEDICAL CENTER SOUTH CAMPUS
4.87,2.42,33.41099,-91.03479,19731.33,7588.16,0.33,0.85,0.51,DELTA REGIONAL MEDICAL CENTER
3.92,2.09,33.74750,-90.71908,15032.57,5959.35,0.00,0.00,0.00,BOLIVAR MEDICAL CENTER
8.95,2.24,31.32573,-89.36670,40003.88,6693.94,0.50,0.56,0.20,WESLEY MEDICAL CENTER
3.51,2.28,31.24000,-90.45000,12960.90,6878.65,0.50,0.84,0.82,SOUTHWEST MS REGIONAL MEDICAL CENTER
4.97,2.36,33.51824,-90.19832,20210.63,7291.71,0.00,0.00,0.00,GREENWOOD LEFLORE HOSPITAL
4.34,2.26,33.52568,-88.42742,17117.96,6773.09,0.50,0.68,0.54,BAPTIST MEM HOSP/GOLDEN TRIANGLE INC
5.79,2.09,32.31643,-90.17922,24302.58,5925.42,0.67,0.44,0.86,MISSISSIPPI BAPTIST MEDICAL CENTER
3.45,2.14,32.37280,-88.69954,12688.06,6180.55,0.50,0.78,0.39,ANDERSON REGIONAL MEDICAL CENTER
11.06,2.16,31.56044,-91.40317,50450.73,6286.36,0.00,0.00,0.00,NATCHEZ COMMUNITY HOSPITAL/SWING BED
5.83,2.35,34.96927,-89.99709,24487.94,7236.87,0.50,0.69,0.11,BAPTIST MEMORIAL HOSPITAL DESOTO
6.14,2.19,37.06032,-94.52747,26039.42,6453.07,0.00,0.00,0.00,ST JOHN'S REGIONAL MEDICAL CENTER
5.01,2.38,38.78060,-90.48379,20425.56,7373.97,0.50,0.76,0.38,SSM ST JOSEPH HEALTH CENTER
5.75,2.63,39.77393,-94.77089,24096.80,8615.88,0.50,0.59,0.51,HEARTLAND REGIONAL MEDICAL CENTER
4.05,2.09,38.69946,-93.22211,15668.40,5914.33,0.50,0.82,0.64,BOTHWELL REGIONAL HEALTH CENTER
6.18,2.07,38.57670,-92.17352,26263.75,5855.50,0.50,0.86,0.01,ST MARYS HEALTH CENTER
7.71,2.23,36.23658,-90.04315,33813.38,6632.54,0.00,0.00,0.00,TWIN RIVERS REGIONAL MEDICAL CENTER
5.30,2.53,37.95144,-91.75940,21876.84,8120.42,0.50,0.89,0.48,PHELPS COUNTY REGIONAL MEDICAL CENTER
6.17,2.29,38.64281,-90.44448,26170.42,6940.04,0.83,0.57,0.74,MERCY HOSPITAL ST LOUIS
3.78,2.12,38.16498,-90.38082,14345.41,6080.74,0.50,0.84,0.83,JEFFERSON REGIONAL MEDICAL CENTER
5.67,2.47,39.71116,-91.45071,23710.89,7846.00,0.00,0.00,0.00,HANNIBAL REGIONAL HOSPITAL
10.82,2.54,39.00717,-94.55925,49290.32,8150.71,0.33,0.82,0.05,RESEARCH MEDICAL CENTER
5.25,2.66,38.63524,-90.26508,21620.01,8741.68,0.50,0.56,0.12,BARNES JEWISH HOSPITAL
4.42,2.26,37.14560,-93.28037,17520.08,6793.46,0.50,0.61,0.86,COX MEDICAL CENTER
4.96,2.43,38.56571,-92.18204,20192.00,7604.94,0.50,0.84,0.58,CAPITAL REGION MEDICAL CENTER
3.32,3.21,39.08401,-94.57591,12058.83,11501.72,0.33,0.59,0.02,TRUMAN MEDICAL CENTER HOSPITAL HILL
5.73,2.31,37.17999,-93.27409,24025.82,7036.73,0.67,0.61,0.25,ST JOHN'S REGIONAL HEALTH CENTER
5.79,2.42,38.94903,-92.31563,24320.75,7583.29,0.67,0.74,0.43,BOONE HOSPITAL CENTER
4.58,2.12,38.50661,-90.38025,18314.76,6062.10,0.67,0.57,0.14,ST ANTHONY'S MEDICAL CENTER
6.03,2.21,38.52738,-90.47501,25496.58,6549.27,0.50,0.65,0.45,SSM ST CLARE HEALTH CENTER
6.65,2.14,38.93592,-94.60376,28598.72,6196.93,0.50,0.75,0.89,ST JOSEPH MEDICAL CENTER
5.25,2.66,38.63268,-90.31089,21638.05,8784.99,0.83,0.78,0.58,SSM ST MARYS HEALTH CENTER
5.18,2.12,36.64970,-93.22138,21272.85,6068.50,0.50,0.71,0.80,SKAGGS REGIONAL MEDICAL CENTER
8.70,2.19,39.04749,-94.34105,38756.37,6411.21,0.50,0.72,0.39,CENTERPOINT MEDICAL CENTER OF INDEPENDENCE LLC
5.42,2.09,39.14957,-94.55148,22445.78,5952.51,0.50,0.59,0.64,NORTH KANSAS CITY HOSPITAL
6.11,2.34,38.75097,-90.43255,25882.46,7179.68,0.67,0.69,0.43,SSM DEPAUL HEALTH CENTER
7.39,2.92,38.62280,-90.24049,32238.95,10041.42,0.50,0.46,0.05,ST LOUIS UNIVERSITY HOSPITAL
4.63,2.06,38.63702,-90.44699,18551.32,5790.43,0.67,0.69,0.48,MISSOURI BAPTIST MEDICAL CENTER
6.92,2.40,37.31072,-89.53990,29900.04,7472.60,0.50,0.72,0.08,SOUTHEAST MISSOURI HOSPITAL
6.82,2.43,36.88988,-89.58365,29431.65,7635.35,0.00,0.00,0.00,MISSOURI DELTA MEDICAL CENTER
9.81,2.39,36.78510,-90.42779,44285.15,7413.96,0.50,0.60,0.39,POPLAR BLUFF REGIONAL MEDICAL CENTER
6.00,2.29,37.05238,-94.52777,25370.72,6914.28,0.83,0.68,0.86,FREEMAN HEALTH SYSTEM - FREEMAN WEST
7.71,2.53,39.04761,-94.59037,33825.40,8133.44,0.67,0.50,0.17,ST LUKES HOSPITAL OF KANSAS CITY
5.70,2.58,38.95171,-92.33407,23850.66,8355.16,0.67,0.60,0.64,UNIVERSITY OF MISSOURI HEALTH CARE
3.41,2.10,37.78031,-90.43967,12477.38,5974.46,0.00,0.00,0.00,PARKLAND HEALTH CENTER
7.58,2.23,38.58103,-90.45144,33180.62,6620.54,0.50,0.70,0.43,DES PERES HOSPITAL
4.68,2.11,39.27591,-94.42572,18772.52,6052.14,0.33,0.60,0.33,LIBERTY HOSPITAL
4.67,2.19,38.65123,-90.50301,18760.24,6438.60,0.67,0.68,0.12,ST LUKES HOSPITAL
5.50,2.20,38.77576,-90.23906,22850.62,6487.00,0.67,0.75,0.05,CHRISTIAN HOSPITAL NORTHEAST
5.97,2.23,37.30401,-89.57190,25199.40,6619.30,0.50,0.65,0.11,ST FRANCIS MEDICAL CENTER
6.20,2.51,38.12027,-92.68146,26342.80,8007.90,0.50,0.53,0.08,LAKE REGIONAL HEALTH SYSTEM
4.95,2.40,38.79427,-90.58049,20158.95,7468.20,0.50,0.75,0.32,BARNES-JEWISH ST PETERS HOSPITAL
5.10,2.14,38.80334,-90.77619,20879.58,6197.05,0.50,0.65,0.83,SSM ST JOSEPH HOSPITAL WEST
8.88,2.11,38.94062,-94.37842,39657.38,6010.92,0.00,0.00,0.00,SAINT LUKE'S EAST LEE'S SUMMIT HOSPITAL
2.54,2.10,38.71535,-90.69847,8152.92,5973.00,0.00,0.00,0.00,PROGRESS WEST HEALTHCARE CENTER
4.76,2.36,45.78958,-108.51283,19206.59,7260.88,0.50,0.86,0.89,BILLINGS CLINIC HOSPITAL
5.24,2.38,47.49139,-111.26255,21571.15,7357.85,0.50,0.61,0.58,BENEFIS HOSPITALS INC
5.46,2.24,46.87545,-114.00033,22673.12,6663.19,0.50,0.78,0.70,ST PATRICK HOSPITAL
4.45,2.36,45.79337,-108.51928,17661.56,7275.78,0.50,0.81,0.54,ST VINCENT HEALTHCARE
5.37,2.44,40.78318,-96.63709,22219.18,7693.92,0.67,0.70,0.64,BRYANLGH MEDICAL CENTER
5.09,2.66,41.25522,-95.97892,20840.50,8769.97,0.50,0.53,0.51,THE NEBRASKA MEDICAL CENTER
4.47,2.23,40.80816,-96.62689,17732.00,6639.19,0.50,0.66,0.20,SAINT ELIZABETH REGIONAL MEDICAL CENTER
10.76,3.10,41.26509,-95.95494,48998.25,10939.10,0.50,0.68,0.00,CREIGHTON UNIVERSITY MEDICAL CENTER - SAINT JOSEPH
4.74,2.13,41.25797,-96.04164,19115.00,6142.62,0.50,0.74,0.33,THE NEBRASKA METHODIST HOSPITAL
8.74,2.50,41.23897,-96.03162,38938.77,7982.94,0.50,0.46,0.83,ALEGENT HEALTH BERGAN MERCY MEDICAL CENTER
7.07,2.55,41.45152,-96.49184,30669.64,8238.27,0.00,0.00,0.00,FREMONT AREA MEDICAL CENTER
5.24,2.50,42.03257,-97.45100,21555.67,7994.00,0.00,0.00,0.00,FAITH REGIONAL HEALTH SERVICES
7.06,2.41,39.52637,-119.79456,30625.85,7546.92,0.50,0.66,0.17,RENOWN REGIONAL MEDICAL CENTER
11.22,2.69,36.13459,-115.13576,51248.16,8907.73,0.67,0.69,0.10,SUNRISE HOSPITAL AND MEDICAL CENTER
14.58,2.71,36.19568,-115.12284,67928.40,9016.60,0.50,0.62,0.08,NORTH VISTA HOSPITAL
5.98,2.92,36.15896,-115.16558,25239.13,10064.72,0.33,0.60,0.00,UMC OF SOUTHERN NEVADA
6.29,2.21,39.53066,-119.82067,26778.90,6530.14,0.67,0.76,0.45,SAINT MARY'S REGIONAL MEDICAL CENTER
10.60,2.40,36.03931,-114.98259,48164.94,7484.17,0.75,0.76,0.54,SAINT ROSE DOMINICAN HOSPITAL - DE LIMA
8.77,2.76,39.20247,-119.78446,39089.64,9280.50,0.50,0.56,0.70,CARSON TAHOE REGIONAL MEDICAL CENTER
13.74,2.71,36.16380,-115.16574,63766.59,9011.32,0.67,0.70,0.54,VALLEY HOSPITAL MEDICAL CENTER
8.79,2.39,36.11363,-115.12573,39217.71,7440.00,0.83,0.70,0.64,DESERT SPRINGS HOSPITAL
12.75,2.53,36.21599,-115.25095,58849.92,8113.92,0.67,0.57,0.14,MOUNTAINVIEW HOSPITAL
11.59,2.53,36.16586,-115.32436,53074.81,8128.28,0.83,0.72,0.28,SUMMERLIN HOSPITAL MEDICAL CENTER
9.15,2.29,36.00527,-115.11618,40984.36,6909.95,0.50,0.50,0.33,SAINT ROSE DOMINICAN HOSPITAL - SIENA CAMPUS
9.18,2.35,36.09056,-115.24058,41139.07,7210.50,0.67,0.79,0.13,SPRING VALLEY HOSPITAL MEDICAL CENTER
7.12,2.19,36.28588,-115.28772,30886.82,6452.27,0.75,0.66,0.39,CENTENNIAL HILLS HOSPITAL MEDICAL CENTER
5.04,2.35,43.19846,-71.56230,20599.48,7238.14,0.33,0.64,0.94,CONCORD HOSPITAL
6.41,3.05,43.67286,-72.27232,27396.92,10689.72,0.50,0.39,0.01,MARY HITCHCOCK MEMORIAL HOSPITAL
3.71,2.30,43.00792,-71.46807,13999.65,6965.04,0.50,0.57,0.21,ELLIOT HOSPITAL
6.05,2.44,43.21231,-70.87499,25573.82,7671.55,0.50,0.74,0.03,WENTWORTH-DOUGLASS HOSPITAL
3.55,2.35,42.75623,-71.46059,13184.29,7244.71,0.50,0.81,0.54,SOUTHERN NH MEDICAL CENTER
4.92,2.21,42.98369,-70.93511,19993.13,6527.67,0.00,0.00,0.00,EXETER HOSPITAL INC
7.64,2.29,43.06469,-70.78916,33486.50,6920.50,0.50,0.76,0.48,PORTSMOUTH REGIONAL HOSPITAL
5.25,2.51,42.99121,-71.47426,21600.59,8019.41,0.33,0.64,0.93,CATHOLIC MEDICAL CENTER
14.36,2.87,40.88346,-74.05564,66869.00,9804.31,0.50,0.59,0.86,HACKENSACK UNIVERSITY MEDICAL CENTER
14.00,3.52,40.71011,-74.21368,65068.10,13015.73,0.67,0.56,0.11,NEWARK BETH ISRAEL MEDICAL CENTER
10.47,2.81,40.79576,-73.99575,47545.50,9493.73,0.25,0.62,0.32,PALISADES MEDICAL CTR-NY PRESBYTERIAN HEALTHCARE S
7.87,2.65,40.53142,-74.86080,34640.43,8725.86,0.75,0.55,0.70,HUNTERDON MEDICAL CENTER
8.61,2.68,40.84945,-74.13768,38324.45,8873.89,0.50,0.56,0.86,ST MARY'S HOSPITAL PASSAIC
8.49,2.64,40.88275,-74.01021,37709.26,8653.94,0.67,0.68,0.58,HOLY NAME MEDICAL CENTER
13.14,2.88,40.78556,-74.17598,60786.92,9840.00,0.67,0.84,0.96,CLARA MAASS MEDICAL CENTER
13.77,2.92,40.35684,-74.66166,63935.73,10056.86,0.50,0.56,0.21,UNIVERSITY MEDICAL CENTER AT PRINCETON
4.44,2.33,39.08752,-74.81657,17621.25,7144.00,0.50,0.74,0.48,CAPE REGIONAL MEDICAL CENTER INC
7.91,2.48,40.98359,-74.10047,34847.93,7869.13,0.50,0.79,0.21,VALLEY HOSPITAL
12.92,3.09,39.94152,-75.11680,59723.62,10921.92,0.67,0.42,0.03,COOPER UNIVERSITY HOSPITAL
8.46,2.72,40.78883,-74.46620,37551.80,9078.82,0.67,0.44,0.39,MORRISTOWN MEMORIAL HOSPITAL
13.88,2.88,40.73417,-74.04977,64450.07,9868.96,0.00,0.00,0.00,CHRIST HOSPITAL
9.61,2.43,40.95858,-74.31000,43258.78,7617.50,0.50,0.62,0.01,CHILTON HOSPITAL
16.27,3.11,40.90215,-74.16634,76323.17,11017.17,0.17,0.54,0.94,ST JOSEPH'S REGIONAL MEDICAL CENTER
15.49,2.77,40.21634,-74.74143,72455.21,9325.74,0.50,0.69,0.11,ST FRANCIS MEDICAL CENTER
13.33,2.38,39.78261,-74.91670,61729.35,7381.19,0.50,0.53,0.74,VIRTUA WEST JERSEY HOSPITALS BERLIN
14.28,2.27,40.61288,-74.29092,66457.00,6827.30,0.50,0.80,0.45,ROBERT WOOD JOHNSON UNIVERSITY HOSPITAL AT RAHWAY
8.27,2.77,40.66005,-74.21417,36615.75,9335.12,0.50,0.75,0.39,TRINITAS REGIONAL MEDICAL CENTER
14.88,2.40,41.05754,-74.76857,69408.84,7450.58,0.50,0.78,0.80,NEWTON MEMORIAL HOSPITAL
14.49,2.66,39.92695,-75.09537,67493.33,8763.30,0.50,0.70,0.11,OUR LADY OF LOURDES MEDICAL CENTER
11.20,2.52,39.44743,-75.05838,51166.80,8072.80,0.50,0.62,0.01,SOUTH JERSEY HEALTHCARE REGIONAL MEDICAL CENTER
14.40,2.28,40.35309,-74.06484,67043.55,6881.66,0.33,0.61,0.70,RIVERVIEW MEDICAL CENTER
20.50,3.22,40.49581,-74.44980,97356.57,11548.91,0.67,0.51,0.01,ROBERT WOOD JOHNSON UNIVERSITY HOSPITAL
14.86,2.74,40.51891,-74.28183,69348.29,9143.22,0.75,0.69,0.69,RARITAN BAY MEDICAL CENTER
12.05,2.89,40.74132,-74.03369,55369.43,9924.14,0.00,0.00,0.00,HOBOKEN UNIVERSITY MEDICAL CENTER
12.08,2.29,39.96484,-74.21708,55518.55,6906.28,0.50,0.47,0.89,COMMUNITY MEDICAL CENTER
10.84,2.67,40.90400,-73.96847,49384.81,8797.50,0.67,0.81,0.54,ENGLEWOOD HOSPITAL AND MEDICAL CENTER
11.10,2.28,39.31464,-74.59391,50680.71,6862.21,0.17,0.72,0.83,SHORE MEDICAL CENTER
21.69,3.01,40.56804,-74.59579,103232.67,10502.25,0.50,0.68,0.30,SOMERSET MEDICAL CENTER
13.36,2.52,40.89538,-74.46479,61878.66,8070.86,0.50,0.64,0.70,SAINT CLARE'S HOSPITAL
7.50,2.71,40.71264,-74.35460,32813.81,9032.91,0.50,0.53,0.58,OVERLOOK HOSPITAL
12.13,2.29,40.07832,-74.13009,55764.87,6917.07,0.50,0.57,0.48,OCEAN MEDICAL CENTER
11.70,2.91,40.81058,-74.20459,53633.96,10016.67,0.50,0.69,0.43,MOUNTAINSIDE HOSPITAL
11.43,2.61,39.98588,-74.79393,52317.42,8505.26,0.67,0.55,0.54,VIRTUA MEMORIAL HOSPITAL OF BURLINGTON COUNTY
11.51,2.62,40.70180,-75.17825,52713.45,8554.64,0.00,0.00,0.00,ST LUKE'S WARREN HOSPITAL
14.48,2.49,39.35775,-74.43449,67444.13,7921.64,0.67,0.65,0.89,ATLANTICARE REGIONAL MEDICAL CENTER - CITY DIV
9.96,2.39,39.58815,-75.18044,45001.71,7406.76,0.00,0.00,0.00,SOUTH JERSEY HEALTHCARE-ELMER HOSPITAL
14.18,2.86,40.50214,-74.46015,65937.43,9766.86,0.50,0.54,0.30,SAINT PETER'S UNIVERSITY HOSPITAL
12.79,2.54,40.21065,-74.03566,59042.45,8147.20,0.50,0.59,0.07,JERSEY SHORE UNIVERSITY MEDICAL CENTER
13.65,3.26,40.71663,-74.05013,63324.83,11766.28,0.83,0.74,0.83,LIBERTYHEALTH-JERSEY CITY MEDICAL CENTER CAMPUS
13.74,2.86,40.29563,-73.98518,63775.96,9737.96,0.50,0.50,0.86,MONMOUTH MEDICAL CENTER
14.96,3.18,40.76190,-74.30335,69833.74,11357.24,0.83,0.54,0.03,SAINT BARNABAS MEDICAL CENTER
11.99,2.43,39.84392,-75.14985,55104.00,7618.18,0.50,0.70,0.33,UNDERWOOD - MEMORIAL HOSPITAL
11.10,2.68,40.75402,-74.21335,50652.81,8855.91,0.50,0.74,0.58,EAST ORANGE GENERAL HOSPITAL
12.25,2.50,40.07503,-74.21832,56354.58,7989.58,0.50,0.71,0.76,KIMBALL MEDICAL CENTER
13.51,2.72,39.82811,-75.00895,62618.17,9080.80,0.67,0.60,0.69,KENNEDY UNIVERSITY HOSPITAL - STRATFORD DIV
17.53,2.75,40.23629,-74.75256,82583.25,9229.94,0.50,0.78,0.58,CAPITAL HEALTH SYSTEM-FULD CAMPUS
7.84,2.97,40.74323,-74.17431,34477.17,10303.80,0.50,0.69,0.51,SAINT MICHAEL'S MEDICAL CENTER INC
11.39,2.55,40.55784,-74.34970,52089.34,8226.41,0.50,0.71,0.58,JFK MEDICAL CTR - ANTHONY M. YELENCSICS COMMUNITY
17.31,2.46,40.21575,-74.67273,81476.68,7757.06,0.50,0.68,0.80,ROBERT WOOD JOHNSON UNIVERSITY HOSPITAL HAMILTON
8.91,2.35,40.23861,-74.31289,39814.16,7224.56,0.33,0.69,0.14,CENTRASTATE MEDICAL CENTER
10.48,2.28,40.40516,-74.19203,47595.60,6873.84,0.50,0.81,0.98,BAYSHORE COMMUNITY HOSPITAL
8.54,2.27,39.66213,-74.26392,37948.00,6827.31,0.50,0.62,0.70,SOUTHERN OCEAN MEDICAL CENTER
12.42,2.43,40.85399,-74.82906,57225.67,7626.00,0.00,0.00,0.00,HACKETTSTOWN REGIONAL MEDICAL CENTER
8.73,3.72,40.73925,-74.19276,38880.94,14026.06,0.33,0.55,0.11,UMDNJ UNIVERSITY HOSPITAL
5.45,3.32,35.08838,-106.61590,22631.76,12053.44,0.83,0.46,0.11,UNM HOSPITAL
5.23,2.93,35.65960,-105.94578,21535.00,10088.29,0.50,0.65,0.30,ST VINCENT HOSPITAL
5.58,2.62,36.72387,-108.21749,23257.33,8569.61,0.50,0.71,0.83,SAN JUAN REGIONAL MEDICAL CENTER
10.61,2.46,33.42340,-104.52748,48226.12,7775.75,0.50,0.79,0.13,EASTERN NEW MEXICO MEDICAL CENTER
7.75,2.39,32.29186,-106.73470,34028.53,7414.60,0.50,0.64,0.03,MEMORIAL MEDICAL CENTER INC
4.85,2.40,35.08102,-106.63392,19634.34,7486.44,0.33,0.51,0.03,PRESBYTERIAN HOSPITAL
6.93,2.18,34.41937,-103.23173,29976.91,6381.18,0.00,0.00,0.00,PLAINS REGIONAL MEDICAL CENTER  CLOVIS
2.76,2.34,35.52808,-108.74258,9258.44,7201.16,0.00,0.00,0.00,REHOBOTH MCKINLEY CHRISTIAN HEALTH SER
4.71,2.14,32.32310,-106.72900,18921.54,6193.15,0.50,0.69,0.16,MOUNTAIN VIEW REGIONAL MEDICAL CENTER
7.27,2.63,41.92720,-73.99535,31659.74,8613.04,0.50,0.84,0.39,KINGSTON HOSPITAL
3.93,2.66,42.87482,-78.84942,15070.59,8760.61,0.33,0.45,0.08,KALEIDA HEALTH
4.10,4.22,40.83139,-73.90306,15936.08,16502.38,0.50,0.60,0.54,BRONX-LEBANON HOSPITAL CENTER
3.81,2.16,42.09299,-75.93704,14497.42,6272.67,0.50,0.74,1.00,OUR LADY OF LOURDES MEMORIAL HOSPITAL INC
9.79,3.25,42.65345,-73.77543,44159.05,11717.69,0.67,0.60,0.64,ALBANY MEDICAL CENTER HOSPITAL
3.41,3.58,40.70141,-73.81630,12465.23,13330.55,0.00,0.79,0.39,JAMAICA HOSPITAL MEDICAL CENTER
4.41,3.00,40.61384,-73.94851,17435.32,10447.84,0.00,0.00,0.00,NEW YORK COMMUNITY HOSPITAL OF BROOKLYN INC.
7.18,2.51,41.69441,-73.93432,31191.67,8034.68,0.83,0.82,0.54,VASSAR BROTHERS MEDICAL CENTER
7.68,3.74,40.79041,-73.95386,33704.54,14113.59,0.83,0.39,0.05,MOUNT SINAI HOSPITAL
5.78,3.62,40.72548,-73.55287,24246.91,13530.55,0.50,0.89,0.05,NASSAU UNIVERSITY MEDICAL CENTER
4.97,3.15,40.63588,-74.10556,20257.82,11187.77,0.67,0.53,0.20,RICHMOND UNIVERSITY MEDICAL CENTER
5.64,2.65,43.06066,-77.10072,23576.36,8721.64,0.00,0.00,0.00,NEWARK-WAYNE COMMUNITY HOSPITAL
6.74,2.73,40.72567,-73.24189,29006.38,9107.54,0.50,0.59,0.38,SOUTHSIDE HOSPITAL
5.01,2.28,43.09840,-75.27819,20452.03,6859.16,0.50,0.60,0.17,FAXTON-ST LUKE'S HEALTHCARE
7.68,2.57,40.87946,-73.41621,33667.65,8332.30,0.50,0.66,0.39,HUNTINGTON HOSPITAL
8.73,3.84,40.80556,-73.96131,38904.26,14639.52,0.33,0.56,0.05,ST LUKE'S ROOSEVELT HOSPITAL
3.84,2.18,42.95425,-74.21527,14642.73,6376.23,0.00,0.00,0.00,ST MARY'S HOSPITAL AT AMSTERDAM
9.08,3.36,40.74722,-73.82521,40644.60,12263.04,0.67,0.64,0.80,NEW YORK HOSPITAL MEDICAL CENTER OF QUEENS
5.65,3.83,40.68983,-73.97794,23633.69,14554.17,0.83,0.71,0.14,BROOKLYN HOSPITAL CENTER AT DOWNTOWN CAMPUS
5.00,2.13,42.65583,-73.80372,20365.80,6142.88,0.33,0.47,0.54,ST PETER'S HOSPITAL
11.58,3.82,40.87987,-73.87996,53050.37,14509.17,0.50,0.39,0.45,MONTEFIORE MEDICAL CENTER
4.96,2.44,40.94161,-73.83650,20162.74,7683.91,0.33,0.64,0.12,LAWRENCE HOSPITAL CENTER
6.62,3.83,40.71016,-74.00464,28433.36,14551.86,0.50,0.72,0.33,NEW YORK DOWNTOWN HOSPITAL
9.29,2.83,41.71846,-73.92710,41690.92,9599.08,0.50,0.80,0.80,ST FRANCIS HOSPITAL
3.32,2.22,43.00584,-78.17670,12045.91,6561.00,0.00,0.00,0.00,UNITED MEMORIAL MEDICAL CENTER
4.06,2.31,42.92866,-78.84819,15693.85,7012.77,0.50,0.55,0.30,SISTERS OF CHARITY HOSPITAL
2.41,4.12,40.81770,-73.92401,7543.35,16000.31,0.75,0.84,0.39,LINCOLN MEDICAL & MENTAL HEALTH CENTER
4.18,2.31,42.10076,-76.82800,16333.90,7010.00,0.50,0.65,0.33,ARNOT OGDEN MEDICAL CENTER
9.13,3.81,40.76487,-73.95398,40878.22,14498.97,0.33,0.33,0.74,NEW YORK-PRESBYTERIAN HOSPITAL
9.39,2.71,41.09642,-73.92501,42193.93,9011.63,0.67,0.78,0.76,NYACK HOSPITAL
11.05,3.25,40.77686,-73.70212,50397.21,11714.75,0.33,0.61,0.69,NORTH SHORE UNIVERSITY HOSPITAL
6.22,2.51,40.93376,-72.67383,26429.68,8020.16,0.00,0.00,0.00,PECONIC BAY MEDICAL CENTER
6.70,2.38,42.09221,-76.79733,28820.00,7387.58,0.00,0.00,0.00,ST JOSEPH'S HOSPITAL INC
15.34,3.24,40.77362,-73.96093,71718.64,11636.95,0.33,0.46,0.11,LENOX HILL HOSPITAL
3.42,2.32,43.19244,-77.58590,12551.67,7064.82,0.67,0.46,0.17,ROCHESTER GENERAL HOSPITAL
12.46,2.75,41.44138,-74.36821,57430.73,9192.73,0.50,0.62,0.70,ORANGE REGIONAL MEDICAL CENTER
3.91,4.04,40.85407,-73.84688,14963.75,15596.45,0.50,0.70,0.74,JACOBI MEDICAL CENTER
4.48,3.87,40.74465,-73.88620,17782.47,14748.40,0.25,0.84,0.32,ELMHURST HOSPITAL CENTER
6.45,2.59,41.36763,-74.68150,27597.54,8421.00,0.00,0.00,0.00,BON SECOURS COMMUNITY HOSPITAL
4.15,2.99,42.69590,-74.92278,16167.15,10418.70,0.50,0.84,0.76,MARY IMOGENE BASSETT HOSPITAL
4.96,2.54,43.05571,-76.14981,20196.56,8155.37,0.83,0.38,0.20,ST JOSEPH'S HOSPITAL HEALTH CENTER
9.20,2.56,40.78000,-72.97763,41242.88,8274.28,0.33,0.60,0.32,BROOKHAVEN MEMORIAL HOSPITAL MEDICAL CENTER
10.65,3.89,40.68964,-73.99657,48453.31,14878.88,0.00,0.00,0.00,LONG ISLAND COLLEGE HOSPITAL
5.53,2.23,42.81963,-73.91653,23034.04,6631.85,0.50,0.69,0.21,ELLIS HOSPITAL
6.80,3.26,43.96519,-75.91511,29306.83,11733.50,0.50,0.85,0.64,SAMARITAN MEDICAL CENTER
8.97,2.69,41.11299,-74.13732,40078.59,8911.07,0.67,0.82,0.83,GOOD SAMARITAN HOSPITAL OF SUFFERN
6.01,2.66,43.00561,-76.17002,25414.08,8761.15,0.00,0.00,0.00,COMMUNITY-GENERAL HOSPITAL OF GREATER SYRACUSE
6.00,2.96,40.58440,-74.08507,25367.38,10231.09,0.67,0.71,0.38,STATEN ISLAND UNIVERSITY HOSPITAL
6.05,2.45,41.19677,-73.72572,25598.38,7717.31,0.50,0.69,0.70,NORTHERN WESTCHESTER HOSPITAL
3.67,2.36,43.13562,-77.60602,13801.00,7294.00,0.50,0.44,0.11,HIGHLAND HOSPITAL
10.73,2.95,40.74083,-73.64306,48816.79,10202.79,0.67,0.50,0.74,WINTHROP-UNIVERSITY HOSPITAL
8.85,3.52,40.73265,-73.98162,39505.35,13027.28,0.50,0.60,0.39,BETH ISRAEL MEDICAL CENTER
4.10,2.15,42.73354,-73.67249,15901.00,6235.87,0.50,0.76,0.63,SAMARITAN HOSPITAL
5.99,2.54,40.87062,-73.62249,25300.30,8184.95,0.50,0.82,0.86,GLEN COVE HOSPITAL
12.21,2.66,40.80462,-73.67023,56191.77,8758.03,0.83,0.72,0.94,ST FRANCIS HOSPITAL ROSLYN
5.95,3.18,40.91276,-73.78720,25117.93,11354.71,0.50,0.84,0.07,SOUND SHORE MEDICAL CENTER OF WESTSCHESTER
4.19,2.21,43.30652,-73.64663,16379.15,6528.15,0.50,0.64,0.91,GLENS FALLS HOSPITAL
4.96,3.46,40.75543,-73.81532,20194.32,12714.04,0.25,0.72,0.64,FLUSHING HOSPITAL MEDICAL CENTER
