size_charge,size_pay,lat,lon,state,charge,pay,AcquiredInfect,AcquiredConditions,PatientSafetySummary,name
8.52,2.23,31.21673,-85.36307,AL,18000,4000,50,51,21,Southeast Alabama Medical Center
7.15,2.18,33.59616,-86.66750,AL,15000,4000,66,78,1,St Vincent'S East
10.20,2.53,33.25607,-86.81035,AL,22000,4000,83,70,63,Shelby Baptist Medical Center
8.14,2.38,32.36656,-86.28572,AL,17000,4000,50,68,82,Jackson Hospital & Clinic Inc
3.24,2.25,32.63806,-85.40413,AL,6000,4000,50,80,13,East Alabama Medical Center And Snf
7.20,2.69,33.50619,-86.80210,AL,15000,5000,66,45,11,University Of Alabama Hospital
6.54,2.18,33.66767,-85.83420,AL,14000,4000,0,0,0,Stringfellow Memorial Hospital
8.29,2.44,34.72007,-86.58108,AL,18000,4000,50,65,44,Huntsville Hospital
11.27,2.06,34.00426,-86.00339,AL,25000,3000,75,81,90,Riverview Regional Medical Center
7.90,2.14,34.57705,-87.01588,AL,17000,4000,0,0,0,Parkway Medical Center
5.54,2.06,33.50734,-86.78958,AL,11000,3000,50,72,21,St Vincent'S Birmingham
5.18,2.16,33.65640,-85.82284,AL,11000,4000,50,60,5,Northeast Alabama Regional Med Center
7.49,2.55,33.20521,-87.52546,AL,16000,4000,66,66,21,D C H Regional Medical Center
7.85,2.27,33.49854,-86.84633,AL,17000,4000,66,70,8,Baptist Medical Center-Princeton
9.03,2.33,33.51420,-86.74859,AL,19000,4000,66,27,11,Trinity Medical Center
6.15,2.26,30.69697,-88.08081,AL,13000,4000,66,55,24,Mobile Infirmary
9.96,2.55,32.43020,-87.05515,AL,22000,4000,50,91,32,Vaughan Reg Med Center Parkway Campus
9.68,2.17,34.69279,-86.57179,AL,21000,4000,50,77,33,Crestwood Medical Center
18.68,2.07,33.46420,-86.77409,AL,42000,3000,50,65,29,Brookwood Medical Center
9.91,2.87,33.46514,-112.05797,AZ,21000,5000,50,48,69,Banner Good Samaritan Medical Center
7.33,2.56,32.25294,-110.88135,AZ,15000,4000,50,48,3,Tucson Medical Center
7.54,2.40,32.22685,-110.85520,AZ,16000,4000,66,55,21,Carondelet St Josephs Hospital
7.57,2.62,34.56017,-112.48217,AZ,16000,5000,25,67,17,Yavapai Regional Medical Center
7.03,2.54,32.68274,-114.63506,AZ,15000,4000,50,63,69,Yuma Regional Medical Center
9.09,2.45,33.56894,-112.07108,AZ,20000,4000,50,80,16,John C Lincoln North Mountain Hospital
8.89,2.26,33.60432,-112.28378,AZ,19000,4000,83,75,95,Banner Boswell Medical Center
7.35,2.66,33.39097,-111.87638,AZ,16000,5000,66,80,56,Banner Desert Medical Center
7.88,2.34,33.41128,-111.68916,AZ,17000,4000,50,70,63,Banner Baywood Medical Center
10.00,2.30,33.65965,-112.37283,AZ,22000,4000,50,77,97,Banner Del E Webb Medical Center
7.69,2.64,33.46202,-112.35299,AZ,16000,5000,75,65,69,West Valley Hospital
11.47,2.76,33.47818,-112.25744,AZ,25000,5000,50,58,69,Banner Estrella Medical Center
13.04,2.41,33.28686,-111.75246,AZ,29000,4000,50,63,63,Mercy Gilbert Medical Center
11.67,2.55,33.39128,-111.61125,AZ,25000,4000,50,60,11,Mountain Vista Medical Center Lp
8.20,2.19,36.10940,-94.16036,AR,17000,4000,33,77,74,Washington Regional Med Ctr At North Hills
5.67,2.33,34.75031,-92.33897,AR,12000,4000,66,63,82,St Vincent Infirmary Medical Center
5.00,2.23,35.25046,-91.70056,AR,10000,4000,50,61,63,White County Medical Center
4.28,2.82,34.74866,-92.35422,AR,8000,5000,50,51,33,Uams Medical Center
2.88,2.37,35.83746,-90.70386,AR,5000,4000,50,75,2,St Bernards Medical Ctr
5.60,2.17,34.77770,-92.12539,AR,11000,4000,50,60,13,Baptist Health Medical Center North Little Rock
6.06,2.71,35.14320,-90.18837,AR,13000,5000,0,0,0,Crittenden Memorial Hospital
4.20,2.24,35.37445,-94.41868,AR,8000,4000,50,53,85,Sparks Regional Medical Center
9.17,2.45,34.18894,-92.01886,AR,20000,4000,50,75,4,Jefferson Regional Medical Center
6.64,2.24,34.74866,-92.35422,AR,14000,4000,50,43,21,Baptist Health Medical Center-Little Rock
20.60,3.00,38.32472,-122.29671,CA,46000,5000,50,72,82,Queen Of The Valley Medical Center
14.99,3.70,38.54384,-122.47401,CA,33000,7000,50,75,33,St Helena Hospital
12.15,2.73,32.77495,-117.01467,CA,27000,5000,83,71,33,Grossmont Hospital
9.44,2.80,39.50528,-121.54100,CA,20000,5000,50,73,63,Oroville Hospital
14.11,3.14,35.38736,-119.01690,CA,31000,6000,33,85,79,Bakersfield Memorial Hospital
10.10,2.82,36.32737,-119.29548,CA,22000,5000,50,56,12,Kaweah Delta Medical Center
11.84,3.43,36.73000,-119.78000,CA,26000,6000,50,71,0,Community Regional Medical Center
13.82,3.19,32.75143,-117.16083,CA,30000,6000,33,62,69,Scripps Mercy Hospital
14.06,2.84,34.21674,-119.15631,CA,31000,5000,50,63,6,St Johns Regional Medical Center
8.53,2.71,36.83532,-119.76562,CA,18000,5000,50,66,57,Saint Agnes Medical Center
11.71,3.14,38.57155,-121.46874,CA,26000,6000,83,77,79,Sutter General Hospital
9.87,2.83,36.32362,-119.66726,CA,21000,5000,50,88,24,Adventist Medical Center
19.20,3.21,34.10081,-118.10588,CA,43000,6000,0,0,0,San Gabriel Valley Medical Center
16.49,2.78,39.13822,-121.59436,CA,37000,5000,50,51,21,Rideout Memorial Hospital
18.54,3.50,37.32710,-121.93863,CA,41000,7000,66,71,37,O'Connor Hospital
18.73,2.98,38.44369,-122.70138,CA,42000,5000,66,86,57,Santa Rosa Memorial Hospital
25.06,2.85,37.91341,-122.04163,CA,56000,5000,50,62,33,John Muir Medical Center - Walnut Creek Campus
17.14,3.53,32.61972,-117.02278,CA,38000,7000,50,71,57,Sharp Chula Vista Medical Center
6.50,2.44,33.62229,-117.92995,CA,14000,4000,50,70,51,Hoag Memorial Hospital Presbyterian
23.96,2.83,33.83862,-116.54557,CA,54000,5000,66,81,2,Desert Regional Medical Center
21.31,2.83,34.27915,-118.46006,CA,48000,5000,50,80,24,Providence Holy Cross Medical Center
14.37,3.02,40.58654,-122.39168,CA,32000,6000,83,71,44,Mercy Medical Center Redding
11.33,3.38,33.91173,-117.19590,CA,25000,6000,50,77,52,Riverside County Regional Medical Center
10.27,2.71,38.76514,-121.24979,CA,22000,5000,66,77,16,Sutter Roseville Medical Center
16.41,2.53,33.81131,-118.34364,CA,36000,4000,66,67,88,Torrance Memorial Medical Center
30.00,3.60,38.26174,-122.04662,CA,68000,7000,50,68,29,Northbay Medical Center
19.41,2.94,37.25153,-121.94684,CA,43000,5000,33,63,3,Good Samaritan Hospital
9.32,3.74,34.08802,-117.89341,CA,20000,7000,66,67,29,Citrus Valley Medical Center-Ic Campus
13.35,2.75,34.13364,-118.15275,CA,29000,5000,66,65,57,Huntington Memorial Hospital
14.38,3.26,37.98224,-121.80362,CA,32000,6000,50,58,24,Sutter Delta Medical Center
14.36,2.71,37.66867,-120.97339,CA,32000,5000,66,80,54,Memorial  Medical Center
12.70,2.45,33.56100,-117.66530,CA,28000,4000,66,58,12,Mission Hospital Regional Med Center
18.05,2.42,33.76335,-116.40628,CA,40000,4000,50,56,39,Eisenhower Medical Center
8.85,2.37,33.60883,-117.70881,CA,19000,4000,50,70,90,Saddleback Memorial Medical Center
27.32,3.37,34.07664,-118.37955,CA,62000,6000,100,58,48,Cedars-Sinai Medical Center
8.16,3.54,34.01936,-118.18661,CA,17000,7000,50,90,63,Los Angeles Community Hospital
14.54,3.07,33.95076,-118.34828,CA,32000,6000,50,71,99,Centinela Hospital Medical Center
24.93,2.73,34.05723,-118.36025,CA,56000,5000,50,63,69,Olympia Medical Center
20.99,2.61,34.17067,-118.53200,CA,47000,5000,50,57,63,Providence Tarzana Medical Center
8.59,2.50,40.41481,-104.70890,CO,18000,4000,50,73,57,North Colorado Medical Center
7.44,2.35,39.76893,-105.09006,CO,16000,4000,50,47,79,Exempla Lutheran Medical Center
5.52,2.29,40.57315,-105.05741,CO,11000,4000,50,68,95,Poudre Valley Hospital
6.77,2.61,38.45565,-105.23021,CO,14000,5000,0,0,0,Centura Health-St Thomas More Hospital
9.09,2.40,38.83903,-104.80024,CO,20000,4000,66,68,33,Memorial Hospital Central
8.14,3.51,39.74234,-104.84156,CO,17000,7000,66,66,69,University Of Colorado Hospital Anschutz Inpatient
8.65,2.27,38.86559,-104.82182,CO,19000,4000,50,70,37,Centura Health-Penrose St Francis Health Services
9.69,3.10,41.30978,-72.93806,CT,21000,6000,66,57,8,Hospital Of St Raphael
7.57,3.01,41.77507,-72.69941,CT,16000,6000,50,53,85,St Francis Hospital & Medical Center
9.50,3.02,41.55959,-73.05941,CT,20000,6000,33,57,69,Waterbury Hospital
5.31,2.70,41.33722,-72.10380,CT,11000,5000,50,72,92,Lawrence & Memorial Hospital
9.17,3.26,41.18881,-73.16645,CT,20000,6000,50,51,21,Bridgeport Hospital
4.75,3.07,41.55241,-73.03554,CT,10000,6000,50,56,39,Saint Marys Hospital
5.66,2.54,41.54874,-72.80148,CT,12000,4000,50,60,79,Midstate Medical Center
15.14,3.20,41.03431,-73.63020,CT,33000,6000,50,48,63,Greenwich Hospital Association
9.00,2.65,41.55473,-72.64872,CT,19000,5000,33,61,92,Middlesex Hospital
9.34,3.75,41.30400,-72.93502,CT,20000,7000,66,41,3,Yale-New Haven Hospital
5.20,2.85,41.54301,-72.08799,CT,11000,5000,50,70,44,William W Backus Hospital
7.54,3.29,41.75412,-72.67927,CT,16000,6000,50,47,9,Hartford Hospital
6.52,2.49,41.78185,-72.52591,CT,14000,4000,50,68,1,Manchester Memorial Hospital
5.97,2.86,41.20049,-73.20281,CT,12000,5000,66,78,63,St Vincent'S Medical Center
6.15,2.49,41.67540,-72.93617,CT,13000,4000,50,73,33,Bristol Hospital
6.77,2.84,41.40474,-73.44739,CT,14000,5000,50,66,57,Danbury Hospital
6.44,2.68,41.66107,-72.78671,CT,13000,5000,50,52,8,Hospital Of Central Connecticut The
7.68,3.82,41.73545,-72.79489,CT,16000,7000,25,60,8,John Dempsey Hospital
5.52,2.78,39.69005,-75.68408,DE,11000,5000,66,58,39,Christiana Care Health Services Inc.
7.23,2.60,39.74954,-75.56662,DE,15000,5000,50,81,79,St Francis Hospital
6.10,2.53,39.15135,-75.52309,DE,13000,4000,50,58,90,Bayhealth - Kent General Hospital
7.92,2.41,38.77159,-75.14210,DE,17000,4000,50,90,81,Beebe Medical Center
7.70,3.20,38.90106,-77.05079,DC,16000,6000,50,50,13,George Washington Univ Hospital
6.30,2.31,38.93576,-77.10909,DC,13000,4000,50,76,97,Sibley Memorial Hospital
5.26,3.00,38.94397,-76.99040,DC,11000,5000,50,57,24,Providence Hospital
7.96,3.08,38.92944,-77.01473,DC,17000,6000,33,58,1,Washington Hospital Center
7.91,3.13,30.34913,-81.66391,FL,17000,6000,50,62,0,Shands Jacksonville Medical Center
9.61,2.48,26.50479,-80.06979,FL,21000,4000,50,53,99,Bethesda Memorial Hospital
8.95,2.55,28.52517,-81.37729,FL,19000,4000,66,47,29,Orlando Health
8.56,2.68,28.57345,-81.36990,FL,18000,5000,83,66,24,Florida Hospital
13.50,2.72,25.68309,-80.34038,FL,30000,5000,50,62,85,Baptist Hospital Of Miami Inc
14.11,2.94,25.78846,-80.21644,FL,31000,5000,83,56,0,University Of Miami Hospital
6.97,2.27,26.62849,-81.87423,FL,15000,4000,66,52,16,Lee Memorial Hospital
5.98,2.38,29.20117,-81.05828,FL,12000,4000,66,76,79,Halifax Health Medical Center
7.18,2.34,26.15053,-81.79919,FL,15000,4000,66,62,39,Naples Community Hospital
9.26,2.52,28.08771,-80.61362,FL,20000,4000,66,58,17,Holmes Regional Medical Center
7.23,4.14,25.79143,-80.21250,FL,15000,8000,83,48,4,Jackson Memorial Hospital
9.30,2.12,28.83363,-82.33561,FL,20000,3000,50,55,44,Citrus Memorial Hospital
5.47,2.36,30.47650,-87.21219,FL,11000,4000,50,41,39,Sacred Heart Hospital
4.57,2.19,30.15963,-85.64818,FL,9000,4000,66,73,43,Bay Medical Center
15.01,2.74,25.86166,-80.21398,FL,33000,5000,50,83,69,North Shore Medical Center
8.63,2.57,27.76332,-82.64325,FL,18000,5000,50,82,20,Bayfront Medical Center Inc
14.64,2.92,25.81317,-80.13996,FL,32000,5000,66,47,24,Mount Sinai Medical Center
9.42,2.34,27.49789,-82.56220,FL,20000,4000,50,55,29,Manatee Memorial Hospital
9.71,2.60,26.01867,-80.17981,FL,21000,5000,83,63,76,Memorial Regional Hospital
6.82,2.36,30.30835,-81.68919,FL,14000,4000,50,68,82,St Vincent'S Medical Center
10.69,2.30,27.19837,-80.24306,FL,23000,4000,66,70,57,Martin Memorial Medical Center
9.85,2.14,28.26092,-82.18802,FL,21000,4000,50,62,88,Florida Hospital Zephyrhills
9.34,2.25,28.02768,-81.72466,FL,20000,4000,50,62,2,Winter Haven Hospital
8.11,2.44,28.82358,-81.71133,FL,17000,4000,50,71,48,Florida Hospital Waterman
8.09,2.13,29.17594,-82.13898,FL,17000,3000,50,60,94,Munroe Regional Medical Center
6.44,2.20,28.91403,-81.28480,FL,13000,4000,83,75,5,Florida Hospital Fish Memorial
8.59,2.25,26.18711,-80.11941,FL,18000,4000,83,57,37,Holy Cross Hospital Inc
7.75,2.46,27.98242,-82.49025,FL,16000,4000,66,60,29,St Joseph'S Hospital
10.82,2.44,26.59805,-80.09271,FL,23000,4000,100,60,27,Jfk Medical Center
6.80,2.17,28.80659,-81.86906,FL,14000,4000,33,67,24,Leesburg Regional Medical Center
6.58,2.19,27.31827,-82.53140,FL,14000,4000,33,37,69,Sarasota Memorial Hospital
8.56,2.47,30.31525,-81.66398,FL,18000,4000,66,47,12,Baptist Medical Center
9.99,2.44,29.86371,-81.31749,FL,22000,4000,66,76,29,Flagler Hospital
7.11,2.22,28.33522,-80.72319,FL,15000,4000,50,63,97,Wuesthoff Medical Center  Rockledge
8.04,2.21,30.43066,-87.23191,FL,17000,4000,50,72,17,Baptist Hospital
3.57,2.27,27.65832,-80.39307,FL,7000,4000,66,76,99,Indian River Medical Center
13.52,2.41,28.29946,-81.41021,FL,30000,4000,50,63,51,Osceola Regional Medical Center
5.72,3.33,29.64155,-82.34844,FL,12000,6000,66,53,29,Shands Hospital At The University Of Florida
8.60,2.07,30.27449,-81.40071,FL,18000,3000,66,93,69,Baptist Medical Center  Beaches
15.43,2.22,30.73540,-86.56171,FL,34000,4000,50,90,97,North Okaloosa Medical Center
8.05,2.27,30.63421,-87.06708,FL,17000,4000,50,76,72,Santa Rosa Medical Center
7.37,2.12,27.75214,-82.73951,FL,16000,3000,50,62,85,Palms Of Pasadena Hospital
10.18,2.22,27.95192,-82.80379,FL,22000,4000,66,62,9,Morton Plant Hospital
12.09,3.00,27.93740,-82.45927,FL,26000,5000,66,66,0,Tampa General Hospital
14.91,2.51,25.96994,-80.14533,FL,33000,4000,50,63,79,Aventura Hospital And Medical Center
12.00,2.30,28.18120,-81.64018,FL,26000,4000,50,72,57,Heart Of Florida Regional Medical Center
10.16,2.54,30.18340,-82.68783,FL,22000,4000,0,0,0,Lake City Medical Center
8.62,2.25,28.06172,-81.95304,FL,18000,4000,50,52,3,Lakeland Regional Medical Center
8.26,2.26,28.81611,-81.28351,FL,18000,4000,50,56,97,Central Florida Regional Hospital
7.62,2.20,26.35875,-80.10203,FL,16000,4000,66,46,43,Boca Raton Regional Hospital
9.15,2.22,28.07111,-82.42342,FL,20000,4000,50,68,37,Florida Hospital Tampa
15.45,2.30,30.28793,-81.60103,FL,34000,4000,33,48,24,Memorial Hospital Jacksonville
16.12,2.96,25.88563,-80.32635,FL,36000,5000,66,78,90,Palmetto General Hospital
11.00,2.32,26.26259,-80.20292,FL,24000,4000,50,51,97,Northwest Medical Center
15.25,2.40,29.66085,-82.41172,FL,34000,4000,33,52,17,North Florida Regional Medical Center
11.40,2.29,29.17550,-82.13680,FL,25000,4000,83,55,85,Ocala Regional Medical Center
10.61,2.14,27.48213,-82.62126,FL,23000,4000,50,75,69,Blake Medical Center
12.65,2.24,27.84359,-80.48849,FL,28000,4000,0,0,0,Sebastian River Medical Center
7.21,2.24,26.52735,-81.83337,FL,15000,4000,50,58,63,Gulf Coast Medical Center Lee Mem Health System
15.57,2.17,30.45448,-86.63362,FL,34000,4000,50,72,63,Fort Walton Beach Medical Center
14.72,2.38,30.16550,-81.73775,FL,32000,4000,33,68,57,Orange Park Medical Center
16.29,2.67,26.12354,-80.25951,FL,36000,5000,50,57,74,Westside Regional Medical Center
12.93,2.46,26.02951,-80.24607,FL,28000,4000,50,55,78,Memorial Hospital Pembroke
9.94,2.09,30.51624,-87.21856,FL,21000,3000,50,65,4,West Florida Hospital
12.13,2.08,26.98884,-82.09877,FL,27000,3000,50,80,57,Fawcett Memorial Hospital
13.19,2.47,30.18657,-85.66513,FL,29000,4000,50,63,99,Gulf Coast Medical Center
12.09,2.33,27.93259,-82.28759,FL,26000,4000,66,67,21,Brandon Regional Hospital
6.12,2.47,26.63958,-81.94164,FL,13000,4000,50,52,21,Cape Coral Hospital
10.36,2.54,27.43392,-80.34350,FL,22000,4000,83,53,29,Lawnwood Regional Medical Center & Heart Institute
14.36,2.33,27.91458,-82.80382,FL,32000,4000,50,48,24,Largo Medical Center
13.03,2.12,28.36128,-82.68883,FL,29000,3000,66,67,90,Regional Medical Center Bayonet Point
11.85,2.20,26.43709,-80.12728,FL,26000,4000,83,72,92,Delray Medical Center
11.41,2.69,27.28861,-80.29431,FL,25000,5000,50,65,54,St Lucie Medical Center
8.29,2.09,28.03957,-82.70875,FL,18000,3000,66,66,54,Mease Countryside Hospital
10.56,2.42,26.01394,-80.30980,FL,23000,4000,66,71,63,Memorial Hospital West
7.32,3.34,25.74731,-80.31765,FL,15000,6000,50,85,78,Westchester General Hospital
6.83,2.13,28.94952,-81.95843,FL,14000,3000,33,80,94,Villages Regional Hospital The
9.71,2.34,34.17863,-84.13992,GA,21000,4000,66,63,46,Northside Hospital Forsyth
5.61,2.74,31.59023,-84.15756,GA,12000,5000,50,53,11,Phoebe Putney Memorial Hospital
7.19,2.34,34.24569,-84.49068,GA,15000,4000,50,72,10,Northside Hospital Cherokee
7.37,3.17,34.51192,-84.92579,GA,16000,6000,50,88,57,Gordon Hospital
6.42,2.74,31.17425,-81.48459,GA,13000,5000,50,61,17,Southeast Georgia Health System- Brunswick Campus
5.90,2.35,33.47096,-81.98176,GA,12000,4000,50,51,21,University Hospital
6.29,2.56,34.30335,-83.81737,GA,13000,4000,66,58,44,Northeast Georgia Medical Center Inc
9.75,2.41,33.23886,-84.26706,GA,21000,4000,33,78,69,Spalding Regional Medical Center
9.01,2.27,33.96770,-84.55011,GA,19000,4000,66,62,44,Wellstar Kennestone Hospital
5.59,2.60,32.03185,-81.09158,GA,11000,5000,66,61,24,Memorial Health Univ Med Cen Inc
6.17,2.22,30.82614,-83.97393,GA,13000,4000,50,75,48,John D Archbold Memorial Hospital
5.27,2.34,32.06513,-84.25260,GA,11000,4000,0,0,0,Phoebe Sumter Medical Center
6.29,2.66,34.26000,-85.17000,GA,13000,5000,50,67,88,Floyd Medical Center
6.19,2.33,32.61642,-83.63065,GA,13000,4000,50,73,74,Houston Medical Center
7.71,2.71,33.96117,-83.39832,GA,16000,5000,50,68,92,Athens Regional Medical Center
8.15,2.47,32.41483,-81.76990,GA,17000,4000,50,82,39,East Georgia Regional Medical Center
4.84,2.48,33.78956,-84.28077,GA,10000,4000,50,83,11,Dekalb Medical Center
4.40,2.56,33.76810,-84.38616,GA,9000,4000,33,45,9,Emory University Hospital Midtown
5.54,3.20,33.75205,-84.38272,GA,11000,6000,33,56,0,Grady Memorial Hospital
7.20,3.37,33.96351,-84.01769,GA,15000,6000,50,90,44,Gwinnett Medical Center
5.69,2.31,31.47069,-83.50473,GA,12000,4000,16,80,32,Tift Regional Medical Center
5.25,2.60,32.83041,-83.63476,GA,11000,5000,66,48,44,Medical Center Of Central Georgia
6.46,2.31,30.86250,-83.28630,GA,13000,4000,66,67,74,South Georgia Medical Center
3.90,2.17,32.50679,-84.95933,GA,8000,4000,83,67,69,St Francis Hospital Inc
8.02,2.47,33.85638,-84.60446,GA,17000,4000,50,56,33,Wellstar Cobb Hospital
9.58,2.35,32.84705,-83.61823,GA,21000,4000,66,62,9,Coliseum Medical Center
5.66,2.56,33.57843,-84.38897,GA,12000,4000,50,78,24,Southern Regional Medical Center
9.52,2.21,34.25704,-85.16467,GA,21000,4000,50,87,24,Redmond Regional Medical Center
5.70,2.31,33.51144,-84.22200,GA,12000,4000,50,91,92,Henry Medical Center Inc
14.47,3.13,34.06334,-84.31976,GA,32000,6000,75,70,74,North Fulton Regional Hospital
4.78,2.35,43.61359,-116.25484,ID,10000,4000,66,78,24,St Alphonsus Regional Medical Center
5.24,2.19,38.90068,-90.16026,IL,11000,4000,50,81,24,Alton Memorial Hospital
10.84,2.33,41.52896,-88.13550,IL,24000,4000,50,75,82,Provena St Joseph Medical Center
7.37,2.65,42.06550,-87.68428,IL,16000,5000,33,55,57,Evanston Hospital
5.94,2.15,40.75318,-89.59321,IL,12000,4000,50,75,56,Proctor Hospital
5.86,2.51,39.93563,-91.39833,IL,12000,4000,50,55,92,Blessing Hospital
9.56,2.48,41.72930,-88.26976,IL,21000,4000,50,90,63,Copley Memorial Hospital
9.96,2.40,42.07012,-88.33180,IL,22000,4000,50,82,24,Sherman Hospital
3.75,2.12,39.12680,-88.55059,IL,7000,3000,0,0,0,St Anthonys Memorial Hospital
3.90,2.21,38.32292,-88.91026,IL,8000,4000,50,81,90,Good Samaritan Regional Hlth Center
7.64,2.56,42.05624,-87.74012,IL,16000,4000,50,75,85,Skokie Hospital
5.26,2.55,39.80726,-89.64496,IL,11000,4000,50,58,79,St Johns Hospital
7.95,2.27,41.66900,-87.81414,IL,17000,4000,50,72,95,Palos Community Hospital
8.51,3.17,40.70200,-89.59222,IL,18000,6000,66,57,3,Saint Francis Medical Center
9.35,3.02,42.02578,-87.68371,IL,20000,6000,50,75,37,Rhc St Francis Hospital
10.12,2.93,42.37840,-87.83329,IL,22000,5000,50,73,62,Vista Medical Center East
16.07,3.72,41.78829,-87.60485,IL,36000,7000,66,66,11,The University Of Chicago Medical Center
9.39,2.83,41.97532,-87.69958,IL,20000,5000,50,85,51,Swedish Covenant Hospital
8.06,2.64,41.98743,-87.81440,IL,17000,5000,66,62,69,Resurrection Medical Center
10.55,3.59,41.87497,-87.66927,IL,23000,7000,50,42,33,Rush University Medical Center
6.93,2.28,39.86644,-88.96090,IL,15000,4000,50,60,69,Decatur Memorial Hospital
5.26,2.41,39.80893,-89.65530,IL,11000,4000,83,57,11,Memorial Medical Center
6.35,3.17,41.84639,-87.62345,IL,13000,6000,25,46,39,Mercy Hospital And Medical Center
5.43,2.22,40.48254,-88.95519,IL,11000,4000,50,91,29,St Joseph Medical Center
7.91,2.85,41.52283,-87.71111,IL,17000,5000,50,75,33,Franciscan St James Health
10.03,3.77,41.90414,-87.68254,IL,22000,7000,75,50,54,St Mary & Elizabeth Med Ctr-Division Campus
9.30,3.43,41.93641,-87.65295,IL,20000,6000,50,77,85,Advocate Illinois Masonic Medical Center
6.20,2.18,38.55020,-90.02146,IL,13000,4000,66,81,21,Memorial Hospital
6.88,2.65,41.12572,-87.88526,IL,14000,5000,50,72,81,Riverside Medical Center
3.91,2.25,39.48849,-88.27581,IL,8000,4000,0,0,0,Sarah Bush Lincoln Health Center
6.41,2.46,41.60726,-87.66060,IL,13000,4000,50,65,76,Ingalls Memorial Hospital
10.88,2.67,42.27447,-87.95764,IL,24000,5000,50,70,79,Advocate Condell Medical Center
8.67,2.93,41.72031,-87.73249,IL,19000,5000,50,57,74,Advocate Christ Hospital & Medical Center
6.40,2.34,41.54446,-87.98379,IL,13000,4000,50,68,88,Silver Cross Hospital  And Medical Centers
7.94,2.95,42.03837,-87.84820,IL,17000,5000,83,77,69,Advocate Lutheran General Hospital
7.63,2.24,41.76076,-88.15016,IL,16000,4000,50,68,29,Edward Hospital
7.17,2.18,42.26634,-89.00900,IL,15000,4000,50,50,29,Saint Anthony Medical Center
7.02,2.58,41.56720,-87.69566,IL,15000,5000,50,80,63,Advocate South Suburban Hospital
8.20,2.25,42.06732,-87.99368,IL,17000,4000,66,67,57,Northwest Community Hospital
8.17,2.23,42.00413,-88.01745,IL,17000,4000,66,78,88,Alexian Brothers Medical Center
6.78,3.28,41.86110,-87.83404,IL,14000,6000,66,46,4,Loyola University Medical Center
4.82,2.22,41.48200,-90.57158,IL,10000,4000,50,58,63,Trinity Rock Island
7.68,2.84,41.89477,-87.62131,IL,16000,5000,50,61,94,Northwestern Memorial Hospital
8.31,2.27,41.81791,-88.00907,IL,18000,4000,50,86,95,Advocate Good Samaritan Hospital
8.51,2.36,42.05260,-88.14173,IL,18000,4000,50,80,57,St Alexius Medical Center
6.48,2.31,42.19586,-88.17286,IL,14000,4000,50,80,95,Advocate Good Shepherd Hospital
6.53,2.55,41.59920,-87.35764,IN,14000,4000,50,65,94,Methodist Hospitals Inc
6.10,2.19,39.76255,-86.50165,IN,13000,4000,0,0,0,Hendricks Regional Health
4.61,2.13,40.44665,-86.12707,IN,9000,3000,50,80,54,Howard Regional Health System
6.94,2.27,38.28244,-85.74923,IN,15000,4000,50,83,48,Clark Memorial Hospital
5.64,2.44,41.70877,-86.17026,IN,12000,4000,50,88,57,Saint Joseph Regional Medical Center
4.94,2.32,41.70639,-86.89936,IN,10000,4000,0,0,0,Franciscan St Anthony Health - Michigan City
7.07,2.32,41.03874,-85.24876,IN,15000,4000,66,63,32,Lutheran Hospital Of Indiana
5.74,2.26,41.70568,-85.93404,IN,12000,4000,66,53,69,Elkhart General Hospital
6.28,2.34,41.04659,-85.10906,IN,13000,4000,83,60,44,Parkview Regional Medical Center
5.73,2.33,39.48518,-87.40893,IN,12000,4000,50,62,33,Union Hospital Inc
4.21,3.28,39.78091,-86.17629,IN,8000,6000,33,70,27,William N Wishard Memorial Hospital
6.48,2.23,39.72432,-86.10055,IN,14000,4000,0,0,0,Franciscan St Francis Health - Beech Grove
9.24,2.32,41.46729,-87.05130,IN,20000,4000,50,75,63,Porter Valparaiso Hospital
6.71,2.25,38.67313,-87.53370,IN,14000,4000,50,72,81,Good Samaritan Hospital
4.87,2.18,38.30195,-85.83409,IN,10000,4000,66,85,85,Floyd Memorial Hospital And Health Services
6.68,2.34,39.41951,-87.40898,IN,14000,4000,50,92,9,Terre Haute Regional Hospital
5.23,2.47,39.86405,-84.88413,IN,11000,4000,100,63,27,Reid Hospital & Health Care Services
5.90,2.30,39.16006,-86.54038,IN,12000,4000,50,56,24,Indiana University Health Bloomington Hospital
7.35,3.33,39.79009,-86.16260,IN,16000,6000,50,51,79,Indiana University Health
5.62,2.48,41.68479,-86.25217,IN,12000,4000,66,60,8,Memorial Hospital Of South Bend
6.06,2.51,39.78704,-86.07673,IN,13000,4000,50,82,82,Community Hospital East
7.36,2.17,37.98293,-87.57072,IN,16000,4000,83,66,13,Deaconess Hospital Inc
7.76,2.56,39.91001,-86.19660,IN,16000,4000,66,47,88,St Vincent Hospital & Health Services
6.29,2.32,40.09594,-85.68152,IN,13000,4000,0,0,0,Saint John'S Health System
7.83,2.50,40.19679,-85.41573,IN,17000,4000,66,62,85,Indiana University Health Ball Memorial Hospital
5.84,2.19,37.96320,-87.50292,IN,12000,4000,66,67,32,St Mary'S Medical Center Of Evansville Inc
7.07,2.33,41.55065,-87.50619,IN,15000,4000,50,75,85,Community Hospital
6.37,2.27,41.39576,-87.36689,IN,13000,4000,50,83,51,Franciscan St Anthony Health - Crown Point
6.99,2.17,39.78047,-86.34084,IN,15000,4000,0,0,0,Iu Health West Hospital
8.60,2.26,39.64935,-86.07960,IN,18000,4000,66,80,90,Franciscan St Francis Health - Indianapolis
4.54,2.25,42.49388,-94.18926,IA,9000,4000,0,0,0,Trinity Regional Medical Center
7.84,2.58,41.60051,-93.61086,IA,17000,5000,0,0,0,Iowa Lutheran Hospital
8.84,2.47,41.26886,-95.83923,IA,19000,4000,0,0,0,Alegent Health Mercy Hospital
5.39,2.13,41.66411,-91.52841,IA,11000,3000,50,65,48,Mercy Hospital
5.60,2.18,42.03321,-93.61164,IA,11000,4000,0,0,0,Mary Greeley Medical Center
5.49,2.30,41.98570,-91.66093,IA,11000,4000,66,75,90,St Lukes Hospital
8.51,3.18,41.66092,-91.54800,IA,18000,6000,16,38,63,University Of Iowa Hospital & Clinics
4.80,2.42,43.15063,-93.21718,IA,10000,4000,50,82,63,Mercy Medical Center-North Iowa
5.24,2.05,41.97864,-91.65507,IA,11000,3000,50,80,99,Mercy Medical Center - Cedar Rapids
4.67,2.44,41.86141,-90.18921,IA,9000,4000,0,0,0,Mercy Medical Center-Clinton
6.86,2.82,41.58955,-93.63248,IA,14000,5000,66,37,82,Iowa Methodist Medical Center
6.23,2.41,41.59886,-93.62344,IA,13000,4000,83,75,29,Mercy Medical Center-Des Moines
4.24,2.26,42.52665,-92.33957,IA,8000,4000,50,81,6,Allen Memorial Hospital
4.71,2.16,42.49250,-96.39975,IA,9000,4000,66,71,54,Mercy Medical Center-Sioux City
5.31,2.19,39.05660,-95.69599,KS,11000,4000,33,51,33,St Francis Health Center Inc
5.93,2.44,38.07731,-97.89183,KS,12000,4000,50,80,90,Hutchinson Regional Medical Center Inc
8.49,2.33,39.05128,-95.69572,KS,18000,4000,66,71,10,Stormont-Vail Healthcare
10.45,2.20,38.99549,-94.69061,KS,23000,4000,66,46,21,Shawnee Mission Medical Center
8.05,2.37,37.70405,-97.31386,KS,17000,4000,66,68,21,Via Christi Hospitals Wichita Inc
11.08,2.51,37.69556,-97.29785,KS,24000,4000,66,52,5,Wesley Medical Center
7.05,2.31,39.12677,-94.78643,KS,15000,4000,50,60,82,Providence Medical Center
8.39,2.13,38.91047,-94.65205,KS,18000,3000,50,66,11,Menorah Medical Center
4.36,2.11,37.11520,-82.81022,KY,9000,3000,0,0,0,Whitesburg Arh Hospital
5.48,2.46,38.47021,-82.63498,KY,11000,4000,66,60,54,King'S Daughters' Medical Center
5.27,2.16,38.03140,-84.52194,KY,11000,4000,83,67,79,Saint Joseph Hospital
3.77,2.18,37.71183,-85.87623,KY,7000,4000,83,78,39,Hardin Memorial Hospital
6.07,2.37,36.99641,-86.43006,KY,13000,4000,66,52,33,The Medical Center At Bowling Green
4.74,2.33,37.27729,-83.22802,KY,10000,4000,50,87,57,Hazard Arh Regional Medical Center
6.29,2.38,39.06704,-84.49946,KY,13000,4000,33,58,79,St Elizabeth Medical Center North
6.38,2.30,38.50697,-82.69222,KY,13000,4000,50,80,90,Our Lady Of Bellefonte Hospital
4.09,2.53,37.76518,-87.10197,KY,8000,4000,50,66,29,Owensboro Medical Health System
5.81,2.52,38.24927,-85.75081,KY,12000,4000,66,51,8,Jewish Hospital & St Mary'S Healthcare
8.00,2.70,37.47264,-82.52605,KY,17000,5000,75,86,9,Pikeville Medical Center
3.55,2.53,37.73107,-84.29238,KY,7000,4000,0,0,0,Pattie A Clay Regional Medical Center
7.34,3.08,38.03282,-84.50674,KY,15000,6000,33,62,33,University Of Kentucky Hospital
4.26,2.31,37.67604,-82.29731,KY,8000,4000,0,0,0,Williamson Arh Hospital
6.12,2.33,36.92128,-84.11838,KY,13000,4000,25,78,82,Baptist Regional Medical Center
7.77,2.56,38.24806,-85.75125,KY,16000,4000,50,35,39,Norton Hospitals Inc
5.93,2.09,37.06431,-88.67523,KY,12000,3000,50,42,20,Lourdes Hospital
6.78,2.28,38.01849,-84.51236,KY,14000,4000,50,71,57,Central Baptist Hospital
4.58,2.14,37.07404,-88.62685,KY,9000,4000,50,80,39,Western Baptist Hospital
5.10,2.23,36.75751,-88.65129,KY,10000,4000,0,0,0,Jackson Purchase Medical Center
6.30,2.26,36.51878,-88.89564,KY,13000,4000,0,0,0,Parkway Regional Hospital
10.20,2.35,38.16020,-84.90519,KY,22000,4000,0,0,0,Frankfort Regional Medical Center
5.11,2.10,38.23898,-85.63941,KY,10000,3000,66,57,74,Baptist Hospital East
6.82,2.40,37.99944,-84.43941,KY,14000,4000,50,76,63,Saint Joseph East
5.04,2.67,30.20227,-92.01906,LA,10000,5000,50,73,29,Lafayette General Medical Center
5.38,2.21,29.59851,-90.71397,LA,11000,4000,25,68,69,Terrebonne General Medical Center
15.24,2.47,30.46813,-90.45814,LA,34000,4000,75,71,74,North Oaks Medical Center Llc
9.11,2.24,31.28258,-92.46060,LA,20000,4000,50,65,79,Christus St Frances Cabrini Hospital
7.88,2.36,31.31451,-92.44997,LA,17000,4000,66,40,39,Rapides Regional Medical Center
6.15,2.40,32.49443,-93.75011,LA,13000,4000,50,68,13,Christus Schumpert Health System
4.47,2.42,30.40118,-91.11160,LA,9000,4000,83,51,33,Our Lady Of The Lake Regional Medical Center
3.24,2.38,32.86785,-91.38322,LA,6000,4000,0,0,0,West Carroll Memorial Hospital
3.71,3.10,32.48177,-93.76264,LA,7000,6000,100,80,0,Lsu Health Sciences Center - Shreveport
7.52,2.28,32.48393,-93.77884,LA,16000,4000,50,63,62,Willis Knighton Medical Center
6.10,2.33,32.49997,-92.11359,LA,13000,4000,66,62,98,St Francis Medical Center
5.91,2.37,32.61700,-93.28566,LA,12000,4000,50,85,85,Minden Medical Center
6.28,2.19,30.01438,-90.18155,LA,13000,4000,66,68,74,East Jefferson General Hospital
7.30,2.25,32.51315,-92.15713,LA,15000,4000,0,0,0,Glenwood Regional Medical Center
7.39,2.18,31.13861,-93.26892,LA,16000,4000,0,0,0,Byrd Regional Hospital
9.81,2.55,30.19775,-92.07724,LA,21000,4000,50,88,74,The Regional Medical Center Of Acadiana
5.75,2.23,32.55761,-93.71874,LA,12000,4000,50,88,94,Willis Knighton Bossier Health Center
3.72,2.41,44.10107,-70.21432,ME,7000,4000,66,70,57,Central Maine Medical Center
6.96,2.52,44.80988,-68.74929,ME,15000,4000,50,58,37,Eastern Maine Medical Center
2.61,2.52,39.62183,-77.68219,MD,5000,4000,0,0,0,Meritus Medical Center
3.09,2.94,39.28817,-76.62438,MD,6000,5000,0,0,0,University Of Maryland Medical Center
4.21,4.00,38.93090,-76.92161,MD,8000,8000,0,0,0,Prince Georges Hospital Center
3.42,3.25,39.01578,-77.03591,MD,6000,6000,0,0,0,Holy Cross Hospital
3.11,2.96,39.42366,-77.41386,MD,6000,5000,0,0,0,Frederick Memorial Hospital
2.73,2.60,39.54345,-76.09153,MD,5000,5000,0,0,0,Harford Memorial Hospital
3.31,3.15,39.38813,-76.61068,MD,6000,6000,0,0,0,Saint Joseph Medical Center
4.35,4.13,39.29688,-76.59242,MD,9000,8000,0,0,0,Johns Hopkins Hospital The
3.37,3.20,39.27352,-76.67219,MD,6000,6000,0,0,0,Saint Agnes Hospital
3.73,3.57,39.35262,-76.66196,MD,7000,7000,0,0,0,Sinai Hospital Of Baltimore
3.45,3.28,39.35169,-76.47919,MD,7000,6000,0,0,0,Franklin Square Hospital Center
3.84,3.62,38.98482,-77.00139,MD,7000,7000,0,0,0,Washington Adventist Hospital
3.44,3.27,39.15402,-77.05431,MD,7000,6000,0,0,0,Montgomery General Hospital Inc
3.15,3.00,38.36248,-75.59799,MD,6000,5000,0,0,0,Peninsula Regional Medical Center
3.27,3.11,38.99743,-77.11048,MD,6000,6000,0,0,0,Suburban Hospital
3.01,2.88,38.99014,-76.53398,MD,6000,5000,0,0,0,Anne Arundel Medical Center
3.57,3.39,39.32930,-76.61432,MD,7000,6000,0,0,0,Union Memorial Hospital
3.62,3.44,39.64928,-78.73206,MD,7000,7000,0,0,0,Western Maryland Regional Medical Center
2.99,2.85,38.29124,-76.63579,MD,5000,5000,0,0,0,Saint Mary'S Hospital
3.96,3.76,39.29100,-76.54623,MD,8000,7000,0,0,0,Johns Hopkins Bayview Medical Center
3.10,2.95,39.60859,-75.83201,MD,6000,5000,0,0,0,Union Hospital Of Cecil County
3.63,3.45,39.55808,-76.99107,MD,7000,7000,0,0,0,Carroll Hospital Center
3.69,3.51,39.25189,-76.61399,MD,7000,7000,0,0,0,Harbor Hospital
3.07,2.92,38.52905,-76.97068,MD,6000,5000,0,0,0,Civista Medical Center
3.10,2.95,38.76970,-76.07697,MD,6000,5000,0,0,0,Memorial Hospital At Easton
4.46,4.23,39.29994,-76.62138,MD,9000,8000,0,0,0,Maryland General  Hospital
3.13,2.98,38.55963,-76.59455,MD,6000,5000,0,0,0,Calvert Memorial Hospital
3.09,2.95,39.35852,-76.78208,MD,6000,5000,0,0,0,Northwest Hospital Center
3.00,2.88,39.13732,-76.62228,MD,5000,5000,0,0,0,Baltimore Washington  Medical Center
3.23,3.11,39.39017,-76.62216,MD,6000,6000,0,0,0,Greater Baltimore Medical Center
3.43,3.28,39.21273,-76.88526,MD,6000,6000,0,0,0,Howard County General Hospital
3.28,3.14,39.51870,-76.34688,MD,6000,6000,0,0,0,Upper Chesapeake Medical Center
2.59,2.47,38.96851,-76.86203,MD,5000,4000,0,0,0,Doctors'  Community Hospital
3.60,3.43,38.74827,-76.87590,MD,7000,6000,0,0,0,Southern Maryland Hospital Center
3.41,3.28,39.35962,-76.58851,MD,6000,6000,0,0,0,Good Samaritan Hospital
2.73,2.60,39.09796,-77.19799,MD,5000,5000,0,0,0,Shady Grove Adventist Hospital
2.98,2.84,38.33876,-75.21128,MD,5000,5000,0,0,0,Atlantic General Hospital
4.61,3.34,42.70912,-71.14877,MA,9000,6000,50,71,79,Lawrence General Hospital
5.04,3.36,42.37451,-71.10418,MA,10000,6000,50,87,94,Cambridge Health Alliance
4.45,2.95,41.65298,-70.27484,MA,9000,5000,50,56,95,Cape Cod Hospital
4.46,2.50,42.81476,-70.89068,MA,9000,4000,0,0,0,Anna Jaques Hospital
4.68,2.52,42.16849,-72.34130,MA,9000,4000,0,0,0,Wing Memorial Hospital And Medical Center
3.91,3.97,42.35843,-71.05977,MA,8000,8000,66,51,0,Boston Medical Center Corporation
3.18,2.59,42.56407,-70.87543,MA,6000,5000,50,62,63,Beverly Hospital Corporation
7.16,2.66,42.51078,-70.90712,MA,15000,5000,33,47,69,North Shore Medical Center
5.19,2.42,42.35375,-71.55485,MA,11000,4000,0,0,0,Marlborough Hospital
3.68,2.86,41.94445,-70.64511,MA,7000,5000,50,82,24,Jordan Hospital Inc
4.41,2.74,42.64636,-71.34118,MA,9000,5000,50,87,95,Lowell General Hospital
5.66,2.68,42.11449,-72.59502,MA,12000,5000,50,77,76,Mercy Medical Center
3.36,2.76,42.46049,-71.06203,MA,6000,5000,50,52,76,Hallmark Health System
10.54,3.44,42.36227,-71.06941,MA,23000,7000,50,43,16,Massachusetts General Hospital
3.22,2.58,41.90456,-71.09562,MA,6000,5000,50,85,24,Morton Hospital
4.66,2.65,41.70928,-71.14519,MA,9000,5000,25,51,88,Southcoast Hospital Group Inc
4.90,3.04,42.12077,-72.60525,MA,10000,6000,33,61,82,Baystate Medical Center
3.21,2.52,42.64529,-71.30052,MA,6000,4000,0,0,0,Saints  Medical Center Inc
4.14,2.39,42.27743,-71.23690,MA,8000,4000,0,0,0,Beth Israel Deaconess Hospital - Needham
4.68,3.74,42.33719,-71.10939,MA,9000,7000,33,71,33,Beth Israel Deaconess Medical Center
4.28,2.27,42.57727,-71.57393,MA,8000,4000,0,0,0,Nashoba Valley Medical Center
3.88,2.39,42.17644,-70.95398,MA,8000,4000,66,70,48,South Shore Hospital
5.90,2.46,42.33149,-71.24568,MA,12000,4000,66,70,99,Newton-Wellesley Hospital
3.01,2.41,42.46581,-71.12210,MA,6000,4000,50,58,24,Winchester Hospital
4.21,2.42,42.25232,-71.07515,MA,8000,4000,0,0,0,Milton Hospital Inc
8.37,3.36,42.33600,-71.10704,MA,18000,6000,66,40,20,Brigham And Women'S Hospital
6.26,2.83,42.30049,-71.12771,MA,13000,5000,50,96,3,Faulkner Hospital
7.92,3.49,42.27720,-71.75922,MA,17000,7000,50,36,29,Umass Memorial Medical Center Inc
3.60,2.83,42.48585,-71.20686,MA,7000,5000,66,76,16,Lahey Clinic Hospital
3.93,2.72,42.28385,-71.41896,MA,8000,5000,50,76,85,Metrowest Medical Center
5.61,2.40,42.39466,-83.40537,MI,12000,4000,50,60,63,St Mary Mercy Hospital
6.08,2.45,43.20588,-86.20839,MI,13000,4000,50,76,57,Mercy Health Partners Mercy Campus
5.53,2.76,42.28551,-85.58042,MI,11000,5000,66,82,13,Bronson Methodist Hospital
5.91,2.75,42.45741,-83.20513,MI,12000,5000,83,57,48,Providence Hospital And Medical Centers
6.08,2.67,42.29077,-83.21504,MI,13000,5000,33,48,69,Oakwood Hospital And Medical Center
3.08,2.39,42.08955,-86.47781,MI,6000,4000,33,68,88,Lakeland Hospital St Joseph
5.43,3.20,42.41911,-83.18228,MI,11000,6000,83,46,21,Sinai-Grace Hospital
5.30,2.87,42.61425,-83.27602,MI,11000,5000,66,52,79,St Joseph Mercy Oakland
3.82,2.80,43.39166,-84.66140,MI,7000,5000,0,0,0,Midmichigan Medical Center-Gratiot
5.02,2.73,42.96881,-85.66649,MI,10000,5000,33,66,82,Spectrum Health - Butterworth Campus
5.79,2.26,43.58941,-83.86908,MI,12000,4000,33,55,98,Mclaren Bay Region
6.80,3.50,42.28388,-83.72960,MI,14000,7000,50,61,43,University Of Michigan Health System
4.07,2.38,42.61490,-82.96060,MI,8000,4000,50,66,54,Henry Ford Macomb Hospital
4.60,3.24,42.36762,-83.08461,MI,9000,6000,66,47,8,Henry Ford Hospital
3.89,2.73,42.95817,-85.66253,MI,8000,5000,50,53,90,Saint Mary'S Health Care
4.92,2.65,43.22169,-86.24283,MI,10000,5000,0,0,0,Mercy Health Partners Hackley Campus
5.34,2.47,43.42857,-83.95556,MI,11000,4000,83,61,63,Covenant Medical Center Inc
5.42,2.39,42.33111,-85.17817,MI,11000,4000,50,83,63,Bronson Battle Creek Hospital
6.82,2.40,43.42612,-83.94185,MI,14000,4000,66,63,57,St Mary'S Of Michigan Medical Center
4.92,2.30,44.24532,-85.38950,MI,10000,4000,0,0,0,Mercy Hospital - Cadillac
7.89,2.30,42.25117,-84.39240,MI,17000,4000,50,85,98,Allegiance Health
7.06,2.60,44.76156,-85.64143,MI,15000,5000,50,41,57,Munson Medical Center
5.20,2.31,41.91643,-83.39771,MI,11000,4000,50,68,37,Mercy Memorial Hospital System
5.29,3.66,42.35230,-83.05676,MI,11000,7000,66,62,63,Harper University Hospital
5.98,2.56,42.30489,-85.56152,MI,12000,4000,66,47,76,Borgess Medical Center
5.68,2.73,42.51418,-83.19259,MI,12000,5000,66,60,16,William Beaumont Hospital
7.38,3.39,43.02135,-83.70308,MI,16000,6000,66,68,6,Hurley Medical Center
5.20,2.68,43.01399,-83.73250,MI,11000,5000,50,60,33,Mclaren Flint
4.17,2.37,42.21065,-83.14861,MI,8000,4000,50,70,95,Henry Ford Wyandotte Hospital
5.62,2.48,42.26181,-83.66003,MI,12000,4000,66,62,33,St Joseph Mercy Hospital
6.72,2.93,42.41975,-82.91442,MI,14000,5000,66,72,9,St John Hospital And Medical Center
6.11,2.59,42.70417,-84.55488,MI,13000,5000,33,76,21,Mclaren - Greater Lansing
5.81,2.51,42.50514,-83.00422,MI,12000,4000,66,56,85,St John Macomb-Oakland Hospital-Macomb Center
5.94,2.21,42.98625,-82.42802,MI,12000,4000,50,62,29,Port Huron Hospital
5.18,2.52,43.63618,-84.26187,MI,11000,4000,50,72,69,Midmichigan Medical Center-Midland
4.48,2.57,42.58900,-82.89799,MI,9000,4000,66,61,63,Mount Clemens Regional Medical Center
7.09,2.82,42.73767,-84.51698,MI,15000,5000,83,68,1,Edward W Sparrow Hospital
5.28,2.74,42.33215,-83.31195,MI,11000,5000,50,82,37,Garden City Hospital
7.47,2.38,42.61826,-83.09239,MI,16000,4000,83,60,62,William Beaumont Hospital-Troy
7.88,3.42,42.35295,-83.05447,MI,17000,6000,66,65,5,Detroit Receiving Hospital & Univ Health Center
6.23,2.49,45.01403,-93.32177,MN,13000,4000,66,68,82,North Memorial Medical Center
4.87,2.53,46.79380,-92.09573,MN,10000,4000,83,75,79,Essentia Health St Mary'S Medical Center
5.66,3.05,44.02052,-92.48292,MN,12000,6000,83,42,32,Mayo Clinic - Saint Marys Hospital
6.08,2.81,45.57390,-94.16942,MN,13000,5000,50,61,37,St Cloud Hospital
3.45,2.42,44.93031,-93.36276,MN,7000,4000,66,72,94,Park Nicollet Methodist Hospital
9.03,2.90,44.95248,-93.26196,MN,19000,5000,50,70,63,Abbott Northwestern Hospital
7.10,2.29,44.88645,-93.32693,MN,15000,4000,66,62,94,Fairview Southdale Hospital
7.92,2.93,44.95570,-93.09429,MN,17000,5000,50,78,17,Regions Hospital
8.22,2.76,45.18355,-93.36789,MN,18000,5000,50,73,95,Mercy Hospital
5.25,2.34,34.24336,-88.71753,MS,11000,4000,66,61,48,North Mississippi Medical Center
6.45,2.45,34.49648,-89.03326,MS,13000,4000,0,0,0,Baptist Memorial Hospital Union County
8.27,2.26,34.93596,-88.55955,MS,18000,4000,50,72,79,Magnolia Regional Health Center
12.75,2.37,30.36674,-89.11535,MS,28000,4000,50,66,69,Memorial Hospital At Gulfport
8.08,2.24,30.37516,-88.53226,MS,17000,4000,50,70,3,Singing River Hospital
8.90,2.74,34.19610,-90.55208,MS,19000,5000,0,0,0,Northwest Mississippi Regional Medical Center
4.73,2.21,32.33616,-90.15652,MS,9000,4000,50,60,44,St Dominic-Jackson Memorial Hospital
3.75,2.28,33.47600,-88.82100,MS,7000,4000,0,0,0,Och Regional Medical Center
6.28,2.67,32.36983,-88.69702,MS,13000,5000,50,83,4,Rush Foundation Hospital
3.64,2.34,31.31872,-89.32955,MS,7000,4000,50,57,54,Forrest General Hospital
9.22,2.31,31.32573,-89.36670,MS,20000,4000,50,56,20,Wesley Medical Center
4.46,2.37,31.24000,-90.45000,MS,9000,4000,50,83,81,Southwest Ms Regional Medical Center
6.85,2.49,33.51824,-90.19832,MS,14000,4000,0,0,0,Greenwood Leflore Hospital
5.51,2.33,33.52568,-88.42742,MS,11000,4000,50,67,54,Baptist Mem Hosp/Golden Triangle Inc
7.00,2.11,32.31643,-90.17922,MS,15000,3000,66,43,85,Mississippi Baptist Medical Center
6.33,2.67,34.96927,-89.99709,MS,13000,5000,50,68,11,Baptist Memorial Hospital Desoto
6.57,2.57,37.06032,-94.52747,MO,14000,5000,0,0,0,St John'S Regional Medical Center
4.42,2.72,39.77393,-94.77089,MO,9000,5000,50,58,51,Heartland Regional Medical Center
6.92,2.31,38.64281,-90.44448,MO,15000,4000,83,57,74,Mercy Hospital St Louis
3.93,2.19,38.16498,-90.38082,MO,8000,4000,50,83,82,Jefferson Regional Medical Center
5.47,2.68,38.63524,-90.26508,MO,11000,5000,50,56,12,Barnes Jewish Hospital
6.20,2.33,37.14560,-93.28037,MO,13000,4000,50,61,85,Cox Medical Center
4.29,2.42,38.56571,-92.18204,MO,8000,4000,50,83,57,Capital Region Medical Center
5.18,3.49,39.08401,-94.57591,MO,11000,7000,33,58,2,Truman Medical Center Hospital Hill
7.60,2.24,37.17999,-93.27409,MO,16000,4000,66,61,24,St John'S Regional Health Center
6.35,2.04,38.94903,-92.31563,MO,13000,3000,66,73,43,Boone Hospital Center
9.51,2.66,39.42385,-92.41354,MO,20000,5000,0,0,0,Moberly Regional Medical Center
4.79,2.08,38.50661,-90.38025,MO,10000,3000,66,57,13,St Anthony'S Medical Center
7.28,2.17,38.93592,-94.60376,MO,15000,4000,50,75,88,St Joseph Medical Center
6.48,2.79,38.63268,-90.31089,MO,14000,5000,83,77,57,Ssm St Marys Health Center
11.27,2.29,39.04749,-94.34105,MO,25000,4000,50,72,39,Centerpoint Medical Center Of Independence Llc
6.67,2.15,39.14957,-94.55148,MO,14000,4000,50,58,63,North Kansas City Hospital
7.35,2.36,38.75097,-90.43255,MO,16000,4000,66,68,43,Ssm Depaul Health Center
7.69,3.47,38.62280,-90.24049,MO,16000,7000,50,46,5,St Louis University Hospital
4.66,2.10,38.63702,-90.44699,MO,9000,3000,66,68,48,Missouri Baptist Medical Center
9.18,2.41,36.78510,-90.42779,MO,20000,4000,50,60,39,Poplar Bluff Regional Medical Center
5.87,2.35,37.05238,-94.52777,MO,12000,4000,83,67,85,Freeman Health System - Freeman West
11.56,3.04,39.04761,-94.59037,MO,25000,6000,66,50,17,St Lukes Hospital Of Kansas City
5.31,2.67,38.95171,-92.33407,MO,11000,5000,66,60,63,University Of Missouri Health Care
7.92,2.31,38.58103,-90.45144,MO,17000,4000,50,70,43,Des Peres Hospital
4.47,2.17,39.27591,-94.42572,MO,9000,4000,33,60,33,Liberty Hospital
5.52,2.16,38.65123,-90.50301,MO,11000,4000,66,67,12,St Lukes Hospital
7.35,2.48,38.77576,-90.23906,MO,16000,4000,66,75,4,Christian Hospital Northeast
13.33,2.29,37.30401,-89.57190,MO,29000,4000,50,65,11,St Francis Medical Center
4.39,2.40,45.78958,-108.51283,MT,9000,4000,50,86,88,Billings Clinic Hospital
8.95,2.45,40.78318,-96.63709,NE,19000,4000,66,70,63,Bryanlgh Medical Center
6.35,2.83,41.25522,-95.97892,NE,13000,5000,50,52,51,The Nebraska Medical Center
6.98,2.49,40.80816,-96.62689,NE,15000,4000,50,66,20,Saint Elizabeth Regional Medical Center
7.85,2.32,41.25797,-96.04164,NE,17000,4000,50,73,33,The Nebraska Methodist Hospital
8.13,2.53,41.32182,-96.02133,NE,17000,4000,25,71,51,Alegent Health Immanuel Medical Center
9.66,2.44,39.52637,-119.79456,NV,21000,4000,50,66,17,Renown Regional Medical Center
18.38,2.87,36.13459,-115.13576,NV,41000,5000,66,68,9,Sunrise Hospital And Medical Center
6.01,2.77,39.20247,-119.78446,NV,12000,5000,50,56,69,Carson Tahoe Regional Medical Center
14.64,2.87,36.16380,-115.16574,NV,32000,5000,66,70,54,Valley Hospital Medical Center
11.86,2.63,36.11363,-115.12573,NV,26000,5000,83,70,63,Desert Springs Hospital
16.63,2.57,36.21599,-115.25095,NV,37000,5000,66,57,13,Mountainview Hospital
16.35,2.54,36.16586,-115.32436,NV,36000,4000,83,72,27,Summerlin Hospital Medical Center
11.54,2.40,36.05712,-115.27116,NV,25000,4000,50,78,18,Saint Rose Dominican Hospital - San Martin Campus
6.39,2.47,43.19846,-71.56230,NH,13000,4000,33,63,94,Concord Hospital
5.16,3.36,43.67286,-72.27232,NH,10000,6000,50,38,0,Mary Hitchcock Memorial Hospital
5.09,2.40,43.00792,-71.46807,NH,10000,4000,50,57,21,Elliot Hospital
5.61,2.54,43.21231,-70.87499,NH,12000,4000,50,73,3,Wentworth-Douglass Hospital
18.05,2.99,40.88346,-74.05564,NJ,40000,5000,50,58,85,Hackensack University Medical Center
15.56,3.82,40.71011,-74.21368,NJ,34000,7000,66,56,11,Newark Beth Israel Medical Center
16.36,3.03,40.79576,-73.99575,NJ,36000,6000,25,62,32,Palisades Medical Ctr-Ny Presbyterian Healthcare S
16.03,2.87,40.84945,-74.13768,NJ,36000,5000,50,56,85,St Mary'S Hospital Passaic
10.60,2.68,40.88275,-74.01021,NJ,23000,5000,66,67,57,Holy Name Medical Center
16.12,2.75,40.78556,-74.17598,NJ,36000,5000,66,83,95,Clara Maass Medical Center
12.32,2.61,40.35684,-74.66166,NJ,27000,5000,50,56,21,University Medical Center At Princeton
10.51,2.53,40.98359,-74.10047,NJ,23000,4000,50,78,21,Valley Hospital
14.84,3.41,39.94152,-75.11680,NJ,33000,6000,66,42,2,Cooper University Hospital
9.52,3.67,40.78883,-74.46620,NJ,21000,7000,66,43,39,Morristown Memorial Hospital
17.27,2.53,40.95858,-74.31000,NJ,38000,4000,50,62,1,Chilton Hospital
19.19,3.33,40.90215,-74.16634,NJ,43000,6000,16,53,94,St Joseph'S Regional Medical Center
14.78,2.42,39.78261,-74.91670,NJ,33000,4000,50,52,74,Virtua West Jersey Hospitals Berlin
24.05,2.36,40.61288,-74.29092,NJ,54000,4000,50,80,44,Robert Wood Johnson University Hospital At Rahway
18.20,2.53,41.05754,-74.76857,NJ,41000,4000,50,77,79,Newton Memorial Hospital
14.66,2.82,39.92695,-75.09537,NJ,32000,5000,50,70,10,Our Lady Of Lourdes Medical Center
15.97,2.62,39.44743,-75.05838,NJ,35000,5000,50,62,1,South Jersey Healthcare Regional Medical Center
15.80,3.11,40.49581,-74.44980,NJ,35000,6000,66,51,1,Robert Wood Johnson University Hospital
18.07,2.92,40.51891,-74.28183,NJ,40000,5000,75,68,69,Raritan Bay Medical Center
14.79,2.35,39.96484,-74.21708,NJ,33000,4000,50,47,88,Community Medical Center
18.29,3.01,40.90400,-73.96847,NJ,41000,6000,66,81,54,Englewood Hospital And Medical Center
14.78,2.42,39.31464,-74.59391,NJ,33000,4000,16,72,82,Shore Medical Center
24.57,2.58,40.56804,-74.59579,NJ,55000,5000,50,67,29,Somerset Medical Center
13.84,2.56,40.89538,-74.46479,NJ,30000,4000,50,63,69,Saint Clare'S Hospital
8.73,2.83,40.71264,-74.35460,NJ,19000,5000,50,52,57,Overlook Hospital
15.61,2.65,40.07832,-74.13009,NJ,35000,5000,50,57,48,Ocean Medical Center
12.67,3.09,40.81058,-74.20459,NJ,28000,6000,50,68,43,Mountainside Hospital
12.56,2.41,39.98588,-74.79393,NJ,28000,4000,66,55,54,Virtua Memorial Hospital Of Burlington County
15.62,2.95,40.70180,-75.17825,NJ,35000,5000,0,0,0,St Luke'S Warren Hospital
19.46,2.61,39.35775,-74.43449,NJ,43000,5000,66,65,88,Atlanticare Regional Medical Center - City Div
19.75,3.06,40.50214,-74.46015,NJ,44000,6000,50,53,29,Saint Peter'S University Hospital
16.27,2.67,40.21065,-74.03566,NJ,36000,5000,50,58,6,Jersey Shore University Medical Center
18.87,3.58,40.71663,-74.05013,NJ,42000,7000,83,73,82,Libertyhealth-Jersey City Medical Center Campus
16.38,3.16,40.76190,-74.30335,NJ,36000,6000,83,53,2,Saint Barnabas Medical Center
15.14,2.44,39.84392,-75.14985,NJ,33000,4000,50,70,33,Underwood - Memorial Hospital
15.20,2.81,40.75402,-74.21335,NJ,34000,5000,50,73,57,East Orange General Hospital
19.20,2.52,40.07503,-74.21832,NJ,43000,4000,50,71,76,Kimball Medical Center
14.60,2.89,39.82811,-75.00895,NJ,32000,5000,66,60,69,Kennedy University Hospital - Stratford Div
10.29,2.45,39.59285,-75.44416,NJ,22000,4000,0,0,0,Memorial Hospital Of Salem County
8.74,3.37,40.74323,-74.17431,NJ,19000,6000,50,68,51,Saint Michael'S Medical Center Inc
15.85,2.73,40.55784,-74.34970,NJ,35000,5000,50,71,57,Jfk Medical Ctr - Anthony M. Yelencsics Community
14.17,2.35,40.21575,-74.67273,NJ,31000,4000,50,67,79,Robert Wood Johnson University Hospital Hamilton
15.08,2.57,40.23861,-74.31289,NJ,33000,4000,33,68,13,Centrastate Medical Center
6.42,2.78,36.72387,-108.21749,NM,13000,5000,50,71,82,San Juan Regional Medical Center
10.37,2.44,33.42340,-104.52748,NM,22000,4000,50,78,12,Eastern New Mexico Medical Center
6.97,2.56,35.08102,-106.63392,NM,15000,4000,33,51,3,Presbyterian Hospital
4.70,2.18,42.67460,-73.74858,NY,9000,4000,0,0,0,Albany Memorial Hospital
11.11,2.78,41.92720,-73.99535,NY,24000,5000,50,83,39,Kingston Hospital
5.79,2.94,42.87482,-78.84942,NY,12000,5000,33,45,8,Kaleida Health
3.29,2.24,42.09299,-75.93704,NY,6000,4000,50,73,99,Our Lady Of Lourdes Memorial Hospital Inc
7.97,2.80,42.65345,-73.77543,NY,17000,5000,66,60,63,Albany Medical Center Hospital
10.51,2.62,41.69441,-73.93432,NY,23000,5000,83,82,54,Vassar Brothers Medical Center
8.79,4.12,40.79041,-73.95386,NY,19000,8000,83,38,5,Mount Sinai Hospital
8.71,3.52,40.63588,-74.10556,NY,19000,7000,66,52,20,Richmond University Medical Center
4.56,2.44,43.09840,-75.27819,NY,9000,4000,50,60,17,Faxton-St Luke'S Healthcare
8.96,2.66,40.87946,-73.41621,NY,19000,5000,50,66,39,Huntington Hospital
10.00,3.95,40.80556,-73.96131,NY,22000,8000,33,56,5,St Luke'S Roosevelt Hospital
10.64,3.57,40.74722,-73.82521,NY,23000,7000,66,63,79,New York Hospital Medical Center Of Queens
8.01,4.43,40.68983,-73.97794,NY,17000,9000,83,71,13,Brooklyn Hospital Center At Downtown Campus
7.39,2.14,42.65583,-73.80372,NY,16000,4000,33,47,54,St Peter'S Hospital
11.76,4.18,40.87987,-73.87996,NY,26000,8000,50,38,44,Montefiore Medical Center
6.80,2.56,40.94161,-73.83650,NY,14000,4000,33,63,12,Lawrence Hospital Center
8.97,2.96,41.71846,-73.92710,NY,19000,5000,50,80,79,St Francis Hospital
3.58,4.74,40.81770,-73.92401,NY,7000,10000,75,83,39,Lincoln Medical & Mental Health Center
10.85,4.08,40.76487,-73.95398,NY,24000,8000,33,32,74,New York-Presbyterian Hospital
3.58,2.21,42.09049,-78.42780,NY,7000,4000,50,83,37,Olean General Hospital
11.05,2.84,41.09642,-73.92501,NY,24000,5000,66,77,76,Nyack Hospital
12.16,3.34,40.77686,-73.70212,NY,27000,6000,33,61,69,North Shore University Hospital
14.03,3.26,40.77362,-73.96093,NY,31000,6000,33,46,11,Lenox Hill Hospital
10.87,2.63,41.44138,-74.36821,NY,24000,5000,50,62,69,Orange Regional Medical Center
6.02,4.82,40.85407,-73.84688,NY,12000,10000,50,70,74,Jacobi Medical Center
6.62,4.26,40.74465,-73.88620,NY,14000,8000,25,83,32,Elmhurst Hospital Center
4.60,2.67,43.05571,-76.14981,NY,9000,5000,83,37,20,St Joseph'S Hospital Health Center
13.53,2.69,40.78000,-72.97763,NY,30000,5000,33,60,32,Brookhaven Memorial Hospital Medical Center
7.27,2.35,42.81963,-73.91653,NY,15000,4000,50,68,21,Ellis Hospital
11.63,2.81,41.11299,-74.13732,NY,25000,5000,66,82,82,Good Samaritan Hospital Of Suffern
7.95,3.30,40.58440,-74.08507,NY,17000,6000,66,71,37,Staten Island University Hospital
3.82,2.36,43.13562,-77.60602,NY,7000,4000,50,43,10,Highland Hospital
14.55,3.21,40.74083,-73.64306,NY,32000,6000,66,50,74,Winthrop-University Hospital
12.05,3.96,40.73265,-73.98162,NY,26000,8000,50,60,39,Beth Israel Medical Center
10.83,2.70,40.87062,-73.62249,NY,24000,5000,50,82,85,Glen Cove Hospital
8.54,2.76,40.80462,-73.67023,NY,18000,5000,83,72,94,St Francis Hospital Roslyn
5.10,3.37,40.91276,-73.78720,NY,10000,6000,50,83,6,Sound Shore Medical Center Of Westschester
10.90,2.65,40.94000,-73.05510,NY,24000,5000,50,63,63,John T Mather Memorial Hospital  Of Port Jefferson
4.43,2.17,43.30652,-73.64663,NY,9000,4000,50,63,90,Glens Falls Hospital
6.56,3.90,40.75543,-73.81532,NY,14000,8000,25,72,63,Flushing Hospital Medical Center
11.54,4.20,40.63937,-73.99851,NY,25000,8000,50,45,54,Maimonides Medical Center
10.29,3.85,40.75332,-73.70899,NY,22000,7000,50,45,90,Long Island Jewish Medical Center
6.18,4.33,40.58549,-73.96558,NY,13000,9000,25,72,29,Coney Island Hospital
7.13,2.66,40.65189,-73.63096,NY,15000,5000,50,52,43,South Nassau Communities Hospital
14.65,3.58,40.65957,-73.93378,NY,32000,7000,25,77,95,Kingsbrook Jewish Medical Center
4.25,2.13,43.08561,-73.79712,NY,8000,3000,50,58,29,Saratoga Hospital
6.65,2.29,42.74285,-73.67673,NY,14000,4000,50,52,69,Seton Health System-St Mary'S Campus
6.34,4.17,40.65533,-73.91221,NY,13000,8000,50,62,54,Brookdale Hospital Medical Center
18.87,4.10,41.08773,-73.80395,NY,42000,8000,50,42,63,Westchester Medical Center
5.66,3.27,44.70022,-73.47100,NY,12000,6000,50,55,0,Champlain Valley Physicians Hospital Medical Ctr
13.11,2.83,40.68896,-73.63259,NY,29000,5000,50,62,37,Mercy Medical Center
8.02,2.61,41.29201,-73.89529,NY,17000,5000,50,82,76,Hudson Valley Hospital Center
4.71,2.29,42.84782,-78.81264,NY,9000,4000,50,68,13,Mercy Hospital
3.71,3.23,43.12266,-77.62360,NY,7000,6000,50,55,21,Strong Memorial Hospital
12.29,2.91,40.69327,-73.29412,NY,27000,5000,50,70,74,Good Samaritan Hospital Medical Center
6.83,2.61,41.02614,-73.76978,NY,14000,5000,50,62,44,White Plains Hospital Center
2.71,2.48,42.47286,-76.53849,NY,5000,4000,50,78,16,Cayuga Medical Center At Ithaca
9.77,2.89,40.77481,-73.47968,NY,21000,5000,50,56,20,Plainview Hospital
9.13,2.53,40.72593,-73.47844,NY,20000,4000,50,62,56,St Joseph Hospital
4.34,4.13,40.65508,-73.94521,NY,9000,8000,50,66,8,University Hospital Of Brooklyn ( Downstate )
6.24,3.53,40.90922,-73.11520,NY,13000,7000,50,60,44,University Hospital ( Stony Brook )
5.29,2.47,42.11422,-75.95851,NY,11000,4000,66,48,92,United Health Services Hospitals Inc
5.85,4.17,40.59803,-73.75296,NY,12000,8000,50,63,7,St John'S Episcopal Hospital At South Shore
13.35,2.51,40.85738,-73.18681,NY,29000,4000,50,76,88,St Catherine Of Siena Hospital
5.23,2.77,35.43754,-80.60147,NC,11000,5000,66,65,16,Carolinas Medical Center-Northeast
4.93,2.51,35.57658,-82.54922,NC,10000,4000,66,40,81,Memorial Mission Hospital And Asheville Surgery Ce
5.75,3.13,35.95000,-80.00000,NC,12000,6000,50,66,39,High Point Regional Hospital
5.57,2.39,34.75124,-79.46789,NC,11000,4000,0,0,0,Scotland Memorial Hospital
4.22,2.56,35.39772,-77.95250,NC,8000,4000,50,81,8,Wayne Memorial Hospital
4.34,2.54,36.07581,-80.29779,NC,9000,4000,50,52,39,Forsyth Memorial Hospital
4.10,2.20,35.32080,-82.46812,NC,8000,4000,0,0,0,Margaret R Pardee Memorial Hospital
8.20,2.23,35.46894,-79.18668,NC,17000,4000,50,77,21,Central Carolina Hospital
6.64,2.43,35.30288,-81.53571,NC,14000,4000,50,71,63,Cleveland Regional Medical Center
4.28,2.43,35.29053,-77.58307,NC,8000,4000,50,63,63,Lenoir Memorial Hospital
9.41,2.66,35.03156,-78.93205,NC,20000,5000,50,50,18,Cape Fear Valley Medical Center
5.05,2.41,35.27341,-81.13688,NC,10000,4000,50,70,69,Gaston Memorial Hospital
5.64,3.18,35.60726,-77.40477,NC,12000,6000,50,46,1,Pitt County Memorial Hospital
4.78,3.34,36.09062,-80.27161,NC,10000,6000,83,55,57,North Carolina Baptist Hospital
6.47,2.73,34.63723,-79.01213,NC,13000,5000,50,71,63,Southeastern Regional Medical Center
4.24,2.75,36.19878,-81.65223,NC,8000,5000,0,0,0,Watauga Medical Center
5.89,2.62,35.22196,-80.83287,NC,12000,5000,50,63,13,Presbyterian Hospital
4.05,3.48,35.90529,-79.04963,NC,8000,7000,66,41,1,University Of North Carolina Hospital
4.25,2.27,36.15893,-81.15703,NC,8000,4000,0,0,0,Wilkes Regional Medical Center
4.17,2.51,34.33747,-78.69425,NC,8000,4000,0,0,0,Columbus Regional Healthcare System
7.26,2.65,35.78523,-78.58836,NC,15000,5000,33,50,79,Wakemed Raleigh Campus
3.69,2.33,36.06347,-79.50208,NC,7000,4000,33,60,16,Alamance Regional Medical Center
5.04,2.61,36.09251,-79.78855,NC,10000,5000,66,66,51,Moses H Cone Memorial Hospital The
6.68,2.33,35.21029,-80.82084,NC,14000,4000,50,53,51,Carolinas Med Center-Mercy
5.89,2.52,36.28555,-76.99489,NC,12000,4000,0,0,0,Roanoke Chowan Hospital
6.50,2.42,35.92115,-77.55585,NC,14000,4000,50,85,6,Heritage Hospital
7.41,3.02,35.20397,-80.83908,NC,16000,6000,66,63,24,Carolinas Medical Center/Behav Health
4.74,2.60,35.81801,-78.70283,NC,9000,5000,50,65,54,Rex Hospital
4.52,2.34,35.20554,-79.45645,NC,9000,4000,66,60,44,Firsthealth Moore Regional Hospital
4.24,2.48,34.96500,-77.96165,NC,8000,4000,0,0,0,Duplin General Hospital
6.39,2.47,35.71850,-77.94518,NC,13000,4000,50,68,88,Wilson Medical Center
4.07,2.52,34.97382,-80.52250,NC,8000,4000,50,68,69,Carolinas Medical Center-Union
4.58,2.56,35.11420,-77.06568,NC,9000,4000,33,73,90,Carolina East Medical Center
4.76,2.65,34.23786,-77.94764,NC,10000,5000,83,70,57,New Hanover Regional Medical Center
4.96,2.65,35.97538,-77.85012,NC,10000,5000,50,65,13,Nash General Hospital
5.13,2.38,36.43295,-77.64729,NC,10000,4000,0,0,0,Halifax Regional Medical Center Inc
6.53,2.59,35.30611,-80.74708,NC,14000,5000,50,75,42,Carolinas Med Ctr-University
5.20,2.20,35.11432,-80.71971,NC,11000,4000,0,0,0,Presbyterian Hospital Matthews
8.02,2.26,35.74046,-78.78127,NC,17000,4000,50,72,13,Wakemed Cary Hospital
3.28,2.49,46.88496,-96.78609,ND,6000,4000,66,61,48,Sanford Medical Center Fargo
3.66,2.50,47.91045,-97.06742,ND,7000,4000,83,53,1,Altru Hospital
3.47,2.27,46.83250,-96.82805,ND,7000,4000,33,77,20,Essentia Health-Fargo
5.37,2.24,39.08582,-84.34886,OH,11000,4000,50,72,85,Mercy Hospital Anderson
5.91,3.50,39.13707,-84.50392,OH,12000,7000,66,45,21,University Hospital Inc
7.07,2.48,40.03064,-83.03440,OH,15000,4000,83,71,21,Riverside Methodist Hospital
4.45,2.30,40.57098,-83.12972,OH,9000,4000,50,91,48,Marion General Hospital
3.23,2.41,40.11479,-82.94677,OH,6000,4000,50,66,12,Mount Carmel St Ann'S Hospital
5.35,2.46,39.20680,-84.38093,OH,11000,4000,50,76,94,Jewish Hospital Llc
6.09,2.88,39.96098,-82.99077,OH,13000,5000,66,78,21,Grant Medical Center
7.90,2.62,41.08161,-81.50007,OH,17000,5000,66,63,33,Summa Health Systems Hospitals
4.87,2.41,41.07747,-81.53042,OH,10000,4000,66,70,63,Akron General Medical Center
3.78,2.41,39.95805,-83.02191,OH,7000,4000,66,42,1,Mount Carmel Health
4.12,2.38,39.97510,-82.01812,OH,8000,4000,50,78,92,Genesis Healthcare System
6.79,3.17,41.61788,-83.61632,OH,14000,6000,66,68,6,University Of Toledo Medical Center
9.01,2.53,39.74547,-84.18523,OH,19000,4000,66,45,1,Miami Valley Hospital
10.69,2.63,39.78778,-84.23493,OH,23000,5000,66,56,16,Good Samaritan Hospital
6.63,2.22,39.31257,-84.51774,OH,14000,4000,50,90,69,Mercy Hospital Fairfield
4.74,3.32,41.46088,-81.69763,OH,10000,6000,50,60,24,Metro Health Medical Center
5.52,2.33,41.11441,-80.65565,OH,11000,4000,83,48,21,St Elizabeth Health Center
6.25,2.26,40.74115,-84.11804,OH,13000,4000,66,73,6,St Rita'S Medical Center
11.51,2.49,41.67775,-83.59589,OH,25000,4000,33,70,57,Toledo Hospital The
3.77,2.36,40.81219,-81.39625,OH,7000,4000,50,62,43,Mercy Medical Center
4.82,2.34,39.71750,-82.57772,OH,10000,4000,50,82,90,Fairfield Medical Center
10.09,2.31,41.70838,-83.69216,OH,22000,4000,16,86,63,Flower Hospital
7.64,2.39,41.45013,-81.82397,OH,16000,4000,66,60,18,Fairview Hospital
7.96,2.54,39.69724,-84.19232,OH,17000,4000,66,80,57,Kettering Medical Center
3.71,2.30,40.79609,-81.40360,OH,7000,4000,50,63,17,Aultman Hospital
9.95,3.10,39.99445,-83.01872,OH,22000,6000,66,50,2,Ohio State University Hospitals
6.91,2.36,39.92755,-83.81573,OH,15000,4000,50,67,48,Springfield Regional Medical Center
7.17,2.10,41.66317,-81.24696,OH,15000,3000,50,73,39,Lake Health
8.95,3.07,41.66810,-83.54275,OH,19000,6000,50,70,5,Mercy St Vincent Medical Center
5.66,2.15,39.13628,-84.60485,OH,12000,4000,50,77,95,Mercy Franciscan Hospital Western Hills
5.09,2.22,40.75264,-82.52803,OH,10000,4000,83,81,92,Medcentral Health System
5.90,2.33,41.43653,-81.94451,OH,12000,4000,50,72,76,St John Medical Center
5.56,2.32,39.41551,-84.57263,OH,11000,4000,50,80,29,Fort Hamilton Hughes Memorial Hospital
5.73,3.19,41.50772,-81.60592,OH,12000,6000,83,46,44,University Hospitals Of Cleveland
6.41,2.57,41.13385,-80.65678,OH,13000,5000,50,62,5,Northside Medical Center
9.58,2.14,41.42112,-81.59808,OH,21000,4000,50,82,21,Marymount Hospital
7.08,2.42,41.44829,-81.53736,OH,15000,4000,50,81,21,South Pointe Hospital
5.05,2.17,41.36649,-82.09708,OH,10000,4000,66,75,98,Emh Regional Medical Center
6.39,3.14,39.95311,-83.13803,OH,13000,6000,50,48,48,Doctors Hospital
7.10,2.12,41.37028,-81.83189,OH,15000,3000,50,71,74,Southwest General Health Center
5.19,2.39,39.39463,-82.96979,OH,11000,4000,50,50,24,Adena Regional Medical Center
5.68,2.49,39.12105,-84.51059,OH,12000,4000,83,46,88,Christ Hospital
7.05,2.26,41.43688,-82.23761,OH,15000,4000,50,82,69,Mercy Regional Medical Center
7.49,2.31,39.25076,-84.34341,OH,16000,4000,50,62,99,Bethesda North Hospital
7.53,2.70,41.50248,-81.62110,OH,16000,5000,33,32,24,Cleveland Clinic
3.77,2.30,40.35601,-80.62502,OH,7000,4000,50,81,63,Trinity Medical Ctr East&Trinity Medical Ctr West
5.29,2.10,41.52013,-81.43291,OH,11000,3000,66,45,37,Hillcrest Hospital
7.22,2.73,39.63778,-84.24864,OH,15000,5000,50,82,24,Kettering Medical Center - Sycamore
5.71,2.07,40.99498,-80.66192,OH,12000,3000,50,70,29,St Elizabeth Boardman Health Center
5.49,2.05,39.35830,-84.36785,OH,11000,3000,50,93,57,West Chester Medical Center
9.50,2.91,36.14687,-95.96841,OK,20000,5000,83,76,32,Hillcrest Medical Center
5.09,2.37,36.72564,-97.06859,OK,10000,4000,0,0,0,Ponca City Medical Center
9.23,2.29,35.22999,-97.44074,OK,20000,4000,50,73,21,Norman Regional Health System
5.60,2.19,35.60735,-97.59693,OK,11000,4000,66,51,6,Mercy Health Center Inc
12.60,2.42,34.00655,-96.39398,OK,28000,4000,0,0,0,Medical Center Of Southeastern Oklahoma
5.03,2.24,34.77442,-96.63477,OK,10000,4000,0,0,0,Valley View Regional Hospital
5.80,2.29,35.75351,-95.40612,OK,12000,4000,50,70,3,Muskogee Regional Medical Center
10.52,2.10,36.39385,-97.87094,OK,23000,3000,50,77,63,St Mary'S Regional Medical Center
9.25,2.71,35.52960,-97.57496,OK,20000,5000,100,76,90,Integris Baptist Medical Center
8.17,2.21,35.52531,-97.58461,OK,17000,4000,75,76,48,Deaconess Hospital
5.47,2.22,34.93621,-95.74888,OK,11000,4000,0,0,0,Mcalester Regional Health Center
3.95,2.27,35.04453,-94.61214,OK,8000,4000,0,0,0,Eastern Oklahoma Medical Center
5.49,2.36,34.18908,-97.14128,OK,11000,4000,50,51,24,Mercy Memorial Health Center
3.63,2.20,34.60992,-98.43419,OK,7000,4000,50,62,48,Comanche County Memorial Hospital
7.17,3.08,36.14675,-95.99969,OK,15000,6000,50,75,5,Oklahoma State University Medical Center
5.33,2.31,36.06135,-95.95154,OK,11000,4000,83,61,44,Saint Francis Hospital Inc
7.53,3.10,35.48138,-97.49624,OK,16000,6000,66,45,1,O U Medical Center
11.50,2.16,35.46721,-97.39370,OK,25000,4000,50,76,92,Midwest Regional Medical Center
8.39,2.44,35.42168,-97.53306,OK,18000,4000,66,70,24,Integris Southwest Medical Center
4.56,2.26,36.13393,-95.96718,OK,9000,4000,50,51,11,St John Medical Center Inc
4.68,2.81,45.50973,-122.77368,OR,9000,5000,33,55,13,Providence St Vincent Medical Center
5.19,3.48,45.49956,-122.68802,OR,11000,7000,66,47,6,Ohsu Hospital And Clinics
6.53,2.71,44.08146,-123.02694,OR,14000,5000,50,60,24,Sacred Heart Medical Center - Riverbend
6.51,2.24,41.40075,-75.64594,PA,14000,4000,50,77,94,Community Medical Center
6.41,2.91,40.35127,-79.84949,PA,13000,5000,50,55,57,Upmc Mckeesport
9.16,3.24,40.96789,-76.60506,PA,20000,6000,33,56,13,Geisinger Medical Center
7.19,2.47,42.11102,-80.07912,PA,15000,4000,50,72,57,Saint Vincent Health Center
9.39,2.25,40.25092,-75.27204,PA,20000,4000,50,81,76,Lansdale Hospital
15.42,2.49,40.07880,-75.21107,PA,34000,4000,50,70,37,Chestnut Hill Hospital
5.14,2.35,40.69101,-76.18682,PA,10000,4000,0,0,0,Schuylkill Medical Center - East Norwegian Street
7.95,2.72,40.33271,-75.95020,PA,17000,5000,50,67,21,Reading Hospital Medical Center
5.21,2.35,41.24548,-77.01438,PA,11000,4000,50,57,37,Williamsport Regional Medical Center
4.81,3.04,39.94604,-76.71884,PA,10000,6000,66,45,8,York Hospital
11.91,2.69,40.60811,-75.39260,PA,26000,5000,66,53,57,St Luke'S Hospital Bethlehem
6.76,2.13,40.18359,-77.22459,PA,14000,3000,0,0,0,Carlisle Regional Medical Center
4.91,2.70,40.25661,-76.87572,PA,10000,5000,83,47,0,Pinnacle Health Hospitals
5.73,2.23,40.52204,-78.39824,PA,12000,4000,83,61,39,Altoona Regional Health System
12.93,2.58,40.00955,-75.78622,PA,28000,5000,50,73,63,Brandywine Hospital
6.75,2.55,41.98012,-76.52072,PA,14000,4000,50,65,48,Robert Packer Hospital
6.40,2.32,40.04740,-76.30540,PA,13000,4000,66,60,82,Lancaster General Hospital
7.32,2.03,40.57319,-80.01455,PA,15000,3000,50,57,48,Upmc Passavant
17.45,2.55,40.12453,-75.33533,PA,39000,4000,50,68,82,Montgomery Hospital
4.70,2.53,40.32674,-78.92197,PA,9000,4000,50,61,3,Conemaugh Valley Memorial Hospital
10.31,3.70,39.95045,-75.19259,PA,22000,7000,50,33,39,Hospital Of Univ Of Pennsylvania
4.93,2.35,41.64205,-80.14579,PA,10000,4000,50,86,92,Meadville Medical Center
15.29,2.81,40.07160,-74.98341,PA,34000,5000,33,67,5,Aria Health
12.60,2.41,40.24397,-75.61364,PA,28000,4000,50,83,48,Pottstown Memorial Medical Center
14.66,2.30,40.12344,-75.51493,PA,32000,4000,50,62,12,Phoenixville Hospital
9.48,2.75,40.60000,-75.47000,PA,20000,5000,66,58,54,Lehigh Valley Hospital
8.91,2.29,41.25860,-75.86729,PA,19000,4000,50,60,79,Wilkes-Barre General Hospital
14.29,2.36,40.01883,-75.32115,PA,32000,4000,50,71,85,Main Line Hospital Bryn Mawr Campus
11.17,4.18,40.03678,-75.14351,PA,24000,8000,66,62,4,Albert Einstein Medical Center
5.17,2.14,40.30103,-79.55505,PA,11000,4000,66,80,17,Excela Health Westmoreland Regional Hospital
7.45,2.32,39.93492,-77.64744,PA,16000,4000,50,58,48,Chambersburg Hospital
15.24,2.60,40.04475,-75.50425,PA,34000,5000,50,71,20,Main Line Hospital Paoli
13.34,3.14,39.92871,-75.26873,PA,29000,6000,66,65,17,Mercy Fitzgerald Hospital
10.77,2.54,40.68708,-75.24272,PA,23000,4000,66,68,3,Easton Hospital
10.99,3.11,40.44190,-79.96044,PA,24000,6000,83,55,11,Upmc Presbyterian Shadyside
10.01,3.23,39.94969,-75.15712,PA,22000,6000,66,41,57,Thomas Jefferson University Hospital
27.89,2.88,39.85598,-75.36791,PA,63000,5000,66,56,13,Crozer Chester Medical Center
7.94,2.26,40.94875,-75.96386,PA,17000,4000,50,57,97,Hazleton General Hospital
2.55,2.30,40.80574,-76.57061,PA,4000,4000,0,0,0,Shamokin Area Community Hospital
5.11,2.24,40.83130,-75.72794,PA,10000,4000,0,0,0,Gnaden Huetten Memorial Hospital
15.19,2.62,39.98905,-75.27707,PA,34000,5000,50,53,24,Main Line Hospital Lankenau
4.94,2.87,42.07400,-80.09368,PA,10000,5000,0,0,0,Millcreek Community Hospital
8.61,2.80,40.99225,-75.17466,PA,18000,5000,50,90,63,Pocono Medical Center
17.01,2.26,39.91254,-75.43047,PA,38000,4000,50,90,79,Riddle Memorial Hospital
13.35,2.93,39.94560,-75.15561,PA,29000,5000,50,56,69,Pennsylvania Hosp Of The Univ Of Pa Health Sys
15.38,2.99,40.12077,-75.11818,PA,34000,5000,83,51,43,Abington Memorial Hospital
7.56,2.23,41.41276,-75.65399,PA,16000,4000,50,67,85,Regional Hospital Of Scranton
5.31,3.06,40.26468,-76.67582,PA,11000,6000,66,40,3,Milton S Hershey Medical Center
9.82,2.30,40.20064,-74.92952,PA,21000,4000,33,71,44,St Mary Medical Center
8.05,2.73,40.64463,-75.40842,PA,17000,5000,66,66,8,Lehigh Valley Hospital - Muhlenberg
6.48,2.42,41.25855,-75.81041,PA,14000,4000,66,86,2,Geisinger Wyoming Valley Medical Center
26.19,3.77,39.95658,-75.16249,PA,59000,7000,83,71,6,Hahnemann University Hospital
6.79,3.38,41.86943,-71.37561,RI,14000,6000,50,66,6,Memorial Hospital Of Rhode Island
7.98,3.29,41.81254,-71.40760,RI,17000,6000,33,48,6,Rhode Island Hospital
8.16,2.61,41.85172,-71.39826,RI,17000,5000,66,51,63,Miriam Hospital
5.03,2.34,34.95535,-81.05137,SC,10000,4000,50,75,33,Piedmont Medical Center
7.17,2.57,34.96733,-81.94021,SC,15000,5000,33,60,54,Spartanburg Regional Medical Center
6.72,2.39,34.35019,-80.10472,SC,14000,4000,50,87,11,Carolina Pines Regional Medical Center
10.18,2.88,34.02839,-81.03539,SC,22000,5000,33,43,21,Palmetto Health Richland
5.19,2.41,33.37683,-79.29450,SC,11000,4000,0,0,0,Georgetown Memorial Hospital
8.06,2.22,34.83965,-82.42147,SC,17000,4000,66,66,11,St Francis-Downtown
5.71,2.17,34.01469,-81.01343,SC,12000,4000,50,85,29,Sisters Of Charity Providence Hospitals
9.65,2.56,34.51119,-82.64683,SC,21000,4000,50,61,94,Anmed Health
12.68,2.76,34.71787,-80.78844,SC,28000,5000,50,83,79,Springs Memorial Hospital
9.39,2.50,34.19543,-79.76256,SC,20000,4000,50,50,79,Mcleod Regional Medical Center-Pee Dee
7.93,2.28,34.18661,-79.32541,SC,17000,4000,0,0,0,Marion Regional Hospital
7.11,2.52,32.33977,-80.68817,SC,15000,4000,25,65,29,Beaufort County Memorial Hospital
5.39,2.39,33.92320,-80.34308,SC,11000,4000,50,82,81,Tuomey Healthcare System
8.34,2.21,34.00533,-81.11393,SC,18000,4000,66,63,48,Lexington Medical Center
8.53,2.83,34.81904,-82.41308,SC,18000,5000,50,55,17,Greenville Memorial Hospital
13.58,2.61,32.97605,-80.07302,SC,30000,5000,50,56,48,Trident Medical Center
7.25,2.46,33.57070,-81.76332,SC,15000,4000,50,80,8,Aiken Regional Medical Center
8.56,2.16,33.70704,-78.89487,SC,18000,4000,66,50,57,Grand Strand Reg Med Center
7.34,2.16,32.78211,-79.95018,SC,15000,4000,50,66,29,Roper Hospital
10.40,2.31,34.19543,-79.76256,SC,23000,4000,33,66,13,Carolinas Hospital System
4.80,2.04,33.59553,-79.02412,SC,10000,3000,50,76,39,Waccamaw Community Hospital
6.67,3.17,43.53460,-96.71136,SD,14000,6000,66,60,81,Avera Mckennan Hospital & University Health Center
8.87,2.48,43.53562,-96.74305,SD,19000,4000,66,82,57,Sanford Usd Medical Center
7.20,2.85,44.05563,-103.22633,SD,15000,5000,66,42,82,Rapid City Regional Hospital
3.49,2.31,35.63906,-88.83207,TN,7000,4000,66,53,27,Jackson-Madison County General Hospital
5.61,2.35,36.38975,-86.43389,TN,12000,4000,50,95,48,Sumner Regional Medical Center
8.01,2.00,35.75588,-83.95808,TN,17000,3000,50,75,48,Blount Memorial Hospital
4.97,2.16,36.58587,-82.25703,TN,10000,4000,50,62,48,Wellmont Bristol Regional Medical Center
6.29,2.46,35.93985,-83.94326,TN,13000,4000,33,62,20,University Of Tn Memorial Hospital
4.75,2.15,36.55401,-82.55483,TN,10000,4000,50,58,33,Wellmont Holston Valley Medical Center
3.81,2.19,36.21370,-83.29406,TN,7000,4000,50,87,12,Morristown Hamblen Hospital Association
5.88,2.26,36.58199,-87.27050,TN,12000,4000,50,95,39,Gateway Medical Center
7.10,2.95,36.14316,-86.80048,TN,15000,5000,50,43,43,Vanderbilt University Hospital
6.34,2.30,35.12837,-89.86202,TN,13000,4000,50,43,39,Baptist Memorial Hospital
6.92,2.75,35.13640,-90.01928,TN,15000,5000,66,51,37,Methodist Healthcare Memphis Hospitals
5.46,2.29,35.86074,-86.42434,TN,11000,4000,33,87,16,Middle Tennessee Medical Center Inc
5.63,2.12,35.17733,-86.09081,TN,12000,3000,0,0,0,Southern Tennessee Medical Center
9.10,2.13,36.04867,-89.38047,TN,20000,3000,0,0,0,Dyersburg Regional Medical Center
3.54,2.28,35.60668,-87.06635,TN,7000,4000,50,72,74,Maury Regional Hospital
7.57,2.10,35.04157,-85.26037,TN,16000,3000,33,72,99,Memorial Healthcare System Inc
5.18,2.59,35.05068,-85.28823,TN,11000,5000,50,52,0,Erlanger Medical Center
6.54,2.24,35.99233,-83.92697,TN,14000,4000,50,56,85,Tennova Healthcare
5.20,2.34,36.15388,-86.80249,TN,11000,4000,66,66,63,Baptist Hospital
6.92,2.23,35.36202,-86.20943,TN,15000,4000,0,0,0,Harton Regional Medical Center
9.53,2.53,35.03467,-85.26735,TN,21000,4000,50,56,33,Parkridge Medical Center
4.38,2.17,35.91765,-84.10080,TN,9000,4000,33,72,82,Parkwest Medical Center
9.07,2.19,35.17731,-84.86873,TN,19000,4000,50,68,37,Skyridge Medical Center
5.33,2.37,36.22069,-86.32731,TN,11000,4000,25,62,20,University Medical Center
5.39,2.30,30.04413,-99.15217,TX,11000,4000,50,71,74,Peterson Regional Medical Center
9.61,2.46,33.90296,-98.50035,TX,21000,4000,66,86,48,United Regional Health Care System
10.76,2.40,30.65598,-96.34672,TX,23000,4000,50,57,32,St Joseph Regional Health Center
8.65,3.75,32.81043,-96.83699,TX,19000,7000,33,58,44,Parkland Health And Hospital System
6.85,2.89,32.78994,-96.78044,TX,14000,5000,83,58,33,Baylor University Medical Center
7.21,2.08,28.81269,-96.97780,TX,15000,3000,50,71,54,Citizens Medical Center
8.09,2.66,26.17446,-97.67014,TX,17000,5000,50,67,57,Vhs Harlingen Hospital Company Llc
9.57,2.19,30.08729,-94.13292,TX,21000,4000,66,86,79,Christus Hospital
10.35,3.11,29.74802,-95.36609,TX,22000,6000,50,65,54,St Joseph Medical Center
8.14,2.28,32.50219,-94.73025,TX,17000,4000,50,73,85,Good Shepherd Medical Center
11.74,3.34,32.72621,-97.32659,TX,26000,6000,66,80,1,Jps Health Network
15.52,2.40,33.57524,-101.89272,TX,34000,4000,50,41,48,Covenant Medical Center
5.36,2.12,31.51444,-97.19927,TX,11000,3000,50,50,33,Providence Health Center
5.91,2.70,32.81224,-96.83795,TX,12000,5000,33,63,29,Ut Southwestern University Hospital
11.24,2.46,27.77751,-97.39515,TX,24000,4000,83,57,95,Christus Spohn Hospital Corpus Christi
7.93,3.06,32.76017,-96.82437,TX,17000,6000,50,40,3,Methodist Dallas Medical Center
10.79,2.25,30.30491,-97.74540,TX,23000,4000,16,56,63,Seton Medical Center Austin
9.23,2.44,29.43360,-98.49265,TX,20000,4000,66,61,24,Baptist Medical Center
6.62,2.35,29.02970,-95.45243,TX,14000,4000,0,0,0,Brazosport Regional Health System
17.43,2.41,32.33824,-95.29122,TX,39000,4000,50,55,92,East Texas Medical Center
7.03,2.62,28.71321,-100.45571,TX,15000,5000,0,0,0,Fort Duncan Medical Center
13.45,2.49,29.66575,-95.18131,TX,30000,4000,50,51,44,Bayshore Medical Center
6.44,2.47,31.48969,-97.15613,TX,13000,4000,50,53,39,Hillcrest Baptist Medical Center
9.43,2.20,32.34280,-95.29201,TX,20000,4000,50,60,98,Mother Frances Hospital
17.93,2.59,31.76998,-106.49897,TX,40000,5000,66,58,8,Las Palmas Medical Center
12.42,2.90,26.26353,-98.18455,TX,27000,5000,66,91,74,South Texas Health System
5.76,2.63,26.15260,-97.97995,TX,12000,5000,50,52,88,Knapp Medical Center
7.58,2.59,31.84507,-102.37373,TX,16000,5000,33,82,29,Medical Center Hospital
5.31,2.36,31.99616,-102.09950,TX,11000,4000,50,55,37,Midland Memorial Hospital
8.74,2.51,32.73780,-97.33899,TX,19000,4000,66,55,57,Texas Health Harris Methodist Fort Worth
8.63,2.39,28.91803,-98.54641,TX,18000,4000,0,0,0,South Texas Regional Medical Center
8.52,2.86,26.19665,-98.31409,TX,18000,5000,25,91,54,Mission Regional Medical Center
7.37,2.62,29.81230,-95.43010,TX,16000,5000,66,62,69,Memorial Hermann Hospital System
9.62,2.54,29.70719,-95.40048,TX,21000,4000,66,43,1,St Lukes Episcopal Hospital
10.12,2.16,31.33632,-94.74205,TX,22000,4000,50,71,63,Memorial Health System Of East Texas- Lufkin
12.84,2.75,30.28473,-95.46714,TX,28000,5000,33,52,48,Conroe Regional Medical Center
6.98,2.35,32.47171,-99.73315,TX,15000,4000,66,86,39,Hendrick Medical Center
7.13,2.16,35.19533,-101.91907,TX,15000,4000,66,60,21,Baptist St Anthonys Health System-Baptist Campus
8.44,3.10,29.42825,-98.49859,TX,18000,6000,50,80,20,Christus Santa Rosa Hospital
7.53,2.24,33.21990,-97.59383,TX,16000,4000,50,87,32,Wise Regional Health System
8.71,2.44,33.71085,-96.58493,TX,19000,4000,50,57,21,Texoma Medical Center
7.01,2.32,30.07104,-94.11927,TX,15000,4000,83,63,85,Memorial Hermann Baptist Beaumont Hospital
9.54,2.65,29.71020,-95.39956,TX,21000,5000,100,60,13,Methodist Hospitalthe
6.38,2.55,32.39611,-96.86404,TX,13000,4000,0,0,0,Baylor Medical Center At Waxahachie
9.92,2.45,29.50795,-98.57224,TX,21000,4000,66,62,57,Methodist Hospital
7.78,2.65,30.28957,-97.72584,TX,17000,5000,66,81,63,St Davids Medical Center
9.22,2.44,32.88076,-96.76226,TX,20000,4000,66,66,3,Texas Health Presbyterian Hospital  Dallas
5.33,2.23,31.46574,-100.43466,TX,11000,4000,50,72,79,Shannon Medical Center
7.04,2.29,29.78143,-95.54541,TX,15000,4000,83,77,92,Memorial Hermann Memorial City Medical Center
12.63,2.32,29.54043,-95.12730,TX,28000,4000,66,51,21,Clear Lake Regional Medical Center
10.61,3.02,30.01994,-95.44379,TX,23000,6000,50,65,69,Houston Northwest Medical Center
9.48,2.63,29.72913,-95.59429,TX,20000,5000,50,46,33,West Houston Medical Center
12.18,2.51,32.91132,-96.77424,TX,27000,4000,83,51,6,Medical City Dallas Hospital
13.46,2.42,32.73563,-97.34483,TX,30000,4000,83,41,74,Plaza Medical Center Of Fort Worth
11.48,2.47,32.69299,-97.11219,TX,25000,4000,50,60,32,Medical Center Of Arlington
17.69,2.28,32.83517,-96.70473,TX,39000,4000,0,0,0,Doctors Hospital
15.85,2.82,26.18586,-98.22085,TX,35000,5000,50,66,48,Rio Grande Regional Hospital
7.92,2.34,30.22723,-97.77447,TX,17000,4000,50,43,69,St David'S South Austin Medical Center
9.49,2.35,30.51034,-97.71486,TX,20000,4000,50,63,76,Round Rock Medical Center
7.47,2.45,32.64448,-96.87635,TX,16000,4000,50,43,88,Methodist Charlton Medical Center
8.36,2.18,32.91839,-96.50863,TX,18000,4000,0,0,0,Lake Pointe Medical Center
7.52,2.75,33.21746,-97.16488,TX,16000,5000,75,77,74,Texas Health Presbyterian Hospital Denton
6.39,2.38,33.04405,-96.83853,TX,13000,4000,50,75,10,Texas Health Presbyterian Hospital Plano
14.82,2.47,30.05004,-95.25454,TX,33000,4000,33,62,69,Kingwood Medical Center
11.79,2.44,27.69288,-97.34476,TX,26000,4000,50,60,85,Corpus Christi Medical Centerthe
9.07,2.23,33.46323,-94.07490,TX,19000,4000,66,80,6,Christus St Michael Health System
10.26,2.33,29.96603,-95.55127,TX,22000,4000,50,77,94,Methodist Willowbrook Hospital
6.23,2.98,26.25286,-98.20590,TX,13000,5000,33,66,44,Doctors Hospital At Renaissance
5.46,2.85,40.24999,-111.66524,UT,11000,5000,50,70,76,Utah Valley Regional Medical Center
5.70,2.36,41.22300,-111.97383,UT,12000,4000,33,70,33,Mckay Dee Hospital Center
5.65,3.08,40.77170,-111.83681,UT,12000,6000,33,53,8,University Health Care/Univ Hospitals And  Clinics
4.89,3.35,44.47966,-73.19412,VT,10000,6000,66,50,13,Fletcher Allen Hospital Of Vermont
3.81,2.37,38.40552,-78.85730,VA,7000,4000,50,70,92,Rockingham Memorial Hospital
3.36,2.37,39.19345,-78.19599,VA,6000,4000,66,60,74,Winchester Medical Center Inc
7.04,2.69,36.86268,-76.30355,VA,15000,5000,83,58,4,Sentara Norfolk General Hospital
6.88,3.59,38.02573,-78.51526,VA,14000,7000,33,35,24,University Of Virginia Medical Center
3.40,2.62,38.09436,-78.98659,VA,6000,5000,50,82,99,Augusta Health
4.85,2.38,38.45568,-78.01359,VA,10000,4000,0,0,0,Culpeper Regional Hospital
12.60,2.27,37.30712,-77.29146,VA,28000,4000,50,73,57,John Randolph Medical Center
3.97,2.30,37.41368,-79.16870,VA,8000,4000,50,70,57,Centra  Health Inc
14.62,3.40,38.31158,-77.48061,VA,32000,6000,66,73,17,Mary Washington Hospital Inc
5.63,2.64,38.71322,-77.80895,VA,12000,5000,0,0,0,The Fauquier Hospital Inc
4.79,2.71,37.25129,-79.94125,VA,10000,5000,50,61,1,Carilion Roanoke Memorial Center
5.60,2.45,38.82218,-77.10533,VA,11000,4000,66,68,57,Inova Alexandria Hospital
4.94,2.40,37.09020,-80.50370,VA,10000,4000,0,0,0,Carilion New River Valley Medical Center
5.79,2.22,36.85098,-76.18989,VA,12000,4000,50,65,76,Sentara Leigh Hospital
4.64,2.39,38.88916,-77.12796,VA,9000,4000,100,57,57,Virginia Hospital Center - Arlington
6.39,2.15,36.72172,-81.91249,VA,13000,4000,50,90,90,Johnston Memorial Hospital
5.76,2.34,36.86449,-76.02844,VA,12000,4000,66,62,39,Sentara Virginia Beach General Hospital
5.86,2.26,37.58440,-77.51252,VA,12000,4000,50,66,69,Bon Secours - St Marys Hospital Of Richmond
5.57,2.78,38.85764,-77.22772,VA,11000,5000,83,53,1,Inova Fairfax Hospital
11.93,2.37,37.18253,-77.35957,VA,26000,4000,50,76,85,Southside Regional Medical Center
6.35,2.32,37.62931,-77.38804,VA,13000,4000,50,67,69,Bon Secours - Memorial Regional Medical
5.09,2.28,36.57812,-79.40453,VA,10000,4000,50,61,69,Danville Regional Medical Center
3.53,2.40,38.02176,-78.44530,VA,7000,4000,50,75,88,Martha Jefferson Hospital
6.99,2.28,36.69555,-79.86374,VA,15000,4000,50,57,16,Memorial Hospital Of Martinsville & Henry County
4.52,2.18,37.30288,-78.40196,VA,9000,4000,0,0,0,Southside Community Hospital Inc
11.36,2.45,36.69095,-76.93626,VA,25000,4000,0,0,0,Southampton Memorial Hospital
10.38,2.34,37.51021,-77.59525,VA,23000,4000,83,52,32,Cjw Medical Center
11.88,2.32,37.60459,-77.53929,VA,26000,4000,66,63,29,Henrico Doctors' Hospital
4.79,2.28,36.74610,-76.24609,VA,10000,4000,50,62,85,Chesapeake Regional Medical Center
7.50,2.41,47.71468,-122.33762,WA,16000,4000,50,63,32,Northwest Hospital
10.45,2.56,48.41789,-122.32370,WA,23000,4000,50,93,33,Skagit Valley Hospital
6.52,2.83,48.00091,-122.20600,WA,14000,5000,66,56,32,Providence Regional Medical Center Everett
9.71,2.57,47.15452,-122.50105,WA,21000,5000,0,0,0,Saint Clare Hospital
7.31,2.66,47.60869,-122.32128,WA,15000,5000,33,56,13,Swedish Medical Center
4.06,2.69,46.59360,-120.54741,WA,8000,5000,50,75,48,Yakima Valley Memorial Hospital
7.55,2.54,47.58295,-122.62506,WA,16000,4000,66,57,33,Harrison Medical Center
6.83,2.77,45.62460,-122.58145,WA,14000,5000,66,53,81,Peacehealth Southwest Medical Center
4.67,3.35,47.60351,-122.32305,WA,9000,6000,66,52,0,Harborview Medical Center
11.66,2.49,47.17742,-122.28943,WA,25000,4000,50,96,11,Multicare Good Samaritan Hospital
8.26,2.81,47.44243,-122.21392,WA,18000,5000,50,55,48,Valley Medical Center
11.42,2.62,47.24670,-122.44841,WA,25000,5000,66,66,21,St Joseph Medical Center
8.33,2.80,47.25980,-122.45243,WA,18000,5000,83,50,57,Tacoma General Allenmore Hospital
8.94,2.61,47.29252,-122.32729,WA,19000,5000,50,71,1,St Francis Community Hospital
5.10,2.91,39.65498,-79.95814,WV,10000,5000,83,31,5,West Virginia University Hospitals
4.33,2.28,39.32836,-80.23964,WV,9000,4000,66,61,76,United Hospital Center
4.70,2.35,38.43236,-82.40067,WV,9000,4000,66,60,17,St Mary'S Medical Center
5.72,2.44,38.34739,-81.62600,WV,12000,4000,66,58,10,Charleston Area Medical Center
3.73,2.16,37.36312,-81.11184,WV,7000,4000,50,78,85,Princeton Community Hospital
5.91,2.49,37.84674,-81.99565,WV,12000,4000,50,61,76,Logan Regional Medical Center
5.06,2.26,39.27035,-81.56026,WV,10000,4000,50,51,10,Camden Clark Medical Center
3.58,2.30,37.79878,-81.16820,WV,7000,4000,50,72,48,Beckley Arh Hospital
3.18,2.22,37.78754,-81.20183,WV,6000,4000,66,73,82,Raleigh General Hospital
5.05,2.54,43.80136,-91.23958,WI,10000,4000,25,66,69,Mayo Clinic Hlth System- Franciscan Med Ctr Inc
6.34,2.30,43.01152,-88.24308,WI,13000,4000,50,55,24,Waukesha Memorial Hospital
5.68,2.33,42.57776,-87.81939,WI,12000,4000,66,65,20,United Hsptl Sys
6.95,2.74,43.06195,-87.87861,WI,15000,5000,83,67,24,Columbia St Marys Hsptl  Milw (Col & Milw Campus)
5.34,2.24,44.81192,-91.51352,WI,11000,4000,25,55,69,Mayo Clinic Health System Eau Claire Hospital
7.19,2.58,43.05867,-89.40269,WI,15000,5000,66,77,69,St Mary'S Hospital
6.39,2.34,43.77733,-88.42866,WI,13000,4000,50,63,37,St Agnes Hsptl
5.14,2.75,43.06432,-89.40100,WI,10000,5000,66,43,56,Meriter Hsptl
5.33,2.54,42.73444,-87.82788,WI,11000,4000,50,67,12,Wheaton Franciscan Healthcare- All Saints
4.30,2.23,43.16402,-88.13829,WI,8000,4000,50,60,90,Community Mem Hsptl
7.83,2.81,42.98958,-87.95079,WI,17000,5000,50,65,37,Aurora St Lukes Medical Center
7.35,2.33,43.00120,-88.02675,WI,16000,4000,50,71,63,Aurora West Allis Medical Center
5.29,3.17,43.04008,-88.02523,WI,11000,6000,66,36,11,Froedtert Mem Lutheran Hsptl
6.11,3.11,41.14037,-104.81660,WY,13000,6000,50,70,33,Cheyenne Regional Medical Center
9.42,2.34,29.61578,-98.47479,TX,20000,4000,50,76,33,Methodist Stone Oak Hospital
