size_charge,size_pay,lat,lon,charge,pay,name,Air,BloodInf,UrinaryInf,Falls double,Mismatch,Objects,Sores,Sugar
2.60,2.28,35.83746,-90.70386,4688.55,3810.75,ST BERNARDS MEDICAL CTR,0.0,0.119,0.474,0.178,0.0,0.0,0.059,0.0
8.96,2.28,36.18082,-94.13644,22173.79,3815.75,NW ARKANSAS HOSPITALS, LLC,0.0,0.327,0.245,0.818,0.0,0.0,0.164,0.0
4.65,2.18,34.46784,-93.06667,10329.31,3542.24,ST JOSEPHS MERCY HEALTH CENTER INC,0.0,0.343,0.942,0.171,0.0,0.0,0.171,0.0
3.33,2.10,36.34295,-92.39442,6694.82,3309.00,BAXTER REGIONAL MEDICAL CENTER,0.0,0.0,0.484,0.194,0.0,0.097,0.194,0.0
4.04,2.14,35.08546,-92.45774,8647.45,3426.73,CONWAY REGIONAL MEDICAL CENTER,0.0,0.62,1.24,0.155,0.0,0.0,0.0,0.0
4.28,2.16,34.77770,-92.12539,9298.14,3468.19,BAPTIST HEALTH MEDICAL CENTER NORTH LITTLE ROCK,0.0,0.625,0.803,0.0,0.0,0.0,0.357,0.089
5.33,2.24,35.28275,-93.14901,12177.95,3688.70,ST MARYS REGIONAL MEDICAL CENTER,0.0,0.429,1.287,0.0,0.0,0.0,0.0,0.215
4.10,2.18,35.37445,-94.41868,8820.45,3536.50,SPARKS REGIONAL MEDICAL CENTER,0.0,0.277,1.248,0.486,0.0,0.0,0.139,0.069
4.25,2.08,35.35395,-94.35262,9225.72,3250.80,ST EDWARD MERCY MEDICAL CENTER,0.0,0.604,0.302,0.906,0.0,0.0,0.101,0.0
5.22,2.39,34.18894,-92.01886,11874.76,4114.59,JEFFERSON REGIONAL MEDICAL CENTER,0.0,0.453,0.567,0.0,0.0,0.0,0.113,0.0
7.37,2.25,34.48600,-93.03521,17797.25,3735.00,NATIONAL PARK MEDICAL CENTER,0.0,0.423,0.846,0.423,0.212,0.0,0.212,0.0
9.64,2.19,35.60836,-91.26499,24033.94,3572.00,HARRIS HOSPITAL,0.0,0.444,1.333,0.0,0.0,0.0,0.0,0.0
4.10,2.13,34.57290,-92.58508,8810.62,3401.67,SALINE MEMORIAL HOSPITAL,0.0,0.442,0.221,0.0,0.0,0.0,0.0,0.0
6.54,2.24,33.22053,-92.67102,15516.18,3687.82,MEDICAL CENTER SOUTH ARKANSAS,0.0,0.379,0.947,0.0,0.0,0.189,0.0,0.0
4.57,2.24,34.74866,-92.35422,10103.33,3708.04,BAPTIST HEALTH MEDICAL CENTER-LITTLE ROCK,0.0,0.656,0.656,0.231,0.0,0.039,0.347,0.077
4.38,2.26,35.80838,-90.66658,9580.67,3761.27,NEA BAPTIST MEMORIAL HOSPITAL,0.0,0.134,0.939,0.402,0.0,0.0,0.134,0.134
4.02,2.25,35.76927,-91.63408,8591.05,3714.79,WHITE RIVER MEDICAL CENTER,0.0,0.87,0.497,0.249,0.0,0.0,0.373,0.0
14.51,3.41,37.63362,-122.08802,37408.92,6905.83,ST ROSE HOSPITAL,0.0,1.826,0.609,0.812,0.0,0.0,0.203,0.0
9.63,2.71,40.78366,-124.14246,24008.50,4987.17,ST JOSEPH HOSPITAL,0.0,0.179,0.716,0.0,0.0,0.179,0.179,0.0
11.58,2.80,38.32472,-122.29671,29361.55,5230.36,QUEEN OF THE VALLEY MEDICAL CENTER,0.0,0.306,1.073,0.613,0.0,0.0,0.0,0.0
15.06,3.01,38.54384,-122.47401,38927.73,5812.09,ST HELENA HOSPITAL,0.0,0.206,0.618,1.648,0.0,0.0,0.0,0.0
13.81,2.79,38.57053,-121.45216,35490.93,5209.60,MERCY GENERAL HOSPITAL,0.0,0.499,0.666,0.416,0.0,0.0,0.166,0.083
15.06,2.87,33.97659,-117.38184,38912.14,5421.93,RIVERSIDE COMMUNITY HOSPITAL,0.0,0.54,0.432,0.324,0.0,0.0,0.0,0.216
14.58,3.05,32.68425,-117.08161,37595.75,5926.42,PARADISE VALLEY HOSPITAL,0.0,0.267,0.0,0.0,0.0,0.0,0.0,0.0
9.72,3.39,32.75426,-117.16592,24263.07,6864.93,UNIVERSITY OF CALIFORNIA SAN DIEGO MEDICAL CENTER,0.0,0.475,0.158,0.079,0.0,0.238,0.0,0.0
11.41,2.57,32.77495,-117.01467,28904.19,4600.78,GROSSMONT HOSPITAL,0.0,0.131,0.327,0.523,0.0,0.065,0.0,0.0
9.08,2.48,40.89631,-124.09145,22482.73,4369.00,MAD RIVER COMMUNITY HOSPITAL,0.0,1.481,0.0,0.741,0.0,0.0,0.0,0.0
10.20,2.63,39.50528,-121.54100,25580.00,4778.93,OROVILLE HOSPITAL,0.0,0.366,0.61,0.0,0.0,0.0,0.244,0.0
12.18,4.22,37.31288,-121.93329,31020.43,9139.14,SANTA CLARA VALLEY MEDICAL CENTER,0.0,0.196,0.589,0.786,0.0,0.0,0.589,0.0
10.51,2.44,39.74221,-121.85000,26410.31,4260.25,ENLOE MEDICAL CENTER,0.0,0.144,0.433,0.0,0.0,0.072,0.072,0.0
13.38,3.47,37.82206,-122.26275,34298.78,7080.78,ALTA BATES SUMMIT MEDICAL CENTER,0.0,0.897,0.489,0.489,0.0,0.0,0.163,0.0
12.64,2.85,32.78037,-115.56848,32262.45,5362.91,EL CENTRO REGIONAL MEDICAL CENTER,0.0,0.0,0.23,0.0,0.0,0.0,0.0,0.0
7.67,2.81,34.67486,-118.15771,18625.06,5257.88,ANTELOPE VALLEY HOSPITAL MED CENTER,0.0,0.369,0.462,0.092,0.0,0.185,0.0,0.0
8.38,2.65,36.32737,-119.29548,20577.47,4822.62,KAWEAH DELTA MEDICAL CENTER,0.0,0.4,0.599,0.4,0.0,0.0,0.2,0.067
10.16,3.17,36.73000,-119.78000,25469.71,6267.79,COMMUNITY REGIONAL MEDICAL CENTER,0.0,0.42,0.18,0.12,0.0,0.0,0.48,0.0
11.59,2.94,32.75143,-117.16083,29377.50,5629.06,SCRIPPS MERCY HOSPITAL,0.052,0.105,0.472,0.21,0.0,0.0,0.052,0.0
10.66,2.80,34.21674,-119.15631,26839.17,5239.83,ST JOHNS REGIONAL MEDICAL CENTER,0.0,0.601,0.601,0.241,0.0,0.12,0.0,0.0
12.87,2.82,37.96987,-121.28873,32908.93,5301.48,ST JOSEPHS MED CENTER OF STOCKTON,0.0,0.222,0.296,0.518,0.0,0.148,0.0,0.0
9.00,2.67,36.83532,-119.76562,22282.61,4879.52,SAINT AGNES MEDICAL CENTER,0.0,0.275,0.826,0.138,0.0,0.0,0.184,0.0
8.69,2.47,34.10130,-117.63651,21407.12,4334.31,SAN ANTONIO COMMUNITY HOSPITAL,0.0,0.539,0.673,0.135,0.0,0.0,0.135,0.0
12.90,2.71,32.79949,-117.15394,32981.60,4979.30,SHARP MEMORIAL HOSPITAL,0.0,0.288,0.672,0.48,0.0,0.096,0.0,0.0
11.82,2.81,33.92798,-117.43847,30006.00,5259.64,PARKVIEW COMMUNITY HOSPITAL MEDICAL CENTER,0.0,0.306,0.306,0.0,0.0,0.0,0.0,0.0
11.21,2.68,34.95099,-120.41322,28347.93,4919.20,MARIAN MEDICAL CENTER,0.0,0.0,0.485,0.0,0.0,0.0,0.0,0.0
10.85,3.03,38.57155,-121.46874,27349.12,5864.28,SUTTER GENERAL HOSPITAL,0.0,0.129,0.579,0.643,0.0,0.0,0.0,0.0
11.61,2.50,33.12535,-117.07336,29439.64,4422.86,PALOMAR MEDICAL CENTER,0.0,0.56,0.56,0.224,0.0,0.0,0.224,0.112
15.31,2.78,34.22014,-118.53410,39596.06,5179.38,NORTHRIDGE HOSPITAL MEDICAL CENTER,0.0,1.27,0.098,0.586,0.0,0.195,0.098,0.0
21.31,2.47,37.80132,-121.19690,56102.00,4343.42,DOCTORS HOSPITAL OF MANTECA,0.0,0.31,0.0,1.862,0.0,0.0,0.31,0.0
8.24,2.66,36.32362,-119.66726,20197.21,4855.00,ADVENTIST MEDICAL CENTER,0.0,0.129,0.516,0.0,0.0,0.0,0.0,0.0
7.11,2.58,33.18402,-117.29661,17066.86,4634.71,TRI-CITY MEDICAL CENTER,0.0,0.196,0.294,2.551,0.0,0.196,0.196,0.0
11.77,2.64,39.13822,-121.59436,29883.05,4806.38,RIDEOUT MEMORIAL HOSPITAL,0.0,0.727,0.83,0.311,0.0,0.104,0.0,0.104
8.35,2.76,36.57886,-121.91316,20492.12,5117.46,COMMUNITY HOSPITAL OF THE MONTEREY PENINSULA,0.0,0.488,0.781,0.098,0.0,0.098,0.098,0.0
8.64,2.81,39.22809,-121.04721,21271.41,5274.67,SIERRA NEVADA MEMORIAL HOSPITAL,0.0,0.777,0.388,0.388,0.0,0.0,0.0,0.194
25.73,3.65,37.78963,-122.41700,68229.36,7586.91,SAINT FRANCIS MEMORIAL HOSPITAL,0.0,1.236,0.742,0.742,0.0,0.0,0.0,0.0
16.43,2.39,33.89465,-117.92716,42687.43,4120.36,ST JUDE MEDICAL CENTER,0.0,0.103,0.309,0.516,0.0,0.0,0.206,0.0
13.26,2.70,33.96860,-118.04831,33971.17,4956.08,PRESBYTERIAN INTERCOMMUNITY HOSPITAL,0.074,0.298,0.521,0.298,0.0,0.0,0.744,0.074
13.32,2.87,38.44369,-122.70138,34151.10,5437.30,SANTA ROSA MEMORIAL HOSPITAL,0.0,0.0,0.389,0.389,0.0,0.0,0.0,0.0
12.59,2.62,37.51164,-120.83800,32139.17,4751.00,EMANUEL MEDICAL CENTER INC,0.0,0.147,0.587,0.0,0.0,0.0,0.0,0.0
25.92,2.95,37.91341,-122.04163,68765.29,5654.43,JOHN MUIR MEDICAL CENTER - WALNUT CREEK CAMPUS,0.0,0.082,0.245,0.735,0.0,0.0,0.082,0.082
19.33,2.48,39.75720,-121.57018,50663.64,4362.86,FEATHER RIVER HOSPITAL,0.0,0.199,0.596,0.794,0.0,0.0,0.0,0.397
13.99,4.18,37.75676,-122.40461,35993.82,9026.26,SAN FRANCISCO GENERAL HOSPITAL,0.0,0.0,0.626,0.209,0.0,0.209,0.417,0.209
11.78,2.71,34.13973,-118.03534,29904.60,4977.80,METHODIST HOSPITAL OF SOUTHERN CA,0.0,0.262,1.397,0.175,0.0,0.087,0.087,0.087
12.75,3.09,34.14987,-118.23117,32581.67,6032.72,GLENDALE ADVENTIST MEDICAL CENTER,0.0,0.23,1.075,0.0,0.0,0.0,0.154,0.0
19.06,2.96,36.98999,-121.98357,49909.00,5677.11,DOMINICAN HOSPITAL,0.0,0.241,0.723,0.844,0.0,0.0,0.121,0.0
15.42,2.64,33.83862,-116.54557,39898.37,4807.16,DESERT REGIONAL MEDICAL CENTER,0.0,0.507,0.71,0.0,0.0,0.0,0.0,0.0
8.65,3.48,34.07389,-117.35111,21300.45,7106.45,ARROWHEAD REGIONAL MEDICAL CENTER,0.0,0.44,1.1,0.0,0.0,0.0,0.0,0.0
9.51,5.39,38.00655,-122.13312,23670.35,12344.71,CONTRA COSTA REGIONAL MEDICAL CENTER,0.472,0.945,0.0,0.0,0.0,0.0,0.0,0.472
11.64,2.81,40.58654,-122.39168,29516.50,5254.67,MERCY MEDICAL CENTER REDDING,0.0,0.238,0.713,0.079,0.0,0.0,0.079,0.0
10.02,2.34,34.03009,-118.47833,25081.53,3965.67,SAINT JOHN'S HEALTH CENTER,0.0,0.165,0.248,0.0,0.0,0.0,0.165,0.0
6.39,2.62,39.15350,-123.20435,15091.67,4746.38,UKIAH VALLEY MEDICAL CENTER/HOSPITAL D,0.0,0.0,0.0,0.0,0.0,0.0,0.0,0.0
13.76,3.37,37.85593,-122.25730,35358.50,6796.38,ALTA BATES SUMMIT MEDICAL CENTER - ALTA BATES CAMP,0.0,0.134,0.937,0.669,0.0,0.0,0.134,0.134
10.65,2.55,38.76514,-121.24979,26800.80,4548.07,SUTTER ROSEVILLE MEDICAL CENTER,0.0,0.208,0.415,0.83,0.0,0.0,0.0,0.0
7.01,4.01,37.79943,-122.23307,16812.15,8575.38,ALAMEDA COUNTY MEDICAL CENTER,0.0,0.426,0.0,0.852,0.0,0.0,2.555,0.852
11.77,2.33,32.88461,-117.22244,29891.08,3953.69,SCRIPPS MEMORIAL HOSPITAL LA JOLLA,0.0,0.344,0.458,1.146,0.0,0.0,0.229,0.0
8.78,2.91,36.65910,-121.64630,21671.57,5547.79,SALINAS VALLEY MEMORIAL HOSPITAL,0.0,0.227,0.453,0.113,0.0,0.113,0.0,0.0
19.20,2.61,38.12186,-121.28665,50282.00,4716.92,LODI MEMORIAL HOSPITAL,0.0,0.76,0.76,0.76,0.0,0.0,0.0,0.0
20.92,3.62,33.78798,-117.89026,55029.82,7496.45,UNIVERSITY OF CALIFORNIA IRVINE MED CENTER,0.0,0.652,0.261,0.522,0.0,0.0,0.13,0.391
14.19,2.45,33.81131,-118.34364,36536.69,4283.44,TORRANCE MEMORIAL MEDICAL CENTER,0.0,0.585,0.418,0.167,0.0,0.0,0.418,0.0
15.75,4.82,37.94748,-122.53677,40828.22,10776.17,MARIN GENERAL HOSPITAL,0.0,0.759,0.379,0.379,0.0,0.126,0.0,0.0
7.98,2.98,34.08802,-117.89341,19474.43,5737.00,CITRUS VALLEY MEDICAL CENTER-IC CAMPUS,0.0,1.315,0.088,0.263,0.0,0.088,0.0,0.0
10.72,2.77,34.42951,-119.72333,26988.41,5144.35,SANTA BARBARA COTTAGE HOSPITAL,0.0,0.0,0.239,0.159,0.0,0.0,0.08,0.08
10.81,3.14,38.67039,-121.14552,27252.36,6163.64,MERCY HOSPITAL OF FOLSOM,0.0,0.64,0.32,0.32,0.0,0.0,0.0,0.0
7.58,2.57,33.82557,-117.99493,18384.00,4617.15,WEST ANAHEIM MEDICAL CENTER,0.0,0.191,0.191,0.0,0.0,0.0,0.0,0.0
12.93,2.65,34.13364,-118.15275,33074.47,4823.93,HUNTINGTON MEMORIAL HOSPITAL,0.0,0.171,0.514,0.171,0.0,0.0,0.057,0.057
30.00,4.65,37.43436,-122.18013,79965.72,10312.80,STANFORD HOSPITAL,0.0,0.28,0.449,0.337,0.0,0.0,0.112,0.112
11.67,3.11,37.34027,-120.46817,29595.63,6085.42,MERCY MEDICAL CENTER,0.0,0.358,0.597,0.119,0.0,0.0,0.0,0.0
12.84,3.91,37.76421,-122.45716,32828.05,8279.37,UCSF MEDICAL CENTER,0.0,0.738,0.492,0.492,0.0,0.123,0.123,0.0
8.99,2.65,35.38338,-119.01969,22250.27,4820.73,SAN JOAQUIN COMMUNITY HOSPITAL,0.0,0.606,0.242,0.0,0.0,0.0,0.0,0.0
25.22,2.88,37.66540,-120.99743,66839.89,5467.33,DOCTORS MEDICAL CENTER,0.0,0.232,0.928,0.464,0.0,0.0,0.116,0.0
11.27,2.80,33.80861,-118.18661,28495.31,5229.56,LONG BEACH MEMORIAL MEDICAL CENTER,0.0,0.66,0.6,0.42,0.0,0.0,0.0,0.06
12.03,2.95,37.69824,-122.08730,30595.80,5651.20,EDEN MEDICAL CENTER,0.0,0.431,0.0,0.431,0.0,0.0,0.288,0.288
25.48,2.78,37.98396,-122.03464,67550.35,5187.76,JOHN MUIR MEDICAL CENTER - CONCORD CAMPUS,0.0,0.512,0.256,0.64,0.0,0.0,0.0,0.0
10.19,2.55,38.94514,-121.10174,25553.62,4540.31,SUTTER AUBURN FAITH HOSPITAL,0.0,0.0,0.0,0.287,0.0,0.0,0.0,0.0
12.20,2.36,33.03634,-117.28487,31056.20,4033.33,SCRIPPS MEMORIAL HOSPITAL - ENCINITAS,0.0,0.19,0.569,0.569,0.0,0.19,0.0,0.0
13.14,3.02,38.66956,-121.31378,33644.10,5847.82,MERCY SAN JUAN MEDICAL CENTER,0.0,0.085,0.34,0.17,0.0,0.0,0.17,0.085
12.95,2.98,37.98224,-121.80362,33118.88,5746.54,SUTTER DELTA MEDICAL CENTER,0.0,1.247,1.069,0.356,0.0,0.178,0.0,0.0
10.74,2.63,34.20777,-118.88305,27055.64,4759.55,LOS ROBLES HOSPITAL & MEDICAL CENTER,0.0,0.543,0.633,0.543,0.0,0.181,0.0,0.09
14.26,2.56,37.66867,-120.97339,36726.17,4576.09,MEMORIAL  MEDICAL CENTER,0.0,0.667,0.167,0.25,0.0,0.0,0.0,0.0
14.22,2.40,33.56100,-117.66530,36624.86,4143.43,MISSION HOSPITAL REGIONAL MED CENTER,0.0,0.311,0.466,0.233,0.0,0.078,0.233,0.0
8.63,3.00,36.94433,-120.04507,21264.55,5799.09,MADERA COMMUNITY HOSPITAL,0.0,0.379,0.0,0.379,0.0,0.0,0.379,0.0
18.36,2.32,33.76335,-116.40628,47973.35,3924.80,EISENHOWER MEDICAL CENTER,0.0,0.344,0.589,0.393,0.0,0.049,0.0,0.049
10.31,3.02,38.46387,-121.41645,25882.31,5845.77,METHODIST HOSPITAL OF SACRAMENTO,0.0,0.565,0.0,0.377,0.0,0.0,0.188,0.188
20.23,3.77,38.55484,-121.45628,53125.50,7903.64,UNIVERSITY OF CALIFORNIA DAVIS MEDICAL CENTER,0.0,1.915,0.479,2.668,0.0,0.137,0.0,0.137
19.33,3.01,34.07664,-118.37955,50652.14,5810.18,CEDARS-SINAI MEDICAL CENTER,0.0,0.348,0.294,0.268,0.0,0.107,0.241,0.0
12.62,2.48,35.55536,-120.72067,32219.67,4361.00,TWIN CITIES COMMUNITY HOSPITAL,0.0,0.951,0.571,0.0,0.0,0.0,0.0,0.0
10.57,2.65,33.55876,-117.18329,26584.25,4821.25,SOUTHWEST HEALTHCARE SYSTEM,0.0,0.0,1.03,0.257,0.0,0.0,0.129,0.0
9.80,2.50,34.47174,-117.29791,24482.73,4427.00,DESERT VALLEY HOSPITAL,0.0,0.0,0.0,0.0,0.0,0.0,0.0,0.0
9.46,2.40,35.38506,-119.03992,23544.55,4128.00,BAKERSFIELD HEART HOSPITAL,0.0,0.0,0.213,0.0,0.0,0.0,0.0,0.0
9.67,2.83,33.95076,-118.34828,24105.29,5330.71,CENTINELA HOSPITAL MEDICAL CENTER,0.0,0.139,0.279,0.0,0.0,0.07,0.139,0.0
11.69,2.51,34.17067,-118.53200,29656.38,4430.69,PROVIDENCE TARZANA MEDICAL CENTER,0.0,1.031,0.344,0.258,0.0,0.0,0.172,0.086
9.10,2.65,40.58532,-122.38702,22535.00,4833.00,SHASTA REGIONAL MEDICAL CENTER,0.0,0.0,0.113,0.225,0.0,0.113,0.0,0.0
7.27,2.59,40.41481,-104.70890,17523.78,4670.26,NORTH COLORADO MEDICAL CENTER,0.0,0.0,0.603,0.345,0.0,0.0,0.172,0.0
10.09,2.66,40.18134,-105.12769,25271.77,4841.15,LONGMONT UNITED HOSPITAL,0.0,0.0,0.536,0.0,0.0,0.0,0.536,0.179
8.69,2.29,39.76893,-105.09006,21421.92,3835.08,EXEMPLA LUTHERAN MEDICAL CENTER,0.109,0.437,0.219,0.328,0.0,0.109,0.0,0.109
5.24,2.24,40.57315,-105.05741,11945.74,3704.52,POUDRE VALLEY HOSPITAL,0.0,0.181,0.543,0.362,0.0,0.0,0.0,0.091
6.72,3.19,39.72730,-104.99157,16015.36,6300.64,DENVER HEALTH MEDICAL CENTER,0.0,0.407,0.204,1.628,0.0,0.0,0.0,0.407
7.06,2.32,38.23421,-104.62292,16947.58,3927.58,CENTURA HEALTH-ST MARY CORWIN MEDICAL CENTER,0.0,0.304,1.064,0.152,0.0,0.304,0.456,0.0
6.31,2.46,38.45565,-105.23021,14891.31,4307.69,CENTURA HEALTH-ST THOMAS MORE HOSPITAL,0.0,1.542,2.569,1.028,0.0,0.0,0.0,0.0
7.02,2.28,38.28184,-104.61256,16842.70,3811.70,PARKVIEW MEDICAL CENTER INC,0.0,0.206,0.619,0.206,0.0,0.0,0.31,0.0
7.63,2.30,38.83903,-104.80024,18506.82,3878.00,MEMORIAL HOSPITAL CENTRAL,0.0,0.363,0.544,0.06,0.0,0.0,0.0,0.181
7.37,2.47,39.09046,-108.56190,17791.65,4328.88,ST MARYS HOSPITAL AND MEDICAL CENTER,0.0,0.976,0.759,1.193,0.0,0.0,0.217,0.108
9.21,3.24,39.74234,-104.84156,22848.70,6433.75,UNIVERSITY OF COLORADO HOSPITAL ANSCHUTZ INPATIENT,0.0,0.843,0.169,1.096,0.0,0.0,0.084,0.0
8.38,2.22,38.86559,-104.82182,20556.13,3635.04,CENTURA HEALTH-PENROSE ST FRANCIS HEALTH SERVICES,0.0,0.655,0.298,0.119,0.0,0.0,0.238,0.0
9.54,2.40,39.73231,-104.93396,23762.95,4143.16,ROSE MEDICAL CENTER,0.0,2.064,0.551,1.789,0.0,0.0,0.275,0.138
10.00,2.31,39.65399,-104.98116,25017.64,3900.82,SWEDISH MEDICAL CENTER,0.0,1.376,0.994,0.688,0.0,0.076,0.0,0.306
5.46,2.44,37.98501,-103.54383,12559.75,4245.08,ARKANSAS VALLEY REGIONAL MEDICAL CENTER,0.0,0.0,0.556,0.0,0.0,0.0,0.0,0.0
13.30,2.31,39.68859,-104.83205,34076.42,3887.00,MEDICAL CENTER OF AURORA, THE,0.0,0.92,1.022,0.409,0.0,0.0,0.102,0.0
4.83,2.13,40.45184,-105.19608,10814.85,3392.38,MEDICAL CENTER OF THE ROCKIES,0.0,0.342,0.342,0.513,0.0,0.0,0.0,0.0
8.26,2.84,41.30978,-72.93806,20248.45,5334.76,HOSPITAL OF ST RAPHAEL,0.0,0.344,0.516,0.602,0.0,0.0,0.086,0.043
6.72,2.80,41.77507,-72.69941,15994.56,5242.24,ST FRANCIS HOSPITAL & MEDICAL CENTER,0.0,0.714,0.672,0.462,0.0,0.0,0.126,0.084
8.69,2.72,41.55959,-73.05941,21423.86,5012.79,WATERBURY HOSPITAL,0.0,0.629,0.45,0.09,0.0,0.09,0.09,0.0
8.47,2.67,41.05562,-73.55390,20826.56,4879.00,STAMFORD HOSPITAL,0.0,1.067,0.534,0.32,0.0,0.0,0.854,0.107
5.46,2.49,41.33722,-72.10380,12541.08,4383.38,LAWRENCE & MEMORIAL HOSPITAL,0.0,0.401,0.321,0.08,0.0,0.08,0.0,0.0
7.17,3.08,41.18881,-73.16645,17244.55,6003.18,BRIDGEPORT HOSPITAL,0.0,0.711,0.622,0.622,0.0,0.0,0.622,0.089
4.14,2.42,41.79153,-73.13382,8918.92,4198.00,CHARLOTTE HUNGERFORD HOSPITAL,0.0,0.0,0.494,0.165,0.0,0.0,0.165,0.0
8.48,2.66,41.55473,-72.64872,20829.94,4841.06,MIDDLESEX HOSPITAL,0.0,0.0,0.574,1.884,0.0,0.082,0.246,0.0
11.98,3.85,41.30400,-72.93502,30459.49,8122.46,YALE-NEW HAVEN HOSPITAL,0.0,0.865,0.587,0.68,0.0,0.124,0.062,0.34
5.50,2.44,41.54301,-72.08799,12647.15,4238.60,WILLIAM W BACKUS HOSPITAL,0.0,0.555,0.333,0.111,0.0,0.0,0.0,0.111
7.85,3.02,41.75412,-72.67927,19117.35,5854.35,HARTFORD HOSPITAL,0.0,0.402,0.511,0.548,0.0,0.073,0.073,0.11
4.63,2.36,41.78185,-72.52591,10279.38,4034.62,MANCHESTER MEMORIAL HOSPITAL,0.0,0.0,0.863,0.0,0.0,0.0,0.173,0.173
5.87,2.70,41.20049,-73.20281,13670.24,4971.28,ST VINCENT'S MEDICAL CENTER,0.0,0.375,0.25,0.437,0.0,0.0,0.0,0.0
4.92,2.38,41.67540,-72.93617,11067.88,4075.41,BRISTOL HOSPITAL,0.0,0.0,0.591,0.197,0.0,0.0,0.394,0.0
5.88,2.71,41.40474,-73.44739,13710.00,5001.43,DANBURY HOSPITAL,0.0,0.0,0.517,0.46,0.0,0.0,0.057,0.23
7.90,2.70,41.11147,-73.42010,19246.27,4964.00,NORWALK HOSPITAL ASSOCIATION,0.0,0.195,0.39,0.098,0.0,0.0,0.293,0.0
5.80,2.76,41.66107,-72.78671,13484.19,5117.69,HOSPITAL OF CENTRAL CONNECTICUT, THE,0.0,0.249,0.187,0.435,0.0,0.062,0.124,0.124
4.68,2.70,39.69005,-75.68408,10404.75,4971.30,CHRISTIANA CARE HEALTH SERVICES, INC.,0.0,0.513,0.424,0.379,0.0,0.0,0.067,0.089
5.22,2.72,39.74954,-75.56662,11892.55,5026.91,ST FRANCIS HOSPITAL,0.0,0.364,0.91,0.0,0.0,0.0,0.0,0.0
5.43,2.37,39.15135,-75.52309,12461.56,4056.82,BAYHEALTH - KENT GENERAL HOSPITAL,0.0,0.258,0.773,0.193,0.0,0.0,0.064,0.129
10.12,2.93,38.90106,-77.05079,25343.77,5588.92,GEORGE WASHINGTON UNIV HOSPITAL,0.0,0.445,1.112,0.778,0.0,0.445,0.0,0.111
6.81,3.81,38.91770,-77.02193,16253.89,8007.53,HOWARD UNIVERSITY HOSPITAL,0.0,0.805,0.322,0.644,0.0,0.0,0.161,0.0
5.20,2.84,38.94397,-76.99040,11841.14,5350.57,PROVIDENCE HOSPITAL,0.0,0.322,0.215,0.0,0.107,0.107,0.322,0.0
8.36,2.85,38.92944,-77.01473,20525.87,5377.67,WASHINGTON HOSPITAL CENTER,0.0,0.761,0.217,0.362,0.0,0.0,0.145,0.109
9.40,3.05,30.34913,-81.66391,23365.26,5921.14,SHANDS JACKSONVILLE MEDICAL CENTER,0.0,0.31,0.31,0.186,0.0,0.0,0.124,0.186
7.92,2.38,26.50479,-80.06979,19297.35,4095.71,BETHESDA MEMORIAL HOSPITAL,0.0,0.508,0.799,0.29,0.0,0.073,0.29,0.0
8.85,2.46,28.52517,-81.37729,21849.66,4305.82,ORLANDO HEALTH,0.0,0.826,0.486,0.219,0.0,0.049,0.097,0.024
7.66,2.46,28.57345,-81.36990,18585.60,4301.22,FLORIDA HOSPITAL,0.0,0.317,0.317,0.136,0.0,0.0,0.011,0.023
15.85,3.07,25.78846,-80.21644,41079.45,5968.23,UNIVERSITY OF MIAMI HOSPITAL,0.0,0.929,0.547,0.109,0.0,0.0,1.093,0.055
5.74,2.25,26.62849,-81.87423,13326.58,3736.49,LEE MEMORIAL HOSPITAL,0.0,0.511,0.746,1.021,0.0,0.0,0.157,0.039
6.43,2.31,29.20117,-81.05828,15198.02,3891.02,HALIFAX HEALTH MEDICAL CENTER,0.0,0.425,0.729,0.121,0.0,0.0,0.0,0.0
5.93,2.21,26.15053,-81.79919,13841.04,3621.70,NAPLES COMMUNITY HOSPITAL,0.0,0.303,0.539,0.101,0.0,0.0,0.135,0.034
6.72,2.22,28.08771,-80.61362,16009.82,3636.04,HOLMES REGIONAL MEDICAL CENTER,0.0,0.475,0.647,0.216,0.0,0.043,0.043,0.0
7.08,3.86,25.79143,-80.21250,16986.71,8139.14,JACKSON MEMORIAL HOSPITAL,0.047,0.837,0.186,0.186,0.0,0.047,0.326,0.0
7.21,2.11,28.83363,-82.33561,17356.88,3336.31,CITRUS MEMORIAL HOSPITAL,0.0,0.415,0.415,2.24,0.0,0.0,0.249,0.083
6.96,2.33,30.47650,-87.21219,16655.88,3937.08,SACRED HEART HOSPITAL,0.058,0.231,0.231,0.81,0.0,0.173,0.058,0.116
6.54,2.18,30.15963,-85.64818,15523.71,3533.65,BAY MEDICAL CENTER,0.0,0.3,0.72,0.0,0.0,0.06,0.0,0.0
5.58,2.17,28.63051,-80.82437,12870.17,3500.33,PARRISH MEDICAL CENTER,0.0,0.588,0.441,0.294,0.0,0.0,0.147,0.0
10.93,2.61,25.86166,-80.21398,27569.09,4722.27,NORTH SHORE MEDICAL CENTER,0.0,0.15,0.225,0.0,0.0,0.0,0.075,0.0
6.47,2.31,28.54917,-81.52746,15330.16,3894.47,HEALTH CENTRAL,0.0,0.307,0.461,0.154,0.0,0.0,0.0,0.154
9.09,2.46,27.76332,-82.64325,22515.64,4297.00,BAYFRONT MEDICAL CENTER INC,0.0,1.031,0.469,0.0,0.0,0.0,0.0,0.0
11.45,2.72,25.81317,-80.13996,29011.84,5026.19,MOUNT SINAI MEDICAL CENTER,0.0,0.313,0.813,0.313,0.0,0.063,0.125,0.063
8.60,2.29,27.49789,-82.56220,21160.65,3825.00,MANATEE MEMORIAL HOSPITAL,0.0,0.271,0.542,0.542,0.0,0.09,0.181,0.0
7.97,2.51,26.01867,-80.17981,19455.56,4428.86,MEMORIAL REGIONAL HOSPITAL,0.0,0.273,0.436,0.164,0.0,0.0,0.055,0.109
6.66,2.78,26.10282,-80.14245,15848.00,5187.26,BROWARD HEALTH BROWARD GENERAL MEDICAL CENTER,0.0,0.847,0.423,0.212,0.0,0.0,0.0,0.0
5.47,2.20,30.30835,-81.68919,12573.00,3603.62,ST VINCENT'S MEDICAL CENTER,0.0,0.139,0.173,0.104,0.0,0.0,0.069,0.035
9.30,2.22,27.19837,-80.24306,23082.77,3649.15,MARTIN MEMORIAL MEDICAL CENTER,0.0,0.448,0.384,0.128,0.0,0.064,0.0,0.0
8.00,2.66,29.04263,-81.31635,19516.80,4847.60,FLORIDA HOSPITAL DELAND,0.0,0.0,0.348,0.0,0.0,0.0,0.174,0.0
8.69,2.13,28.26092,-82.18802,21428.00,3404.71,FLORIDA HOSPITAL ZEPHYRHILLS,0.0,0.131,0.262,0.262,0.0,0.131,0.262,0.0
6.74,2.10,26.94042,-82.04094,16057.88,3307.19,CHARLOTTE REGIONAL MEDICAL CENTER,0.0,0.199,0.099,0.397,0.0,0.0,0.0,0.099
8.11,2.20,28.02768,-81.72466,19823.94,3577.00,WINTER HAVEN HOSPITAL,0.0,0.4,0.799,0.32,0.0,0.0,0.719,0.0
6.30,2.15,28.82358,-81.71133,14852.35,3445.50,FLORIDA HOSPITAL WATERMAN,0.0,0.137,0.825,0.069,0.0,0.0,0.069,0.0
6.00,2.12,29.17594,-82.13898,14039.55,3366.23,MUNROE REGIONAL MEDICAL CENTER,0.0,0.135,0.628,0.359,0.0,0.0,0.09,0.135
6.11,2.08,28.25431,-82.71447,14325.64,3273.45,MORTON PLANT NORTH BAY HOSPITAL,0.0,0.0,0.245,0.0,0.0,0.0,0.0,0.0
6.48,2.17,27.78088,-82.65126,15354.11,3496.96,ST ANTHONY'S HOSPITAL,0.0,0.632,0.316,0.316,0.0,0.0,0.105,0.0
5.49,2.10,27.09043,-82.44499,12621.48,3327.57,VENICE REGIONAL MEDICAL CENTER,0.0,0.41,0.614,0.205,0.0,0.0,0.0,0.0
12.62,2.27,28.53906,-82.44193,32229.42,3775.89,BROOKSVILLE REGIONAL HOSPITAL,0.0,0.525,0.393,0.0,0.0,0.0,0.262,0.0
5.94,2.39,28.91403,-81.28480,13863.31,4122.25,FLORIDA HOSPITAL FISH MEMORIAL,0.0,0.142,0.285,0.142,0.0,0.0,0.142,0.0
7.81,2.19,26.18711,-80.11941,19009.83,3558.50,HOLY CROSS HOSPITAL INC,0.0,0.328,0.46,1.182,0.0,0.0,0.131,0.066
7.65,2.40,27.98242,-82.49025,18566.52,4129.76,ST JOSEPH'S HOSPITAL,0.0,0.48,0.384,0.144,0.0,0.0,0.096,0.192
8.36,2.20,26.98905,-82.09559,20500.21,3577.79,PEACE RIVER REGIONAL MEDICAL CENTER,0.0,0.13,0.391,0.782,0.0,0.13,0.0,0.0
9.30,2.33,26.59805,-80.09271,23089.98,3939.02,JFK MEDICAL CENTER,0.0,0.454,0.578,0.165,0.0,0.041,0.041,0.0
6.04,2.16,28.80659,-81.86906,14144.21,3473.79,LEESBURG REGIONAL MEDICAL CENTER,0.0,0.322,0.643,0.214,0.0,0.054,0.0,0.0
4.98,2.27,26.27623,-80.12220,11226.76,3790.47,BROWARD HEALTH NORTH BROWARD MEDICAL CENTER,0.0,0.318,0.318,0.159,0.0,0.0,0.318,0.0
8.35,2.46,27.31827,-82.53140,20473.95,4300.84,SARASOTA MEMORIAL HOSPITAL,0.045,0.27,0.36,1.622,0.0,0.045,0.045,0.09
7.82,2.28,30.31525,-81.66398,19024.91,3796.69,BAPTIST MEDICAL CENTER,0.0,0.377,0.519,1.131,0.0,0.047,0.047,0.047
8.62,2.60,29.86371,-81.31749,21221.00,4695.78,FLAGLER HOSPITAL,0.0,0.591,0.739,0.074,0.0,0.0,0.0,0.0
5.82,2.20,28.33522,-80.72319,13529.30,3577.55,WUESTHOFF MEDICAL CENTER  ROCKLEDGE,0.0,0.193,1.158,0.289,0.0,0.0,0.0,0.193
5.67,2.17,30.43066,-87.23191,13128.54,3514.25,BAPTIST HOSPITAL,0.0,0.201,0.502,0.1,0.0,0.0,0.1,0.0
4.34,2.24,27.65832,-80.39307,9479.56,3692.22,INDIAN RIVER MEDICAL CENTER,0.0,0.068,0.204,0.136,0.0,0.068,0.0,0.0
7.78,2.20,26.61563,-81.65945,18921.27,3577.33,LEHIGH REGIONAL MEDICAL CENTER,0.0,0.0,1.162,0.0,0.0,0.0,0.291,0.0
6.93,2.20,27.50001,-81.43962,16583.18,3597.82,FLORIDA HOSPITAL HEARTLAND MEDICAL CENTER,0.0,0.568,0.812,0.487,0.0,0.081,0.0,0.0
11.50,2.34,28.29946,-81.41021,29142.42,3971.53,OSCEOLA REGIONAL MEDICAL CENTER,0.0,1.196,0.498,0.299,0.0,0.1,0.0,0.0
8.05,3.41,29.64155,-82.34844,19648.62,6908.37,SHANDS HOSPITAL AT THE UNIVERSITY OF FLORIDA,0.0,0.99,0.344,0.689,0.0,0.0,0.172,0.172
6.41,2.07,30.27449,-81.40071,15148.30,3244.80,BAPTIST MEDICAL CENTER  BEACHES,0.0,0.0,0.0,0.173,0.0,0.0,0.0,0.0
12.97,2.16,30.73540,-86.56171,33177.40,3475.40,NORTH OKALOOSA MEDICAL CENTER,0.0,0.163,0.325,0.0,0.0,0.0,0.0,0.0
5.69,2.22,30.63421,-87.06708,13172.35,3642.82,SANTA ROSA MEDICAL CENTER,0.0,0.0,0.317,0.317,0.0,0.0,0.0,0.317
5.93,2.19,27.95192,-82.80379,13838.33,3564.78,MORTON PLANT HOSPITAL,0.052,0.209,0.731,0.992,0.0,0.0,0.0,0.0
11.71,3.50,27.93740,-82.45927,29708.46,7167.25,TAMPA GENERAL HOSPITAL,0.0,0.722,0.587,0.045,0.0,0.0,0.0,0.181
8.36,2.30,25.96994,-80.14533,20504.20,3858.77,AVENTURA HOSPITAL AND MEDICAL CENTER,0.0,0.351,0.984,0.141,0.0,0.0,0.351,0.0
8.68,2.34,30.45726,-84.26175,21382.50,3970.39,TALLAHASSEE MEMORIAL HEALTHCARE,0.0,0.228,0.609,1.37,0.0,0.0,0.076,0.076
7.67,2.73,24.58076,-81.74233,18630.36,5055.57,LOWER KEYS MEDICAL CENTER,0.0,1.094,1.094,1.094,0.0,0.0,0.0,0.0
7.05,2.44,30.18340,-82.68783,16915.00,4236.73,LAKE CITY MEDICAL CENTER,0.0,0.547,0.182,0.365,0.0,0.0,0.0,0.0
8.43,2.25,28.06172,-81.95304,20701.91,3718.18,LAKELAND REGIONAL MEDICAL CENTER,0.0,1.08,0.68,0.52,0.0,0.0,0.12,0.04
7.28,2.18,26.83035,-80.08655,17538.00,3533.38,PALM BEACH GARDENS MEDICAL CENTER,0.0,0.494,0.494,0.593,0.0,0.0,0.099,0.099
5.88,2.11,28.36005,-80.62309,13700.25,3352.17,CAPE CANAVERAL HOSPITAL,0.0,0.62,0.207,0.0,0.0,0.0,0.0,0.0
10.89,2.22,30.28793,-81.60103,27453.02,3650.84,MEMORIAL HOSPITAL JACKSONVILLE,0.0,0.449,0.337,0.281,0.0,0.112,0.449,0.056
13.01,2.51,27.80541,-82.72694,33299.87,4439.78,ST PETERSBURG GENERAL HOSPITAL,0.0,0.804,1.447,0.321,0.0,0.161,0.161,0.0
11.68,2.76,25.88563,-80.32635,29629.91,5115.82,PALMETTO GENERAL HOSPITAL,0.0,0.477,0.341,0.0,0.0,0.0,0.136,0.0
9.77,2.30,26.26259,-80.20292,24381.53,3871.73,NORTHWEST MEDICAL CENTER,0.0,0.203,0.507,0.101,0.0,0.101,0.101,0.101
13.16,2.20,28.19342,-82.46987,33697.92,3590.46,MEDICAL CENTER OF TRINITY,0.0,0.312,0.623,0.208,0.0,0.0,0.0,0.0
10.94,2.17,29.66085,-82.41172,27591.05,3510.81,NORTH FLORIDA REGIONAL MEDICAL CENTER,0.0,0.656,0.615,0.983,0.0,0.082,0.164,0.0
10.34,2.07,29.17550,-82.13680,25966.33,3231.00,OCALA REGIONAL MEDICAL CENTER,0.0,0.338,0.745,0.474,0.0,0.0,0.203,0.135
8.69,2.10,27.48213,-82.62126,21423.59,3305.27,BLAKE MEDICAL CENTER,0.0,0.073,1.028,0.0,0.0,0.0,0.22,0.0
10.89,2.18,27.84359,-80.48849,27470.23,3537.85,SEBASTIAN RIVER MEDICAL CENTER,0.0,0.172,1.204,1.547,0.0,0.0,0.0,0.0
5.68,2.18,26.52735,-81.83337,13137.76,3543.03,GULF COAST MEDICAL CENTER LEE MEM HEALTH SYSTEM,0.0,0.418,0.731,0.209,0.0,0.0,0.052,0.052
12.25,2.12,30.45448,-86.63362,31207.61,3369.26,FORT WALTON BEACH MEDICAL CENTER,0.0,1.008,0.807,0.202,0.0,0.0,0.0,0.0
16.77,2.19,26.21219,-80.25478,43621.00,3559.85,UNIVERSITY HOSPITAL AND MEDICAL CENTER,0.0,0.513,0.684,0.0,0.0,0.0,0.0,0.171
15.99,2.19,30.16550,-81.73775,41474.22,3556.04,ORANGE PARK MEDICAL CENTER,0.0,0.578,0.413,0.165,0.0,0.0,0.0,0.165
9.91,2.38,26.12354,-80.25951,24780.33,4076.83,WESTSIDE REGIONAL MEDICAL CENTER,0.0,0.441,0.617,0.176,0.0,0.088,0.088,0.0
9.61,2.40,26.02951,-80.24607,23934.81,4148.38,MEMORIAL HOSPITAL PEMBROKE,0.0,0.651,0.326,0.651,0.0,0.326,0.326,0.0
8.93,2.14,30.51624,-87.21856,22066.52,3413.12,WEST FLORIDA HOSPITAL,0.0,0.614,0.79,0.176,0.0,0.0,0.176,0.0
4.34,2.28,29.64481,-81.69431,9473.08,3812.23,PUTNAM COMMUNITY MEDICAL CENTER,0.0,0.0,0.326,0.163,0.0,0.163,0.0,0.0
12.83,2.47,26.76167,-80.08781,32788.75,4323.33,COLUMBIA HOSPITAL,0.0,0.565,0.283,0.0,0.0,0.0,0.0,0.0
9.96,2.10,26.98884,-82.09877,24911.41,3308.06,FAWCETT MEMORIAL HOSPITAL,0.0,0.333,0.333,0.416,0.0,0.0,0.0,0.0
12.70,2.22,27.82545,-82.70122,32435.86,3648.90,NORTHSIDE HOSPITAL,0.0,0.941,0.523,0.105,0.0,0.0,0.0,0.314
10.32,2.07,27.78151,-82.66458,25901.00,3222.00,EDWARD WHITE HOSPITAL,0.0,0.666,0.0,0.333,0.0,0.0,0.0,0.0
13.86,2.21,30.18657,-85.66513,35629.27,3622.13,GULF COAST MEDICAL CENTER,0.0,0.256,0.896,0.384,0.0,0.0,0.256,0.0
9.45,2.29,27.93259,-82.28759,23520.62,3845.59,BRANDON REGIONAL HOSPITAL,0.0,0.598,0.684,0.085,0.0,0.0,0.085,0.0
5.62,2.09,26.63958,-81.94164,12977.33,3299.86,CAPE CORAL HOSPITAL,0.0,0.526,1.278,0.301,0.0,0.075,0.15,0.0
11.27,2.45,27.43392,-80.34350,28511.92,4280.79,LAWNWOOD REGIONAL MEDICAL CENTER & HEART INSTITUTE,0.0,0.563,0.563,0.188,0.0,0.094,0.0,0.282
9.90,2.23,27.91458,-82.80382,24739.34,3679.91,LARGO MEDICAL CENTER,0.0,0.108,0.759,0.433,0.0,0.163,0.108,0.054
8.71,2.13,28.95195,-82.62421,21468.89,3403.48,SEVEN RIVERS REGIONAL MEDICAL CENTER,0.0,0.0,0.741,0.37,0.0,0.0,0.0,0.123
8.69,2.71,30.47616,-84.23140,21423.71,4993.14,CAPITAL REGIONAL MEDICAL CENTER,0.0,0.695,0.463,0.116,0.0,0.116,0.0,0.0
11.32,2.09,28.36128,-82.68883,28655.53,3286.20,REGIONAL MEDICAL CENTER BAYONET POINT,0.0,0.258,0.687,0.258,0.0,0.0,0.086,0.0
11.09,2.20,26.43709,-80.12728,28019.57,3578.93,DELRAY MEDICAL CENTER,0.0,0.373,0.479,0.053,0.0,0.0,0.053,0.0
17.88,2.47,27.71350,-82.36512,46660.62,4318.31,SOUTH BAY HOSPITAL,0.0,0.539,0.404,0.673,0.0,0.0,0.135,0.0
11.63,2.26,27.28861,-80.29431,29488.06,3765.29,ST LUCIE MEDICAL CENTER,0.0,0.407,0.652,0.244,0.0,0.0,0.0,0.244
9.64,2.29,28.53585,-82.53404,24019.93,3833.64,OAK HILL HOSPITAL,0.0,0.467,1.089,0.0,0.0,0.078,0.0,0.0
6.64,2.13,28.03957,-82.70875,15778.55,3407.50,MEASE COUNTRYSIDE HOSPITAL,0.0,0.083,0.667,0.833,0.0,0.0,0.083,0.0
8.02,2.43,26.65230,-80.20504,19575.45,4228.27,WELLINGTON REGIONAL MEDICAL CENTER,0.0,0.312,0.623,0.0,0.0,0.0,0.0,0.312
9.59,2.37,26.01394,-80.30980,23895.73,4051.91,MEMORIAL HOSPITAL WEST,0.0,0.341,0.114,0.454,0.0,0.0,0.0,0.114
11.38,2.15,26.21388,-81.73257,28798.64,3453.00,PHYSICIANS REGIONAL MEDICAL CENTER - PINE RIDGE,0.0,0.122,0.733,0.122,0.0,0.0,0.0,0.0
8.83,2.27,26.70181,-80.05055,21811.92,3769.25,GOOD SAMARITAN MEDICAL CENTER,0.0,0.825,0.275,0.138,0.138,0.0,0.138,0.0
6.19,2.10,28.94952,-81.95843,14544.82,3306.71,VILLAGES REGIONAL HOSPITAL, THE,0.0,0.386,0.258,0.0,0.0,0.0,0.064,0.0
4.86,2.16,28.10969,-80.67280,10891.50,3468.25,WUESTHOFF MEDICAL CENTER - MELBOURNE,0.0,0.249,0.746,0.0,0.0,0.497,0.0,0.0
6.68,2.11,27.38993,-82.43343,15888.91,3338.00,LAKEWOOD RANCH MEDICAL CENTER,0.0,0.0,0.623,0.0,0.0,0.0,0.0,0.0
6.26,2.18,28.24311,-81.30279,14749.14,3547.86,ST CLOUD REGIONAL MEDICAL CENTER,0.0,0.525,0.263,0.0,0.0,0.0,0.0,0.0
5.08,2.36,32.88710,-84.33393,11498.43,4040.86,UPSON REGIONAL MEDICAL CENTER,0.0,0.329,0.329,0.0,0.0,0.0,0.0,0.0
4.57,2.22,34.94766,-85.26296,10114.38,3640.50,HUTCHESON MEDICAL CENTER,0.0,0.389,0.0,0.777,0.0,0.0,0.0,0.777
6.74,3.13,33.94791,-83.40531,16055.08,6149.46,ST MARY'S HOSPITAL,0.0,0.179,0.358,0.0,0.0,0.0,0.179,0.0
5.42,2.47,31.59023,-84.15756,12424.43,4323.21,PHOEBE PUTNEY MEMORIAL HOSPITAL,0.177,0.177,0.795,0.0,0.0,0.177,0.088,0.0
8.69,2.90,33.79230,-84.32107,21417.77,5511.77,EMORY UNIVERSITY HOSPITAL,0.0,2.246,0.299,1.098,0.0,0.1,0.299,0.2
4.66,2.29,33.03204,-85.05781,10357.93,3841.50,WEST GEORGIA MEDICAL CENTER,0.0,0.151,0.303,0.0,0.0,0.151,0.0,0.0
5.92,2.26,34.51192,-84.92579,13818.42,3766.75,GORDON HOSPITAL,0.0,0.0,0.273,0.273,0.0,0.0,0.0,0.0
5.43,2.65,31.17425,-81.48459,12477.23,4838.54,SOUTHEAST GEORGIA HEALTH SYSTEM- BRUNSWICK CAMPUS,0.0,0.576,0.346,0.115,0.0,0.0,0.115,0.115
4.95,2.43,33.47096,-81.98176,11156.68,4219.05,UNIVERSITY HOSPITAL,0.0,0.792,0.396,5.205,0.0,0.0,0.339,0.113
5.97,2.31,34.30335,-83.81737,13954.95,3886.14,NORTHEAST GEORGIA MEDICAL CENTER, INC,0.0,0.15,0.4,0.65,0.0,0.05,0.0,0.1
8.64,2.27,34.19990,-84.79378,21289.17,3784.72,CARTERSVILLE MEDICAL CENTER,0.0,0.414,0.621,0.621,0.0,0.0,0.0,0.414
8.06,2.31,33.23886,-84.26706,19695.43,3900.78,SPALDING REGIONAL MEDICAL CENTER,0.0,0.721,0.432,0.144,0.0,0.0,0.0,0.0
6.18,3.01,33.47091,-81.98988,14511.75,5806.62,MEDICAL COLLEGE OF GA HOSPITALS AND CLINICS,0.0,0.631,0.36,0.18,0.0,0.09,0.45,0.27
6.50,2.37,33.96770,-84.55011,15390.97,4061.35,WELLSTAR KENNESTONE HOSPITAL,0.0,0.818,0.696,0.368,0.0,0.0,0.082,0.0
8.66,2.59,32.03185,-81.09158,21332.68,4656.58,MEMORIAL HEALTH UNIV MED CEN, INC,0.0,0.179,0.359,0.299,0.0,0.06,0.179,0.0
5.28,2.29,33.78334,-83.71709,12050.20,3839.67,WALTON REGIONAL MEDICAL CENTER,0.0,0.0,2.203,0.0,0.0,0.0,0.0,0.0
6.35,2.50,34.26000,-85.17000,15004.75,4418.28,FLOYD MEDICAL CENTER,0.0,0.109,1.091,0.218,0.0,0.0,0.0,0.109
5.98,2.61,32.46602,-84.98695,13971.31,4724.23,MEDICAL CENTER, THE,0.0,0.0,0.177,0.0,0.0,0.177,0.0,0.0
5.53,2.23,32.61642,-83.63065,12730.59,3667.79,HOUSTON MEDICAL CENTER,0.0,0.863,0.384,0.767,0.0,0.0,0.0,0.0
6.24,2.35,33.96117,-83.39832,14696.48,3998.52,ATHENS REGIONAL MEDICAL CENTER,0.0,0.276,0.276,0.414,0.0,0.138,0.0,0.0
6.02,2.45,33.78956,-84.28077,14091.27,4270.64,DEKALB MEDICAL CENTER,0.0,0.243,0.243,0.081,0.0,0.0,0.0,0.0
5.14,2.48,33.76810,-84.38616,11676.05,4372.15,EMORY UNIVERSITY HOSPITAL MIDTOWN,0.0,1.358,0.647,0.453,0.0,0.065,0.129,0.065
6.05,3.00,33.75205,-84.38272,14175.20,5784.26,GRADY MEMORIAL HOSPITAL,0.0,0.528,0.211,1.056,0.0,0.106,0.106,0.0
5.70,2.13,33.90877,-84.35180,13218.67,3398.83,SAINT JOSEPH'S HOSPITAL OF ATLANTA, INC,0.0,0.348,0.557,0.696,0.0,0.07,0.0,0.07
5.06,2.30,33.96351,-84.01769,11453.47,3868.95,GWINNETT MEDICAL CENTER,0.0,0.159,0.239,0.0,0.0,0.0,0.0,0.0
5.52,2.11,31.50971,-82.86341,12702.58,3330.36,COFFEE REGIONAL MEDICAL CENTER,0.0,0.208,0.208,0.0,0.0,0.0,0.416,0.0
7.88,2.49,32.83041,-83.63476,19185.97,4388.26,MEDICAL CENTER OF CENTRAL GEORGIA,0.0,0.371,0.619,0.165,0.0,0.041,0.165,0.082
5.65,2.36,30.86250,-83.28630,13062.09,4035.65,SOUTH GEORGIA MEDICAL CENTER,0.0,0.41,0.41,0.513,0.0,0.0,0.103,0.0
5.79,2.42,32.54026,-82.95741,13450.64,4190.45,FAIRVIEW PARK HOSPITAL,0.0,0.463,0.463,0.0,0.0,0.0,0.232,0.0
4.35,2.13,32.50679,-84.95933,9508.00,3392.00,ST FRANCIS HOSPITAL, INC,0.0,0.229,0.915,0.153,0.0,0.0,0.0,0.153
5.86,2.35,33.85638,-84.60446,13642.62,3999.00,WELLSTAR COBB HOSPITAL,0.0,0.718,0.319,0.558,0.0,0.0,0.239,0.08
3.69,3.29,30.78134,-81.61451,7685.45,6575.73,SOUTHEAST GEORGIA HEALTH SYSTEM- CAMDEN CAMPUS,0.0,0.0,2.41,0.0,0.0,0.0,0.0,0.0
5.69,2.21,31.53017,-84.17516,13181.73,3606.45,PHOEBE NORTH,0.0,0.577,0.865,0.288,0.0,0.0,0.0,0.0
5.82,2.29,32.84705,-83.61823,13546.85,3827.31,COLISEUM MEDICAL CENTER,0.0,0.817,0.584,0.35,0.0,0.0,0.234,0.0
6.37,2.44,33.57843,-84.38897,15051.71,4256.14,SOUTHERN REGIONAL MEDICAL CENTER,0.0,0.51,0.255,0.255,0.0,0.0,0.0,0.0
5.24,2.13,34.25704,-85.16467,11952.38,3410.67,REDMOND REGIONAL MEDICAL CENTER,0.0,0.0,0.501,0.167,0.0,0.0,0.0,0.0
6.42,2.39,33.48259,-82.09038,15183.87,4111.27,DOCTORS HOSPITAL,0.0,1.353,1.353,0.301,0.0,0.0,0.451,0.0
7.64,2.19,33.87683,-84.02136,18545.67,3567.83,EMORY EASTSIDE MEDICAL CENTER,0.0,0.0,0.297,0.446,0.0,0.0,0.297,0.0
14.03,2.32,34.06334,-84.31976,36088.36,3912.73,NORTH FULTON REGIONAL HOSPITAL,0.0,0.587,0.782,1.565,0.0,0.0,0.0,0.0
6.42,2.90,21.30780,-157.85505,15185.31,5507.69,THE QUEENS MEDICAL CENTER,0.0,0.369,0.442,0.811,0.0,0.0,0.074,0.0
4.01,2.26,42.59072,-114.49627,8560.23,3750.15,ST LUKES MAGIC VALLEY RMC,0.0,0.491,0.818,0.327,0.0,0.0,0.0,0.164
4.89,2.51,43.61218,-116.19234,10990.00,4448.08,ST LUKES REGIONAL MEDICAL CENTER,0.068,0.342,0.342,0.342,0.0,0.0,0.068,0.0
5.01,2.30,43.61359,-116.25484,11316.25,3861.11,ST ALPHONSUS REGIONAL MEDICAL CENTER,0.0,0.085,0.683,0.256,0.0,0.0,0.0,0.0
5.52,2.43,43.46987,-111.99208,12715.79,4213.11,EASTERN IDAHO REGIONAL MEDICAL CENTER,0.0,0.338,0.676,0.169,0.0,0.0,0.0,0.169
5.54,2.88,42.87331,-112.42180,12773.92,5466.42,PORTNEUF MEDICAL CENTER,0.0,0.196,0.588,0.784,0.0,0.0,0.0,0.0
6.01,2.30,47.69645,-116.79476,14051.62,3862.00,KOOTENAI MEDICAL CENTER,0.0,0.246,1.229,0.738,0.0,0.0,0.0,0.0
5.91,2.34,38.90068,-90.16026,13793.93,3978.69,ALTON MEMORIAL HOSPITAL,0.0,0.178,0.534,0.178,0.0,0.0,0.0,0.0
9.70,2.40,41.52896,-88.13550,24203.06,4129.69,PROVENA ST JOSEPH MEDICAL CENTER,0.0,0.0,0.289,2.213,0.0,0.0,0.192,0.0
11.55,2.52,41.91082,-87.84451,29284.77,4466.54,LOYOLA GOTTLIEB MEMORIAL HOSPITAL,0.0,0.569,0.711,0.0,0.0,0.0,0.0,0.0
6.87,2.47,42.06550,-87.68428,16431.22,4329.05,EVANSTON HOSPITAL,0.0,0.131,0.557,0.164,0.0,0.033,0.066,0.033
5.08,2.26,41.84429,-89.48014,11504.67,3749.00,KATHERINE SHAW BETHEA HOSPITAL,0.0,0.0,0.519,0.0,0.0,0.0,0.0,0.26
6.46,3.23,41.86011,-87.69571,15300.41,6419.45,MT SINAI HOSPITAL MEDICAL CENTER,0.0,0.0,0.179,0.359,0.0,0.179,0.718,0.0
8.26,2.33,42.07012,-88.33180,20237.58,3957.25,SHERMAN HOSPITAL,0.0,0.0,0.996,0.299,0.0,0.0,0.0,0.0
3.85,2.11,39.12680,-88.55059,8116.82,3338.82,ST ANTHONYS MEMORIAL HOSPITAL,0.0,0.135,0.811,0.811,0.0,0.0,0.135,0.0
3.81,2.23,38.52908,-89.11604,8020.92,3682.42,ST MARYS HOSPITAL,0.0,0.537,0.269,0.0,0.0,0.0,0.0,0.0
7.62,2.81,41.89141,-87.77618,18476.62,5257.92,WEST SUBURBAN MEDICAL CENTER,0.0,0.164,0.492,0.164,0.0,0.0,0.164,0.0
6.73,2.42,42.05624,-87.74012,16034.92,4182.58,SKOKIE HOSPITAL,0.0,0.207,0.311,0.104,0.0,0.0,0.104,0.0
6.60,2.39,39.80726,-89.64496,15667.25,4107.00,ST JOHNS HOSPITAL,0.0,0.318,0.572,0.254,0.0,0.0,0.127,0.127
5.89,2.64,41.83195,-87.79266,13721.00,4798.53,MACNEAL  HOSPITAL,0.0,0.181,0.272,0.0,0.0,0.091,0.0,0.0
7.50,2.20,41.66900,-87.81414,18140.00,3582.64,PALOS COMMUNITY HOSPITAL,0.0,0.0,0.181,0.136,0.0,0.045,0.091,0.0
6.96,2.40,40.70200,-89.59222,16674.46,4130.34,SAINT FRANCIS MEDICAL CENTER,0.0,0.311,0.489,0.533,0.0,0.0,0.133,0.089
10.97,3.64,42.02578,-87.68371,27684.50,7551.72,RHC ST FRANCIS HOSPITAL,0.0,0.378,0.378,0.0,0.0,0.126,0.0,0.0
8.50,2.81,41.96698,-87.64941,20897.26,5271.40,LOUIS A WEISS MEMORIAL HOSPITAL,0.0,0.387,1.161,0.0,0.0,0.0,0.258,0.0
3.42,2.83,41.87259,-87.76181,6946.23,5334.69,LORETTO HOSPITAL,0.0,0.0,0.219,0.0,0.0,0.0,0.219,0.0
7.51,2.42,42.37840,-87.83329,18169.30,4192.09,VISTA MEDICAL CENTER EAST,0.0,0.631,0.526,0.0,0.0,0.0,0.315,0.0
6.36,2.87,40.11696,-88.21506,15013.00,5433.33,CARLE FOUNDATION HOSPITAL,0.0,0.374,0.524,0.824,0.0,0.0,0.225,0.0
8.62,2.35,40.11739,-88.22714,21225.75,3999.25,PROVENA COVENANT MEDICAL CENTER- URBANA,0.0,0.0,0.877,0.146,0.0,0.0,0.438,0.146
9.12,2.64,41.97532,-87.69958,22611.12,4800.00,SWEDISH COVENANT HOSPITAL,0.0,0.276,0.0,0.276,0.0,0.0,0.0,0.0
5.96,2.29,42.31832,-88.27920,13918.95,3848.05,CENTEGRA HEALTH SYSTEM - MC HENRY HOSPITAL,0.0,0.205,0.307,0.102,0.0,0.0,0.0,0.0
7.52,3.19,41.87497,-87.66927,18208.86,6316.52,RUSH UNIVERSITY MEDICAL CENTER,0.0,0.884,0.416,0.988,0.0,0.156,0.104,0.156
7.21,2.15,40.56211,-89.63314,17365.64,3448.64,PEKIN MEMORIAL HOSPITAL,0.0,0.298,0.893,0.0,0.0,0.0,0.298,0.0
7.92,2.32,41.80555,-87.92059,19292.77,3914.77,HINSDALE HOSPITAL,0.0,0.507,0.304,0.304,0.0,0.101,0.0,0.0
11.41,2.43,38.70148,-90.14382,28893.30,4219.40,GATEWAY REGIONAL MEDICAL CENTER,0.0,0.428,0.856,0.0,0.0,0.0,0.0,0.0
5.26,2.37,40.49639,-88.99106,12004.60,4057.20,BROMENN HEALTHCARE,0.0,0.13,0.521,0.0,0.0,0.0,0.0,0.13
6.99,2.50,41.76946,-87.69239,16752.53,4427.59,HOLY CROSS HOSPITAL,0.0,0.253,0.126,0.253,0.0,0.0,0.0,0.0
5.79,2.21,39.86644,-88.96090,13452.54,3625.08,DECATUR MEMORIAL HOSPITAL,0.0,0.161,1.048,0.161,0.0,0.0,0.081,0.081
6.09,2.31,39.80893,-89.65530,14281.04,3884.78,MEMORIAL MEDICAL CENTER,0.0,0.643,0.683,0.121,0.0,0.0,0.08,0.08
4.68,2.97,41.84639,-87.62345,10402.62,5700.56,MERCY HOSPITAL AND MEDICAL CENTER,0.0,0.442,0.442,0.53,0.0,0.088,0.088,0.088
3.50,2.23,42.29592,-89.63773,7163.64,3659.82,FHN MEMORIAL HOSPITAL,0.0,0.0,0.225,0.0,0.0,0.0,0.0,0.0
6.98,2.33,39.82659,-88.93119,16714.36,3953.73,ST MARYS HOSPITAL,0.0,0.327,0.982,0.0,0.0,0.0,0.327,0.0
5.31,2.54,41.52283,-87.71111,12131.37,4536.04,FRANCISCAN ST JAMES HEALTH,0.0,0.0,0.196,0.147,0.0,0.0,0.049,0.049
5.73,2.47,42.27597,-88.40019,13298.62,4332.25,CENTEGRA HEALTH SYSTEM - WOODSTOCK HOSPITAL,0.0,0.173,1.553,0.0,0.0,0.0,0.0,0.173
7.46,3.06,41.75746,-87.58559,18053.13,5958.47,JACKSON PARK HOSPITAL,0.0,0.0,0.0,0.0,0.0,0.0,0.0,0.0
8.05,2.42,41.72094,-87.69220,19669.37,4183.53,LITTLE COMPANY OF MARY HOSPITAL,0.0,0.218,0.436,0.291,0.0,0.0,0.073,0.145
10.58,2.95,41.90414,-87.68254,26615.74,5646.07,ST MARY & ELIZABETH MED CTR-DIVISION CAMPUS,0.0,0.285,0.57,0.071,0.0,0.071,0.428,0.071
8.32,3.06,41.93641,-87.65295,20399.28,5957.89,ADVOCATE ILLINOIS MASONIC MEDICAL CENTER,0.0,0.399,0.199,0.0,0.0,0.1,0.0,0.0
7.67,2.16,37.74480,-88.99329,18625.36,3489.14,HEARTLAND REGIONAL MEDICAL CENTER,0.0,0.573,0.955,0.191,0.0,0.0,0.0,0.191
6.44,2.75,41.12572,-87.88526,15229.54,5097.46,RIVERSIDE MEDICAL CENTER,0.0,0.186,0.931,1.117,0.0,0.0,0.0,0.0
6.81,2.21,38.51081,-89.99014,16268.46,3615.42,ST ELIZABETH HOSPITAL,0.0,0.211,0.949,0.527,0.0,0.0,0.105,0.0
3.13,2.19,39.48849,-88.27581,6147.06,3572.59,SARAH BUSH LINCOLN HEALTH CENTER,0.0,0.53,0.177,0.884,0.0,0.177,0.177,0.0
6.69,2.39,41.60726,-87.66060,15927.88,4108.41,INGALLS MEMORIAL HOSPITAL,0.0,0.279,0.21,0.279,0.0,0.07,0.07,0.0
6.45,2.38,41.86362,-87.93567,15263.17,4071.92,ELMHURST MEMORIAL HOSPITAL,0.0,0.449,0.299,0.973,0.0,0.0,0.0,0.0
7.18,2.32,42.27447,-87.95764,17280.44,3914.94,ADVOCATE CONDELL MEDICAL CENTER,0.0,0.279,0.488,0.209,0.0,0.0,0.0,0.07
6.32,2.66,41.72031,-87.73249,14916.65,4844.96,ADVOCATE CHRIST HOSPITAL & MEDICAL CENTER,0.0,0.172,0.138,0.034,0.0,0.069,0.241,0.034
6.56,2.56,40.70065,-89.59505,15569.22,4566.15,METHODIST MEDICAL CENTER OF ILLINOIS,0.0,0.178,0.446,0.0,0.0,0.0,0.0,0.089
8.22,2.19,41.88566,-88.34311,20130.67,3568.33,DELNOR COMMUNITY HOSPITAL,0.0,0.132,0.397,0.397,0.0,0.0,0.0,0.0
5.98,2.28,41.54446,-87.98379,13988.07,3812.56,SILVER CROSS HOSPITAL  AND MEDICAL CENTERS,0.0,0.513,0.22,0.439,0.0,0.0,0.0,0.073
8.02,2.55,42.03576,-88.32575,19573.85,4540.31,PROVENA - SAINT JOSEPH HOSPITAL,0.0,0.295,0.884,0.295,0.0,0.0,0.0,0.147
5.87,2.63,42.03837,-87.84820,13679.90,4766.70,ADVOCATE LUTHERAN GENERAL HOSPITAL,0.0,0.181,0.135,0.045,0.0,0.0,0.0,0.045
7.05,2.60,42.26584,-89.07428,16914.76,4677.95,SWEDISH AMERICAN HOSPITAL,0.0,0.156,0.857,0.312,0.0,0.0,0.312,0.0
5.93,2.18,41.76076,-88.15016,13845.26,3548.63,EDWARD HOSPITAL,0.0,0.393,0.131,0.524,0.0,0.066,0.0,0.0
6.12,2.41,42.29844,-89.09897,14360.29,4161.93,ROCKFORD MEMORIAL HOSPITAL,0.0,0.197,0.492,0.0,0.0,0.0,0.0,0.0
8.36,2.19,41.87269,-88.15684,20517.13,3568.07,CENTRAL DUPAGE HOSPITAL,0.0,0.067,0.599,0.399,0.0,0.0,0.067,0.067
6.09,3.16,42.06732,-87.99368,14276.47,6238.63,NORTHWEST COMMUNITY HOSPITAL,0.0,0.249,0.87,0.207,0.0,0.0,0.041,0.0
6.08,2.22,42.00413,-88.01745,14250.79,3637.86,ALEXIAN BROTHERS MEDICAL CENTER,0.0,0.056,0.726,0.223,0.0,0.0,0.0,0.0
6.65,2.96,41.86110,-87.83404,15802.29,5668.52,LOYOLA UNIVERSITY MEDICAL CENTER,0.0,0.47,0.352,0.587,0.0,0.117,0.235,0.059
4.75,2.17,41.48200,-90.57158,10604.17,3502.61,TRINITY ROCK ISLAND,0.0,0.145,0.867,0.145,0.0,0.072,0.145,0.0
9.38,3.19,41.89477,-87.62131,23308.54,6304.29,NORTHWESTERN MEMORIAL HOSPITAL,0.0,0.382,0.243,0.208,0.0,0.0,0.243,0.035
7.74,2.27,42.05260,-88.14173,18817.08,3795.92,ST ALEXIUS MEDICAL CENTER,0.0,0.232,0.232,0.0,0.0,0.077,0.0,0.0
5.96,2.21,42.19586,-88.17286,13926.36,3621.27,ADVOCATE GOOD SHEPHERD HOSPITAL,0.0,0.501,0.201,0.301,0.0,0.0,0.0,0.0
5.75,2.52,41.68062,-88.08319,13355.50,4482.00,ADVENTIST BOLINGBROOK HOSPITAL,0.0,0.0,0.533,0.799,0.0,0.0,0.0,0.0
4.50,2.53,41.59920,-87.35764,9922.27,4499.00,METHODIST HOSPITALS INC,0.0,0.576,0.384,0.0,0.0,0.064,0.192,0.0
5.01,2.44,41.61514,-87.52413,11300.28,4245.56,FRANCISCAN ST MARGARET HEALTH - HAMMOND,0.0,0.732,0.209,0.105,0.0,0.0,0.0,0.0
3.85,2.44,41.63466,-87.44901,8109.73,4240.27,ST CATHERINE HOSPITAL INC,0.0,0.171,0.686,0.171,0.0,0.0,0.0,0.0
4.40,2.21,38.28244,-85.74923,9636.92,3605.62,CLARK MEMORIAL HOSPITAL,0.0,0.0,0.695,0.261,0.0,0.0,0.0,0.0
5.47,2.49,41.70877,-86.17026,12578.94,4395.32,SAINT JOSEPH REGIONAL MEDICAL CENTER,0.0,0.0,0.439,0.146,0.0,0.0,0.0,0.0
5.80,2.21,41.03874,-85.24876,13491.60,3612.13,LUTHERAN HOSPITAL OF INDIANA,0.0,0.481,0.962,0.361,0.0,0.0,0.12,0.0
4.87,2.28,41.70568,-85.93404,10938.05,3804.23,ELKHART GENERAL HOSPITAL,0.0,0.0,0.791,0.099,0.099,0.0,0.297,0.099
4.82,2.30,41.04659,-85.10906,10784.65,3875.85,PARKVIEW REGIONAL MEDICAL CENTER,0.0,0.131,0.524,1.114,0.0,0.0,0.131,0.066
4.63,2.32,39.48518,-87.40893,10265.66,3929.93,UNION HOSPITAL INC,0.0,0.182,0.728,0.182,0.0,0.0,0.061,0.061
5.13,3.02,39.78091,-86.17629,11630.85,5845.74,WILLIAM N WISHARD MEMORIAL HOSPITAL,0.0,0.291,0.145,0.436,0.0,0.145,0.0,0.0
5.50,2.25,39.72432,-86.10055,12657.14,3734.71,FRANCISCAN ST FRANCIS HEALTH - BEECH GROVE,0,0,0,0,0,0,0,0
5.47,2.28,41.51266,-87.26125,12562.00,3822.13,ST MARY MEDICAL CENTER INC,0.0,0.19,0.476,0.381,0.0,0.0,0.0,0.0
6.12,2.24,41.46729,-87.05130,14348.31,3706.79,PORTER VALPARAISO HOSPITAL,0.0,0.342,0.684,0.342,0.0,0.0,0.0,0.0
2.87,2.11,38.67313,-87.53370,5420.85,3335.31,GOOD SAMARITAN HOSPITAL,0.0,0.285,0.285,0.142,0.0,0.0,0.0,0.142
4.35,2.13,38.30195,-85.83409,9498.07,3403.96,FLOYD MEMORIAL HOSPITAL AND HEALTH SERVICES,0.0,0.077,0.154,0.309,0.0,0.0,0.0,0.0
4.82,2.19,39.41951,-87.40898,10791.67,3561.38,TERRE HAUTE REGIONAL HOSPITAL,0.0,0.0,0.563,0.0,0.0,0.0,0.0,0.0
2.93,2.39,39.86405,-84.88413,5602.29,4112.00,REID HOSPITAL & HEALTH CARE SERVICES,0.0,0.354,0.707,0.0,0.0,0.0,0.088,0.088
6.49,2.25,39.16006,-86.54038,15378.06,3727.78,INDIANA UNIVERSITY HEALTH BLOOMINGTON HOSPITAL,0.0,0.287,0.382,0.955,0.0,0.096,0.096,0.0
7.99,3.09,39.79009,-86.16260,19490.11,6033.82,INDIANA UNIVERSITY HEALTH,0.028,0.369,0.454,0.17,0.0,0.0,0.057,0.057
5.09,2.66,41.68479,-86.25217,11539.14,4843.14,MEMORIAL HOSPITAL OF SOUTH BEND,0.0,0.0,1.135,1.059,0.0,0.076,0.151,0.0
5.15,2.38,39.78704,-86.07673,11697.73,4094.53,COMMUNITY HOSPITAL EAST,0.0,0.299,0.1,0.299,0.0,0.0,0.0,0.0
6.40,2.15,37.98293,-87.57072,15137.88,3460.98,DEACONESS HOSPITAL INC,0.0,0.472,0.515,0.215,0.0,0.086,0.0,0.0
6.78,2.42,39.91001,-86.19660,16185.29,4206.03,ST VINCENT HOSPITAL & HEALTH SERVICES,0.0,0.773,0.258,0.472,0.0,0.086,0.043,0.086
4.96,2.19,39.11138,-84.88343,11172.92,3549.83,DEARBORN COUNTY HOSPITAL,0.0,0.515,0.772,1.029,0.0,0.0,0.257,0.0
5.18,2.25,40.09594,-85.68152,11788.06,3714.06,SAINT JOHN'S HEALTH SYSTEM,0.0,0.15,0.15,0.451,0.0,0.0,0.0,0.15
7.47,2.45,40.19679,-85.41573,18055.82,4278.49,INDIANA UNIVERSITY HEALTH BALL MEMORIAL HOSPITAL,0.0,0.066,0.66,0.264,0.0,0.0,0.132,0.066
4.07,2.26,41.49222,-87.52429,8720.00,3755.27,FRANCISCAN ST MARGARET HEALTH - DYER,0.0,0.765,0.306,0.0,0.0,0.0,0.0,0.0
6.34,2.16,37.96320,-87.50292,14964.92,3476.04,ST MARY'S MEDICAL CENTER OF EVANSVILLE INC,0.0,0.262,0.589,0.327,0.0,0.0,0.131,0.0
5.97,2.56,39.21585,-85.89683,13938.45,4580.64,COLUMBUS REGIONAL HOSPITAL,0.0,0.0,0.652,0.13,0.0,0.0,0.0,0.13
4.86,2.27,41.55065,-87.50619,10905.23,3786.23,COMMUNITY HOSPITAL,0.0,0.554,0.604,0.252,0.0,0.0,0.0,0.0
5.25,2.20,41.39576,-87.36689,11962.58,3589.25,FRANCISCAN ST ANTHONY HEALTH - CROWN POINT,0.0,0.0,0.849,0.189,0.0,0.0,0.0,0.0
4.80,2.22,39.90060,-86.04218,10737.88,3643.50,COMMUNITY HOSPITAL NORTH,0.0,0.335,0.781,0.112,0.0,0.0,0.0,0.0
4.21,2.22,42.49388,-94.18926,9100.25,3649.25,TRINITY REGIONAL MEDICAL CENTER,0.0,0.0,0.359,0.359,0.0,0.0,0.0,0.0
4.98,2.32,41.60051,-93.61086,11238.71,3925.50,IOWA LUTHERAN HOSPITAL,0.0,0.187,0.187,0.187,0.0,0.0,0.0,0.0
8.61,2.35,41.26886,-95.83923,21191.45,4007.45,ALEGENT HEALTH MERCY HOSPITAL,0.0,0.197,0.592,0.0,0.0,0.197,0.0,0.0
4.99,2.15,42.03321,-93.61164,11261.00,3465.33,MARY GREELEY MEDICAL CENTER,0.0,0.0,0.135,0.541,0.0,0.0,0.0,0.0
3.37,2.18,41.54190,-90.55691,6813.20,3536.67,GENESIS MEDICAL CENTER-DAVENPORT,0.0,0.118,0.296,0.059,0.0,0.059,0.118,0.059
4.57,2.22,41.98570,-91.66093,10088.22,3646.58,ST LUKES HOSPITAL,0.0,0.0,0.589,0.098,0.0,0.098,0.0,0.0
6.75,2.98,41.66092,-91.54800,16091.55,5719.45,UNIVERSITY OF IOWA HOSPITAL & CLINICS,0.0,0.58,1.159,0.58,0.0,0.064,0.386,0.064
4.26,2.28,43.15063,-93.21718,9259.34,3809.03,MERCY MEDICAL CENTER-NORTH IOWA,0.0,0.076,0.076,0.534,0.0,0.0,0.0,0.0
4.00,2.07,42.49227,-90.67404,8548.06,3234.50,MERCY MEDICAL CENTER-DUBUQUE,0.0,0.261,0.651,0.0,0.0,0.0,0.0,0.13
5.83,2.08,41.97864,-91.65507,13551.95,3251.65,MERCY MEDICAL CENTER - CEDAR RAPIDS,0.0,0.226,0.113,0.0,0.0,0.113,0.0,0.0
5.64,2.32,41.58955,-93.63248,13029.89,3910.16,IOWA METHODIST MEDICAL CENTER,0.0,0.502,0.669,1.339,0.0,0.112,0.223,0.335
6.07,2.37,41.59886,-93.62344,14234.09,4068.41,MERCY MEDICAL CENTER-DES MOINES,0.0,0.201,0.402,0.08,0.0,0.0,0.12,0.0
3.54,2.71,41.61534,-93.64316,7265.69,4995.44,BROADLAWNS MEDICAL CENTER,0.0,0.0,1.269,0.0,0.0,0.0,0.0,0.0
4.39,2.22,42.52665,-92.33957,9603.18,3633.03,ALLEN MEMORIAL HOSPITAL,0.0,0.165,0.165,0.0,0.0,0.082,0.0,0.0
3.10,2.20,42.49250,-96.39975,6067.00,3603.14,MERCY MEDICAL CENTER-SIOUX CITY,0.0,0.417,0.104,0.208,0.0,0.0,0.208,0.0
5.22,2.25,38.83324,-97.61028,11884.69,3728.19,SALINA REGIONAL HEALTH CENTER,0.0,0.155,0.774,0.0,0.0,0.0,0.0,0.0
3.61,2.18,39.05660,-95.69599,7468.86,3522.14,ST FRANCIS HEALTH CENTER INC,0.0,0.42,0.631,3.258,0.0,0.0,0.21,0.21
7.96,2.54,39.05583,-94.60912,19413.53,4517.71,UNIVERSITY OF KANSAS HOSPITAL,0.0,0.627,0.57,0.0,0.0,0.057,0.114,0.114
4.94,2.12,38.85279,-94.82413,11118.26,3357.63,OLATHE MEDICAL CENTER,0.0,0.942,0.824,0.353,0.0,0.0,0.353,0.0
7.50,2.44,39.05128,-95.69572,18144.58,4260.23,STORMONT-VAIL HEALTHCARE,0.0,0.061,0.427,0.549,0.0,0.0,0.122,0.0
6.56,2.14,38.99549,-94.69061,15560.40,3429.73,SHAWNEE MISSION MEDICAL CENTER,0.0,0.563,0.844,0.141,0.0,0.07,0.141,0.07
7.46,2.34,37.70405,-97.31386,18054.24,3985.48,VIA CHRISTI HOSPITALS WICHITA INC,0.0,0.213,0.39,0.567,0.0,0.0,0.213,0.0
8.91,2.48,37.69556,-97.29785,22036.00,4365.81,WESLEY MEDICAL CENTER,0.0,0.076,0.841,1.605,0.0,0.076,0.382,0.0
5.19,2.21,38.97848,-95.24771,11796.36,3610.64,LAWRENCE MEMORIAL HOSPITAL,0.0,0.207,0.83,0.415,0.0,0.0,0.0,0.207
11.59,2.24,38.93763,-94.72630,29384.50,3698.08,OVERLAND PARK REG MED CTR,0.0,0.497,0.745,1.49,0.0,0.0,0.0,0.248
4.67,2.27,39.07816,-84.46695,10385.86,3785.81,ST ELIZABETH FT THOMAS,0.0,0.176,0.528,0.176,0.0,0.0,0.0,0.0
4.17,2.31,38.47021,-82.63498,8996.63,3901.41,KING'S DAUGHTERS' MEDICAL CENTER,0.0,0.092,0.826,0.092,0.0,0.0,0.138,0.138
2.94,2.13,37.71183,-85.87623,5635.79,3384.93,HARDIN MEMORIAL HOSPITAL,0.0,0.09,0.538,0.627,0.0,0.0,0.0,0.0
4.87,2.38,36.99641,-86.43006,10930.36,4096.49,THE MEDICAL CENTER AT BOWLING GREEN,0.0,0.412,1.029,0.412,0.0,0.0,0.48,0.069
3.60,2.31,37.01079,-85.90342,7423.67,3878.92,T J SAMSON COMMUNITY HOSPITAL,0.0,0.0,0.356,0.0,0.0,0.0,0.0,0.178
4.11,2.23,36.60615,-83.74024,8834.36,3665.91,MIDDLESBORO APPALACHIAN REGIONAL HEALTHCARE HOSPIT,0.0,0.0,0.0,0.0,0.0,0.0,0.0,0.0
7.94,2.41,37.27729,-83.22802,19361.57,4169.50,HAZARD ARH REGIONAL MEDICAL CENTER,0.0,0.198,0.495,0.0,0.0,0.0,0.0,0.0
4.28,2.26,39.06704,-84.49946,9316.48,3766.11,ST ELIZABETH MEDICAL CENTER NORTH,0.042,0.085,0.254,0.042,0.0,0.0,0.042,0.042
3.98,2.52,37.76518,-87.10197,8489.32,4469.27,OWENSBORO MEDICAL HEALTH SYSTEM,0.0,0.121,0.908,0.0,0.0,0.061,0.0,0.061
4.97,2.46,38.24927,-85.75081,11210.00,4294.60,JEWISH HOSPITAL & ST MARY'S HEALTHCARE,0.0,0.506,0.476,0.149,0.0,0.06,0.06,0.03
11.91,2.56,37.47264,-82.52605,30261.08,4576.67,PIKEVILLE MEDICAL CENTER,0.0,0.71,0.304,0.0,0.0,0.0,0.0,0.0
5.15,2.27,39.01660,-84.63078,11687.62,3786.88,ST ELIZABETH FLORENCE,0.0,0.0,0.182,0.0,0.0,0.0,0.363,0.363
3.38,2.25,37.64378,-84.77272,6840.13,3728.40,EPHRAIM MCDOWELL REGIONAL MEDICAL CENTER,0.0,0.0,1.158,0.386,0.0,0.0,0.0,0.129
4.21,2.33,36.80963,-83.31313,9109.75,3944.33,HARLAN APPALACHIAN REGIONAL HEALTHCARE HOSPITAL,0.0,0.249,0.498,0.0,0.0,0.0,0.0,0.0
5.64,2.45,37.85504,-87.58345,13028.33,4272.53,METHODIST HOSPITAL,0.0,0.0,0.0,0.0,0.0,0.0,0.0,0.0
6.53,2.99,38.03282,-84.50674,15479.13,5763.61,UNIVERSITY OF KENTUCKY HOSPITAL,0.0,0.676,1.07,0.282,0.0,0.0,0.282,0.0
14.17,2.19,37.81455,-82.81102,36464.50,3553.86,PAUL B HALL REGIONAL MEDICAL CENTER,0.0,0.0,0.644,0.322,0.0,0.0,0.0,0.322
5.86,2.43,38.24806,-85.75125,13646.63,4227.06,NORTON HOSPITALS, INC,0.0,0.605,0.706,0.176,0.025,0.025,0.202,0.05
5.93,2.26,37.33959,-87.48988,13832.50,3765.93,REGIONAL MEDICAL CENTER OF HOPKINS COUNTY,0.0,0.0,0.271,0.0,0.0,0.0,0.0,0.136
3.62,2.05,37.06431,-88.67523,7480.18,3166.53,LOURDES HOSPITAL,0.0,0.466,1.025,0.373,0.0,0.093,0.093,0.093
4.56,2.22,38.01849,-84.51236,10076.09,3636.91,CENTRAL BAPTIST HOSPITAL,0.0,0.283,0.848,2.191,0.0,0.0,0.0,0.0
4.41,2.12,37.07404,-88.62685,9650.47,3379.05,WESTERN BAPTIST HOSPITAL,0.0,0.131,0.588,0.261,0.0,0.0,0.0,0.0
4.51,2.17,36.75751,-88.65129,9939.00,3520.86,JACKSON PURCHASE MEDICAL CENTER,0.0,0.0,0.647,0.216,0.0,0.0,0.216,0.0
6.32,2.13,38.11425,-82.60321,14907.85,3393.92,THREE RIVERS MEDICAL CENTER,0.0,0.0,0.709,0.0,0.0,0.0,0.354,0.0
3.64,2.06,38.23898,-85.63941,7549.48,3212.00,BAPTIST HOSPITAL EAST,0.0,0.615,0.73,0.192,0.0,0.038,0.038,0.0
6.53,2.33,37.08724,-84.61828,15474.27,3944.04,LAKE CUMBERLAND REGIONAL HOSPITAL,0.0,0.191,1.147,0.0,0.0,0.0,0.86,0.573
7.23,2.13,37.56166,-83.37202,17421.83,3385.06,KENTUCKY RIVER MEDICAL CENTER,0.0,0.0,0.0,0.0,0.0,0.0,0.0,0.0
7.31,2.91,38.24802,-85.74464,17629.76,5535.59,UNIVERSITY OF LOUISVILLE HOSPITAL,0.0,0.122,0.122,1.347,0.0,0.0,0.0,0.0
4.90,2.23,30.20227,-92.01906,11018.07,3676.57,LAFAYETTE GENERAL MEDICAL CENTER,0.091,0.364,0.0,0.091,0.0,0.0,0.0,0.0
7.25,2.43,29.69402,-91.20867,17463.64,4223.00,TECHE REGIONAL MEDICAL CENTER,0.0,0.0,0.444,0.887,0.0,0.0,0.444,0.0
14.72,2.74,30.46813,-90.45814,37982.93,5081.43,NORTH OAKS MEDICAL CENTER, LLC,0.0,0.101,0.101,0.604,0.0,0.0,0.806,0.0
8.81,2.19,31.28258,-92.46060,21745.08,3549.67,CHRISTUS ST FRANCES CABRINI HOSPITAL,0.0,0.928,0.186,0.557,0.0,0.0,0.557,0.0
8.93,2.39,31.31451,-92.44997,22076.18,4118.95,RAPIDES REGIONAL MEDICAL CENTER,0.08,0.879,0.479,0.399,0.0,0.0,0.479,0.24
5.71,2.51,30.01875,-90.19452,13224.50,4444.00,OCHSNER FOUNDATION HOSPITAL,0.0,0.453,0.091,0.59,0.0,0.0,0.091,0.045
7.67,2.32,29.89089,-90.09395,18618.75,3928.00,WEST JEFFERSON MEDICAL CENTER,0.0,0.214,0.107,0.107,0.0,0.0,0.214,0.107
8.61,2.15,30.46834,-90.11383,21206.93,3463.64,ST TAMMANY PARISH HOSPITAL,0.0,0.271,0.135,0.0,0.0,0.135,0.135,0.0
5.09,2.23,30.40118,-91.11160,11519.11,3683.00,OUR LADY OF THE LAKE REGIONAL MEDICAL CENTER,0.0,0.221,0.486,0.044,0.0,0.044,0.839,0.088
3.88,2.42,30.45015,-91.15273,8214.58,4184.75,BATON ROUGE GENERAL MEDICAL CENTER,0.0,0.556,0.626,0.139,0.0,0.0,0.0,0.0
4.97,2.24,32.48393,-93.77884,11194.34,3694.90,WILLIS KNIGHTON MEDICAL CENTER,0.0,0.155,0.466,0.155,0.0,0.039,0.039,0.0
5.70,2.35,30.01438,-90.18155,13212.93,4009.87,EAST JEFFERSON GENERAL HOSPITAL,0.0,0.321,0.578,0.064,0.0,0.129,0.0,0.0
4.71,2.24,32.51315,-92.15713,10479.18,3708.82,GLENWOOD REGIONAL MEDICAL CENTER,0.0,0.108,0.108,0.0,0.0,0.0,0.0,0.0
4.65,2.35,30.68494,-92.26601,10324.64,3997.27,MERCY REGIONAL MEDICAL CENTER,0.0,0.263,1.313,0.0,0.0,0.0,0.0,0.0
8.76,2.25,30.47547,-90.10091,21603.91,3716.82,LAKEVIEW REGIONAL MEDICAL CENTER,0.0,0.245,0.245,0.0,0.0,0.0,0.245,0.245
4.55,2.28,43.65159,-70.26482,10043.55,3812.82,MERCY HOSPITAL,0.0,0.312,0.468,0.78,0.0,0.0,0.312,0.0
5.18,2.71,43.65325,-70.27533,11776.51,4982.38,MAINE MEDICAL CENTER,0.0,0.287,0.409,0.737,0.0,0.041,0.246,0.082
4.01,2.24,43.47840,-70.49221,8559.86,3698.07,SOUTHERN MAINE MEDICAL CENTER,0.0,0.194,0.0,0.581,0.0,0.194,0.0,0.194
5.64,2.26,43.90901,-69.89611,13049.47,3748.63,MID COAST HOSPITAL,0.0,0.249,0.997,0.748,0.0,0.0,0.0,0.0
4.04,2.34,44.10107,-70.21432,8645.27,3987.27,CENTRAL MAINE MEDICAL CENTER,0.0,0.242,0.121,0.485,0.0,0.0,0.242,0.0
5.47,2.38,44.80988,-68.74929,12564.38,4082.10,EASTERN MAINE MEDICAL CENTER,0.0,0.343,0.286,0.514,0.0,0.0,0.286,0.114
5.84,2.48,45.25378,-69.44547,13583.50,4358.06,MAINE GENERAL MEDICAL CENTER,0.0,0.895,0.597,0.895,0.0,0.0,0.298,0.199
2.68,2.61,39.62183,-77.68219,4919.96,4722.32,MERITUS MEDICAL CENTER,0.0,0.0,0.0,0.0,0.0,0.0,0.0,0.0
3.39,3.24,39.28817,-76.62438,6861.45,6449.82,UNIVERSITY OF MARYLAND MEDICAL CENTER,0.0,0.0,0.0,0.0,0.0,0.0,0.0,0.0
5.60,5.32,38.93090,-76.92161,12941.94,12165.47,PRINCE GEORGES HOSPITAL CENTER,0.0,0.0,0.0,0.0,0.0,0.0,0.0,0.0
3.41,3.28,39.01578,-77.03591,6912.29,6551.38,HOLY CROSS HOSPITAL,0.0,0.0,0.0,0.0,0.0,0.0,0.0,0.0
3.11,2.98,39.42366,-77.41386,6089.74,5724.47,FREDERICK MEMORIAL HOSPITAL,0.0,0.0,0.0,0.0,0.0,0.0,0.0,0.0
2.92,2.80,39.54345,-76.09153,5561.32,5227.63,HARFORD MEMORIAL HOSPITAL,0.0,0.0,0.0,0.0,0.0,0.0,0.0,0.0
2.97,2.89,39.38813,-76.61068,5717.00,5476.91,SAINT JOSEPH MEDICAL CENTER,0.0,0.0,0.0,0.0,0.0,0.0,0.0,0.0
2.87,2.75,39.29297,-76.61314,5421.71,5096.71,MERCY MEDICAL CENTER INC,0.0,0.0,0.0,0.0,0.0,0.0,0.0,0.0
5.73,5.44,39.29688,-76.59242,13276.43,12479.80,JOHNS HOPKINS HOSPITAL, THE,0.0,0.0,0.0,0.0,0.0,0.0,0.0,0.0
3.36,3.25,39.27352,-76.67219,6781.57,6472.14,SAINT AGNES HOSPITAL,0.0,0.0,0.0,0.0,0.0,0.0,0.0,0.0
3.45,3.25,39.35262,-76.66196,7028.14,6473.80,SINAI HOSPITAL OF BALTIMORE,0.0,0.0,0.0,0.0,0.0,0.0,0.0,0.0
3.60,3.44,39.28833,-76.64912,7435.88,6989.71,BON SECOURS HOSPITAL,0.0,0.0,0.0,0.0,0.0,0.0,0.0,0.0
3.21,3.07,39.35169,-76.47919,6367.31,5985.19,FRANKLIN SQUARE HOSPITAL CENTER,0.0,0.0,0.0,0.0,0.0,0.0,0.0,0.0
3.05,2.92,38.98482,-77.00139,5923.31,5567.92,WASHINGTON ADVENTIST HOSPITAL,0.0,0.0,0.0,0.0,0.0,0.0,0.0,0.0
2.93,2.81,39.15402,-77.05431,5592.18,5256.73,MONTGOMERY GENERAL HOSPITAL INC,0.0,0.0,0.0,0.0,0.0,0.0,0.0,0.0
2.92,2.82,38.36248,-75.59799,5577.28,5302.44,PENINSULA REGIONAL MEDICAL CENTER,0.0,0.0,0.0,0.0,0.0,0.0,0.0,0.0
2.63,2.52,38.99743,-77.11048,4761.52,4476.00,SUBURBAN HOSPITAL,0.0,0.0,0.0,0.0,0.0,0.0,0.0,0.0
3.96,3.80,38.99014,-76.53398,8423.82,7984.94,ANNE ARUNDEL MEDICAL CENTER,0.0,0.0,0.0,0.0,0.0,0.0,0.0,0.0
3.37,3.30,39.32930,-76.61432,6799.35,6604.41,UNION MEMORIAL HOSPITAL,0.0,0.0,0.0,0.0,0.0,0.0,0.0,0.0
2.69,2.59,39.64928,-78.73206,4947.95,4651.00,WESTERN MARYLAND REGIONAL MEDICAL CENTER,0.0,0.0,0.0,0.0,0.0,0.0,0.0,0.0
3.26,3.15,38.29124,-76.63579,6490.64,6210.64,SAINT MARY'S HOSPITAL,0.0,0.0,0.0,0.0,0.0,0.0,0.0,0.0
3.07,2.94,39.29100,-76.54623,5992.39,5632.79,JOHNS HOPKINS BAYVIEW MEDICAL CENTER,0.0,0.0,0.0,0.0,0.0,0.0,0.0,0.0
2.78,2.69,39.60859,-75.83201,5194.87,4932.39,UNION HOSPITAL OF CECIL COUNTY,0.0,0.0,0.0,0.0,0.0,0.0,0.0,0.0
3.28,3.14,39.55808,-76.99107,6567.20,6173.12,CARROLL HOSPITAL CENTER,0.0,0.0,0.0,0.0,0.0,0.0,0.0,0.0
3.90,3.72,39.25189,-76.61399,8265.22,7769.35,HARBOR HOSPITAL,0.0,0.0,0.0,0.0,0.0,0.0,0.0,0.0
2.79,2.68,38.52905,-76.97068,5210.08,4897.33,CIVISTA MEDICAL CENTER,0.0,0.0,0.0,0.0,0.0,0.0,0.0,0.0
2.51,2.41,38.76970,-76.07697,4444.53,4177.82,MEMORIAL HOSPITAL AT EASTON,0.0,0.0,0.0,0.0,0.0,0.0,0.0,0.0
3.83,3.65,39.29994,-76.62138,8055.31,7572.15,MARYLAND GENERAL  HOSPITAL,0.0,0.0,0.0,0.0,0.0,0.0,0.0,0.0
3.00,2.92,39.35852,-76.78208,5790.05,5560.00,NORTHWEST HOSPITAL CENTER,0.0,0.0,0.0,0.0,0.0,0.0,0.0,0.0
2.56,2.48,39.13732,-76.62228,4589.91,4365.73,BALTIMORE WASHINGTON  MEDICAL CENTER,0.0,0.0,0.0,0.0,0.0,0.0,0.0,0.0
3.79,3.62,39.39017,-76.62216,7955.47,7478.07,GREATER BALTIMORE MEDICAL CENTER,0.0,0.0,0.0,0.0,0.0,0.0,0.0,0.0
3.69,3.54,39.21273,-76.88526,7672.47,7271.63,HOWARD COUNTY GENERAL HOSPITAL,0.0,0.0,0.0,0.0,0.0,0.0,0.0,0.0
2.52,2.45,39.51870,-76.34688,4482.18,4282.82,UPPER CHESAPEAKE MEDICAL CENTER,0.0,0.0,0.0,0.0,0.0,0.0,0.0,0.0
3.46,3.30,38.96851,-76.86203,7041.87,6619.40,DOCTORS'  COMMUNITY HOSPITAL,0.0,0.0,0.0,0.0,0.0,0.0,0.0,0.0
3.54,3.38,38.74827,-76.87590,7282.58,6845.50,SOUTHERN MARYLAND HOSPITAL CENTER,0.0,0.0,0.0,0.0,0.0,0.0,0.0,0.0
3.08,3.46,39.35962,-76.58851,6015.91,7063.87,GOOD SAMARITAN HOSPITAL,0.0,0.0,0.0,0.0,0.0,0.0,0.0,0.0
3.28,3.14,39.09796,-77.19799,6562.28,6168.56,SHADY GROVE ADVENTIST HOSPITAL,0.0,0.0,0.0,0.0,0.0,0.0,0.0,0.0
5.34,2.83,42.54113,-71.76120,12206.84,5307.89,HEALTHALLIANCE HOSPITALS, INC,0.0,0.192,0.575,0.766,0.0,0.0,0.0,0.192
3.77,2.64,42.37441,-71.13378,7911.57,4803.10,MOUNT AUBURN HOSPITAL,0.0,0.0,0.282,0.0,0.0,0.094,0.0,0.0
3.53,2.37,41.94236,-71.27364,7246.81,4053.62,STURDY MEMORIAL HOSPITAL,0.0,0.315,0.472,2.99,0.0,0.0,0.157,0.0
4.62,2.74,42.70912,-71.14877,10246.36,5086.09,LAWRENCE GENERAL HOSPITAL,0.0,0.0,1.138,0.114,0.0,0.114,0.0,0.0
4.49,3.05,42.37451,-71.10418,9869.75,5917.55,CAMBRIDGE HEALTH ALLIANCE,0.0,0.144,0.0,0.144,0.0,0.0,0.0,0.0
4.40,2.79,41.65298,-70.27484,9644.31,5198.85,CAPE COD HOSPITAL,0.0,0.159,0.318,0.106,0.0,0.106,0.053,0.053
3.59,2.28,42.33185,-72.65422,7400.82,3799.82,COOLEY DICKINSON HOSPITAL INC,THE,0.0,0.0,0.455,0.152,0.0,0.0,0.0,0.0
4.79,3.22,42.27872,-71.06625,10704.67,6401.79,CARNEY HOSPITAL,0.0,0.172,0.0,0.172,0.0,0.0,0.0,0.172
2.93,2.54,42.07708,-72.04298,5607.08,4515.46,HARRINGTON MEMORIAL HOSPITAL,0.0,0.0,0.0,0.0,0.0,0.0,0.358,0.0
3.99,2.52,41.69217,-71.16474,8501.50,4459.14,SAINT ANNE'S HOSPITAL,0.0,0.0,0.0,0.0,0.0,0.0,0.0,0.0
4.49,2.41,42.20038,-72.62762,9872.82,4161.55,HOLYOKE MEDICAL CENTER,0.0,0.0,0.727,0.0,0.0,0.0,0.182,0.0
3.56,2.42,42.81476,-70.89068,7330.33,4188.17,ANNA JAQUES HOSPITAL,0.0,0.622,0.778,0.0,0.0,0.0,0.0,0.0
4.27,3.58,42.35843,-71.05977,9272.12,7370.94,BOSTON MEDICAL CENTER CORPORATION,0.0,0.493,0.062,0.123,0.0,0.062,0.308,0.185
4.12,2.49,42.56407,-70.87543,8875.75,4389.78,BEVERLY HOSPITAL CORPORATION,0.0,0.397,0.238,0.238,0.0,0.0,0.079,0.079
7.63,2.59,42.51078,-70.90712,18511.42,4668.18,NORTH SHORE MEDICAL CENTER,0.0,0.108,0.597,0.325,0.0,0.163,0.542,0.054
3.34,3.20,42.34896,-71.14768,6733.15,6336.00,ST ELIZABETH'S MEDICAL CENTER,0.0,0.204,0.306,0.51,0.0,0.102,0.0,0.0
4.48,2.68,51.46599,-1.28140,9855.79,4905.89,BERKSHIRE MEDICAL CENTER INC,0.0,0.194,0.485,1.261,0.0,0.0,0.0,0.0
5.71,2.32,42.35375,-71.55485,13228.43,3912.07,MARLBOROUGH HOSPITAL,0.0,0.0,0.532,0.0,0.0,0.0,0.0,0.266
4.02,2.73,42.03597,-71.09792,8593.05,5036.00,SIGNATURE HEALTHCARE BROCKTON HOSPITAL,0.0,0.324,0.216,0.108,0.0,0.108,0.0,0.971
3.18,2.40,41.94445,-70.64511,6278.69,4153.12,JORDAN HOSPITAL INC,0.0,0.0,0.556,0.0,0.0,0.0,0.278,0.0
3.73,2.61,42.64636,-71.34118,7798.15,4720.65,LOWELL GENERAL HOSPITAL,0.0,0.0,0.397,0.264,0.0,0.0,0.0,0.0
4.02,2.53,42.11449,-72.59502,8588.07,4498.43,MERCY MEDICAL CENTER,0.0,0.33,0.55,0.0,0.0,0.0,0.11,0.0
4.49,2.44,42.25105,-71.01411,9886.06,4242.17,QUINCY MEDICAL CENTER,0.0,0.206,0.823,0.0,0.0,0.0,0.206,0.411
3.30,2.46,42.46049,-71.06203,6611.23,4317.04,HALLMARK HEALTH SYSTEM,0.0,0.251,0.564,0.188,0.0,0.063,0.063,0.063
10.00,3.15,42.36227,-71.06941,25007.29,6205.92,MASSACHUSETTS GENERAL HOSPITAL,0.028,0.908,0.482,0.312,0.0,0.0,0.17,0.085
3.32,2.46,41.90456,-71.09562,6668.48,4298.24,MORTON HOSPITAL,0.0,0.125,0.0,0.626,0.0,0.0,0.0,0.0
4.75,2.95,41.70928,-71.14519,10597.73,5647.12,SOUTHCOAST HOSPITAL GROUP, INC,0.028,0.277,0.471,0.138,0.0,0.0,0.111,0.055
5.35,2.89,42.12077,-72.60525,12238.32,5483.45,BAYSTATE MEDICAL CENTER,0.0,0.119,0.398,0.398,0.0,0.0,0.239,0.119
4.03,2.47,42.72846,-71.16830,8626.31,4333.23,HOLY FAMILY HOSPITAL,0.0,0.122,0.0,0.0,0.0,0.122,0.0,0.122
3.85,2.47,42.64529,-71.30052,8124.38,4318.88,SAINTS  MEDICAL CENTER INC,0.0,0.0,0.308,0.0,0.0,0.0,0.0,0.0
4.91,3.28,42.33719,-71.10939,11026.57,6560.00,BETH ISRAEL DEACONESS MEDICAL CENTER,0.0,0.469,0.289,0.397,0.0,0.0,0.036,0.0
4.34,2.41,42.13234,-71.52825,9461.62,4173.08,MILFORD REGIONAL MEDICAL CENTER,0.0,0.118,0.355,0.355,0.0,0.0,0.0,0.118
4.25,2.53,42.17644,-70.95398,9235.23,4500.55,SOUTH SHORE HOSPITAL,0.0,0.204,0.511,0.204,0.0,0.0,0.0,0.102
5.47,2.54,42.33149,-71.24568,12585.95,4513.89,NEWTON-WELLESLEY HOSPITAL,0.0,0.187,0.281,0.749,0.0,0.0,0.187,0.0
3.39,2.32,42.46581,-71.12210,6846.59,3917.29,WINCHESTER HOSPITAL,0.0,0.273,0.638,0.091,0.0,0.091,0.091,0.0
11.51,3.20,42.33600,-71.10704,29167.36,6329.70,BRIGHAM AND WOMEN'S HOSPITAL,0.034,1.091,0.478,0.614,0.0,0.068,0.0,0.273
2.89,2.61,42.09864,-71.06607,5496.69,4723.15,GOOD SAMARITAN MEDICAL CENTER,0.0,0.169,0.675,0.169,0.0,0.0,0.084,0.506
6.29,2.75,42.30049,-71.12771,14818.47,5102.11,FAULKNER HOSPITAL,0.0,0.0,0.301,0.0,0.0,0.0,0.0,0.0
3.73,2.33,42.18869,-71.20197,7797.16,3956.84,NORWOOD HOSPITAL,0.0,0.0,0.189,0.378,0.0,0.0,0.0,0.189
7.10,3.20,42.27720,-71.75922,17046.33,6347.44,UMASS MEMORIAL MEDICAL CENTER INC,0.033,0.36,0.459,0.36,0.0,0.033,0.229,0.033
3.66,2.70,42.48585,-71.20686,7605.17,4966.75,LAHEY CLINIC HOSPITAL,0.0,0.271,0.226,0.045,0.0,0.0,0.0,0.045
3.86,2.32,42.76256,-71.04507,8144.67,3912.25,MERRIMACK VALLEY HOSPITAL,0.0,0.0,0.958,0.0,0.0,0.0,0.24,0.0
3.94,2.57,42.28385,-71.41896,8374.14,4617.24,METROWEST MEDICAL CENTER,0.0,0.162,0.081,0.081,0.0,0.0,0.0,0.081
3.72,2.66,42.26633,-71.79760,7775.13,4859.23,ST VINCENT HOSPITAL,0.0,0.077,0.077,0.231,0.0,0.0,0.0,0.077
3.70,2.23,42.39466,-83.40537,7720.58,3684.37,ST MARY MERCY HOSPITAL,0.0,0.225,0.845,0.056,0.0,0.0,0.056,0.169
5.36,2.18,41.91313,-84.04966,12260.27,3529.00,EMMA L BIXBY MEDICAL CENTER,0.0,0.0,0.556,0.0,0.0,0.0,0.0,0.0
2.57,2.62,42.63347,-83.30925,4607.73,4738.73,DOCTORS' HOSPITAL OF MICHIGAN,0.0,1.027,1.027,0.514,0.0,0.0,0.0,0.514
4.84,2.61,42.28551,-85.58042,10829.48,4724.74,BRONSON METHODIST HOSPITAL,0.0,0.0,0.179,0.119,0.0,0.0,0.0,0.06
4.73,2.57,42.45741,-83.20513,10540.58,4616.35,PROVIDENCE HOSPITAL AND MEDICAL CENTERS,0.0,0.539,0.404,0.438,0.0,0.034,0.135,0.0
4.90,2.54,42.29077,-83.21504,10994.34,4518.31,OAKWOOD HOSPITAL AND MEDICAL CENTER,0.0,0.653,0.481,0.309,0.0,0.069,0.103,0.034
2.98,2.33,42.08955,-86.47781,5742.88,3935.12,LAKELAND HOSPITAL, ST JOSEPH,0.0,0.287,0.862,0.144,0.0,0.0,0.072,0.0
3.66,2.29,41.93815,-84.98935,7591.85,3848.92,COMMUNITY HEALTH CENTER OF BRANCH COUNTY,0.0,0.0,0.0,0.0,0.0,0.0,0.0,0.0
4.62,2.93,42.41911,-83.18228,10251.68,5608.47,SINAI-GRACE HOSPITAL,0.0,0.703,0.192,0.512,0.0,0.064,0.384,0.128
4.49,2.64,42.61425,-83.27602,9883.21,4801.89,ST JOSEPH MERCY OAKLAND,0.0,0.532,0.886,0.295,0.0,0.059,0.177,0.0
2.94,2.17,42.95582,-82.43222,5616.00,3511.00,ST JOSEPH MERCY PORT HURON,0.0,0.212,0.423,0.0,0.0,0.0,0.0,0.0
4.49,2.46,45.07773,-83.45146,9887.73,4300.73,ALPENA REGIONAL MEDICAL CENTER,0.0,0.207,0.83,0.83,0.0,0.0,0.0,0.0
4.08,2.34,41.91180,-84.63294,8751.73,3961.82,HILLSDALE COMMUNITY HEALTH CENTER,0.0,0.362,0.724,0.0,0.0,0.0,0.0,0.0
4.14,2.73,42.96881,-85.66649,8911.81,5057.07,SPECTRUM HEALTH - BUTTERWORTH CAMPUS,0.0,0.275,0.426,0.05,0.0,0.0,0.075,0.025
4.45,2.21,43.58941,-83.86908,9763.75,3612.68,MCLAREN BAY REGION,0.0,0.576,0.518,0.518,0.0,0.0,0.058,0.23
7.64,3.33,42.28388,-83.72960,18535.70,6705.34,UNIVERSITY OF MICHIGAN HEALTH SYSTEM,0.0,0.523,0.628,1.884,0.0,0.0,0.279,0.0
4.51,2.34,42.61490,-82.96060,9938.44,3975.95,HENRY FORD MACOMB HOSPITAL,0.0,0.209,0.962,0.209,0.0,0.0,0.293,0.0
6.54,3.13,42.36762,-83.08461,15526.69,6141.02,HENRY FORD HOSPITAL,0.0,0.368,0.501,0.468,0.0,0.033,0.2,0.033
4.01,2.22,45.80941,-88.04422,8560.14,3647.29,DICKINSON COUNTY MEMORIAL HOSPITAL,0.0,0.0,0.0,0.0,0.0,0.0,0.0,0.0
3.80,2.35,44.66805,-84.70733,7989.00,4013.33,MERCY HOSPITAL - GRAYLING,0.0,0.0,0.249,0.0,0.0,0.0,0.0,0.249
3.43,2.58,42.95817,-85.66253,6967.24,4644.86,SAINT MARY'S HEALTH CARE,0.0,0.162,1.217,0.243,0.0,0.0,0.406,0.081
3.44,2.40,43.22169,-86.24283,6989.31,4140.06,MERCY HEALTH PARTNERS, HACKLEY CAMPUS,0.0,0.0,0.417,0.0,0.0,0.209,0.209,0.0
5.18,2.35,43.42857,-83.95556,11768.49,3997.84,COVENANT MEDICAL CENTER, INC,0.0,0.253,0.421,0.211,0.0,0.0,0.295,0.042
4.78,2.29,42.77487,-86.11378,10669.83,3834.33,HOLLAND COMMUNITY HOSPITAL,0.0,0.713,0.951,1.665,0.0,0.238,0.0,0.238
4.54,2.29,42.33111,-85.17817,10015.86,3842.55,BRONSON BATTLE CREEK HOSPITAL,0.0,0.196,0.295,0.098,0.0,0.0,0.0,0.0
5.03,2.34,43.42612,-83.94185,11357.28,3966.00,ST MARY'S OF MICHIGAN MEDICAL CENTER,0.0,0.954,0.556,0.238,0.0,0.0,0.0,0.079
6.49,2.25,42.25117,-84.39240,15380.44,3737.69,ALLEGIANCE HEALTH,0.0,0.0,0.448,0.0,0.0,0.0,0.0,0.064
6.01,2.47,44.76156,-85.64143,14062.82,4338.82,MUNSON MEDICAL CENTER,0.042,0.21,0.379,0.463,0.0,0.084,0.126,0.042
3.97,2.31,41.91643,-83.39771,8444.59,3899.82,MERCY MEMORIAL HOSPITAL SYSTEM,0.0,0.125,0.623,0.374,0.0,0.0,0.249,0.0
5.58,3.25,42.35230,-83.05676,12888.79,6488.43,HARPER UNIVERSITY HOSPITAL,0.0,0.502,0.144,0.287,0.0,0.0,0.144,0.072
3.58,2.40,45.37209,-84.97065,7376.73,4147.00,NORTHERN MICHIGAN REGIONAL HOSPITAL,0.0,0.112,0.784,0.0,0.0,0.0,0.112,0.0
5.19,2.51,42.30489,-85.56152,11815.65,4446.04,BORGESS MEDICAL CENTER,0.0,0.803,0.535,0.375,0.0,0.054,0.054,0.054
5.96,2.60,42.51418,-83.19259,13930.14,4680.31,WILLIAM BEAUMONT HOSPITAL,0.0,0.557,0.298,0.358,0.0,0.0,0.099,0.02
6.57,3.09,43.02135,-83.70308,15584.50,6035.81,HURLEY MEDICAL CENTER,0.0,1.113,0.223,0.111,0.0,0.0,0.0,0.223
4.03,2.51,43.01399,-83.73250,8622.33,4452.62,MCLAREN FLINT,0.0,0.364,0.591,0.182,0.0,0.0,0.045,0.136
5.23,2.45,42.27424,-83.36580,11902.53,4265.74,OAKWOOD ANNAPOLIS HOSPITAL,0.0,0.233,0.117,0.0,0.0,0.0,0.35,0.117
3.95,2.31,42.21065,-83.14861,8391.95,3893.24,HENRY FORD WYANDOTTE HOSPITAL,0.0,0.232,0.522,0.232,0.0,0.058,0.0,0.0
3.31,2.74,42.46176,-83.37629,6629.12,5074.24,BOTSFORD HOSPITAL,0.0,0.066,0.531,0.0,0.0,0.0,0.199,0.0
5.18,2.38,42.26181,-83.66003,11779.56,4095.38,ST JOSEPH MERCY HOSPITAL,0.0,0.217,0.398,0.434,0.0,0.0,0.108,0.072
4.62,2.67,42.41975,-82.91442,10231.52,4878.94,ST JOHN HOSPITAL AND MEDICAL CENTER,0.0,0.151,0.377,0.339,0.0,0.0,0.075,0.0
6.38,2.49,42.70417,-84.55488,15071.94,4380.06,MCLAREN - GREATER LANSING,0.0,0.267,0.6,0.333,0.0,0.0,0.0,0.0
4.95,2.41,42.11695,-83.21365,11134.08,4171.08,OAKWOOD SOUTHSHORE MEDICAL CENTER,0.0,0.0,1.176,0.706,0.0,0.0,0.118,0.0
4.65,2.44,42.50514,-83.00422,10325.58,4236.20,ST JOHN MACOMB-OAKLAND HOSPITAL-MACOMB CENTER,0.0,0.477,0.404,0.845,0.0,0.147,0.073,0.0
5.40,2.67,42.89254,-83.63621,12369.79,4873.00,GENESYS REGIONAL MEDICAL CENTER - HEALTH PARK,0.0,0.051,0.355,0.0,0.0,0.102,0.102,0.0
4.52,3.04,42.63849,-83.29062,9952.05,5890.86,MCLAREN OAKLAND,0.0,0.375,0.749,0.187,0.0,0.0,0.0,0.0
4.19,2.25,42.98625,-82.42802,9055.93,3726.53,PORT HURON HOSPITAL,0.0,0.0,0.84,0.28,0.0,0.093,0.093,0.0
3.96,2.42,43.63618,-84.26187,8415.40,4191.60,MIDMICHIGAN MEDICAL CENTER-MIDLAND,0.0,0.096,0.482,0.096,0.0,0.0,0.289,0.0
4.78,2.45,42.58900,-82.89799,10679.67,4281.00,MOUNT CLEMENS REGIONAL MEDICAL CENTER,0.0,0.066,0.596,0.331,0.0,0.066,0.066,0.0
5.86,2.57,42.73767,-84.51698,13642.46,4602.11,EDWARD W SPARROW HOSPITAL,0.0,0.339,0.484,0.097,0.0,0.0,0.0,0.242
3.93,2.70,42.85736,-85.71774,8344.83,4960.42,METRO HEALTH HOSPITAL,0.0,0.131,0.131,0.262,0.0,0.0,0.131,0.131
3.65,2.66,46.43131,-84.28107,7563.27,4859.36,CHIPPEWA COUNTY WAR MEMORIAL HOSPITAL,0.0,0.0,0.402,0.402,0.0,0.0,0.402,0.0
4.42,2.19,42.78564,-82.48337,9700.82,3565.27,ST JOHN RIVER DISTRICT HOSPITAL,0.0,0.0,0.0,1.986,0.0,0.0,0.0,0.0
3.33,2.52,42.33215,-83.31195,6699.75,4464.67,GARDEN CITY HOSPITAL,0.0,0.117,0.235,0.0,0.0,0.0,0.117,0.0
4.91,2.27,42.67850,-83.14771,11029.08,3793.17,CRITTENTON HOSPITAL MEDICAL CENTER,0.0,0.189,0.944,0.0,0.0,0.0,0.094,0.094
5.57,2.40,42.61826,-83.09239,12845.29,4136.21,WILLIAM BEAUMONT HOSPITAL-TROY,0.0,0.414,0.451,0.338,0.0,0.0,0.038,0.038
5.26,2.30,42.23506,-83.27602,11999.73,3872.86,OAKWOOD HERITAGE HOSPITAL,0.0,0.795,0.795,0.0,0.0,0.159,0.159,0.0
6.83,3.19,42.35295,-83.05447,16323.16,6300.30,DETROIT RECEIVING HOSPITAL & UNIV HEALTH CENTER,0.0,0.486,0.243,1.093,0.0,0.0,0.364,0.0
4.79,2.40,42.59290,-83.49920,10702.75,4152.92,HURON VALLEY-SINAI HOSPITAL,0.0,0.406,0.271,0.271,0.0,0.135,0.135,0.406
4.61,2.13,42.53914,-83.40777,10208.92,3406.67,HENRY FORD WEST BLOOMFIELD HOSPITAL,0.0,0.323,0.646,1.507,0.0,0.0,0.108,0.323
6.21,2.38,45.01403,-93.32177,14607.20,4083.89,NORTH MEMORIAL MEDICAL CENTER,0.0,0.114,0.286,0.057,0.0,0.0,0.057,0.114
4.34,2.38,46.79380,-92.09573,9461.83,4089.96,ESSENTIA HEALTH ST MARY'S MEDICAL CENTER,0.0,0.356,0.64,0.0,0.0,0.0,0.0,0.071
6.11,3.64,44.97210,-93.26240,14328.03,7536.03,HENNEPIN COUNTY MEDICAL CENTER,0.0,0.984,0.547,2.514,0.0,0.109,0.547,0.656
5.55,2.74,44.02052,-92.48292,12787.30,5073.74,MAYO CLINIC - SAINT MARYS HOSPITAL,0.031,0.862,0.462,0.862,0.0,0.0,0.031,0.123
5.69,2.66,46.79308,-92.09379,13183.43,4860.57,ESSENTIA HEALTH DULUTH,0.0,0.425,1.276,0.0,0.0,0.0,0.0,0.0
6.46,2.78,45.57390,-94.16942,15296.18,5172.91,ST CLOUD HOSPITAL,0.0,0.599,0.23,0.23,0.0,0.0,0.046,0.184
7.83,2.40,44.94214,-93.10858,19063.96,4128.08,UNITED HOSPITAL,0.0,0.115,0.172,0.172,0.0,0.0,0.0,0.0
5.75,2.41,46.79634,-92.08793,13353.19,4159.62,ST LUKES HOSPITAL,0.0,0.318,0.318,0.425,0.0,0.0,0.106,0.0
3.72,2.32,44.93031,-93.36276,7755.79,3919.24,PARK NICOLLET METHODIST HOSPITAL,0.0,0.113,0.395,0.225,0.0,0.056,0.0,0.0
13.72,2.87,44.95248,-93.26196,35235.26,5442.43,ABBOTT NORTHWESTERN HOSPITAL,0.0,0.036,0.434,0.723,0.0,0.036,0.0,0.0
7.96,2.44,44.94898,-93.10016,19415.00,4241.29,ST JOSEPH'S HOSPITAL,0.0,0.17,0.339,0.085,0.0,0.085,0.085,0.0
4.00,2.31,47.22110,-93.55229,8528.86,3885.50,GRAND ITASCA CLINIC AND HOSPITAL,0.0,0.0,1.301,0.0,0.0,0.0,0.0,0.0
4.01,2.38,46.36166,-94.20573,8569.89,4087.32,ESSENTIA HEALTH ST JOSEPH'S MEDICAL CENTER,0.0,0.0,0.187,0.373,0.0,0.0,0.0,0.0
6.17,2.40,44.88645,-93.32693,14498.14,4140.43,FAIRVIEW SOUTHDALE HOSPITAL,0.0,0.161,0.241,0.805,0.0,0.0,0.08,0.08
6.23,3.04,44.96766,-93.23640,14671.94,5908.21,UNIVERSITY OF MINNESOTA  MEDICAL CENTER, FAIRVIEW,0.0,1.524,0.435,0.363,0.0,0.073,0.145,0.0
4.63,2.41,44.16396,-94.00412,10265.43,4157.86,MAYO CLINIC HEALTH SYSTEM - MANKATO,0.0,0.275,0.55,0.413,0.0,0.0,0.275,0.138
10.37,3.26,44.95570,-93.09429,26038.25,6508.77,REGIONS HOSPITAL,0.0,0.059,0.531,0.531,0.0,0.0,0.0,0.0
8.54,2.74,45.18355,-93.36789,21016.44,5078.74,MERCY HOSPITAL,0.0,0.067,0.266,0.266,0.0,0.0,0.0,0.133
7.56,2.47,45.10789,-93.25685,18312.81,4336.25,UNITY HOSPITAL,0.0,0.114,0.341,0.114,0.0,0.0,0.0,0.0
5.27,2.41,44.74846,-93.27289,12025.24,4177.71,FAIRVIEW RIDGES HOSPITAL,0.0,0.178,1.065,0.0,0.0,0.0,0.0,0.0
5.44,2.36,45.02892,-93.03418,12488.33,4037.33,HEALTHEAST ST JOHN'S HOSPITAL,0.0,0.188,0.283,0.094,0.0,0.0,0.094,0.0
7.63,3.15,32.33069,-90.17030,18501.13,6200.27,UNIVERSITY OF MISSISSIPPI MED CENTER,0.0,1.097,0.337,1.687,0.0,0.0,0.506,0.337
4.42,2.31,34.24336,-88.71753,9684.78,3897.56,NORTH MISSISSIPPI MEDICAL CENTER,0.0,0.044,0.489,0.267,0.0,0.133,0.0,0.044
10.62,2.36,30.39599,-88.89061,26713.45,4030.36,BILOXI REGIONAL MEDICAL CENTER,0.0,0.204,0.204,1.022,0.0,0.0,0.0,0.0
8.44,2.19,34.93596,-88.55955,20721.65,3576.45,MAGNOLIA REGIONAL HEALTH CENTER,0.0,0.0,1.107,0.123,0.0,0.123,0.0,0.0
15.58,2.30,30.36674,-89.11535,40358.64,3863.86,MEMORIAL HOSPITAL AT GULFPORT,0.0,0.233,1.01,0.311,0.0,0.0,0.311,0.0
7.15,2.18,30.37516,-88.53226,17202.94,3539.44,SINGING RIVER HOSPITAL,0.0,0.269,0.47,0.269,0.0,0.0,0.134,0.0
6.28,2.32,32.33616,-90.15652,14811.32,3914.65,ST DOMINIC-JACKSON MEMORIAL HOSPITAL,0.0,0.461,0.307,0.154,0.0,0.051,0.717,0.0
3.85,2.17,31.69405,-89.13061,8136.94,3514.83,SOUTH CENTRAL REG MED CTR,0.0,0.611,1.526,0.153,0.0,0.0,0.0,0.0
13.26,2.83,32.36983,-88.69702,33979.82,5323.82,RUSH FOUNDATION HOSPITAL,0.0,0.412,0.619,0.0,0.0,0.0,0.0,0.0
7.35,2.33,32.28805,-90.25566,17727.00,3954.09,CENTRAL MISSISSIPPI MEDICAL CENTER,0.0,0.501,0.167,0.167,0.0,0.0,0.0,0.0
4.58,2.31,31.31872,-89.32955,10123.21,3886.43,FORREST GENERAL HOSPITAL,0.0,0.422,0.528,0.58,0.0,0.0,0.106,0.053
7.34,2.08,32.31643,-90.17922,17708.55,3266.55,MISSISSIPPI BAPTIST MEDICAL CENTER,0.0,0.312,0.989,0.312,0.0,0.104,0.208,0.052
5.44,2.17,32.37280,-88.69954,12481.45,3512.70,ANDERSON REGIONAL MEDICAL CENTER,0.0,0.105,0.738,0.0,0.0,0.0,0.105,0.0
9.49,2.19,31.56044,-91.40317,23615.31,3571.38,NATCHEZ COMMUNITY HOSPITAL/SWING BED,0.0,0.56,0.56,0.56,0.0,0.0,0.0,0.0
5.03,2.29,34.96927,-89.99709,11371.60,3842.50,BAPTIST MEMORIAL HOSPITAL DESOTO,0.0,0.277,0.416,0.486,0.0,0.0,0.0,0.069
3.50,2.38,30.31288,-89.35571,7149.27,4078.27,HANCOCK MEDICAL CENTER,0.0,0.0,0.0,0.639,0.0,0.0,0.0,0.0
6.68,2.21,37.06032,-94.52747,15899.57,3613.86,ST JOHN'S REGIONAL MEDICAL CENTER,0.0,0.534,0.686,0.534,0.0,0.0,0.153,0.0
6.27,2.26,38.78060,-90.48379,14761.47,3753.60,SSM ST JOSEPH HEALTH CENTER,0.0,0.123,0.738,0.738,0.0,0.0,0.0,0.0
5.29,2.77,39.77393,-94.77089,12066.86,5168.93,HEARTLAND REGIONAL MEDICAL CENTER,0.0,0.286,0.571,0.343,0.0,0.057,0.057,0.0
4.31,2.09,38.69946,-93.22211,9388.73,3289.73,BOTHWELL REGIONAL HEALTH CENTER,0.0,0.334,0.334,0.167,0.0,0.0,0.0,0.0
7.21,2.29,38.57670,-92.17352,17346.44,3839.83,ST MARYS HEALTH CENTER,0.0,0.117,0.705,0.0,0.0,0.0,0.0,0.0
6.96,2.16,36.23658,-90.04315,16658.21,3467.00,TWIN RIVERS REGIONAL MEDICAL CENTER,0.0,0.0,0.353,0.0,0.0,0.0,0.0,0.0
6.25,2.67,37.95144,-91.75940,14719.07,4878.04,PHELPS COUNTY REGIONAL MEDICAL CENTER,0.0,0.0,0.445,0.148,0.0,0.0,0.0,0.0
6.07,2.24,38.64281,-90.44448,14221.97,3704.56,MERCY HOSPITAL ST LOUIS,0.0,0.686,0.441,0.294,0.0,0.0,0.147,0.196
3.33,2.16,38.16498,-90.38082,6696.21,3491.00,JEFFERSON REGIONAL MEDICAL CENTER,0.0,0.105,0.42,0.105,0.0,0.0,0.0,0.0
3.78,2.37,39.71116,-91.45071,7941.45,4052.82,HANNIBAL REGIONAL HOSPITAL,0.0,0.0,0.178,0.0,0.0,0.0,0.178,0.0
9.75,2.33,39.00717,-94.55925,24339.85,3947.25,RESEARCH MEDICAL CENTER,0.0,0.103,0.414,0.207,0.0,0.0,0.0,0.0
5.51,2.57,38.63524,-90.26508,12670.53,4601.96,BARNES JEWISH HOSPITAL,0.0,0.967,0.604,0.121,0.0,0.0,0.29,0.072
5.25,2.25,37.14560,-93.28037,11972.52,3735.85,COX MEDICAL CENTER,0.0,0.133,0.575,0.354,0.0,0.0,0.044,0.088
3.40,2.33,38.56571,-92.18204,6882.08,3951.25,CAPITAL REGION MEDICAL CENTER,0.0,0.135,0.405,0.135,0.0,0.0,0.0,0.0
4.06,3.19,39.08401,-94.57591,8700.37,6301.20,TRUMAN MEDICAL CENTER HOSPITAL HILL,0.0,1.435,0.82,0.41,0.0,0.0,0.0,0.41
6.98,2.46,38.55199,-91.00029,16730.38,4294.77,MERCY HOSPITAL WASHINGTON,0.0,0.0,0.0,0.547,0.0,0.0,0.0,0.0
6.67,2.19,37.17999,-93.27409,15859.84,3569.00,ST JOHN'S REGIONAL HEALTH CENTER,0.0,0.223,0.356,1.381,0.0,0.0,0.045,0.045
4.23,2.09,38.50661,-90.38025,9175.12,3279.88,ST ANTHONY'S MEDICAL CENTER,0.0,1.359,1.15,0.627,0.0,0.0,0.209,0.0
4.65,2.30,36.73801,-91.87553,10311.37,3866.42,OZARKS MEDICAL CENTER,0.0,0.0,0.218,0.0,0.0,0.0,0.0,0.0
5.73,2.13,38.93592,-94.60376,13279.69,3387.23,ST JOSEPH MEDICAL CENTER,0.0,0.389,0.389,1.264,0.0,0.0,0.0,0.0
6.42,2.63,38.63268,-90.31089,15196.94,4761.17,SSM ST MARYS HEALTH CENTER,0.0,0.449,0.449,0.225,0.0,0.0,0.0,0.0
5.60,2.14,36.64970,-93.22138,12943.29,3424.29,SKAGGS REGIONAL MEDICAL CENTER,0.0,0.673,0.841,0.337,0.0,0.0,0.0,0.0
9.67,2.24,39.04749,-94.34105,24121.37,3699.06,CENTERPOINT MEDICAL CENTER OF INDEPENDENCE, LLC,0.0,0.09,0.358,0.358,0.0,0.0,0.09,0.0
5.97,2.14,39.14957,-94.55148,13950.93,3437.44,NORTH KANSAS CITY HOSPITAL,0.0,0.421,0.421,1.106,0.0,0.0,0.053,0.053
5.77,2.25,38.75097,-90.43255,13404.00,3717.12,SSM DEPAUL HEALTH CENTER,0.0,0.338,0.619,0.338,0.0,0.0,0.056,0.0
7.33,3.07,38.62280,-90.24049,17671.54,5967.12,ST LOUIS UNIVERSITY HOSPITAL,0.097,0.871,0.29,0.194,0.0,0.0,0.097,0.194
4.78,2.09,38.63702,-90.44699,10691.83,3285.92,MISSOURI BAPTIST MEDICAL CENTER,0.0,0.421,0.374,0.515,0.0,0.0,0.047,0.0
5.25,2.18,37.31072,-89.53990,11983.07,3527.64,SOUTHEAST MISSOURI HOSPITAL,0.0,0.324,0.757,0.0,0.0,0.108,0.0,0.0
6.60,2.40,36.88988,-89.58365,15686.55,4129.18,MISSOURI DELTA MEDICAL CENTER,0.0,0.516,0.258,0.0,0.0,0.0,0.0,0.0
4.14,2.21,37.79962,-90.44045,8925.23,3612.92,MINERAL AREA REGIONAL MEDICAL CENTER,0.0,0.0,0.346,1.731,0.0,0.0,0.0,0.0
9.10,2.36,36.78510,-90.42779,22544.09,4019.07,POPLAR BLUFF REGIONAL MEDICAL CENTER,0.0,0.43,0.323,0.215,0.0,0.215,0.108,0.0
7.52,2.32,37.05238,-94.52777,18216.00,3924.31,FREEMAN HEALTH SYSTEM - FREEMAN WEST,0.0,0.072,0.795,0.289,0.0,0.144,0.0,0.0
7.53,2.56,39.04761,-94.59037,18234.18,4575.35,ST LUKES HOSPITAL OF KANSAS CITY,0.062,0.248,0.311,0.373,0.0,0.0,0.124,0.124
5.26,2.59,38.95171,-92.33407,11993.93,4674.00,UNIVERSITY OF MISSOURI HEALTH CARE,0.0,0.245,0.327,0.245,0.0,0.0,0.327,0.164
4.02,2.15,37.78031,-90.43967,8585.73,3441.82,PARKLAND HEALTH CENTER,0.0,0.0,0.484,0.0,0.0,0.0,0.0,0.0
4.51,2.12,39.27591,-94.42572,9943.19,3375.08,LIBERTY HOSPITAL,0.0,0.264,0.527,0.176,0.0,0.088,0.088,0.0
4.82,2.17,38.65123,-90.50301,10786.36,3507.27,ST LUKES HOSPITAL,0.0,0.296,0.591,0.414,0.0,0.0,0.0,0.059
5.11,2.40,38.77576,-90.23906,11580.21,4135.21,CHRISTIAN HOSPITAL NORTHEAST,0.0,0.15,0.376,0.075,0.0,0.0,0.15,0.0
8.67,2.23,37.30401,-89.57190,21365.07,3673.36,ST FRANCIS MEDICAL CENTER,0.0,1.223,0.611,0.175,0.0,0.0,0.0,0.087
5.09,2.48,38.12027,-92.68146,11531.54,4346.00,LAKE REGIONAL HEALTH SYSTEM,0.0,0.174,0.87,0.348,0.0,0.0,0.348,0.174
4.93,2.15,38.80334,-90.77619,11093.48,3462.00,SSM ST JOSEPH HOSPITAL WEST,0.0,0.315,0.787,0.472,0.0,0.0,0.0,0.157
12.46,2.12,38.94062,-94.37842,31788.43,3365.14,SAINT LUKE'S EAST LEE'S SUMMIT HOSPITAL,0.174,0.174,1.22,0.174,0.0,0.0,0.0,0.0
3.97,2.27,46.58297,-111.99684,8450.65,3774.59,ST PETER'S HOSPITAL,0.0,0.273,0.273,1.366,0.0,0.0,0.0,0.0
6.85,2.53,45.78958,-108.51283,16352.14,4490.86,BILLINGS CLINIC HOSPITAL,0.0,0.09,0.181,0.181,0.0,0.0,0.0,0.0
4.43,2.37,47.49139,-111.26255,9730.07,4058.79,BENEFIS HOSPITALS INC,0.0,0.689,0.574,0.689,0.0,0.0,0.0,0.23
4.23,2.14,46.87545,-114.00033,9157.92,3438.17,ST PATRICK HOSPITAL,0.0,0.445,0.593,0.148,0.0,0.0,0.0,0.0
4.76,2.53,46.00924,-112.54613,10629.25,4491.25,ST JAMES HEALTHCARE,0.0,0.931,0.62,0.0,0.0,0.0,0.0,0.31
4.96,2.27,48.21465,-114.32386,11166.37,3780.26,KALISPELL REGIONAL MEDICAL CENTER,0.0,0.0,0.531,0.531,0.0,0.0,0.0,0.0
4.45,2.25,40.78318,-96.63709,9772.04,3718.54,BRYANLGH MEDICAL CENTER,0.0,0.179,0.239,0.598,0.0,0.06,0.0,0.0
6.20,2.79,41.25522,-95.97892,14587.03,5212.15,THE NEBRASKA MEDICAL CENTER,0.0,1.192,0.65,0.433,0.0,0.0,0.433,0.054
9.02,2.86,41.26509,-95.95494,22324.44,5405.88,CREIGHTON UNIVERSITY MEDICAL CENTER - SAINT JOSEPH,0.0,0.539,0.0,1.797,0.0,0.0,0.0,0.18
5.03,2.21,41.25797,-96.04164,11373.92,3626.15,THE NEBRASKA METHODIST HOSPITAL,0.0,0.516,0.147,0.147,0.0,0.0,0.074,0.0
6.12,2.23,41.23897,-96.03162,14369.05,3675.50,ALEGENT HEALTH BERGAN MERCY MEDICAL CENTER,0.0,0.449,0.359,0.539,0.09,0.0,0.09,0.09
6.11,2.51,41.88690,-103.66400,14340.00,4451.60,REGIONAL WEST MEDICAL CENTER,0.0,0.551,0.919,0.0,0.0,0.184,0.184,0.0
4.16,2.29,41.12081,-100.77062,8962.55,3837.64,GREAT PLAINS REGIONAL MEDICAL CENTER,0.0,0.241,0.0,0.962,0.0,0.0,0.0,0.0
6.61,2.41,41.32182,-96.02133,15697.08,4155.33,ALEGENT HEALTH IMMANUEL MEDICAL CENTER,0.0,0.329,0.988,1.152,0.0,0.0,0.0,0.0
4.28,2.19,41.23771,-96.18052,9303.69,3561.85,ALEGENT HEALTH LAKESIDE HOSPITAL,0.0,0.206,0.618,0.206,0.0,0.0,0.206,0.412
8.58,2.40,39.52637,-119.79456,21106.00,4134.11,RENOWN REGIONAL MEDICAL CENTER,0.0,0.707,0.816,0.054,0.0,0.054,0.0,0.0
13.52,2.62,36.13459,-115.13576,34677.26,4752.77,SUNRISE HOSPITAL AND MEDICAL CENTER,0.0,0.636,0.445,0.064,0.0,0.0,1.59,0.0
12.19,2.96,36.15896,-115.16558,31044.25,5683.81,UMC OF SOUTHERN NEVADA,0.0,1.413,0.771,0.385,0.0,0.128,0.0,0.0
13.13,2.45,36.03931,-114.98259,33622.72,4263.94,SAINT ROSE DOMINICAN HOSPITAL - DE LIMA,0.0,1.982,0.44,0.22,0.0,0.0,0.0,0.0
7.35,2.60,39.20247,-119.78446,17741.19,4697.59,CARSON TAHOE REGIONAL MEDICAL CENTER,0.0,0.344,0.344,0.0,0.0,0.115,0.229,0.115
16.66,2.76,36.16380,-115.16574,43309.09,5132.52,VALLEY HOSPITAL MEDICAL CENTER,0.0,0.487,0.325,0.162,0.0,0.162,0.0,0.0
11.84,2.59,36.11363,-115.12573,30083.67,4669.08,DESERT SPRINGS HOSPITAL,0.0,0.132,0.66,0.132,0.0,0.0,0.396,0.0
9.41,2.22,39.54241,-119.69736,23397.00,3638.18,NORTHERN NEVADA MEDICAL CENTER,0.0,0.725,0.363,0.363,0.0,0.0,0.0,0.0
12.92,2.41,36.21599,-115.25095,33037.96,4165.62,MOUNTAINVIEW HOSPITAL,0.0,0.832,0.681,0.076,0.0,0.0,0.076,0.151
12.62,2.32,36.16586,-115.32436,32222.80,3926.80,SUMMERLIN HOSPITAL MEDICAL CENTER,0.0,0.286,0.381,0.095,0.0,0.0,0.095,0.0
13.37,2.80,36.00527,-115.11618,34267.88,5245.88,SAINT ROSE DOMINICAN HOSPITAL - SIENA CAMPUS,0.0,1.499,0.583,0.333,0.0,0.167,0.333,0.0
9.37,2.60,36.09056,-115.24058,23298.75,4683.50,SPRING VALLEY HOSPITAL MEDICAL CENTER,0.0,0.471,0.353,0.236,0.0,0.0,0.0,0.0
13.01,2.37,36.28588,-115.28772,33286.79,4045.00,CENTENNIAL HILLS HOSPITAL MEDICAL CENTER,0.0,1.113,1.78,0.0,0.0,0.0,0.445,0.0
6.58,2.39,43.19846,-71.56230,15614.21,4113.79,CONCORD HOSPITAL,0.0,0.539,0.449,0.449,0.0,0.09,0.0,0.0
6.73,3.01,43.67286,-72.27232,16029.21,5807.21,MARY HITCHCOCK MEMORIAL HOSPITAL,0.0,0.626,0.813,0.876,0.0,0.063,0.188,0.375
10.62,3.12,43.52835,-71.46291,26719.00,6123.18,LAKES REGION GENERAL HOSPITAL,0.0,0.512,0.768,0.256,0.0,0.0,0.0,0.0
4.20,2.36,43.00792,-71.46807,9095.67,4036.38,ELLIOT HOSPITAL,0.0,0.478,0.597,0.239,0.0,0.0,0.119,0.119
5.22,2.71,43.29811,-70.96148,11900.33,4985.93,FRISBIE MEMORIAL HOSPITAL,0.0,0.279,1.114,0.279,0.0,0.0,0.0,0.0
5.71,2.28,43.21231,-70.87499,13229.57,3811.95,WENTWORTH-DOUGLASS HOSPITAL,0.0,0.0,0.292,1.022,0.0,0.292,0.0,0.0
4.51,2.35,42.75623,-71.46059,9944.17,4011.58,SOUTHERN NH MEDICAL CENTER,0.0,0.182,0.547,0.182,0.0,0.0,0.0,0.0
4.09,2.27,42.98369,-70.93511,8781.35,3771.90,EXETER HOSPITAL INC,0.0,0.0,0.499,0.499,0.0,0.0,0.0,0.0
6.80,2.66,43.06469,-70.78916,16219.14,4863.07,PORTSMOUTH REGIONAL HOSPITAL,0.0,0.349,0.349,0.873,0.0,0.0,0.0,0.0
6.50,2.26,42.99121,-71.47426,15398.05,3741.91,CATHOLIC MEDICAL CENTER,0.0,0.855,0.122,1.099,0.0,0.122,0.0,0.0
11.55,2.76,40.88346,-74.05564,29268.79,5115.21,HACKENSACK UNIVERSITY MEDICAL CENTER,0.0,0.758,0.528,0.099,0.0,0.033,0.066,0.0
14.97,2.85,40.79576,-73.99575,38681.25,5370.00,PALISADES MEDICAL CTR-NY PRESBYTERIAN HEALTHCARE S,0.0,0.65,0.65,0.0,0.0,0.0,0.26,0.13
14.54,2.60,40.78556,-74.17598,37501.18,4677.45,CLARA MAASS MEDICAL CENTER,0.0,0.229,0.229,0.0,0.0,0.0,0.076,0.0
8.80,2.62,40.98359,-74.10047,21723.86,4746.05,VALLEY HOSPITAL,0.0,0.323,0.575,0.144,0.0,0.0,0.0,0.0
13.52,3.24,39.94152,-75.11680,34681.67,6445.92,COOPER UNIVERSITY HOSPITAL,0.0,0.644,0.725,0.403,0.0,0.161,0.081,0.242
10.26,2.76,40.78883,-74.46620,25734.44,5117.75,MORRISTOWN MEMORIAL HOSPITAL,0.039,0.739,0.428,0.389,0.0,0.078,0.311,0.0
12.10,2.42,40.95858,-74.31000,30787.23,4188.31,CHILTON HOSPITAL,0.0,0.633,0.527,0.0,0.0,0.211,0.211,0.0
20.25,3.14,40.90215,-74.16634,53167.52,6176.00,ST JOSEPH'S REGIONAL MEDICAL CENTER,0.0,1.325,0.442,0.294,0.0,0.0,0.392,0.196
12.56,2.35,39.78261,-74.91670,32050.56,4001.93,VIRTUA WEST JERSEY HOSPITALS BERLIN,0.0,0.183,0.402,0.365,0.0,0.037,0.146,0.037
25.25,2.45,40.66805,-74.11334,66913.81,4282.25,BAYONNE HOSPITAL CENTER,0.0,0.186,0.559,0.186,0.0,0.0,0.0,0.0
12.46,2.79,40.66005,-74.21417,31781.12,5221.88,TRINITAS REGIONAL MEDICAL CENTER,0.0,1.092,0.364,0.0,0.0,0.0,0.121,0.0
13.87,2.41,41.05754,-74.76857,35655.00,4163.58,NEWTON MEMORIAL HOSPITAL,0.0,0.0,0.138,0.688,0.0,0.0,0.275,0.0
16.85,2.77,39.92695,-75.09537,43838.22,5157.67,OUR LADY OF LOURDES MEDICAL CENTER,0.0,0.38,0.456,0.304,0.0,0.0,0.076,0.0
11.38,2.48,39.44743,-75.05838,28816.06,4368.71,SOUTH JERSEY HEALTHCARE REGIONAL MEDICAL CENTER,0.0,0.074,0.297,0.223,0.0,0.0,0.668,0.074
17.58,2.33,40.35309,-74.06484,45843.15,3951.80,RIVERVIEW MEDICAL CENTER,0.0,0.905,0.633,0.362,0.0,0.0,0.0,0.181
27.61,3.20,40.49581,-74.44980,73398.18,6344.75,ROBERT WOOD JOHNSON UNIVERSITY HOSPITAL,0.0,0.998,0.694,0.217,0.0,0.13,0.304,0.0
15.96,2.76,40.51891,-74.28183,41392.86,5126.50,RARITAN BAY MEDICAL CENTER,0.0,0.28,0.35,0.42,0.0,0.0,0.28,0.0
12.94,2.28,39.96484,-74.21708,33107.82,3807.54,COMMUNITY MEDICAL CENTER,0.0,0.096,0.767,0.32,0.0,0.032,0.256,0.096
17.32,2.76,40.90400,-73.96847,45117.25,5124.38,ENGLEWOOD HOSPITAL AND MEDICAL CENTER,0.0,0.254,0.254,0.254,0.0,0.0,0.0,0.0
22.93,2.56,40.56804,-74.59579,60555.60,4571.80,SOMERSET MEDICAL CENTER,0.0,0.336,0.605,0.336,0.0,0.0,0.135,0.0
10.43,2.41,40.89538,-74.46479,26212.30,4159.80,SAINT CLARE'S HOSPITAL,0.0,0.242,0.566,1.05,0.0,0.0,0.323,0.0
11.73,2.74,40.71264,-74.35460,29777.07,5075.29,OVERLOOK HOSPITAL,0.0,0.371,0.477,1.007,0.0,0.0,0.53,0.106
13.21,2.32,39.98588,-74.79393,33835.07,3909.83,VIRTUA MEMORIAL HOSPITAL OF BURLINGTON COUNTY,0.0,0.461,0.593,0.132,0.066,0.0,0.79,0.0
8.84,3.06,40.95698,-74.06295,21824.75,5965.08,BERGEN REGIONAL MEDICAL CENTER,0.0,0.0,1.377,0.0,0.0,0.0,0.689,0.0
11.04,2.62,40.70180,-75.17825,27885.73,4731.93,ST LUKE'S WARREN HOSPITAL,0.0,0.164,0.164,0.329,0.0,0.0,0.0,0.0
17.40,2.37,40.04632,-74.88059,45341.00,4048.76,LOURDES MEDICAL CENTER OF BURLINGTON COUNTY,0.0,0.65,0.813,0.488,0.0,0.0,0.813,0.325
13.46,2.47,39.35775,-74.43449,34513.79,4345.42,ATLANTICARE REGIONAL MEDICAL CENTER - CITY DIV,0.0,0.321,0.275,0.138,0.0,0.0,0.046,0.138
17.71,2.85,40.50214,-74.46015,46207.83,5377.67,SAINT PETER'S UNIVERSITY HOSPITAL,0.0,0.8,0.711,0.089,0.0,0.089,0.0,0.089
14.97,2.60,40.21065,-74.03566,38668.76,4692.29,JERSEY SHORE UNIVERSITY MEDICAL CENTER,0.0,0.574,0.533,0.123,0.0,0.041,0.164,0.0
14.52,2.92,40.76190,-74.30335,37450.57,5579.86,SAINT BARNABAS MEDICAL CENTER,0.0,1.419,0.405,0.558,0.0,0.0,0.203,0.101
11.56,2.36,39.84392,-75.14985,29307.80,4035.85,UNDERWOOD - MEMORIAL HOSPITAL,0.0,0.266,0.532,0.089,0.0,0.0,0.443,0.0
13.98,2.41,40.07503,-74.21832,35942.59,4162.18,KIMBALL MEDICAL CENTER,0.0,0.521,0.73,0.626,0.0,0.0,0.0,0.0
17.61,2.84,39.82811,-75.00895,45935.43,5355.41,KENNEDY UNIVERSITY HOSPITAL - STRATFORD DIV,0.0,0.241,0.762,0.08,0.0,0.0,0.321,0.04
12.06,2.39,39.59285,-75.44416,30683.08,4122.50,MEMORIAL HOSPITAL OF SALEM COUNTY,0.0,0.0,0.0,0.0,0.0,0.0,0.0,0.0
20.73,3.16,40.23629,-74.75256,54498.63,6215.10,CAPITAL HEALTH SYSTEM-FULD CAMPUS,0.0,1.59,0.397,0.132,0.0,0.0,0.0,0.0
5.27,3.18,35.08838,-106.61590,12021.89,6287.36,UNM HOSPITAL,0.0,0.375,0.125,0.625,0.0,0.125,0.25,0.25
6.41,2.81,35.65960,-105.94578,15164.24,5260.29,ST VINCENT HOSPITAL,0.0,0.575,0.575,0.431,0.0,0.0,0.144,0.0
8.24,3.28,32.92636,-105.93459,20196.54,6564.31,GERALD CHAMPION REGIONAL MEDICAL CENTE,0.0,0.0,0.573,0.286,0.0,0.0,0.0,0.0
4.99,2.65,36.72387,-108.21749,11265.08,4820.25,SAN JUAN REGIONAL MEDICAL CENTER,0.0,0.25,0.876,0.0,0.0,0.125,0.0,0.0
10.83,2.38,33.42340,-104.52748,27291.75,4072.06,EASTERN NEW MEXICO MEDICAL CENTER,0.0,0.25,0.501,0.25,0.0,0.0,0.0,0.0
5.53,2.88,35.99712,-106.08517,12741.18,5452.00,ESPANOLA HOSPITAL,0.0,0.0,0.691,0.0,0.0,0.0,0.0,0.0
7.52,2.40,32.29186,-106.73470,18210.70,4149.91,MEMORIAL MEDICAL CENTER INC,0.0,0.273,1.502,0.137,0.0,0.273,0.0,0.0
5.90,2.45,35.08102,-106.63392,13746.61,4284.29,PRESBYTERIAN HOSPITAL,0.0,0.402,1.155,0.502,0.0,0.0,0.201,0.05
6.46,2.28,32.44263,-104.25776,15288.43,3822.29,CARLSBAD MEDICAL CENTER,0.0,0.284,0.569,1.137,0.0,0.0,0.284,0.284
6.22,2.56,32.76065,-103.18088,14626.64,4568.73,LEA REGIONAL MEDICAL CENTER,0.0,0.0,0.483,0.0,0.0,0.0,0.0,0.0
6.98,2.60,41.92720,-73.99535,16724.42,4676.63,KINGSTON HOSPITAL,0.0,0.231,0.231,0.231,0.0,0.0,0.0,0.0
5.09,2.66,42.87482,-78.84942,11535.74,4866.53,KALEIDA HEALTH,0.0,0.439,0.576,0.686,0.0,0.027,0.274,0.027
2.71,2.96,40.92963,-73.89840,5001.53,5689.80,ST JOSEPH'S MEDICAL CENTER,0.0,0.358,0.538,0.0,0.0,0.0,4.302,0.179
4.37,4.20,40.83139,-73.90306,9543.85,9094.19,BRONX-LEBANON HOSPITAL CENTER,0.0,0.362,0.241,0.121,0.0,0.0,0.362,0.121
9.82,2.98,42.65345,-73.77543,24535.50,5731.37,ALBANY MEDICAL CENTER HOSPITAL,0.0,0.168,0.393,0.0,0.0,0.056,0.168,0.112
3.29,3.58,40.70141,-73.81630,6587.25,7385.08,JAMAICA HOSPITAL MEDICAL CENTER,0.0,0.0,0.195,0.293,0.0,0.0,0.391,0.0
7.45,3.83,40.79041,-73.95386,18015.45,8070.79,MOUNT SINAI HOSPITAL,0.024,0.568,0.331,0.047,0.0,0.024,0.378,0.142
6.81,4.05,40.72548,-73.55287,16249.45,8676.87,NASSAU UNIVERSITY MEDICAL CENTER,0.0,0.265,0.265,0.0,0.0,0.0,0.0,0.0
8.70,3.24,40.63588,-74.10556,21457.25,6441.88,RICHMOND UNIVERSITY MEDICAL CENTER,0.0,0.607,0.85,0.121,0.0,0.0,0.364,0.121
8.22,3.16,40.72567,-73.24189,20124.21,6230.00,SOUTHSIDE HOSPITAL,0.0,0.184,0.643,0.184,0.0,0.0,0.276,0.184
3.75,2.16,43.09840,-75.27819,7851.37,3467.79,FAXTON-ST LUKE'S HEALTHCARE,0.0,0.148,0.443,0.517,0.0,0.0,0.148,0.148
7.44,2.82,40.87946,-73.41621,17973.39,5288.18,HUNTINGTON HOSPITAL,0.061,0.121,0.303,0.061,0.0,0.0,0.0,0.061
9.14,3.56,40.80556,-73.96131,22669.18,7321.30,ST LUKE'S ROOSEVELT HOSPITAL,0.0,0.398,0.487,0.221,0.0,0.0,0.265,0.265
11.60,3.77,40.87987,-73.87996,29417.79,7901.59,MONTEFIORE MEDICAL CENTER,0.0,0.414,0.493,0.197,0.039,0.02,0.158,0.039
5.28,2.60,40.94161,-73.83650,12062.29,4700.65,LAWRENCE HOSPITAL CENTER,0.0,0.373,0.87,0.124,0.0,0.0,0.87,0.0
4.62,2.59,43.09378,-79.05038,10248.45,4659.70,NIAGARA FALLS MEMORIAL MEDICAL CENTER,0.0,0.0,0.996,0.0,0.0,0.0,0.0,0.249
8.41,2.76,41.71846,-73.92710,20654.05,5116.00,ST FRANCIS HOSPITAL,0.0,0.0,0.859,0.0,0.0,0.0,0.172,0.0
3.94,4.25,40.81770,-73.92401,8362.00,9231.06,LINCOLN MEDICAL & MENTAL HEALTH CENTER,0.0,0.0,0.674,0.269,0.0,0.0,0.0,0.0
2.74,2.31,44.85685,-74.29199,5079.45,3899.18,ALICE HYDE MEDICAL CENTER,0.0,0.391,1.173,0.0,0.0,0.0,0.0,0.0
4.34,2.29,42.24595,-73.77855,9472.94,3831.56,COLUMBIA MEMORIAL HOSPITAL,0.0,0.0,0.361,0.0,0.0,0.0,0.18,0.0
9.66,3.61,40.76487,-73.95398,24083.29,7459.01,NEW YORK-PRESBYTERIAN HOSPITAL,0.016,0.614,0.456,0.693,0.0,0.031,0.331,0.063
9.19,2.65,41.09642,-73.92501,22786.24,4828.41,NYACK HOSPITAL,0.0,0.282,0.376,0.0,0.0,0.0,0.282,0.0
8.97,3.08,40.77686,-73.70212,22176.37,6011.78,NORTH SHORE UNIVERSITY HOSPITAL,0.0,0.161,0.482,0.299,0.0,0.0,0.161,0.115
8.56,2.59,40.93376,-72.67383,21068.00,4670.93,PECONIC BAY MEDICAL CENTER,0.0,0.687,0.549,0.137,0.0,0.0,0.137,0.0
3.83,2.34,42.09221,-76.79733,8078.59,3961.73,ST JOSEPH'S HOSPITAL, INC,0.0,0.799,0.266,0.266,0.0,0.0,0.0,0.266
12.80,3.13,40.77362,-73.96093,32718.40,6136.65,LENOX HILL HOSPITAL,0.0,0.295,0.687,0.098,0.0,0.049,0.638,0.147
4.19,2.32,43.19244,-77.58590,9044.28,3932.60,ROCHESTER GENERAL HOSPITAL,0.0,0.267,0.667,0.044,0.0,0.089,0.667,0.133
11.04,2.53,41.44138,-74.36821,27871.81,4483.29,ORANGE REGIONAL MEDICAL CENTER,0.0,0.237,0.415,0.118,0.0,0.0,0.118,0.118
4.87,4.10,40.85407,-73.84688,10916.86,8812.93,JACOBI MEDICAL CENTER,0.0,0.306,0.613,0.153,0.0,0.0,0.153,0.0
4.67,3.88,40.74465,-73.88620,10374.85,8206.35,ELMHURST HOSPITAL CENTER,0.0,0.0,0.525,0.0,0.0,0.0,0.263,0.0
8.59,2.70,41.36763,-74.68150,21154.12,4950.47,BON SECOURS COMMUNITY HOSPITAL,0.0,0.289,1.735,0.0,0.0,0.0,0.0,0.0
8.15,2.74,43.05571,-76.14981,19945.93,5082.28,ST JOSEPH'S HOSPITAL HEALTH CENTER,0.044,0.618,0.751,1.458,0.0,0.0,0.486,0.088
9.64,2.53,40.78000,-72.97763,24017.04,4499.00,BROOKHAVEN MEMORIAL HOSPITAL MEDICAL CENTER,0.0,0.712,0.389,0.13,0.0,0.0,0.13,0.13
9.27,2.71,42.81963,-73.91653,23025.80,4980.73,ELLIS HOSPITAL,0.0,0.073,0.58,0.0,0.0,0.0,0.145,0.073
5.03,2.96,43.96519,-75.91511,11355.92,5679.00,SAMARITAN MEDICAL CENTER,0.0,0.179,0.714,0.0,0.0,0.0,0.0,0.0
8.50,2.68,41.11299,-74.13732,20901.09,4897.00,GOOD SAMARITAN HOSPITAL OF SUFFERN,0.0,0.302,0.302,0.101,0.0,0.0,0.0,0.0
6.37,3.07,40.58440,-74.08507,15056.04,5994.00,STATEN ISLAND UNIVERSITY HOSPITAL,0.0,0.163,0.449,0.122,0.0,0.0,0.286,0.0
3.26,2.35,43.17738,-78.67123,6493.87,3990.78,EASTERN NIAGARA HOSPITAL,0.0,0.0,0.706,0.0,0.0,0.0,1.177,0.0
10.00,2.98,40.74083,-73.64306,25021.00,5740.61,WINTHROP-UNIVERSITY HOSPITAL,0.0,0.079,0.473,0.236,0.0,0.039,0.709,0.079
10.11,3.56,40.73265,-73.98162,25326.37,7326.95,BETH ISRAEL MEDICAL CENTER,0.0,0.331,0.414,0.386,0.0,0.0,0.221,0.055
3.13,2.31,42.60884,-76.18764,6140.09,3898.27,CORTLAND REGIONAL MEDICAL CENTER, INC,0.0,0.493,0.739,2.464,0.0,0.0,0.739,0.0
3.73,2.14,42.73354,-73.67249,7786.82,3438.45,SAMARITAN HOSPITAL,0.0,0.0,0.573,0.191,0.0,0.0,0.191,0.0
4.92,3.13,40.91276,-73.78720,11051.00,6145.00,SOUND SHORE MEDICAL CENTER OF WESTSCHESTER,0.0,0.0,0.66,0.396,0.0,0.0,0.0,0.0
6.85,2.48,40.94000,-73.05510,16358.65,4353.76,JOHN T MATHER MEMORIAL HOSPITAL  OF PORT JEFFERSON,0.0,0.523,0.523,0.0,0.0,0.0,0.174,0.087
4.14,2.15,43.30652,-73.64663,8928.29,3442.08,GLENS FALLS HOSPITAL,0.0,0.276,0.644,0.552,0.0,0.0,0.552,0.0
8.00,3.66,40.63937,-73.99851,19528.52,7612.38,MAIMONIDES MEDICAL CENTER,0.0,0.866,0.414,0.226,0.0,0.113,1.581,0.038
10.05,3.48,40.75332,-73.70899,25151.76,7108.56,LONG ISLAND JEWISH MEDICAL CENTER,0.0,0.657,0.482,0.35,0.0,0.044,0.175,0.088
5.48,3.67,40.58549,-73.96558,12594.08,7618.42,CONEY ISLAND HOSPITAL,0.0,0.0,0.359,0.0,0.0,0.0,0.717,0.269
7.09,2.56,40.65189,-73.63096,17013.55,4588.15,SOUTH NASSAU COMMUNITIES HOSPITAL,0.0,0.469,1.093,0.469,0.0,0.052,0.26,0.0
4.62,4.21,40.78443,-73.94474,10238.47,9102.29,METROPOLITAN HOSPITAL CENTER,0.0,0.339,0.0,0.0,0.0,0.339,0.339,0.0
4.85,2.58,43.04139,-76.13803,10864.43,4640.14,CROUSE HOSPITAL,0.0,0.873,0.403,0.873,0.0,0.201,0.671,0.067
5.58,4.09,40.74178,-73.98236,12875.19,8773.71,BELLEVUE HOSPITAL CENTER,0.0,0.464,0.619,0.0,0.0,0.0,0.309,0.155
8.90,3.12,40.74335,-73.97408,22005.78,6113.39,NYU HOSPITALS CENTER,0.0,0.284,0.366,0.041,0.0,0.041,0.162,0.0
4.26,2.39,43.45491,-76.51645,9245.38,4115.08,OSWEGO HOSPITAL,0.0,0.481,1.443,0.241,0.0,0.0,0.722,0.0
5.48,3.06,42.92531,-78.83111,12590.52,5940.07,ERIE COUNTY MEDICAL CENTER,0.0,0.518,1.037,0.13,0.0,0.0,0.259,0.0
7.57,2.10,43.08561,-73.79712,18332.25,3307.25,SARATOGA HOSPITAL,0.0,0.303,1.212,1.667,0.0,0.0,0.0,0.303
3.92,2.29,43.19054,-77.70177,8306.23,3835.54,UNITY HOSPITAL OF ROCHESTER,0.0,0.174,0.696,0.261,0.0,0.087,0.174,0.174
8.01,4.46,40.71730,-73.80353,19543.64,9787.64,QUEENS HOSPITAL CENTER,0.0,0.22,0.22,0.22,0.0,0.0,0.0,0.0
7.07,2.38,42.94136,-76.56474,16977.73,4096.82,AUBURN COMMUNITY HOSPITAL,0.0,0.0,0.196,0.0,0.0,0.0,0.196,0.0
3.78,4.04,40.81477,-73.94027,7923.46,8656.69,HARLEM HOSPITAL CENTER,0.0,0.0,0.292,0.292,0.0,0.0,0.875,0.0
7.92,3.08,43.04269,-76.14043,19312.59,5999.29,UNIVERSITY HOSPITAL S U N Y HEALTH SCIENCE CENTER,0.0,0.942,0.6,0.171,0.0,0.257,0.771,0.257
4.15,2.28,43.08176,-75.26587,8939.68,3816.88,ST ELIZABETH MEDICAL CENTER,0.0,0.172,0.344,0.172,0.0,0.172,0.258,0.0
3.69,2.76,44.70022,-73.47100,7678.07,5125.93,CHAMPLAIN VALLEY PHYSICIANS HOSPITAL MEDICAL CTR,0.0,0.42,0.42,0.524,0.0,0.105,0.0,0.105
10.25,2.60,41.50307,-74.01517,25706.29,4697.14,ST LUKE'S CORNWALL HOSPITAL,0.0,0.202,0.404,0.303,0.0,0.0,0.0,0.0
5.30,2.42,41.38421,-73.66323,12116.19,4192.62,PUTNAM HOSPITAL CENTER,0.0,0.448,0.149,0.298,0.0,0.0,0.298,0.0
3.91,2.93,43.12266,-77.62360,8291.05,5589.75,STRONG MEMORIAL HOSPITAL,0.0,1.147,0.549,0.249,0.0,0.05,0.0,0.15
8.24,2.67,40.69327,-73.29412,20182.00,4871.08,GOOD SAMARITAN HOSPITAL MEDICAL CENTER,0.0,0.25,0.551,0.05,0.0,0.0,0.2,0.0
4.64,2.44,41.02614,-73.76978,10287.96,4237.08,WHITE PLAINS HOSPITAL CENTER,0.0,1.729,0.432,1.297,0.0,0.0,0.259,0.0
3.74,3.53,40.64666,-74.02049,7811.31,7249.31,LUTHERAN MEDICAL CENTER,0.0,0.073,0.732,0.22,0.0,0.0,0.513,0.0
5.44,2.92,40.72931,-73.85219,12486.23,5554.62,FOREST HILLS HOSPITAL,0.0,0.323,0.484,0.484,0.0,0.0,0.484,0.081
8.89,3.55,40.90922,-73.11520,21977.25,7291.03,UNIVERSITY HOSPITAL ( STONY BROOK ),0.0,1.247,0.208,0.364,0.0,0.0,0.052,0.104
5.14,2.42,42.11422,-75.95851,11677.35,4191.70,UNITED HEALTH SERVICES HOSPITALS, INC,0.0,0.075,0.451,0.226,0.0,0.15,0.226,0.226
4.37,3.96,40.69947,-73.94279,9556.00,8415.55,WOODHULL MEDICAL AND MENTAL HEALTH CENTER,0.0,0.0,0.0,0.0,0.0,0.0,0.251,0.251
6.08,3.80,40.67816,-73.93768,14260.67,7982.92,INTERFAITH MEDICAL CENTER,0.0,0.517,0.517,0.0,0.0,0.0,0.258,0.517
5.31,4.12,40.85263,-73.89184,12123.32,8872.00,ST BARNABAS HOSPITAL,0.0,0.153,0.153,0.153,0.0,0.0,0.612,0.306
4.30,2.36,35.43754,-80.60147,9361.93,4032.18,CAROLINAS MEDICAL CENTER-NORTHEAST,0.0,0.095,0.382,0.334,0.0,0.0,0.048,0.048
4.31,2.38,35.57658,-82.54922,9386.07,4076.03,MEMORIAL MISSION HOSPITAL AND ASHEVILLE SURGERY CE,0.026,0.157,0.628,0.262,0.0,0.052,0.052,0.079
3.60,2.33,36.48826,-80.61222,7432.25,3957.05,NORTHERN HOSPITAL OF SURRY COUNTY,0.0,0.282,0.282,0.0,0.0,0.0,0.0,0.282
4.75,2.32,34.75124,-79.46789,10583.42,3931.67,SCOTLAND MEMORIAL HOSPITAL,0.0,0.178,0.0,0.178,0.0,0.0,0.0,0.0
3.91,2.28,35.36251,-81.96692,8296.60,3814.40,RUTHERFORD HOSPITAL INC,0.0,0.182,0.546,0.0,0.0,0.0,0.182,0.0
5.68,2.77,36.07581,-80.29779,13156.74,5144.26,FORSYTH MEMORIAL HOSPITAL,0.0,1.353,0.819,0.392,0.0,0.0,0.036,0.107
5.08,2.22,35.68172,-80.47072,11504.69,3647.69,ROWAN REGIONAL MEDICAL CENTER,0.0,0.421,0.421,0.14,0.0,0.0,0.0,0.0
5.02,2.26,35.32080,-82.46812,11342.00,3757.69,MARGARET R PARDEE MEMORIAL HOSPITAL,0.0,0.0,0.61,0.488,0.0,0.122,0.244,0.244
6.91,2.18,35.46894,-79.18668,16532.00,3532.64,CENTRAL CAROLINA HOSPITAL,0.0,0.542,0.542,0.181,0.0,0.0,0.0,0.0
6.74,2.29,35.30288,-81.53571,16062.63,3832.05,CLEVELAND REGIONAL MEDICAL CENTER,0.0,0.327,0.327,0.218,0.0,0.0,0.0,0.109
9.68,2.59,35.03156,-78.93205,24152.82,4674.41,CAPE FEAR VALLEY MEDICAL CENTER,0.0,0.256,0.513,0.128,0.0,0.043,0.171,0.085
5.72,3.11,36.00850,-78.94006,13260.74,6091.58,DUKE UNIVERSITY HOSPITAL,0.0,0.531,0.425,0.708,0.0,0.035,0.496,0.106
5.53,2.49,35.27341,-81.13688,12740.78,4381.42,GASTON MEMORIAL HOSPITAL,0.0,0.197,0.442,0.59,0.0,0.0,0.0,0.049
6.16,2.53,35.79986,-80.87863,14463.14,4500.29,IREDELL MEMORIAL HOSPITAL INC,0.0,0.46,1.15,0.23,0.0,0.0,0.23,0.0
6.85,2.76,35.60726,-77.40477,16368.74,5133.68,PITT COUNTY MEMORIAL HOSPITAL,0.0,0.599,0.41,0.41,0.0,0.063,0.568,0.032
6.21,2.32,34.76273,-77.38582,14620.07,3910.14,ONSLOW MEMORIAL HOSPITAL,0.0,0.745,0.186,0.186,0.0,0.0,0.186,0.186
4.81,3.03,36.09062,-80.27161,10748.56,5877.69,NORTH CAROLINA BAPTIST HOSPITAL,0.0,0.638,0.567,0.425,0.0,0.0,0.284,0.071
5.44,2.61,34.63723,-79.01213,12490.00,4710.23,SOUTHEASTERN REGIONAL MEDICAL CENTER,0.0,0.077,0.232,0.772,0.0,0.0,0.0,0.154
5.80,2.34,35.22196,-80.83287,13484.55,3970.71,PRESBYTERIAN HOSPITAL,0.0,1.167,0.35,0.817,0.0,0.0,0.0,0.058
4.23,2.29,36.49464,-79.73929,9154.50,3836.81,MOREHEAD MEMORIAL HOSPITAL,0.0,0.209,0.0,0.836,0.0,0.0,0.418,0.0
4.62,3.17,35.90529,-79.04963,10249.30,6265.25,UNIVERSITY OF NORTH CAROLINA HOSPITAL,0.0,1.619,0.442,1.129,0.0,0.098,0.589,0.049
4.86,2.42,34.33747,-78.69425,10885.07,4190.29,COLUMBUS REGIONAL HEALTHCARE SYSTEM,0.0,0.176,0.352,0.0,0.0,0.0,0.0,0.0
6.24,2.53,35.78523,-78.58836,14681.68,4509.51,WAKEMED, RALEIGH CAMPUS,0.0,0.217,0.544,0.254,0.0,0.109,0.181,0.036
5.02,2.56,35.30715,-78.63474,11333.12,4587.82,BETSY JOHNSON REGIONAL  HOSPITAL,0.0,0.0,0.688,0.0,0.0,0.0,0.172,0.172
