size,lat,lon,price,name
2.10,35.83746,-90.70386,4688.55,ST BERNARDS MEDICAL CTR
2.84,34.46784,-93.06667,10329.31,ST JOSEPHS MERCY HEALTH CENTER INC
2.36,36.34295,-92.39442,6694.82,BAXTER REGIONAL MEDICAL CENTER
3.08,35.28275,-93.14901,12177.95,ST MARYS REGIONAL MEDICAL CENTER
2.64,35.37445,-94.41868,8820.45,SPARKS REGIONAL MEDICAL CENTER
3.04,34.18894,-92.01886,11874.76,JEFFERSON REGIONAL MEDICAL CENTER
3.82,34.48600,-93.03521,17797.25,NATIONAL PARK MEDICAL CENTER
4.64,35.60836,-91.26499,24033.94,HARRIS HOSPITAL
2.81,34.74866,-92.35422,10103.33,BAPTIST HEALTH MEDICAL CENTER-LITTLE ROCK
2.74,35.80838,-90.66658,9580.67,NEA BAPTIST MEMORIAL HOSPITAL
2.61,35.76927,-91.63408,8591.05,WHITE RIVER MEDICAL CENTER
6.40,37.63362,-122.08802,37408.92,ST ROSE HOSPITAL
4.64,40.78366,-124.14246,24008.50,ST JOSEPH HOSPITAL
5.34,38.32472,-122.29671,29361.55,QUEEN OF THE VALLEY MEDICAL CENTER
6.60,38.54384,-122.47401,38927.73,ST HELENA HOSPITAL
6.15,38.57053,-121.45216,35490.93,MERCY GENERAL HOSPITAL
4.44,40.89631,-124.09145,22482.73,MAD RIVER COMMUNITY HOSPITAL
4.84,39.50528,-121.54100,25580.00,OROVILLE HOSPITAL
5.56,37.31288,-121.93329,31020.43,SANTA CLARA VALLEY MEDICAL CENTER
3.93,34.67486,-118.15771,18625.06,ANTELOPE VALLEY HOSPITAL MED CENTER
4.19,36.32737,-119.29548,20577.47,KAWEAH DELTA MEDICAL CENTER
5.81,37.96987,-121.28873,32908.93,ST JOSEPHS MED CENTER OF STOCKTON
4.41,36.83532,-119.76562,22282.61,SAINT AGNES MEDICAL CENTER
4.30,34.10130,-117.63651,21407.12,SAN ANTONIO COMMUNITY HOSPITAL
5.82,32.79949,-117.15394,32981.60,SHARP MEMORIAL HOSPITAL
5.43,33.92798,-117.43847,30006.00,PARKVIEW COMMUNITY HOSPITAL MEDICAL CENTER
5.21,34.95099,-120.41322,28347.93,MARIAN MEDICAL CENTER
5.08,38.57155,-121.46874,27349.12,SUTTER GENERAL HOSPITAL
4.14,36.32362,-119.66726,20197.21,ADVENTIST MEDICAL CENTER
3.72,33.18402,-117.29661,17066.86,TRI-CITY MEDICAL CENTER
5.41,39.13822,-121.59436,29883.05,RIDEOUT MEMORIAL HOSPITAL
4.28,39.22809,-121.04721,21271.41,SIERRA NEVADA MEMORIAL HOSPITAL
5.95,33.96860,-118.04831,33971.17,PRESBYTERIAN INTERCOMMUNITY HOSPITAL
5.97,38.44369,-122.70138,34151.10,SANTA ROSA MEMORIAL HOSPITAL
6.73,33.83862,-116.54557,39898.37,DESERT REGIONAL MEDICAL CENTER
4.59,38.00655,-122.13312,23670.35,CONTRA COSTA REGIONAL MEDICAL CENTER
5.36,40.58654,-122.39168,29516.50,MERCY MEDICAL CENTER REDDING
4.78,34.03009,-118.47833,25081.53,SAINT JOHN'S HEALTH CENTER
6.13,37.85593,-122.25730,35358.50,ALTA BATES SUMMIT MEDICAL CENTER - ALTA BATES CAMP
5.01,38.76514,-121.24979,26800.80,SUTTER ROSEVILLE MEDICAL CENTER
5.41,32.88461,-117.22244,29891.08,SCRIPPS MEMORIAL HOSPITAL LA JOLLA
8.09,38.12186,-121.28665,50282.00,LODI MEMORIAL HOSPITAL
6.85,37.94748,-122.53677,40828.22,MARIN GENERAL HOSPITAL
3.90,33.82557,-117.99493,18384.00,WEST ANAHEIM MEDICAL CENTER
5.83,34.13364,-118.15275,33074.47,HUNTINGTON MEMORIAL HOSPITAL
12.00,37.43436,-122.18013,79965.72,STANFORD HOSPITAL
5.80,37.76421,-122.45716,32828.05,UCSF MEDICAL CENTER
4.41,35.38338,-119.01969,22250.27,SAN JOAQUIN COMMUNITY HOSPITAL
10.27,37.66540,-120.99743,66839.89,DOCTORS MEDICAL CENTER
5.50,37.69824,-122.08730,30595.80,EDEN MEDICAL CENTER
5.04,34.20777,-118.88305,27055.64,LOS ROBLES HOSPITAL & MEDICAL CENTER
4.88,38.46387,-121.41645,25882.31,METHODIST HOSPITAL OF SACRAMENTO
8.47,38.55484,-121.45628,53125.50,UNIVERSITY OF CALIFORNIA DAVIS MEDICAL CENTER
8.14,34.07664,-118.37955,50652.14,CEDARS-SINAI MEDICAL CENTER
4.70,34.47174,-117.29791,24482.73,DESERT VALLEY HOSPITAL
4.58,35.38506,-119.03992,23544.55,BAKERSFIELD HEART HOSPITAL
4.65,33.95076,-118.34828,24105.29,CENTINELA HOSPITAL MEDICAL CENTER
5.38,34.17067,-118.53200,29656.38,PROVIDENCE TARZANA MEDICAL CENTER
4.44,40.58532,-122.38702,22535.00,SHASTA REGIONAL MEDICAL CENTER
4.80,40.18134,-105.12769,25271.77,LONGMONT UNITED HOSPITAL
3.05,40.57315,-105.05741,11945.74,POUDRE VALLEY HOSPITAL
3.71,38.23421,-104.62292,16947.58,CENTURA HEALTH-ST MARY CORWIN MEDICAL CENTER
3.70,38.28184,-104.61256,16842.70,PARKVIEW MEDICAL CENTER INC
4.49,39.74234,-104.84156,22848.70,UNIVERSITY OF COLORADO HOSPITAL ANSCHUTZ INPATIENT
4.18,38.86559,-104.82182,20556.13,CENTURA HEALTH-PENROSE ST FRANCIS HEALTH SERVICES
4.61,39.73231,-104.93396,23762.95,ROSE MEDICAL CENTER
4.77,39.65399,-104.98116,25017.64,SWEDISH MEDICAL CENTER
3.58,41.77507,-72.69941,15994.56,ST FRANCIS HOSPITAL & MEDICAL CENTER
4.30,41.55959,-73.05941,21423.86,WATERBURY HOSPITAL
4.22,41.05562,-73.55390,20826.56,STAMFORD HOSPITAL
3.13,41.33722,-72.10380,12541.08,LAWRENCE & MEMORIAL HOSPITAL
3.75,41.18881,-73.16645,17244.55,BRIDGEPORT HOSPITAL
2.65,41.79153,-73.13382,8918.92,CHARLOTTE HUNGERFORD HOSPITAL
3.14,41.54301,-72.08799,12647.15,WILLIAM W BACKUS HOSPITAL
3.99,41.75412,-72.67927,19117.35,HARTFORD HOSPITAL
2.83,41.78185,-72.52591,10279.38,MANCHESTER MEMORIAL HOSPITAL
3.28,41.20049,-73.20281,13670.24,ST VINCENT'S MEDICAL CENTER
3.28,41.40474,-73.44739,13710.00,DANBURY HOSPITAL
3.25,41.66107,-72.78671,13484.19,HOSPITAL OF CENTRAL CONNECTICUT, THE
3.04,39.74954,-75.56662,11892.55,ST FRANCIS HOSPITAL
3.12,39.15135,-75.52309,12461.56,BAYHEALTH - KENT GENERAL HOSPITAL
4.81,38.90106,-77.05079,25343.77,GEORGE WASHINGTON UNIV HOSPITAL
3.62,38.91770,-77.02193,16253.89,HOWARD UNIVERSITY HOSPITAL
3.04,38.94397,-76.99040,11841.14,PROVIDENCE HOSPITAL
4.18,38.92944,-77.01473,20525.87,WASHINGTON HOSPITAL CENTER
4.55,30.34913,-81.66391,23365.26,SHANDS JACKSONVILLE MEDICAL CENTER
4.02,26.50479,-80.06979,19297.35,BETHESDA MEMORIAL HOSPITAL
4.35,28.52517,-81.37729,21849.66,ORLANDO HEALTH
6.88,25.78846,-80.21644,41079.45,UNIVERSITY OF MIAMI HOSPITAL
3.48,29.20117,-81.05828,15198.02,HALIFAX HEALTH MEDICAL CENTER
3.30,26.15053,-81.79919,13841.04,NAPLES COMMUNITY HOSPITAL
3.71,25.79143,-80.21250,16986.71,JACKSON MEMORIAL HOSPITAL
3.76,28.83363,-82.33561,17356.88,CITRUS MEMORIAL HOSPITAL
3.67,30.47650,-87.21219,16655.88,SACRED HEART HOSPITAL
3.52,30.15963,-85.64818,15523.71,BAY MEDICAL CENTER
5.11,25.86166,-80.21398,27569.09,NORTH SHORE MEDICAL CENTER
5.30,25.81317,-80.13996,29011.84,MOUNT SINAI MEDICAL CENTER
4.04,26.01867,-80.17981,19455.56,MEMORIAL REGIONAL HOSPITAL
3.13,30.30835,-81.68919,12573.00,ST VINCENT'S MEDICAL CENTER
4.52,27.19837,-80.24306,23082.77,MARTIN MEMORIAL MEDICAL CENTER
4.05,29.04263,-81.31635,19516.80,FLORIDA HOSPITAL DELAND
4.30,28.26092,-82.18802,21428.00,FLORIDA HOSPITAL ZEPHYRHILLS
3.59,26.94042,-82.04094,16057.88,CHARLOTTE REGIONAL MEDICAL CENTER
3.33,29.17594,-82.13898,14039.55,MUNROE REGIONAL MEDICAL CENTER
3.36,28.25431,-82.71447,14325.64,MORTON PLANT NORTH BAY HOSPITAL
3.50,27.78088,-82.65126,15354.11,ST ANTHONY'S HOSPITAL
3.14,27.09043,-82.44499,12621.48,VENICE REGIONAL MEDICAL CENTER
5.72,28.53906,-82.44193,32229.42,BROOKSVILLE REGIONAL HOSPITAL
3.98,26.18711,-80.11941,19009.83,HOLY CROSS HOSPITAL INC
4.18,26.98905,-82.09559,20500.21,PEACE RIVER REGIONAL MEDICAL CENTER
4.52,26.59805,-80.09271,23089.98,JFK MEDICAL CENTER
3.34,28.80659,-81.86906,14144.21,LEESBURG REGIONAL MEDICAL CENTER
2.96,26.27623,-80.12220,11226.76,BROWARD HEALTH NORTH BROWARD MEDICAL CENTER
3.98,30.31525,-81.66398,19024.91,BAPTIST MEDICAL CENTER
3.26,28.33522,-80.72319,13529.30,WUESTHOFF MEDICAL CENTER  ROCKLEDGE
3.21,30.43066,-87.23191,13128.54,BAPTIST HOSPITAL
2.73,27.65832,-80.39307,9479.56,INDIAN RIVER MEDICAL CENTER
3.97,26.61563,-81.65945,18921.27,LEHIGH REGIONAL MEDICAL CENTER
4.06,29.64155,-82.34844,19648.62,SHANDS HOSPITAL AT THE UNIVERSITY OF FLORIDA
3.47,30.27449,-81.40071,15148.30,BAPTIST MEDICAL CENTER  BEACHES
3.93,24.58076,-81.74233,18630.36,LOWER KEYS MEDICAL CENTER
4.20,28.06172,-81.95304,20701.91,LAKELAND REGIONAL MEDICAL CENTER
3.28,28.36005,-80.62309,13700.25,CAPE CANAVERAL HOSPITAL
5.86,27.80541,-82.72694,33299.87,ST PETERSBURG GENERAL HOSPITAL
4.69,26.26259,-80.20292,24381.53,NORTHWEST MEDICAL CENTER
4.30,27.48213,-82.62126,21423.59,BLAKE MEDICAL CENTER
4.74,26.12354,-80.25951,24780.33,WESTSIDE REGIONAL MEDICAL CENTER
2.73,29.64481,-81.69431,9473.08,PUTNAM COMMUNITY MEDICAL CENTER
4.57,27.93259,-82.28759,23520.62,BRANDON REGIONAL HOSPITAL
5.23,27.43392,-80.34350,28511.92,LAWNWOOD REGIONAL MEDICAL CENTER & HEART INSTITUTE
5.25,28.36128,-82.68883,28655.53,REGIONAL MEDICAL CENTER BAYONET POINT
5.17,26.43709,-80.12728,28019.57,DELRAY MEDICAL CENTER
7.62,27.71350,-82.36512,46660.62,SOUTH BAY HOSPITAL
5.36,27.28861,-80.29431,29488.06,ST LUCIE MEDICAL CENTER
4.64,28.53585,-82.53404,24019.93,OAK HILL HOSPITAL
3.56,28.03957,-82.70875,15778.55,MEASE COUNTRYSIDE HOSPITAL
4.62,26.01394,-80.30980,23895.73,MEMORIAL HOSPITAL WEST
5.27,26.21388,-81.73257,28798.64,PHYSICIANS REGIONAL MEDICAL CENTER - PINE RIDGE
4.35,26.70181,-80.05055,21811.92,GOOD SAMARITAN MEDICAL CENTER
3.57,27.38993,-82.43343,15888.91,LAKEWOOD RANCH MEDICAL CENTER
2.99,32.88710,-84.33393,11498.43,UPSON REGIONAL MEDICAL CENTER
2.81,34.94766,-85.26296,10114.38,HUTCHESON MEDICAL CENTER
3.11,31.59023,-84.15756,12424.43,PHOEBE PUTNEY MEMORIAL HOSPITAL
4.30,33.79230,-84.32107,21417.77,EMORY UNIVERSITY HOSPITAL
2.84,33.03204,-85.05781,10357.93,WEST GEORGIA MEDICAL CENTER
3.30,34.51192,-84.92579,13818.42,GORDON HOSPITAL
2.95,33.47096,-81.98176,11156.68,UNIVERSITY HOSPITAL
3.32,34.30335,-83.81737,13954.95,NORTHEAST GEORGIA MEDICAL CENTER, INC
4.28,34.19990,-84.79378,21289.17,CARTERSVILLE MEDICAL CENTER
3.39,33.47091,-81.98988,14511.75,MEDICAL COLLEGE OF GA HOSPITALS AND CLINICS
3.50,33.96770,-84.55011,15390.97,WELLSTAR KENNESTONE HOSPITAL
3.45,34.26000,-85.17000,15004.75,FLOYD MEDICAL CENTER
3.15,32.61642,-83.63065,12730.59,HOUSTON MEDICAL CENTER
3.41,33.96117,-83.39832,14696.48,ATHENS REGIONAL MEDICAL CENTER
3.33,33.78956,-84.28077,14091.27,DEKALB MEDICAL CENTER
3.02,33.76810,-84.38616,11676.05,EMORY UNIVERSITY HOSPITAL MIDTOWN
3.34,33.75205,-84.38272,14175.20,GRADY MEMORIAL HOSPITAL
3.22,33.90877,-84.35180,13218.67,SAINT JOSEPH'S HOSPITAL OF ATLANTA, INC
4.00,32.83041,-83.63476,19185.97,MEDICAL CENTER OF CENTRAL GEORGIA
3.20,30.86250,-83.28630,13062.09,SOUTH GEORGIA MEDICAL CENTER
3.27,33.85638,-84.60446,13642.62,WELLSTAR COBB HOSPITAL
2.49,30.78134,-81.61451,7685.45,SOUTHEAST GEORGIA HEALTH SYSTEM- CAMDEN CAMPUS
3.26,32.84705,-83.61823,13546.85,COLISEUM MEDICAL CENTER
3.46,33.57843,-84.38897,15051.71,SOUTHERN REGIONAL MEDICAL CENTER
3.48,33.48259,-82.09038,15183.87,DOCTORS HOSPITAL
6.23,34.06334,-84.31976,36088.36,NORTH FULTON REGIONAL HOSPITAL
3.48,21.30780,-157.85505,15185.31,THE QUEENS MEDICAL CENTER
2.93,43.61218,-116.19234,10990.00,ST LUKES REGIONAL MEDICAL CENTER
3.15,43.46987,-111.99208,12715.79,EASTERN IDAHO REGIONAL MEDICAL CENTER
3.64,42.06550,-87.68428,16431.22,EVANSTON HOSPITAL
3.49,41.86011,-87.69571,15300.41,MT SINAI HOSPITAL MEDICAL CENTER
2.55,39.12680,-88.55059,8116.82,ST ANTHONYS MEMORIAL HOSPITAL
2.53,38.52908,-89.11604,8020.92,ST MARYS HOSPITAL
3.91,41.89141,-87.77618,18476.62,WEST SUBURBAN MEDICAL CENTER
3.59,42.05624,-87.74012,16034.92,SKOKIE HOSPITAL
3.54,39.80726,-89.64496,15667.25,ST JOHNS HOSPITAL
3.28,41.83195,-87.79266,13721.00,MACNEAL  HOSPITAL
3.87,41.66900,-87.81414,18140.00,PALOS COMMUNITY HOSPITAL
3.67,40.70200,-89.59222,16674.46,SAINT FRANCIS MEDICAL CENTER
2.39,41.87259,-87.76181,6946.23,LORETTO HOSPITAL
3.87,42.37840,-87.83329,18169.30,VISTA MEDICAL CENTER EAST
4.27,40.11739,-88.22714,21225.75,PROVENA COVENANT MEDICAL CENTER- URBANA
4.45,41.97532,-87.69958,22611.12,SWEDISH COVENANT HOSPITAL
3.31,42.31832,-88.27920,13918.95,CENTEGRA HEALTH SYSTEM - MC HENRY HOSPITAL
4.02,41.80555,-87.92059,19292.77,HINSDALE HOSPITAL
5.28,38.70148,-90.14382,28893.30,GATEWAY REGIONAL MEDICAL CENTER
3.06,40.49639,-88.99106,12004.60,BROMENN HEALTHCARE
3.68,41.76946,-87.69239,16752.53,HOLY CROSS HOSPITAL
2.85,41.84639,-87.62345,10402.62,MERCY HOSPITAL AND MEDICAL CENTER
2.42,42.29592,-89.63773,7163.64,FHN MEMORIAL HOSPITAL
3.68,39.82659,-88.93119,16714.36,ST MARYS HOSPITAL
3.23,42.27597,-88.40019,13298.62,CENTEGRA HEALTH SYSTEM - WOODSTOCK HOSPITAL
4.07,41.72094,-87.69220,19669.37,LITTLE COMPANY OF MARY HOSPITAL
4.98,41.90414,-87.68254,26615.74,ST MARY & ELIZABETH MED CTR-DIVISION CAMPUS
3.48,41.12572,-87.88526,15229.54,RIVERSIDE MEDICAL CENTER
3.62,38.51081,-89.99014,16268.46,ST ELIZABETH HOSPITAL
2.29,39.48849,-88.27581,6147.06,SARAH BUSH LINCOLN HEALTH CENTER
3.49,41.86362,-87.93567,15263.17,ELMHURST MEMORIAL HOSPITAL
3.75,42.27447,-87.95764,17280.44,ADVOCATE CONDELL MEDICAL CENTER
3.44,41.72031,-87.73249,14916.65,ADVOCATE CHRIST HOSPITAL & MEDICAL CENTER
4.13,41.88566,-88.34311,20130.67,DELNOR COMMUNITY HOSPITAL
4.05,42.03576,-88.32575,19573.85,PROVENA - SAINT JOSEPH HOSPITAL
3.28,42.03837,-87.84820,13679.90,ADVOCATE LUTHERAN GENERAL HOSPITAL
3.70,42.26584,-89.07428,16914.76,SWEDISH AMERICAN HOSPITAL
3.37,42.29844,-89.09897,14360.29,ROCKFORD MEMORIAL HOSPITAL
2.87,41.48200,-90.57158,10604.17,TRINITY ROCK ISLAND
2.55,41.63466,-87.44901,8109.73,ST CATHERINE HOSPITAL INC
2.92,41.70568,-85.93404,10938.05,ELKHART GENERAL HOSPITAL
3.13,41.51266,-87.26125,12562.00,ST MARY MEDICAL CENTER INC
3.37,41.46729,-87.05130,14348.31,PORTER VALPARAISO HOSPITAL
4.04,39.79009,-86.16260,19490.11,INDIANA UNIVERSITY HEALTH
3.02,39.78704,-86.07673,11697.73,COMMUNITY HOSPITAL EAST
3.47,37.98293,-87.57072,15137.88,DEACONESS HOSPITAL INC
3.61,39.91001,-86.19660,16185.29,ST VINCENT HOSPITAL & HEALTH SERVICES
2.95,39.11138,-84.88343,11172.92,DEARBORN COUNTY HOSPITAL
3.03,40.09594,-85.68152,11788.06,SAINT JOHN'S HEALTH SYSTEM
3.85,40.19679,-85.41573,18055.82,INDIANA UNIVERSITY HEALTH BALL MEMORIAL HOSPITAL
3.45,37.96320,-87.50292,14964.92,ST MARY'S MEDICAL CENTER OF EVANSVILLE INC
3.31,39.21585,-85.89683,13938.45,COLUMBUS REGIONAL HOSPITAL
2.89,39.90060,-86.04218,10737.88,COMMUNITY HOSPITAL NORTH
2.68,42.49388,-94.18926,9100.25,TRINITY REGIONAL MEDICAL CENTER
4.27,41.26886,-95.83923,21191.45,ALEGENT HEALTH MERCY HOSPITAL
2.38,41.54190,-90.55691,6813.20,GENESIS MEDICAL CENTER-DAVENPORT
2.81,41.98570,-91.66093,10088.22,ST LUKES HOSPITAL
3.60,41.66092,-91.54800,16091.55,UNIVERSITY OF IOWA HOSPITAL & CLINICS
2.70,43.15063,-93.21718,9259.34,MERCY MEDICAL CENTER-NORTH IOWA
3.26,41.97864,-91.65507,13551.95,MERCY MEDICAL CENTER - CEDAR RAPIDS
3.35,41.59886,-93.62344,14234.09,MERCY MEDICAL CENTER-DES MOINES
2.44,41.61534,-93.64316,7265.69,BROADLAWNS MEDICAL CENTER
2.28,42.49250,-96.39975,6067.00,MERCY MEDICAL CENTER-SIOUX CITY
3.04,38.83324,-97.61028,11884.69,SALINA REGIONAL HEALTH CENTER
2.46,39.05660,-95.69599,7468.86,ST FRANCIS HEALTH CENTER INC
2.94,38.85279,-94.82413,11118.26,OLATHE MEDICAL CENTER
4.38,37.69556,-97.29785,22036.00,WESLEY MEDICAL CENTER
3.03,38.97848,-95.24771,11796.36,LAWRENCE MEMORIAL HOSPITAL
5.35,38.93763,-94.72630,29384.50,OVERLAND PARK REG MED CTR
2.85,39.07816,-84.46695,10385.86,ST ELIZABETH FT THOMAS
2.66,38.47021,-82.63498,8996.63,KING'S DAUGHTERS' MEDICAL CENTER
2.46,37.01079,-85.90342,7423.67,T J SAMSON COMMUNITY HOSPITAL
2.64,36.60615,-83.74024,8834.36,MIDDLESBORO APPALACHIAN REGIONAL HEALTHCARE HOSPIT
4.03,37.27729,-83.22802,19361.57,HAZARD ARH REGIONAL MEDICAL CENTER
2.71,39.06704,-84.49946,9316.48,ST ELIZABETH MEDICAL CENTER NORTH
2.60,37.76518,-87.10197,8489.32,OWENSBORO MEDICAL HEALTH SYSTEM
5.46,37.47264,-82.52605,30261.08,PIKEVILLE MEDICAL CENTER
6.28,37.81455,-82.81102,36464.50,PAUL B HALL REGIONAL MEDICAL CENTER
3.30,37.33959,-87.48988,13832.50,REGIONAL MEDICAL CENTER OF HOPKINS COUNTY
2.81,38.01849,-84.51236,10076.09,CENTRAL BAPTIST HOSPITAL
3.52,37.08724,-84.61828,15474.27,LAKE CUMBERLAND REGIONAL HOSPITAL
3.77,37.56166,-83.37202,17421.83,KENTUCKY RIVER MEDICAL CENTER
2.93,30.20227,-92.01906,11018.07,LAFAYETTE GENERAL MEDICAL CENTER
6.48,30.46813,-90.45814,37982.93,NORTH OAKS MEDICAL CENTER, LLC
4.34,31.28258,-92.46060,21745.08,CHRISTUS ST FRANCES CABRINI HOSPITAL
4.38,31.31451,-92.44997,22076.18,RAPIDES REGIONAL MEDICAL CENTER
2.99,30.40118,-91.11160,11519.11,OUR LADY OF THE LAKE REGIONAL MEDICAL CENTER
2.56,30.45015,-91.15273,8214.58,BATON ROUGE GENERAL MEDICAL CENTER
2.95,32.48393,-93.77884,11194.34,WILLIS KNIGHTON MEDICAL CENTER
3.22,30.01438,-90.18155,13212.93,EAST JEFFERSON GENERAL HOSPITAL
2.84,30.68494,-92.26601,10324.64,MERCY REGIONAL MEDICAL CENTER
2.80,43.65159,-70.26482,10043.55,MERCY HOSPITAL
3.03,43.65325,-70.27533,11776.51,MAINE MEDICAL CENTER
2.61,43.47840,-70.49221,8559.86,SOUTHERN MAINE MEDICAL CENTER
2.62,44.10107,-70.21432,8645.27,CENTRAL MAINE MEDICAL CENTER
2.13,39.62183,-77.68219,4919.96,MERITUS MEDICAL CENTER
2.38,39.28817,-76.62438,6861.45,UNIVERSITY OF MARYLAND MEDICAL CENTER
3.18,38.93090,-76.92161,12941.94,PRINCE GEORGES HOSPITAL CENTER
2.39,39.01578,-77.03591,6912.29,HOLY CROSS HOSPITAL
2.28,39.42366,-77.41386,6089.74,FREDERICK MEMORIAL HOSPITAL
2.21,39.54345,-76.09153,5561.32,HARFORD MEMORIAL HOSPITAL
2.23,39.38813,-76.61068,5717.00,SAINT JOSEPH MEDICAL CENTER
3.23,39.29688,-76.59242,13276.43,JOHNS HOPKINS HOSPITAL, THE
2.37,39.27352,-76.67219,6781.57,SAINT AGNES HOSPITAL
2.40,39.35262,-76.66196,7028.14,SINAI HOSPITAL OF BALTIMORE
2.32,39.35169,-76.47919,6367.31,FRANKLIN SQUARE HOSPITAL CENTER
2.22,39.15402,-77.05431,5592.18,MONTGOMERY GENERAL HOSPITAL INC
2.21,38.36248,-75.59799,5577.28,PENINSULA REGIONAL MEDICAL CENTER
2.59,38.99014,-76.53398,8423.82,ANNE ARUNDEL MEDICAL CENTER
2.37,39.32930,-76.61432,6799.35,UNION MEMORIAL HOSPITAL
2.33,38.29124,-76.63579,6490.64,SAINT MARY'S HOSPITAL
2.16,39.60859,-75.83201,5194.87,UNION HOSPITAL OF CECIL COUNTY
2.34,39.55808,-76.99107,6567.20,CARROLL HOSPITAL CENTER
2.16,38.52905,-76.97068,5210.08,CIVISTA MEDICAL CENTER
2.06,38.76970,-76.07697,4444.53,MEMORIAL HOSPITAL AT EASTON
2.54,39.29994,-76.62138,8055.31,MARYLAND GENERAL  HOSPITAL
2.24,39.35852,-76.78208,5790.05,NORTHWEST HOSPITAL CENTER
2.08,39.13732,-76.62228,4589.91,BALTIMORE WASHINGTON  MEDICAL CENTER
2.49,39.21273,-76.88526,7672.47,HOWARD COUNTY GENERAL HOSPITAL
2.07,39.51870,-76.34688,4482.18,UPPER CHESAPEAKE MEDICAL CENTER
2.44,38.74827,-76.87590,7282.58,SOUTHERN MARYLAND HOSPITAL CENTER
2.27,39.35962,-76.58851,6015.91,GOOD SAMARITAN HOSPITAL
2.34,39.09796,-77.19799,6562.28,SHADY GROVE ADVENTIST HOSPITAL
2.52,42.37441,-71.13378,7911.57,MOUNT AUBURN HOSPITAL
2.83,42.70912,-71.14877,10246.36,LAWRENCE GENERAL HOSPITAL
2.89,42.27872,-71.06625,10704.67,CARNEY HOSPITAL
2.22,42.07708,-72.04298,5607.08,HARRINGTON MEMORIAL HOSPITAL
2.60,41.69217,-71.16474,8501.50,SAINT ANNE'S HOSPITAL
2.78,42.20038,-72.62762,9872.82,HOLYOKE MEDICAL CENTER
2.44,42.81476,-70.89068,7330.33,ANNA JAQUES HOSPITAL
2.65,42.56407,-70.87543,8875.75,BEVERLY HOSPITAL CORPORATION
3.91,42.51078,-70.90712,18511.42,NORTH SHORE MEDICAL CENTER
2.37,42.34896,-71.14768,6733.15,ST ELIZABETH'S MEDICAL CENTER
3.22,42.35375,-71.55485,13228.43,MARLBOROUGH HOSPITAL
2.61,42.03597,-71.09792,8593.05,SIGNATURE HEALTHCARE BROCKTON HOSPITAL
2.31,41.94445,-70.64511,6278.69,JORDAN HOSPITAL INC
2.51,42.64636,-71.34118,7798.15,LOWELL GENERAL HOSPITAL
2.35,42.46049,-71.06203,6611.23,HALLMARK HEALTH SYSTEM
4.77,42.36227,-71.06941,25007.29,MASSACHUSETTS GENERAL HOSPITAL
2.36,41.90456,-71.09562,6668.48,MORTON HOSPITAL
2.87,41.70928,-71.14519,10597.73,SOUTHCOAST HOSPITAL GROUP, INC
3.09,42.12077,-72.60525,12238.32,BAYSTATE MEDICAL CENTER
2.61,42.72846,-71.16830,8626.31,HOLY FAMILY HOSPITAL
2.55,42.64529,-71.30052,8124.38,SAINTS  MEDICAL CENTER INC
2.69,42.17644,-70.95398,9235.23,SOUTH SHORE HOSPITAL
5.32,42.33600,-71.10704,29167.36,BRIGHAM AND WOMEN'S HOSPITAL
2.20,42.09864,-71.06607,5496.69,GOOD SAMARITAN MEDICAL CENTER
2.51,42.18869,-71.20197,7797.16,NORWOOD HOSPITAL
2.55,42.76256,-71.04507,8144.67,MERRIMACK VALLEY HOSPITAL
2.58,42.28385,-71.41896,8374.14,METROWEST MEDICAL CENTER
2.09,42.63347,-83.30925,4607.73,DOCTORS' HOSPITAL OF MICHIGAN
2.87,42.45741,-83.20513,10540.58,PROVIDENCE HOSPITAL AND MEDICAL CENTERS
2.93,42.29077,-83.21504,10994.34,OAKWOOD HOSPITAL AND MEDICAL CENTER
2.48,41.93815,-84.98935,7591.85,COMMUNITY HEALTH CENTER OF BRANCH COUNTY
2.78,42.61425,-83.27602,9883.21,ST JOSEPH MERCY OAKLAND
2.65,42.96881,-85.66649,8911.81,SPECTRUM HEALTH - BUTTERWORTH CAMPUS
2.76,43.58941,-83.86908,9763.75,MCLAREN BAY REGION
2.79,42.61490,-82.96060,9938.44,HENRY FORD MACOMB HOSPITAL
3.52,42.36762,-83.08461,15526.69,HENRY FORD HOSPITAL
2.40,43.22169,-86.24283,6989.31,MERCY HEALTH PARTNERS, HACKLEY CAMPUS
3.03,43.42857,-83.95556,11768.49,COVENANT MEDICAL CENTER, INC
2.88,42.77487,-86.11378,10669.83,HOLLAND COMMUNITY HOSPITAL
2.80,42.33111,-85.17817,10015.86,BRONSON BATTLE CREEK HOSPITAL
2.97,43.42612,-83.94185,11357.28,ST MARY'S OF MICHIGAN MEDICAL CENTER
3.50,42.25117,-84.39240,15380.44,ALLEGIANCE HEALTH
3.53,43.02135,-83.70308,15584.50,HURLEY MEDICAL CENTER
2.58,42.21065,-83.14861,8391.95,HENRY FORD WYANDOTTE HOSPITAL
3.46,42.70417,-84.55488,15071.94,MCLAREN - GREATER LANSING
2.94,42.11695,-83.21365,11134.08,OAKWOOD SOUTHSHORE MEDICAL CENTER
3.11,42.89254,-83.63621,12369.79,GENESYS REGIONAL MEDICAL CENTER - HEALTH PARK
2.79,42.63849,-83.29062,9952.05,MCLAREN OAKLAND
2.67,42.98625,-82.42802,9055.93,PORT HURON HOSPITAL
2.47,46.43131,-84.28107,7563.27,CHIPPEWA COUNTY WAR MEMORIAL HOSPITAL
2.36,42.33215,-83.31195,6699.75,GARDEN CITY HOSPITAL
2.93,42.67850,-83.14771,11029.08,CRITTENTON HOSPITAL MEDICAL CENTER
3.17,42.61826,-83.09239,12845.29,WILLIAM BEAUMONT HOSPITAL-TROY
3.63,42.35295,-83.05447,16323.16,DETROIT RECEIVING HOSPITAL & UNIV HEALTH CENTER
2.89,42.59290,-83.49920,10702.75,HURON VALLEY-SINAI HOSPITAL
2.82,42.53914,-83.40777,10208.92,HENRY FORD WEST BLOOMFIELD HOSPITAL
2.72,46.79380,-92.09573,9461.83,ESSENTIA HEALTH ST MARY'S MEDICAL CENTER
3.36,44.97210,-93.26240,14328.03,HENNEPIN COUNTY MEDICAL CENTER
3.49,45.57390,-94.16942,15296.18,ST CLOUD HOSPITAL
3.24,46.79634,-92.08793,13353.19,ST LUKES HOSPITAL
6.12,44.95248,-93.26196,35235.26,ABBOTT NORTHWESTERN HOSPITAL
2.61,46.36166,-94.20573,8569.89,ESSENTIA HEALTH ST JOSEPH'S MEDICAL CENTER
3.39,44.88645,-93.32693,14498.14,FAIRVIEW SOUTHDALE HOSPITAL
4.91,44.95570,-93.09429,26038.25,REGIONS HOSPITAL
4.24,45.18355,-93.36789,21016.44,MERCY HOSPITAL
3.89,45.10789,-93.25685,18312.81,UNITY HOSPITAL
3.06,44.74846,-93.27289,12025.24,FAIRVIEW RIDGES HOSPITAL
2.75,34.24336,-88.71753,9684.78,NORTH MISSISSIPPI MEDICAL CENTER
3.81,32.28805,-90.25566,17727.00,CENTRAL MISSISSIPPI MEDICAL CENTER
3.81,32.31643,-90.17922,17708.55,MISSISSIPPI BAPTIST MEDICAL CENTER
3.12,32.37280,-88.69954,12481.45,ANDERSON REGIONAL MEDICAL CENTER
4.59,31.56044,-91.40317,23615.31,NATCHEZ COMMUNITY HOSPITAL/SWING BED
2.42,30.31288,-89.35571,7149.27,HANCOCK MEDICAL CENTER
3.57,37.06032,-94.52747,15899.57,ST JOHN'S REGIONAL MEDICAL CENTER
3.67,36.23658,-90.04315,16658.21,TWIN RIVERS REGIONAL MEDICAL CENTER
3.42,37.95144,-91.75940,14719.07,PHELPS COUNTY REGIONAL MEDICAL CENTER
2.36,38.16498,-90.38082,6696.21,JEFFERSON REGIONAL MEDICAL CENTER
2.52,39.71116,-91.45071,7941.45,HANNIBAL REGIONAL HOSPITAL
4.68,39.00717,-94.55925,24339.85,RESEARCH MEDICAL CENTER
3.15,38.63524,-90.26508,12670.53,BARNES JEWISH HOSPITAL
2.62,39.08401,-94.57591,8700.37,TRUMAN MEDICAL CENTER HOSPITAL HILL
3.57,37.17999,-93.27409,15859.84,ST JOHN'S REGIONAL HEALTH CENTER
2.69,38.50661,-90.38025,9175.12,ST ANTHONY'S MEDICAL CENTER
2.84,36.73801,-91.87553,10311.37,OZARKS MEDICAL CENTER
3.48,38.63268,-90.31089,15196.94,SSM ST MARYS HEALTH CENTER
3.18,36.64970,-93.22138,12943.29,SKAGGS REGIONAL MEDICAL CENTER
4.65,39.04749,-94.34105,24121.37,CENTERPOINT MEDICAL CENTER OF INDEPENDENCE, LLC
3.24,38.75097,-90.43255,13404.00,SSM DEPAUL HEALTH CENTER
3.80,38.62280,-90.24049,17671.54,ST LOUIS UNIVERSITY HOSPITAL
3.06,37.31072,-89.53990,11983.07,SOUTHEAST MISSOURI HOSPITAL
2.65,37.79962,-90.44045,8925.23,MINERAL AREA REGIONAL MEDICAL CENTER
4.45,36.78510,-90.42779,22544.09,POPLAR BLUFF REGIONAL MEDICAL CENTER
3.88,37.05238,-94.52777,18216.00,FREEMAN HEALTH SYSTEM - FREEMAN WEST
3.88,39.04761,-94.59037,18234.18,ST LUKES HOSPITAL OF KANSAS CITY
3.06,38.95171,-92.33407,11993.93,UNIVERSITY OF MISSOURI HEALTH CARE
2.61,37.78031,-90.43967,8585.73,PARKLAND HEALTH CENTER
2.79,39.27591,-94.42572,9943.19,LIBERTY HOSPITAL
3.00,38.77576,-90.23906,11580.21,CHRISTIAN HOSPITAL NORTHEAST
3.00,38.12027,-92.68146,11531.54,LAKE REGIONAL HEALTH SYSTEM
5.66,38.94062,-94.37842,31788.43,SAINT LUKE'S EAST LEE'S SUMMIT HOSPITAL
2.59,46.58297,-111.99684,8450.65,ST PETER'S HOSPITAL
2.88,46.00924,-112.54613,10629.25,ST JAMES HEALTHCARE
3.40,41.25522,-95.97892,14587.03,THE NEBRASKA MEDICAL CENTER
4.42,41.26509,-95.95494,22324.44,CREIGHTON UNIVERSITY MEDICAL CENTER - SAINT JOSEPH
2.98,41.25797,-96.04164,11373.92,THE NEBRASKA METHODIST HOSPITAL
3.37,41.88690,-103.66400,14340.00,REGIONAL WEST MEDICAL CENTER
2.66,41.12081,-100.77062,8962.55,GREAT PLAINS REGIONAL MEDICAL CENTER
2.70,41.23771,-96.18052,9303.69,ALEGENT HEALTH LAKESIDE HOSPITAL
6.04,36.13459,-115.13576,34677.26,SUNRISE HOSPITAL AND MEDICAL CENTER
5.90,36.03931,-114.98259,33622.72,SAINT ROSE DOMINICAN HOSPITAL - DE LIMA
3.81,39.20247,-119.78446,17741.19,CARSON TAHOE REGIONAL MEDICAL CENTER
7.18,36.16380,-115.16574,43309.09,VALLEY HOSPITAL MEDICAL CENTER
4.56,39.54241,-119.69736,23397.00,NORTHERN NEVADA MEDICAL CENTER
5.83,36.21599,-115.25095,33037.96,MOUNTAINVIEW HOSPITAL
5.72,36.16586,-115.32436,32222.80,SUMMERLIN HOSPITAL MEDICAL CENTER
5.99,36.00527,-115.11618,34267.88,SAINT ROSE DOMINICAN HOSPITAL - SIENA CAMPUS
5.86,36.28588,-115.28772,33286.79,CENTENNIAL HILLS HOSPITAL MEDICAL CENTER
3.53,43.19846,-71.56230,15614.21,CONCORD HOSPITAL
3.59,43.67286,-72.27232,16029.21,MARY HITCHCOCK MEMORIAL HOSPITAL
4.99,43.52835,-71.46291,26719.00,LAKES REGION GENERAL HOSPITAL
2.68,43.00792,-71.46807,9095.67,ELLIOT HOSPITAL
3.22,43.21231,-70.87499,13229.57,WENTWORTH-DOUGLASS HOSPITAL
2.79,42.75623,-71.46059,9944.17,SOUTHERN NH MEDICAL CENTER
2.63,42.98369,-70.93511,8781.35,EXETER HOSPITAL INC
3.61,43.06469,-70.78916,16219.14,PORTSMOUTH REGIONAL HOSPITAL
5.33,40.88346,-74.05564,29268.79,HACKENSACK UNIVERSITY MEDICAL CENTER
6.57,40.79576,-73.99575,38681.25,PALISADES MEDICAL CTR-NY PRESBYTERIAN HEALTHCARE S
4.34,40.98359,-74.10047,21723.86,VALLEY HOSPITAL
6.04,39.94152,-75.11680,34681.67,COOPER UNIVERSITY HOSPITAL
4.87,40.78883,-74.46620,25734.44,MORRISTOWN MEMORIAL HOSPITAL
5.70,39.78261,-74.91670,32050.56,VIRTUA WEST JERSEY HOSPITALS BERLIN
10.28,40.66805,-74.11334,66913.81,BAYONNE HOSPITAL CENTER
5.27,39.44743,-75.05838,28816.06,SOUTH JERSEY HEALTHCARE REGIONAL MEDICAL CENTER
7.51,40.35309,-74.06484,45843.15,RIVERVIEW MEDICAL CENTER
6.93,40.51891,-74.28183,41392.86,RARITAN BAY MEDICAL CENTER
7.42,40.90400,-73.96847,45117.25,ENGLEWOOD HOSPITAL AND MEDICAL CENTER
4.93,40.89538,-74.46479,26212.30,SAINT CLARE'S HOSPITAL
5.40,40.71264,-74.35460,29777.07,OVERLOOK HOSPITAL
4.35,40.95698,-74.06295,21824.75,BERGEN REGIONAL MEDICAL CENTER
7.44,40.04632,-74.88059,45341.00,LOURDES MEDICAL CENTER OF BURLINGTON COUNTY
6.02,39.35775,-74.43449,34513.79,ATLANTICARE REGIONAL MEDICAL CENTER - CITY DIV
6.41,40.76190,-74.30335,37450.57,SAINT BARNABAS MEDICAL CENTER
6.21,40.07503,-74.21832,35942.59,KIMBALL MEDICAL CENTER
8.65,40.23629,-74.75256,54498.63,CAPITAL HEALTH SYSTEM-FULD CAMPUS
3.47,35.65960,-105.94578,15164.24,ST VINCENT HOSPITAL
2.96,36.72387,-108.21749,11265.08,SAN JUAN REGIONAL MEDICAL CENTER
5.07,33.42340,-104.52748,27291.75,EASTERN NEW MEXICO MEDICAL CENTER
3.40,32.76065,-103.18088,14626.64,LEA REGIONAL MEDICAL CENTER
3.68,41.92720,-73.99535,16724.42,KINGSTON HOSPITAL
3.00,42.87482,-78.84942,11535.74,KALEIDA HEALTH
2.14,40.92963,-73.89840,5001.53,ST JOSEPH'S MEDICAL CENTER
4.71,42.65345,-73.77543,24535.50,ALBANY MEDICAL CENTER HOSPITAL
2.35,40.70141,-73.81630,6587.25,JAMAICA HOSPITAL MEDICAL CENTER
3.85,40.79041,-73.95386,18015.45,MOUNT SINAI HOSPITAL
3.62,40.72548,-73.55287,16249.45,NASSAU UNIVERSITY MEDICAL CENTER
4.30,40.63588,-74.10556,21457.25,RICHMOND UNIVERSITY MEDICAL CENTER
2.51,43.09840,-75.27819,7851.37,FAXTON-ST LUKE'S HEALTHCARE
4.46,40.80556,-73.96131,22669.18,ST LUKE'S ROOSEVELT HOSPITAL
2.83,43.09378,-79.05038,10248.45,NIAGARA FALLS MEMORIAL MEDICAL CENTER
4.20,41.71846,-73.92710,20654.05,ST FRANCIS HOSPITAL
2.58,40.81770,-73.92401,8362.00,LINCOLN MEDICAL & MENTAL HEALTH CENTER
2.15,44.85685,-74.29199,5079.45,ALICE HYDE MEDICAL CENTER
2.73,42.24595,-73.77855,9472.94,COLUMBIA MEMORIAL HOSPITAL
4.48,41.09642,-73.92501,22786.24,NYACK HOSPITAL
4.40,40.77686,-73.70212,22176.37,NORTH SHORE UNIVERSITY HOSPITAL
4.25,40.93376,-72.67383,21068.00,PECONIC BAY MEDICAL CENTER
2.54,42.09221,-76.79733,8078.59,ST JOSEPH'S HOSPITAL, INC
2.67,43.19244,-77.58590,9044.28,ROCHESTER GENERAL HOSPITAL
5.15,41.44138,-74.36821,27871.81,ORANGE REGIONAL MEDICAL CENTER
4.26,41.36763,-74.68150,21154.12,BON SECOURS COMMUNITY HOSPITAL
4.10,43.05571,-76.14981,19945.93,ST JOSEPH'S HOSPITAL HEALTH CENTER
4.64,40.78000,-72.97763,24017.04,BROOKHAVEN MEMORIAL HOSPITAL MEDICAL CENTER
4.51,42.81963,-73.91653,23025.80,ELLIS HOSPITAL
2.33,43.17738,-78.67123,6493.87,EASTERN NIAGARA HOSPITAL
4.81,40.73265,-73.98162,25326.37,BETH ISRAEL MEDICAL CENTER
2.29,42.60884,-76.18764,6140.09,CORTLAND REGIONAL MEDICAL CENTER, INC
2.50,42.73354,-73.67249,7786.82,SAMARITAN HOSPITAL
2.93,40.91276,-73.78720,11051.00,SOUND SHORE MEDICAL CENTER OF WESTSCHESTER
2.65,43.30652,-73.64663,8928.29,GLENS FALLS HOSPITAL
4.79,40.75332,-73.70899,25151.76,LONG ISLAND JEWISH MEDICAL CENTER
3.72,40.65189,-73.63096,17013.55,SOUTH NASSAU COMMUNITIES HOSPITAL
4.37,40.74335,-73.97408,22005.78,NYU HOSPITALS CENTER
2.70,43.45491,-76.51645,9245.38,OSWEGO HOSPITAL
3.14,42.92531,-78.83111,12590.52,ERIE COUNTY MEDICAL CENTER
3.89,43.08561,-73.79712,18332.25,SARATOGA HOSPITAL
2.57,43.19054,-77.70177,8306.23,UNITY HOSPITAL OF ROCHESTER
4.05,40.71730,-73.80353,19543.64,QUEENS HOSPITAL CENTER
3.71,42.94136,-76.56474,16977.73,AUBURN COMMUNITY HOSPITAL
2.52,40.81477,-73.94027,7923.46,HARLEM HOSPITAL CENTER
4.02,43.04269,-76.14043,19312.59,UNIVERSITY HOSPITAL S U N Y HEALTH SCIENCE CENTER
4.86,41.50307,-74.01517,25706.29,ST LUKE'S CORNWALL HOSPITAL
3.07,41.38421,-73.66323,12116.19,PUTNAM HOSPITAL CENTER
4.13,40.69327,-73.29412,20182.00,GOOD SAMARITAN HOSPITAL MEDICAL CENTER
2.51,40.64666,-74.02049,7811.31,LUTHERAN MEDICAL CENTER
3.02,42.11422,-75.95851,11677.35,UNITED HEALTH SERVICES HOSPITALS, INC
2.71,35.57658,-82.54922,9386.07,MEMORIAL MISSION HOSPITAL AND ASHEVILLE SURGERY CE
2.87,34.75124,-79.46789,10583.42,SCOTLAND MEMORIAL HOSPITAL
3.21,36.07581,-80.29779,13156.74,FORSYTH MEMORIAL HOSPITAL
2.99,35.68172,-80.47072,11504.69,ROWAN REGIONAL MEDICAL CENTER
2.97,35.32080,-82.46812,11342.00,MARGARET R PARDEE MEMORIAL HOSPITAL
3.59,35.30288,-81.53571,16062.63,CLEVELAND REGIONAL MEDICAL CENTER
3.22,36.00850,-78.94006,13260.74,DUKE UNIVERSITY HOSPITAL
3.38,35.79986,-80.87863,14463.14,IREDELL MEMORIAL HOSPITAL INC
3.63,35.60726,-77.40477,16368.74,PITT COUNTY MEMORIAL HOSPITAL
3.40,34.76273,-77.38582,14620.07,ONSLOW MEMORIAL HOSPITAL
2.89,36.09062,-80.27161,10748.56,NORTH CAROLINA BAPTIST HOSPITAL
3.25,35.22196,-80.83287,13484.55,PRESBYTERIAN HOSPITAL
2.83,35.90529,-79.04963,10249.30,UNIVERSITY OF NORTH CAROLINA HOSPITAL
2.91,34.33747,-78.69425,10885.07,COLUMBUS REGIONAL HEALTHCARE SYSTEM
3.41,35.78523,-78.58836,14681.68,WAKEMED, RALEIGH CAMPUS
2.70,36.09251,-79.78855,9277.50,MOSES H CONE MEMORIAL HOSPITAL, THE
3.90,35.21029,-80.82084,18425.50,CAROLINAS MED CENTER-MERCY
3.71,34.90228,-79.71125,16962.33,SANDHILLS REGIONAL MEDICAL CENTER
2.95,35.36457,-80.19450,11172.85,STANLY REGIONAL MEDICAL CENTER
3.68,35.71850,-77.94518,16739.83,WILSON MEDICAL CENTER
3.58,35.54775,-80.85563,15971.41,LAKE NORMAN REGIONAL MEDICAL CENTER
2.47,34.97382,-80.52250,7554.83,CAROLINAS MEDICAL CENTER-UNION
3.11,35.83976,-77.07310,12416.09,MARTIN GENERAL HOSPITAL
2.77,34.72615,-76.75452,9813.93,CARTERET GENERAL HOSPITAL
3.02,36.43295,-77.64729,11711.67,HALIFAX REGIONAL MEDICAL CENTER INC
3.30,36.04960,-78.90617,13824.32,DURHAM REGIONAL HOSPITAL
3.42,35.11432,-80.71971,14724.00,PRESBYTERIAN HOSPITAL MATTHEWS
2.40,35.52586,-82.94351,6983.43,MEDWEST HAYWOOD
2.52,46.88496,-96.78609,7874.29,SANFORD MEDICAL CENTER FARGO
3.31,39.08582,-84.34886,13951.00,MERCY HOSPITAL ANDERSON
3.02,39.13707,-84.50392,11732.96,UNIVERSITY HOSPITAL, INC
3.25,40.03064,-83.03440,13493.97,RIVERSIDE METHODIST HOSPITAL
2.71,38.75320,-82.97800,9382.46,SOUTHERN OHIO MEDICAL CENTER
2.00,40.51393,-81.45644,3956.46,UNION HOSPITAL
3.48,39.96098,-82.99077,15242.07,GRANT MEDICAL CENTER
3.49,41.01476,-81.58913,15299.36,SUMMA HEALTH SYSTEM BARBERTON HOSPITAL
2.76,41.44642,-82.70864,9751.27,FIRELANDS REGIONAL MEDICAL CENTER
3.30,41.07747,-81.53042,13835.46,AKRON GENERAL MEDICAL CENTER
2.00,40.82041,-81.93422,3961.85,WOOSTER COMMUNITY HOSPITAL
2.79,41.38265,-81.73127,9938.94,PARMA COMMUNITY GENERAL HOSPITAL
2.91,41.61788,-83.61632,10841.69,UNIVERSITY OF TOLEDO MEDICAL CENTER
4.39,39.74547,-84.18523,22109.63,MIAMI VALLEY HOSPITAL
5.34,39.78778,-84.23493,29379.67,GOOD SAMARITAN HOSPITAL
2.32,40.81219,-81.39625,6386.60,MERCY MEDICAL CENTER
2.44,39.71750,-82.57772,7336.05,FAIRFIELD MEDICAL CENTER
2.91,41.17554,-81.24915,10890.75,ROBINSON MEMORIAL HOSPITAL
3.18,41.63639,-83.48640,12957.92,MERCY ST CHARLES HOSPITAL
2.80,41.59825,-81.54884,10069.33,EUCLID HOSPITAL
4.06,39.99445,-83.01872,19650.38,OHIO STATE UNIVERSITY HOSPITALS
3.57,41.66317,-81.24696,15853.36,LAKE HEALTH
4.87,41.66810,-83.54275,25743.24,MERCY ST VINCENT MEDICAL CENTER
3.41,40.75264,-82.52803,14656.17,MEDCENTRAL HEALTH SYSTEM
2.53,41.43653,-81.94451,7991.18,ST JOHN MEDICAL CENTER
3.44,41.42112,-81.59808,14921.85,MARYMOUNT HOSPITAL
2.97,41.36649,-82.09708,11364.29,EMH REGIONAL MEDICAL CENTER
3.02,40.80656,-81.51633,11729.00,AFFINITY MEDICAL CENTER
4.16,41.37028,-81.83189,20381.46,SOUTHWEST GENERAL HEALTH CENTER
2.96,41.43688,-82.23761,11235.68,MERCY REGIONAL MEDICAL CENTER
3.32,41.50248,-81.62110,13973.47,CLEVELAND CLINIC
3.46,41.48479,-81.79649,15079.33,LAKEWOOD HOSPITAL
3.16,41.52013,-81.43291,12761.10,HILLCREST HOSPITAL
3.00,36.72564,-97.06859,11593.91,PONCA CITY MEDICAL CENTER
4.06,34.00655,-96.39398,19582.40,MEDICAL CENTER OF SOUTHEASTERN OKLAHOMA
2.36,36.75199,-95.94089,6685.88,JANE PHILLIPS MEDICAL CENTER
3.34,34.77442,-96.63477,14146.86,VALLEY VIEW REGIONAL HOSPITAL
3.07,35.75351,-95.40612,12062.26,MUSKOGEE REGIONAL MEDICAL CENTER
3.48,35.52531,-97.58461,15201.14,DEACONESS HOSPITAL
3.00,35.47800,-97.52352,11535.17,ST ANTHONY HOSPITAL
2.39,35.04453,-94.61214,6928.25,EASTERN OKLAHOMA MEDICAL CENTER
2.87,34.18908,-97.14128,10557.25,MERCY MEMORIAL HEALTH CENTER
2.04,33.88091,-94.81273,4262.18,MCCURTAIN MEMORIAL HOSPITAL
3.67,36.14675,-95.99969,16665.43,OKLAHOMA STATE UNIVERSITY MEDICAL CENTER
4.18,35.46721,-97.39370,20558.43,MIDWEST REGIONAL MEDICAL CENTER
2.79,35.97828,-96.75746,9980.41,CUSHING REGIONAL HOSPITAL
2.81,36.13393,-95.96718,10089.26,ST JOHN MEDICAL CENTER, INC
4.55,36.03590,-95.86511,23352.79,SOUTHCREST HOSPITAL
3.37,42.42112,-123.34326,14349.13,THREE RIVERS COMMUNITY HOSPITAL
3.49,45.53028,-122.69692,15283.42,LEGACY GOOD SAMARITAN MEDICAL CENTER
3.25,42.31769,-122.83333,13485.23,ROGUE VALLEY MEDICAL CENTER
3.02,44.06773,-121.26817,11742.17,ST CHARLES MEDICAL CENTER - BEND
2.91,44.93267,-123.03418,10846.59,SALEM HOSPITAL
3.54,42.34086,-122.86108,15633.92,PROVIDENCE MEDFORD MEDICAL CENTER
3.08,41.40075,-75.64594,12191.28,COMMUNITY MEDICAL CENTER
4.32,40.96789,-76.60506,21620.79,GEISINGER MEDICAL CENTER
5.53,42.11102,-80.07912,30814.63,SAINT VINCENT HEALTH CENTER
2.15,41.01409,-80.35398,5089.82,JAMESON MEMORIAL HOSPITAL
4.08,40.43609,-79.98537,19796.06,UPMC MERCY
2.34,40.71251,-80.32136,6507.64,HERITAGE VALLEY BEAVER
2.24,40.18302,-80.24767,5788.18,WASHINGTON HOSPITAL, THE
2.76,41.24548,-77.01438,9734.64,WILLIAMSPORT REGIONAL MEDICAL CENTER
3.28,40.45705,-80.00363,13655.17,ALLEGHENY GENERAL HOSPITAL
5.86,40.10226,-74.86338,33271.37,LOWER BUCKS HOSPITAL
3.51,40.52204,-78.39824,15426.42,ALTOONA REGIONAL HEALTH SYSTEM
2.98,40.04740,-76.30540,11402.00,LANCASTER GENERAL HOSPITAL
5.75,40.12453,-75.33533,32474.42,MONTGOMERY HOSPITAL
5.59,39.95045,-75.19259,31244.21,HOSPITAL OF UNIV OF PENNSYLVANIA
5.01,40.07160,-74.98341,26834.96,ARIA HEALTH
3.62,40.24397,-75.61364,16248.00,POTTSTOWN MEMORIAL MEDICAL CENTER
5.03,40.60000,-75.47000,26974.62,LEHIGH VALLEY HOSPITAL
3.41,39.93492,-77.64744,14656.23,CHAMBERSBURG HOSPITAL
5.43,39.92871,-75.26873,29996.15,MERCY FITZGERALD HOSPITAL
4.07,40.68708,-75.24272,19710.06,EASTON HOSPITAL
4.03,39.94969,-75.15712,19366.95,THOMAS JEFFERSON UNIVERSITY HOSPITAL
2.76,41.41133,-80.37169,9740.09,UPMC HORIZON
9.31,39.85598,-75.36791,59536.33,CROZER CHESTER MEDICAL CENTER
2.70,40.83130,-75.72794,9311.58,GNADEN HUETTEN MEMORIAL HOSPITAL
3.10,40.99225,-75.17466,12328.92,POCONO MEDICAL CENTER
2.67,40.37782,-80.06589,9043.13,ST CLAIR MEMORIAL HOSPITAL
5.74,40.12077,-75.11818,32420.08,ABINGTON MEMORIAL HOSPITAL
3.75,40.20064,-74.92952,17226.53,ST MARY MEDICAL CENTER
2.01,40.31802,-79.93494,4006.08,JEFFERSON REGIONAL MEDICAL CENTER
3.09,40.81936,-77.84273,12259.83,MOUNT NITTANY MEDICAL CENTER
4.10,41.25855,-75.81041,19904.91,GEISINGER WYOMING VALLEY MEDICAL CENTER
9.13,39.95658,-75.16249,58167.56,HAHNEMANN UNIVERSITY HOSPITAL
3.42,41.86943,-71.37561,14754.33,MEMORIAL HOSPITAL OF RHODE ISLAND
3.84,41.81254,-71.40760,17923.92,RHODE ISLAND HOSPITAL
3.97,41.85172,-71.39826,18936.79,MIRIAM HOSPITAL
3.62,34.96733,-81.94021,16285.94,SPARTANBURG REGIONAL MEDICAL CENTER
3.34,34.69403,-82.98884,14110.13,OCONEE MEDICAL CENTER
4.23,34.02839,-81.03539,20892.07,PALMETTO HEALTH RICHLAND
5.23,34.71787,-80.78844,28477.93,SPRINGS MEMORIAL HOSPITAL
2.90,35.08901,-81.63335,10822.71,UPSTATE CAROLINA MEDICAL CENTER
3.47,33.78555,-79.00178,15102.46,CONWAY MEDICAL CENTER
3.92,34.19543,-79.76256,18562.85,MCLEOD REGIONAL MEDICAL CENTER-PEE DEE
4.27,34.17571,-82.15791,21189.05,SELF REGIONAL HEALTHCARE
3.96,34.81904,-82.41308,18825.81,GREENVILLE MEMORIAL HOSPITAL
6.08,32.97605,-80.07302,34933.03,TRIDENT MEDICAL CENTER
3.53,32.22325,-80.71444,15593.64,HILTON HEAD REGIONAL MEDICAL CENTER
3.59,33.70704,-78.89487,16005.58,GRAND STRAND REG MED CENTER
3.34,33.59553,-79.02412,14162.06,WACCAMAW COMMUNITY HOSPITAL
3.13,43.53460,-96.71136,12558.50,AVERA MCKENNAN HOSPITAL & UNIVERSITY HEALTH CENTER
3.22,43.53562,-96.74305,13244.62,SANFORD USD MEDICAL CENTER
2.55,35.63906,-88.83207,8106.56,JACKSON-MADISON COUNTY GENERAL HOSPITAL
4.82,36.24440,-86.75204,25409.70,SKYLINE MEDICAL CENTER
3.16,35.93917,-85.01865,12763.31,CUMBERLAND MEDICAL CENTER
2.60,36.58587,-82.25703,8537.60,WELLMONT BRISTOL REGIONAL MEDICAL CENTER
3.06,36.55401,-82.55483,12050.97,WELLMONT HOLSTON VALLEY MEDICAL CENTER
3.70,36.58199,-87.27050,16900.60,GATEWAY MEDICAL CENTER
3.69,34.50579,-92.96678,16838.82,HORIZON MEDICAL CENTER
3.74,35.12837,-89.86202,17176.46,BAPTIST MEMORIAL HOSPITAL
2.97,35.86074,-86.42434,11367.20,MIDDLE TENNESSEE MEDICAL CENTER INC
2.83,36.10641,-83.51924,10273.18,TENNOVA HEALTHCARE-JEFFERSON MEMORIAL HOSPITAL
2.96,35.17733,-86.09081,11251.88,SOUTHERN TENNESSEE MEDICAL CENTER
2.51,36.17121,-85.50938,7864.86,COOKEVILLE REGIONAL MEDICAL CENTER
3.28,36.33465,-88.86858,13686.74,VOLUNTEER COMMUNITY HOSPITAL
3.00,36.30767,-82.38497,11584.14,JOHNSON CITY MEDICAL CENTER
3.01,35.85418,-83.53731,11622.64,LECONTE MEDICAL CENTER
3.08,36.12859,-86.84559,12186.22,ST THOMAS HOSPITAL
3.10,35.05068,-85.28823,12339.39,ERLANGER MEDICAL CENTER
2.70,35.99233,-83.92697,9268.48,TENNOVA HEALTHCARE
2.79,35.95747,-83.93660,9985.00,FORT SANDERS REGIONAL MEDICAL CENTER
2.66,36.29611,-88.31178,8958.86,HENRY COUNTY MEDICAL CENTER
3.12,36.15388,-86.80249,12485.36,BAPTIST HOSPITAL
5.35,35.14261,-90.03138,29433.69,REGIONAL MEDICAL CENTER AT MEMPHIS
3.40,35.24230,-87.33474,14564.64,CROCKETT HOSPITAL
3.44,36.55057,-82.51465,14927.36,INDIAN PATH MEDICAL CENTER
4.13,35.09925,-89.86301,20122.33,ST FRANCIS HOSPITAL
4.48,35.17731,-84.86873,22797.95,SKYRIDGE MEDICAL CENTER
2.66,36.38340,-85.32302,8989.58,LIVINGSTON REGIONAL HOSPITAL
3.31,35.68445,-88.85461,13902.91,REGIONAL HOSPITAL OF JACKSON
3.53,36.32443,-86.62304,15608.91,HENDERSONVILLE MEDICAL CENTER
3.66,35.97510,-86.56688,16566.08,STONECREST MEDICAL CENTER
3.51,33.90296,-98.50035,15414.43,UNITED REGIONAL HEALTH CARE SYSTEM
4.00,30.65598,-96.34672,19176.76,ST JOSEPH REGIONAL HEALTH CENTER
4.05,32.81043,-96.83699,19571.50,PARKLAND HEALTH AND HOSPITAL SYSTEM
3.50,32.78994,-96.78044,15336.70,BAYLOR UNIVERSITY MEDICAL CENTER
3.01,28.81269,-96.97780,11607.44,CITIZENS MEDICAL CENTER
3.13,26.17446,-97.67014,12545.13,VHS HARLINGEN HOSPITAL COMPANY LLC
3.66,29.74802,-95.36609,16580.35,ST JOSEPH MEDICAL CENTER
3.49,32.50219,-94.73025,15296.73,GOOD SHEPHERD MEDICAL CENTER
3.95,32.72621,-97.32659,18811.14,JPS HEALTH NETWORK
7.90,33.57524,-101.89272,48788.44,COVENANT MEDICAL CENTER
3.34,31.51444,-97.19927,14177.53,PROVIDENCE HEALTH CENTER
3.11,31.07837,-97.36403,12403.92,SCOTT & WHITE MEMORIAL HOSPITAL
4.11,29.43360,-98.49265,19957.76,BAPTIST MEDICAL CENTER
3.19,32.74944,-97.11630,12970.31,TEXAS HEALTH ARLINGTON MEMORIAL HOSPITAL
5.18,29.71431,-95.39680,28129.44,MEMORIAL HERMANN TEXAS MEDICAL CENTER
3.23,32.83520,-96.96101,13289.23,BAYLOR MEDICAL CENTER AT IRVING
4.49,29.66575,-95.18131,22911.59,BAYSHORE MEDICAL CENTER
7.13,31.76998,-106.49897,42951.58,LAS PALMAS MEDICAL CENTER
5.20,26.26353,-98.18455,28296.88,SOUTH TEXAS HEALTH SYSTEM
4.02,30.27438,-97.73395,19336.64,UNIVERSITY MEDICAL CENTER AT BRACKENRIDGE
3.56,31.99616,-102.09950,15842.18,MIDLAND MEMORIAL HOSPITAL
3.76,32.73780,-97.33899,17296.57,TEXAS HEALTH HARRIS METHODIST FORT WORTH
4.82,28.80765,-96.99896,25377.27,DETAR HOSPITAL NAVARRO
2.89,31.11326,-97.80076,10753.84,METROPLEX HOSPITAL
4.11,29.81230,-95.43010,20007.46,MEMORIAL HERMANN HOSPITAL SYSTEM
4.28,29.70719,-95.40048,21282.08,ST LUKES EPISCOPAL HOSPITAL
4.57,31.96072,-95.27098,23481.85,EAST TEXAS MEDICAL CENTER JACKSONVILLE
3.93,35.19934,-101.92186,18620.26,NORTHWEST TEXAS HOSPITAL
5.16,30.28473,-95.46714,27994.89,CONROE REGIONAL MEDICAL CENTER
3.27,35.19533,-101.91907,13634.12,BAPTIST ST ANTHONYS HEALTH SYSTEM-BAPTIST CAMPUS
3.07,29.68674,-95.38652,12102.95,HARRIS COUNTY HOSPITAL DISTRICT
2.73,33.12242,-96.12404,9470.56,HUNT REGIONAL MEDICAL CENTER
4.82,29.50795,-98.57224,25409.22,METHODIST HOSPITAL
4.58,32.17167,-95.84417,23552.39,EAST TEXAS MEDICAL CENTER ATHENS
4.02,32.08509,-96.50376,19339.87,NAVARRO REGIONAL HOSPITAL
2.99,31.46574,-100.43466,11467.79,SHANNON MEDICAL CENTER
4.37,33.17345,-97.11382,21996.58,DENTON REGIONAL MEDICAL CENTER
4.91,30.01994,-95.44379,26040.60,HOUSTON NORTHWEST MEDICAL CENTER
4.81,29.72913,-95.59429,25289.33,WEST HOUSTON MEDICAL CENTER
5.69,33.02168,-96.76621,31997.81,MEDICAL CENTER OF PLANO
4.49,31.65212,-94.65488,22905.73,NACOGDOCHES MEDICAL CENTER
4.58,32.67614,-97.32079,23565.80,HUGULEY HEALTH SYSTEM
3.59,29.99677,-95.27641,16063.09,MEMORIAL HERMANN NORTHEAST
3.01,33.58838,-101.89214,11627.22,UNIVERSITY MEDICAL CENTER
4.20,29.35295,-98.54601,20676.21,SOUTHWEST GENERAL HOSPITAL
4.22,30.22723,-97.77447,20803.29,ST DAVID'S SOUTH AUSTIN MEDICAL CENTER
4.33,32.64448,-96.87635,21629.00,METHODIST CHARLTON MEDICAL CENTER
4.33,27.69288,-97.34476,21645.79,CORPUS CHRISTI MEDICAL CENTER,THE
4.98,29.96603,-95.55127,26644.18,METHODIST WILLOWBROOK HOSPITAL
4.81,30.40505,-97.74357,25301.73,SETON  NORTHWEST HOSPITAL
3.12,40.24999,-111.66524,12473.69,UTAH VALLEY REGIONAL MEDICAL CENTER
2.85,40.56454,-112.29609,10435.67,MOUNTAIN WEST MEDICAL CENTER
2.61,37.09986,-113.55271,8566.33,DIXIE REGIONAL MEDICAL CENTER
3.04,41.09098,-111.99557,11858.25,DAVIS HOSPITAL AND MEDICAL CENTER
3.00,40.58979,-111.97499,11536.00,JORDAN VALLEY MEDICAL CENTER
3.98,44.47966,-73.19412,19014.25,FLETCHER ALLEN HOSPITAL OF VERMONT
3.24,43.59828,-72.95512,13384.06,RUTLAND REGIONAL MEDICAL CENTER
2.97,36.89897,-82.07851,11317.73,RUSSELL COUNTY MEDICAL CENTER
2.36,38.40552,-78.85730,6718.64,ROCKINGHAM MEMORIAL HOSPITAL
2.46,39.19345,-78.19599,7453.62,WINCHESTER MEDICAL CENTER INC
3.25,36.86268,-76.30355,13476.62,SENTARA NORFOLK GENERAL HOSPITAL
3.94,38.02573,-78.51526,18703.55,UNIVERSITY OF VIRGINIA MEDICAL CENTER
3.18,36.89933,-76.28157,12903.20,BON SECOURS - DEPAUL MEDICAL CENTER
2.52,38.09436,-78.98659,7922.25,AUGUSTA HEALTH
2.62,37.41368,-79.16870,8681.37,CENTRA  HEALTH, INC
2.83,37.25129,-79.94125,10231.90,CARILION ROANOKE MEMORIAL CENTER
3.36,37.54330,-77.42932,14312.20,MEDICAL COLLEGE OF VIRGINIA HOSPITALS
2.75,38.82218,-77.10533,9670.55,INOVA ALEXANDRIA HOSPITAL
3.27,39.07405,-77.47754,13599.94,INOVA LOUDOUN HOSPITAL
3.07,36.77378,-76.57856,12124.00,SENTARA OBICI HOSPITAL
3.02,37.06523,-76.48417,11685.38,RIVERSIDE REGIONAL MEDICAL CENTER
3.31,38.85764,-77.22772,13905.11,INOVA FAIRFAX HOSPITAL
3.18,37.33700,-76.74046,12917.46,SENTARA WILLIAMSBURG REGIONAL MEDICAL CENTER
6.21,37.18253,-77.35957,35945.00,SOUTHSIDE REGIONAL MEDICAL CENTER
3.16,36.69555,-79.86374,12756.77,MEMORIAL HOSPITAL OF MARTINSVILLE & HENRY COUNTY
2.84,37.05580,-76.39048,10323.79,SENTARA CAREPLEX HOSPITAL
2.65,37.54014,-77.40666,8890.00,BON SECOURS - RICHMOND COMMUNITY HOSPITAL
2.75,36.95477,-81.09687,9648.36,WYTHE COUNTY COMMUNITY HOSPITAL
4.14,47.71468,-122.33762,20213.62,NORTHWEST HOSPITAL
3.46,47.58295,-122.62506,15022.16,HARRISON MEDICAL CENTER
3.18,46.13039,-122.94110,12962.91,PEACHEALTH ST JOHN MEDICAL CENTER
4.43,45.62460,-122.58145,22426.17,PEACEHEALTH SOUTHWEST MEDICAL CENTER
3.96,47.64936,-117.41194,18845.69,PROVIDENCE SACRED HEART MEDICAL CENTER
3.37,46.28132,-119.28218,14351.47,KADLEC REGIONAL MEDICAL CENTER
3.26,47.60351,-122.32305,13511.86,HARBORVIEW MEDICAL CENTER
2.68,48.11504,-123.41519,9142.64,OLYMPIC MEDICAL CENTER
3.01,47.70969,-117.40722,11650.27,PROVIDENCE HOLY FAMILY HOSPITAL
4.01,47.17742,-122.28943,19250.71,MULTICARE GOOD SAMARITAN HOSPITAL
3.41,47.44243,-122.21392,14673.11,VALLEY MEDICAL CENTER
3.63,47.25980,-122.45243,16330.52,TACOMA GENERAL ALLENMORE HOSPITAL
3.83,47.29252,-122.32729,17889.23,ST FRANCIS COMMUNITY HOSPITAL
4.15,47.36373,-122.61353,20262.64,ST ANTHONY HOSPITAL
3.01,39.65498,-79.95814,11607.38,WEST VIRGINIA UNIVERSITY HOSPITALS
2.61,39.32836,-80.23964,8602.89,UNITED HOSPITAL CENTER
2.92,38.43236,-82.40067,10935.80,ST MARY'S MEDICAL CENTER
3.21,38.34739,-81.62600,13169.98,CHARLESTON AREA MEDICAL CENTER
3.14,39.27035,-81.56026,12648.76,CAMDEN CLARK MEDICAL CENTER
2.42,37.78754,-81.20183,7153.21,RALEIGH GENERAL HOSPITAL
2.57,44.24830,-88.40268,8304.80,ST ELIZABETH HSPTL
2.93,44.18700,-88.45431,11016.33,THEDA CLARK MED CTR
2.36,44.01282,-88.60296,6728.53,MERCY MED CTR OF OSHKOSH
3.27,43.06195,-87.87861,13591.20,COLUMBIA ST MARYS HSPTL  MILW (COL & MILW CAMPUS)
2.74,42.68685,-89.03244,9603.69,MERCY HLTH SYS CORP
3.52,44.81192,-91.51352,15534.00,MAYO CLINIC HEALTH SYSTEM EAU CLAIRE HOSPITAL
2.80,42.73444,-87.82788,10062.40,WHEATON FRANCISCAN HEALTHCARE- ALL SAINTS
3.31,43.07633,-89.43133,13904.62,UNIVERSITY OF WI  HOSPITALS & CLINICS AUTHORITY
3.96,43.07393,-87.97612,18883.21,WHEATON FRANCISCAN, INC- ST JOSEPH
4.07,42.98958,-87.95079,19684.36,AURORA ST LUKES MEDICAL CENTER
3.34,43.00120,-88.02675,14117.12,AURORA WEST ALLIS MEDICAL CENTER
3.52,43.04008,-88.02523,15531.09,FROEDTERT MEM LUTHERAN HSPTL
3.69,42.84802,-106.30851,16805.27,WYOMING MEDICAL CENTER
2.84,41.14037,-104.81660,10356.95,CHEYENNE REGIONAL MEDICAL CENTER
4.35,30.56899,-97.65104,21792.46,SETON MEDICAL CENTER WILLIAMSON
3.66,29.61578,-98.47479,16581.44,METHODIST STONE OAK HOSPITAL
2.46,34.36605,-86.42127,7467.40,MARSHALL MEDICAL CENTER NORTH
3.32,33.59616,-86.66750,13982.85,ST VINCENT'S EAST
3.04,34.43845,-85.75574,11869.36,DEKALB REGIONAL MEDICAL CENTER
3.34,33.25607,-86.81035,14105.11,SHELBY BAPTIST MEDICAL CENTER
2.74,32.63806,-85.40413,9588.44,EAST ALABAMA MEDICAL CENTER AND SNF
3.41,33.50619,-86.80210,14658.83,UNIVERSITY OF ALABAMA HOSPITAL
2.46,34.20768,-86.87489,7476.50,CULLMAN REGIONAL MEDICAL CENTER
3.02,33.66767,-85.83420,11741.23,STRINGFELLOW MEMORIAL HOSPITAL
4.81,34.00941,-85.97078,25300.38,GADSDEN REGIONAL MEDICAL CENTER
3.82,34.00426,-86.00339,17805.16,RIVERVIEW REGIONAL MEDICAL CENTER
2.52,34.48290,-87.28601,7904.83,LAWRENCE MEDICAL CENTER
2.84,33.65640,-85.82284,10312.03,NORTHEAST ALABAMA REGIONAL MED CENTER
2.27,34.59052,-86.97262,5996.00,DECATUR GENERAL HOSPITAL
3.35,33.20521,-87.52546,14221.64,D C H REGIONAL MEDICAL CENTER
4.58,33.49854,-86.84633,23555.71,BAPTIST MEDICAL CENTER-PRINCETON
3.84,32.46417,-86.45177,17967.82,PRATTVILLE BAPTIST HOSPITAL
3.22,32.43020,-87.05515,13218.76,VAUGHAN REG MED CENTER PARKWAY CAMPUS
5.00,33.46420,-86.77409,26757.02,BROOKWOOD MEDICAL CENTER
5.06,60.94901,-149.17033,27203.30,PROVIDENCE ALASKA MEDICAL CENTER
3.79,33.50277,-112.17044,17524.64,MARYVALE HOSPITAL
4.28,33.46514,-112.05797,21261.21,BANNER GOOD SAMARITAN MEDICAL CENTER
3.56,32.25294,-110.88135,15835.57,TUCSON MEDICAL CENTER
3.42,32.88123,-111.71067,14732.18,CASA GRANDE REGIONAL MEDICAL CENTER
5.30,33.29750,-111.87461,29053.23,CHANDLER REGIONAL MEDICAL CENTER
4.87,33.45154,-112.04313,25806.81,ST LUKES MEDICAL CENTER
5.08,33.48885,-111.92387,27334.85,SCOTTSDALE HEALTHCARE-OSBORN MEDICAL CENTER
4.30,35.22024,-114.03585,21449.25,KINGMAN REGIONAL MEDICAL CENTER
4.68,33.60432,-112.28378,24330.33,BANNER BOSWELL MEDICAL CENTER
3.87,33.39097,-111.87638,18165.19,BANNER DESERT MEDICAL CENTER
3.42,34.47988,-114.33938,14734.92,HAVASU REGIONAL MEDICAL CENTER
3.83,33.41128,-111.68916,17860.18,BANNER BAYWOOD MEDICAL CENTER
3.90,33.60949,-112.18129,18389.65,BANNER THUNDERBIRD MEDICAL CENTER
4.61,33.65965,-112.37283,23759.88,BANNER DEL E WEBB MEDICAL CENTER
6.91,35.11068,-114.55505,41247.17,WESTERN ARIZONA REGIONAL MEDICAL CTR
2.89,34.58822,-112.33095,10690.33,YAVAPAI REGIONAL MEDICAL CENTER-EAST
3.31,36.10940,-94.16036,13923.07,WASHINGTON REGIONAL MED CTR AT NORTH HILLS
3.14,34.75031,-92.33897,12602.34,ST VINCENT INFIRMARY MEDICAL CENTER
3.17,36.31007,-94.18471,12879.71,MERCY MEDICAL CENTER
3.13,35.25046,-91.70056,12522.67,WHITE COUNTY MEDICAL CENTER
