size_charge,size_pay,lat,lon,charge,pay,name,Air,BloodInf,UrinaryInf,Falls double,Mismatch,Objects,Sores,Sugar
6.84,2.30,36.18082,-94.13644,24701.53,5819.22,NW ARKANSAS HOSPITALS, LLC,0.0,0.327,0.245,0.818,0.0,0.0,0.164,0.0
6.04,2.28,34.46784,-93.06667,21360.61,5729.12,ST JOSEPHS MERCY HEALTH CENTER INC,0.0,0.343,0.942,0.171,0.0,0.0,0.171,0.0
5.76,2.66,35.14320,-90.18837,20204.07,7312.80,CRITTENDEN MEMORIAL HOSPITAL,0.0,0.303,0.303,0.0,0.0,0.0,0.0,0.0
3.13,2.16,36.34295,-92.39442,9248.14,5240.88,BAXTER REGIONAL MEDICAL CENTER,0.0,0.0,0.484,0.194,0.0,0.097,0.194,0.0
4.78,2.25,35.08546,-92.45774,16140.67,5615.90,CONWAY REGIONAL MEDICAL CENTER,0.0,0.62,1.24,0.155,0.0,0.0,0.0,0.0
4.84,2.23,34.77770,-92.12539,16389.78,5514.55,BAPTIST HEALTH MEDICAL CENTER NORTH LITTLE ROCK,0.0,0.625,0.803,0.0,0.0,0.0,0.357,0.089
3.63,2.32,36.05214,-90.49908,11346.81,5884.78,ARKANSAS METHODIST MEDICAL CENTER,0.0,0.0,0.51,0.255,0.0,0.0,0.0,0.0
5.90,2.37,35.28275,-93.14901,20787.98,6091.60,ST MARYS REGIONAL MEDICAL CENTER,0.0,0.429,1.287,0.0,0.0,0.0,0.0,0.215
2.52,2.15,36.28982,-90.99750,6745.50,5203.39,FIVE RIVERS MEDICAL CENTER,0.0,0.0,0.0,0.0,0.0,0.0,0.0,0.0
3.97,2.28,33.57575,-92.83683,12749.52,5712.30,OUACHITA COUNTY MEDICAL CENTER,0.0,0.0,1.123,0.0,0.0,0.0,0.0,0.0
2.70,2.19,33.62900,-91.79096,7476.37,5355.30,DREW MEMORIAL HOSPITAL,0.0,0.0,0.559,0.0,0.0,0.0,0.0,0.0
3.53,2.27,35.37445,-94.41868,10930.52,5682.38,SPARKS REGIONAL MEDICAL CENTER,0.0,0.277,1.248,0.486,0.0,0.0,0.139,0.069
5.48,2.20,35.35395,-94.35262,19052.21,5376.65,ST EDWARD MERCY MEDICAL CENTER,0.0,0.604,0.302,0.906,0.0,0.0,0.101,0.0
3.23,2.37,33.27510,-93.24001,9664.62,6114.55,MAGNOLIA HOSPITAL,0.0,0.563,0.0,0.0,0.0,0.0,0.0,0.0
6.86,2.44,34.18894,-92.01886,24787.54,6397.54,JEFFERSON REGIONAL MEDICAL CENTER,0.0,0.453,0.567,0.0,0.0,0.0,0.113,0.0
3.13,2.45,34.51764,-91.55932,9277.60,6434.17,BAPTIST HEALTH MEDICAL CENTER-STUTTGART,0.0,0.0,0.537,0.0,0.0,0.0,0.0,0.0
4.14,2.20,34.87240,-92.12256,13482.53,5381.78,NORTH METRO MEDICAL CENTER,0.0,0.0,0.0,0.0,0.0,0.0,0.0,0.653
4.59,2.31,34.35877,-92.78638,15329.14,5841.32,HOT SPRING COUNTY MEDICAL CENTER,0.0,0.0,1.401,0.0,0.0,0.0,0.0,0.0
10.58,2.35,34.48600,-93.03521,40254.45,6036.31,NATIONAL PARK MEDICAL CENTER,0.0,0.423,0.846,0.423,0.212,0.0,0.212,0.0
8.80,2.23,35.60836,-91.26499,32840.04,5530.46,HARRIS HOSPITAL,0.0,0.444,1.333,0.0,0.0,0.0,0.0,0.0
5.01,2.25,34.57290,-92.58508,17105.22,5607.35,SALINE MEMORIAL HOSPITAL,0.0,0.442,0.221,0.0,0.0,0.0,0.0,0.0
6.91,2.46,34.51022,-90.62718,24989.29,6496.62,HELENA REGIONAL MEDICAL CENTER,0.0,0.0,0.0,0.0,0.0,0.0,0.0,0.0
8.63,2.48,33.22053,-92.67102,32173.40,6569.78,MEDICAL CENTER SOUTH ARKANSAS,0.0,0.379,0.947,0.0,0.0,0.189,0.0,0.0
4.57,2.29,33.64905,-93.58704,15240.00,5752.78,MEDICAL PARK HOSPITAL,0.0,0.0,0.569,0.0,0.0,0.0,0.0,0.0
5.46,2.32,34.74866,-92.35422,18981.66,5913.10,BAPTIST HEALTH MEDICAL CENTER-LITTLE ROCK,0.0,0.656,0.656,0.231,0.0,0.039,0.347,0.077
4.37,2.37,35.80838,-90.66658,14410.29,6111.39,NEA BAPTIST MEMORIAL HOSPITAL,0.0,0.134,0.939,0.402,0.0,0.0,0.134,0.134
5.70,2.37,35.76927,-91.63408,19963.01,6090.45,WHITE RIVER MEDICAL CENTER,0.0,0.87,0.497,0.249,0.0,0.0,0.373,0.0
4.60,2.13,34.73868,-92.39307,15362.41,5107.62,ARKANSAS HEART HOSPITAL,0.0,0.101,0.101,0.101,0.0,0.0,0.0,0.0
4.49,2.19,34.81290,-92.20814,14935.11,5339.49,ST VINCENT MEDICAL CENTER/NORTH,0.0,0.0,0.432,0.0,0.0,0.0,0.0,0.0
19.66,3.82,37.63362,-122.08802,78032.84,12121.42,ST ROSE HOSPITAL,0.0,1.826,0.609,0.812,0.0,0.0,0.203,0.0
9.64,2.86,40.78366,-124.14246,36339.15,8142.29,ST JOSEPH HOSPITAL,0.0,0.179,0.716,0.0,0.0,0.179,0.179,0.0
9.71,2.80,37.59283,-122.38249,36664.50,7905.15,PENINSULA MEDICAL CENTER,0.0,0.495,0.619,1.114,0.0,0.0,0.0,0.0
12.77,2.97,38.32472,-122.29671,49382.56,8610.92,QUEEN OF THE VALLEY MEDICAL CENTER,0.0,0.306,1.073,0.613,0.0,0.0,0.0,0.0
13.78,3.15,38.54384,-122.47401,53579.19,9367.77,ST HELENA HOSPITAL,0.0,0.206,0.618,1.648,0.0,0.0,0.0,0.0
9.35,2.95,38.35073,-120.76468,35138.91,8525.82,SUTTER AMADOR HOSPITAL,0.0,0.486,0.0,0.0,0.0,0.0,0.0,0.0
11.13,2.55,35.11346,-120.59054,42576.88,6846.42,ARROYO GRANDE COMMUNITY HOSPITAL,0.0,0.0,1.088,0.0,0.0,0.0,0.363,0.363
10.30,3.27,38.57053,-121.45216,39103.92,9864.22,MERCY GENERAL HOSPITAL,0.0,0.499,0.666,0.416,0.0,0.0,0.166,0.083
7.23,3.71,34.06505,-118.23913,26325.42,11669.81,PACIFIC ALLIANCE MEDICAL CENTER,0.0,0.0,0.0,0.0,0.0,0.0,0.0,0.356
12.28,2.99,33.97659,-117.38184,47351.89,8695.65,RIVERSIDE COMMUNITY HOSPITAL,0.0,0.54,0.432,0.324,0.0,0.0,0.0,0.216
7.02,3.10,32.68425,-117.08161,25439.19,9150.98,PARADISE VALLEY HOSPITAL,0.0,0.267,0.0,0.0,0.0,0.0,0.0,0.0
8.32,3.72,32.75426,-117.16592,30871.49,11717.24,UNIVERSITY OF CALIFORNIA SAN DIEGO MEDICAL CENTER,0.0,0.475,0.158,0.079,0.0,0.238,0.0,0.0
9.96,2.72,32.77495,-117.01467,37698.82,7580.08,GROSSMONT HOSPITAL,0.0,0.131,0.327,0.523,0.0,0.065,0.0,0.0
6.88,2.57,40.89631,-124.09145,24863.57,6954.43,MAD RIVER COMMUNITY HOSPITAL,0.0,1.481,0.0,0.741,0.0,0.0,0.0,0.0
8.13,2.80,39.50528,-121.54100,30089.51,7873.64,OROVILLE HOSPITAL,0.0,0.366,0.61,0.0,0.0,0.0,0.244,0.0
11.89,2.80,35.38736,-119.01690,45698.56,7883.93,BAKERSFIELD MEMORIAL HOSPITAL,0.0,0.381,0.507,0.0,0.0,0.0,0.0,0.0
10.37,4.43,37.31288,-121.93329,39379.30,14667.71,SANTA CLARA VALLEY MEDICAL CENTER,0.0,0.196,0.589,0.786,0.0,0.0,0.589,0.0
12.04,2.62,39.74221,-121.85000,46326.43,7154.15,ENLOE MEDICAL CENTER,0.0,0.144,0.433,0.0,0.0,0.072,0.072,0.0
10.20,4.47,34.30238,-118.36957,38672.32,14838.77,LAC/OLIVE VIEW-UCLA MEDICAL CENTER,0.0,0.725,0.0,0.0,0.0,0.0,0.0,0.0
9.03,2.78,40.14813,-122.21934,33837.09,7813.79,ST ELIZABETH COMMUNITY HOSPITAL,0.0,0.0,0.392,0.0,0.0,0.0,0.0,0.0
11.73,3.42,37.82206,-122.26275,45034.91,10452.32,ALTA BATES SUMMIT MEDICAL CENTER,0.0,0.897,0.489,0.489,0.0,0.0,0.163,0.0
6.96,2.67,33.93183,-116.94587,25218.28,7366.33,SAN GORGONIO MEMORIAL HOSPITAL,0.0,0.0,0.0,0.0,0.0,0.0,0.0,0.0
9.89,2.93,32.78037,-115.56848,37388.76,8450.73,EL CENTRO REGIONAL MEDICAL CENTER,0.0,0.0,0.23,0.0,0.0,0.0,0.0,0.0
15.09,3.91,37.79100,-122.43125,59028.60,12506.22,CALIFORNIA PACIFIC MEDICAL CTR-PACIFIC CAMPUS HOSP,0.0,0.689,0.536,0.842,0.0,0.0,0.153,0.0
13.86,3.86,37.74717,-122.42088,53913.42,12310.42,CALIFORNIA PACIFIC MEDICAL CTR - ST. LUKE'S CAMPUS,0.0,0.821,0.821,0.41,0.0,0.0,0.41,0.0
5.74,2.98,34.67486,-118.15771,20124.78,8644.27,ANTELOPE VALLEY HOSPITAL MED CENTER,0.0,0.369,0.462,0.092,0.0,0.185,0.0,0.0
8.31,2.83,36.32737,-119.29548,30820.92,8022.18,KAWEAH DELTA MEDICAL CENTER,0.0,0.4,0.599,0.4,0.0,0.0,0.2,0.067
11.13,3.31,34.12834,-118.25777,42567.63,10013.24,GLENDALE MEM HOSPITAL & HLTH CENTER,0.0,0.231,0.463,0.116,0.0,0.0,0.116,0.0
8.44,3.32,36.73000,-119.78000,31371.66,10064.43,COMMUNITY REGIONAL MEDICAL CENTER,0.0,0.42,0.18,0.12,0.0,0.0,0.48,0.0
9.89,3.67,34.09643,-118.29103,37409.24,11505.03,HOLLYWOOD PRESBYTERIAN MEDICAL CENTER,0.0,0.695,0.139,0.834,0.0,0.0,0.0,0.0
7.87,2.54,37.75708,-120.86109,28999.00,6824.18,OAK VALLEY DISTRICT HOSPITAL,0.0,0.0,1.241,0.0,0.0,0.0,0.0,0.0
9.55,2.64,33.78036,-117.86495,36001.01,7235.00,ST JOSEPH HOSPITAL,0.0,0.106,0.53,0.212,0.0,0.106,0.212,0.0
8.44,3.65,37.33569,-121.99595,31366.28,11433.00,KAISER FOUNDATION HOSPITAL-SANTA CLARA,0.0,0.112,0.56,1.456,0.0,0.0,0.112,0.112
8.23,2.88,37.89135,-122.05971,30488.67,8236.72,KAISER FOUNDATION HOSPITAL - WALNUT CREEK,0.0,0.298,0.149,0.596,0.0,0.0,0.149,0.149
8.28,2.83,38.12852,-122.24704,30684.81,7998.78,KAISER FOUNDATION HOSPITAL AND REHAB CENTER,0.0,0.0,0.0,0.784,0.0,0.0,0.392,0.392
8.78,3.07,37.82448,-122.25759,32775.20,9006.74,KAISER FOUNDATION HOSPITAL OAKLAND/RICHMOND,0.0,0.124,0.994,0.621,0.0,0.0,0.621,0.0
10.38,3.10,32.75143,-117.16083,39422.73,9123.30,SCRIPPS MERCY HOSPITAL,0.052,0.105,0.472,0.21,0.0,0.0,0.052,0.0
12.75,2.69,33.73798,-118.30525,49283.67,7453.11,PROVIDENCE LITTLE CO OF MARY MED CTR SAN PEDRO,0.0,0.294,0.0,0.0,0.0,0.294,0.0,0.0
15.93,3.26,37.95337,-122.33672,62519.10,9793.56,DOCTORS MEDICAL CENTER-SAN PABLO,0.0,0.0,0.203,1.829,0.0,0.0,0.406,0.203
12.60,2.81,34.21674,-119.15631,48666.25,7947.82,ST JOHNS REGIONAL MEDICAL CENTER,0.0,0.601,0.601,0.241,0.0,0.12,0.0,0.0
13.21,2.93,37.96987,-121.28873,51231.43,8437.87,ST JOSEPHS MED CENTER OF STOCKTON,0.0,0.222,0.296,0.518,0.0,0.148,0.0,0.0
9.02,3.40,34.13101,-117.32181,33762.22,10369.11,COMMUNITY HOSPITAL OF SAN BERNARDINO,0.0,1.585,0.396,0.0,0.0,0.0,0.0,0.0
7.87,2.92,38.28820,-122.46533,29006.40,8375.60,SONOMA VALLEY HOSPITAL,0.0,0.0,0.0,0.0,0.0,0.0,0.0,0.603
11.61,3.31,33.98932,-118.22426,44536.15,10033.81,COMMUNITY AND MISSION  HOSPITAL OF HUNTINGTON PARK,0.0,0.0,0.0,0.0,0.0,0.0,0.0,0.0
7.83,2.72,36.83532,-119.76562,28823.06,7579.34,SAINT AGNES MEDICAL CENTER,0.0,0.275,0.826,0.138,0.0,0.0,0.184,0.0
9.54,2.58,34.10130,-117.63651,35941.52,6969.22,SAN ANTONIO COMMUNITY HOSPITAL,0.0,0.539,0.673,0.135,0.0,0.0,0.135,0.0
12.76,3.02,32.79949,-117.15394,49336.11,8810.09,SHARP MEMORIAL HOSPITAL,0.0,0.288,0.672,0.48,0.0,0.096,0.0,0.0
9.81,3.23,38.13118,-122.23732,37043.21,9665.00,SUTTER SOLANO MEDICAL CENTER,0.0,0.0,1.022,0.341,0.0,0.0,0.0,0.0
11.53,2.93,33.92798,-117.43847,44223.93,8420.21,PARKVIEW COMMUNITY HOSPITAL MEDICAL CENTER,0.0,0.306,0.306,0.0,0.0,0.0,0.0,0.0
13.37,3.54,34.04932,-118.21746,51889.94,10952.31,WHITE MEMORIAL MEDICAL CENTER,0.0,0.339,0.904,0.0,0.0,0.0,0.113,0.0
11.25,3.62,33.92963,-118.20332,43060.81,11319.44,SAINT FRANCIS MEDICAL CENTER,0.0,0.684,0.171,0.342,0.0,0.0,0.0,0.0
10.93,2.80,34.95099,-120.41322,41714.30,7901.48,MARIAN MEDICAL CENTER,0.0,0.0,0.485,0.0,0.0,0.0,0.0,0.0
10.11,2.99,38.57155,-121.46874,38308.30,8682.95,SUTTER GENERAL HOSPITAL,0.0,0.129,0.579,0.643,0.0,0.0,0.0,0.0
4.09,2.81,34.64075,-120.43958,13253.53,7944.27,LOMPOC VALLEY MEDICAL CENTER,0.0,0.0,0.592,0.0,0.0,0.0,0.0,0.0
10.42,3.19,34.07558,-118.28424,39600.58,9520.55,TEMPLE COMMUNITY HOSPITAL,0.0,0.0,0.276,0.0,0.0,0.0,0.0,0.0
13.85,3.03,34.02685,-118.48651,53856.62,8865.91,SANTA MONICA - UCLA MED CTR & ORTHOPAEDIC HOSPITAL,0.0,0.45,0.36,0.629,0.0,0.0,0.0,0.0
9.08,2.61,33.12535,-117.07336,34033.29,7089.76,PALOMAR MEDICAL CENTER,0.0,0.56,0.56,0.224,0.0,0.0,0.224,0.112
5.65,3.35,34.09638,-118.32518,19733.44,10161.11,HOLLYWOOD COMMUNITY HOSPITAL OF HOLLYWOOD,0.0,0.505,0.168,0.0,0.0,0.0,0.337,0.0
13.94,2.88,34.22014,-118.53410,54268.94,8236.60,NORTHRIDGE HOSPITAL MEDICAL CENTER,0.0,1.27,0.098,0.586,0.0,0.195,0.098,0.0
20.79,2.62,37.80132,-121.19690,82745.54,7130.04,DOCTORS HOSPITAL OF MANTECA,0.0,0.31,0.0,1.862,0.0,0.0,0.31,0.0
6.77,2.82,36.32362,-119.66726,24413.47,7978.00,ADVENTIST MEDICAL CENTER,0.0,0.129,0.516,0.0,0.0,0.0,0.0,0.0
16.07,2.79,37.96125,-121.30103,63131.21,7832.89,DAMERON HOSPITAL,0.0,0.265,0.0,0.531,0.0,0.265,0.796,0.265
8.46,2.54,34.20495,-118.21589,31440.64,6816.12,VERDUGO HILLS HOSPITAL,0.0,0.0,0.0,0.0,0.0,0.0,0.545,0.0
23.23,3.73,37.36257,-121.84974,92913.73,11765.59,REGIONAL MEDICAL CENTER OF SAN JOSE,0.0,0.248,0.124,0.372,0.0,0.0,0.372,0.0
8.79,3.16,34.19494,-118.46319,32818.75,9370.34,VALLEY PRESBYTERIAN HOSPITAL,0.0,0.295,0.59,0.295,0.0,0.0,0.0,0.0
7.19,2.65,33.18402,-117.29661,26149.08,7265.77,TRI-CITY MEDICAL CENTER,0.0,0.196,0.294,2.551,0.0,0.196,0.196,0.0
11.88,2.95,34.13495,-117.27603,45671.15,8513.81,ST BERNARDINE MEDICAL CENTER,0.0,0.42,0.42,0.0,0.0,0.14,0.14,0.0
12.12,2.77,38.09906,-122.56011,46656.70,7749.74,NOVATO COMMUNITY HOSPITAL,0.0,0.518,0.0,0.0,0.0,0.0,0.0,0.0
15.92,3.13,34.10081,-118.10588,62501.12,9278.75,SAN GABRIEL VALLEY MEDICAL CENTER,0.0,0.207,0.414,0.414,0.0,0.0,0.414,0.0
9.64,2.78,39.13822,-121.59436,36367.72,7790.80,RIDEOUT MEMORIAL HOSPITAL,0.0,0.727,0.83,0.311,0.0,0.104,0.0,0.104
10.45,2.93,38.25455,-122.63177,39741.39,8424.48,PETALUMA VALLEY HOSPITAL,0.0,0.776,0.0,0.0,0.0,0.0,0.0,0.0
4.28,2.40,34.22143,-118.43018,14035.36,6239.86,KAISER FOUNDATION HOSPITAL - PANORAMA CITY,0.0,0.0,0.347,0.0,0.0,0.0,0.0,0.0
8.62,3.13,34.09816,-118.29541,32128.69,9275.85,KAISER FOUNDATION HOSPITAL - LOS ANGELES,0.116,0.231,0.231,0.347,0.0,0.0,0.116,0.0
3.94,2.42,33.91909,-118.12873,12629.67,6330.83,KAISER FOUNDATION HOSPITAL - DOWNEY,0.0,0.127,0.382,0.382,0.0,0.0,0.0,0.0
3.89,2.52,34.07225,-117.43197,12447.45,6718.35,KAISER FOUNDATION HOSPITAL FONTANA,0.0,0.187,0.187,0.28,0.0,0.28,0.28,0.0
11.76,2.96,36.57886,-121.91316,45162.46,8544.52,COMMUNITY HOSPITAL OF THE MONTEREY PENINSULA,0.0,0.488,0.781,0.098,0.0,0.098,0.098,0.0
9.35,3.58,34.03705,-118.26575,35166.41,11147.06,CALIFORNIA HOSPITAL MEDICAL CENTER LA,0.0,0.0,0.24,0.479,0.0,0.0,0.0,0.0
10.00,2.65,39.22809,-121.04721,37852.66,7265.00,SIERRA NEVADA MEMORIAL HOSPITAL,0.0,0.777,0.388,0.388,0.0,0.0,0.0,0.194
20.98,3.49,37.78963,-122.41700,83557.13,10751.27,SAINT FRANCIS MEMORIAL HOSPITAL,0.0,1.236,0.742,0.742,0.0,0.0,0.0,0.0
18.51,3.39,37.32710,-121.93863,73271.62,10340.57,O'CONNOR HOSPITAL,0.0,0.121,0.364,0.486,0.0,0.0,0.121,0.0
8.34,3.53,34.28029,-119.25410,30941.00,10943.33,VENTURA COUNTY MEDICAL CENTER,0.0,0.375,0.75,1.501,0.0,0.0,0.375,0.375
11.22,3.66,37.88664,-121.28308,42910.38,11460.48,SAN JOAQUIN GENERAL HOSPITAL,0.0,0.0,0.0,0.0,0.0,0.0,0.558,0.0
10.26,2.49,33.89465,-117.92716,38936.33,6604.49,ST JUDE MEDICAL CENTER,0.0,0.103,0.309,0.516,0.0,0.0,0.206,0.0
12.70,2.69,33.96860,-118.04831,49075.40,7425.05,PRESBYTERIAN INTERCOMMUNITY HOSPITAL,0.074,0.298,0.521,0.298,0.0,0.0,0.744,0.074
11.61,3.02,38.44369,-122.70138,44536.06,8801.79,SANTA ROSA MEMORIAL HOSPITAL,0.0,0.0,0.389,0.389,0.0,0.0,0.0,0.0
16.41,2.78,37.51164,-120.83800,64530.87,7792.75,EMANUEL MEDICAL CENTER INC,0.0,0.147,0.587,0.0,0.0,0.0,0.0,0.0
21.34,2.93,37.91341,-122.04163,85034.86,8442.11,JOHN MUIR MEDICAL CENTER - WALNUT CREEK CAMPUS,0.0,0.082,0.245,0.735,0.0,0.0,0.082,0.082
12.04,3.32,33.77991,-118.18602,46359.90,10046.10,ST MARY MEDICAL CENTER,0.0,0.0,0.523,0.0,0.0,0.174,0.0,0.0
15.97,3.55,36.92821,-121.79360,62694.29,11015.69,WATSONVILLE COMMUNITY HOSPITAL,0.0,0.317,0.0,0.0,0.0,0.0,0.0,0.0
20.82,3.32,37.55717,-121.98126,82887.08,10048.07,WASHINGTON HOSPITAL,0.0,0.196,0.785,0.589,0.0,0.098,0.0,0.098
20.17,2.85,37.48000,-122.25441,80194.67,8087.61,SEQUOIA HOSPITAL,0.0,0.0,0.74,0.74,0.0,0.0,0.0,0.0
11.50,2.70,34.58305,-118.14490,44098.82,7493.76,PALMDALE REGIONAL MEDICAL CENTER,0.0,0.0,0.231,0.0,0.0,0.0,0.0,0.231
9.06,3.04,37.76288,-122.25412,33949.67,8882.00,ALAMEDA HOSPITAL,0.0,0.0,0.39,0.0,0.0,0.0,0.0,0.0
7.46,3.05,33.91255,-118.09846,27270.58,8935.11,COAST PLAZA HOSPITAL,0,0,0,0,0,0,0,0
15.41,2.86,32.61972,-117.02278,60377.47,8157.93,SHARP CHULA VISTA MEDICAL CENTER,0.0,0.355,1.421,0.355,0.0,0.0,0.0,0.0
6.52,2.46,33.62229,-117.92995,23366.56,6496.23,HOAG MEMORIAL HOSPITAL PRESBYTERIAN,0.0,0.544,0.302,0.363,0.0,0.0,0.06,0.0
19.69,2.60,39.75720,-121.57018,78180.62,7056.50,FEATHER RIVER HOSPITAL,0.0,0.199,0.596,0.794,0.0,0.0,0.0,0.397
9.98,2.67,33.84780,-117.93661,37757.85,7359.74,AHMC ANAHEIM REGIONAL MEDICAL CENTER,0.0,0.632,0.474,0.0,0.0,0.0,0.0,0.158
14.07,4.81,37.75676,-122.40461,54777.10,16253.79,SAN FRANCISCO GENERAL HOSPITAL,0.0,0.0,0.626,0.209,0.0,0.209,0.417,0.209
14.33,3.23,34.07709,-117.75063,55863.28,9663.65,POMONA VALLEY HOSPITAL MEDICAL CENTER,0.0,0.211,0.211,0.106,0.0,0.106,0.0,0.0
11.54,2.53,35.27882,-120.65047,44262.44,6760.80,FRENCH HOSPITAL MEDICAL CENTER,0.0,0.0,0.467,0.467,0.0,0.0,0.0,0.0
9.93,2.37,32.69430,-117.16793,37573.32,6101.56,SHARP CORONADO HOSPITAL AND HLTHCR CTR,0.0,0.0,2.827,0.0,0.0,0.0,0.0,0.0
17.56,2.75,34.15601,-118.32834,69322.36,7687.80,PROVIDENCE SAINT JOSEPH MEDICAL CTR,0.0,0.58,0.248,0.166,0.0,0.0,0.0,0.0
13.47,2.60,34.28920,-118.74484,52279.94,7049.08,SIMI VALLEY HOSPITAL & HEALTH CARE SERVICES,0.0,0.0,0.0,0.0,0.0,0.0,0.25,0.0
9.80,2.78,34.13973,-118.03534,37007.53,7807.34,METHODIST HOSPITAL OF SOUTHERN CA,0.0,0.262,1.397,0.175,0.0,0.087,0.087,0.087
11.97,3.30,34.14987,-118.23117,46053.93,9975.07,GLENDALE ADVENTIST MEDICAL CENTER,0.0,0.23,1.075,0.0,0.0,0.0,0.154,0.0
17.06,3.13,36.98999,-121.98357,67237.84,9276.10,DOMINICAN HOSPITAL,0.0,0.241,0.723,0.844,0.0,0.0,0.121,0.0
14.66,2.81,33.83862,-116.54557,57225.02,7917.02,DESERT REGIONAL MEDICAL CENTER,0.0,0.507,0.71,0.0,0.0,0.0,0.0,0.0
7.82,3.72,34.07389,-117.35111,28769.41,11708.45,ARROWHEAD REGIONAL MEDICAL CENTER,0.0,0.44,1.1,0.0,0.0,0.0,0.0,0.0
20.12,4.00,36.69761,-121.63320,79976.42,12878.58,NATIVIDAD MEDICAL CENTER,0.0,1.217,0.0,0.0,0.0,0.0,0.0,0.0
13.34,2.73,38.72562,-120.79096,51773.38,7604.62,MARSHALL MEDICAL CENTER (1-RH),0.0,0.0,0.57,2.281,0.0,0.0,0.0,0.0
9.06,3.05,36.06956,-119.02748,33931.44,8944.92,SIERRA VIEW DISTRICT HOSPITAL,0.0,1.188,0.396,0.396,0.0,0.0,0.198,0.0
13.81,4.39,34.06675,-118.44613,53728.53,14513.46,RONALD REAGAN UCLA MEDICAL CENTER,0.079,0.707,0.786,0.472,0.0,0.157,0.707,0.236
11.13,3.04,37.71291,-122.14320,42565.95,8884.36,SAN LEANDRO HOSPITAL,0,0,0,0,0,0,0,0
9.72,2.61,34.03721,-117.20474,36674.22,7093.87,REDLANDS COMMUNITY HOSPITAL,0.0,0.282,0.0,0.0,0.0,0.0,0.0,0.0
7.29,4.97,38.00655,-122.13312,26569.30,16916.50,CONTRA COSTA REGIONAL MEDICAL CENTER,0.472,0.945,0.0,0.0,0.0,0.0,0.0,0.472
12.59,3.36,33.80733,-118.19305,48619.29,10215.93,PACIFIC HOSPITAL OF LONG BEACH,0.0,0.778,0.778,0.0,0.0,0.0,0.259,0.0
20.46,2.88,34.27915,-118.46006,81385.97,8226.99,PROVIDENCE HOLY CROSS MEDICAL CENTER,0.0,0.514,0.0,0.0,0.0,0.0,0.0,0.128
6.35,2.92,34.13075,-116.27502,22661.67,8382.08,HI-DESERT MEDICAL CENTER,0.0,1.576,0.525,0.0,0.0,0.0,0.0,0.0
10.20,2.91,40.58654,-122.39168,38675.12,8370.14,MERCY MEDICAL CENTER REDDING,0.0,0.238,0.713,0.079,0.0,0.0,0.079,0.0
12.15,3.26,34.09049,-118.14410,46818.17,9820.30,ALHAMBRA HOSPITAL MEDICAL CENTER,0.0,0.0,0.0,0.0,0.0,0.0,0.0,0.0
20.44,3.04,37.69502,-121.88095,81303.48,8886.11,VALLEYCARE MEDICAL CENTER,0.0,1.221,0.814,0.407,0.0,0.0,0.0,0.0
19.83,3.21,37.67947,-122.47447,78761.30,9618.68,SETON MEDICAL CENTER,0.0,0.253,0.38,0.127,0.0,0.0,0.127,0.127
8.50,2.45,34.03009,-118.47833,31602.55,6427.57,SAINT JOHN'S HEALTH CENTER,0.0,0.165,0.248,0.0,0.0,0.0,0.165,0.0
9.40,3.52,38.46964,-122.70746,35337.24,10894.68,SUTTER MEDICAL CENTER OF SANTA ROSA,0.0,1.573,0.629,0.629,0.0,0.0,0.0,0.0
12.69,3.35,33.91173,-117.19590,49028.11,10169.52,RIVERSIDE COUNTY REGIONAL MEDICAL CENTER,0.0,0.463,0.463,0.231,0.0,0.0,0.0,0.0
12.15,2.64,35.37279,-119.02817,46782.26,7216.63,MERCY HOSPITAL,0.0,0.74,0.555,0.0,0.0,0.0,0.555,0.0
9.49,3.31,36.83491,-121.38651,35732.92,9995.40,HAZEL HAWKINS MEMORIAL HOSPITAL,0.0,0.0,0.553,0.0,0.0,0.0,0.553,0.0
14.04,3.07,34.89341,-117.01930,54676.73,9018.86,BARSTOW COMMUNITY HOSPITAL,0.0,0.0,1.136,0.0,0.0,0.0,0.0,0.0
10.40,2.77,34.50107,-117.17285,39506.13,7774.00,ST MARY MEDICAL CENTER,0.0,0.245,0.368,0.0,0.0,0.0,0.0,0.0
5.49,2.76,39.15350,-123.20435,19099.00,7745.95,UKIAH VALLEY MEDICAL CENTER/HOSPITAL D,0.0,0.0,0.0,0.0,0.0,0.0,0.0,0.0
13.54,3.58,37.85593,-122.25730,52573.28,11145.92,ALTA BATES SUMMIT MEDICAL CENTER - ALTA BATES CAMP,0.0,0.134,0.937,0.669,0.0,0.0,0.134,0.134
13.40,2.83,37.36934,-122.08047,52019.30,8037.63,EL CAMINO HOSPITAL,0.0,0.83,0.554,1.015,0.0,0.277,0.185,0.0
9.42,2.76,38.76514,-121.24979,35450.28,7706.82,SUTTER ROSEVILLE MEDICAL CENTER,0.0,0.208,0.415,0.83,0.0,0.0,0.0,0.0
9.47,2.71,37.74409,-121.43469,35640.94,7524.00,SUTTER TRACY COMMUNITY HOSPITAL,0.0,0.0,0.347,0.0,0.0,0.0,0.0,0.0
10.36,4.51,37.79943,-122.23307,39353.05,14995.52,ALAMEDA COUNTY MEDICAL CENTER,0.0,0.426,0.0,0.852,0.0,0.0,2.555,0.852
12.78,2.45,32.88461,-117.22244,49432.71,6449.82,SCRIPPS MEMORIAL HOSPITAL LA JOLLA,0.0,0.344,0.458,1.146,0.0,0.0,0.229,0.0
13.22,3.65,34.05076,-117.26395,51267.67,11435.33,LOMA LINDA UNIVERSITY MEDICAL CENTER,0.0,1.539,0.513,0.366,0.0,0.0,0.147,0.147
9.77,2.84,33.87236,-117.56809,36886.64,8075.84,CORONA REGIONAL MEDICAL CENTER,0.0,0.496,0.248,0.248,0.0,0.0,0.0,0.0
11.42,3.33,36.65910,-121.64630,43780.03,10101.32,SALINAS VALLEY MEMORIAL HOSPITAL,0.0,0.227,0.453,0.113,0.0,0.113,0.0,0.0
8.99,2.90,37.97780,-120.37150,33668.80,8311.20,SONORA REGIONAL MEDICAL CENTER,0.0,0.0,0.645,0.215,0.0,0.0,0.645,0.0
21.27,2.75,38.12186,-121.28665,84749.77,7697.79,LODI MEMORIAL HOSPITAL,0.0,0.76,0.76,0.76,0.0,0.0,0.0,0.0
7.13,2.96,32.95813,-115.55388,25900.63,8545.68,PIONEERS MEMORIAL HEALTHCARE DISTRICT,0.0,0.0,0.793,0.0,0.0,0.0,0.0,0.0
14.77,3.89,33.78798,-117.89026,57693.03,12426.76,UNIVERSITY OF CALIFORNIA IRVINE MED CENTER,0.0,0.652,0.261,0.522,0.0,0.0,0.13,0.391
5.40,3.04,34.01501,-118.10064,18699.85,8909.78,BEVERLY HOSPITAL,0.0,0.203,0.407,0.0,0.0,0.0,0.0,0.0
11.25,2.56,33.81131,-118.34364,43070.58,6903.54,TORRANCE MEMORIAL MEDICAL CENTER,0.0,0.585,0.418,0.167,0.0,0.0,0.418,0.0
8.68,3.41,38.91161,-119.99760,32378.41,10411.29,BARTON MEMORIAL HOSPITAL,0.0,1.626,2.439,0.813,0.0,0.0,0.0,0.0
14.83,2.67,33.83891,-118.35677,57940.04,7346.53,PROVIDENCE LITTLE COMPANY OF MARY MED CTR TORRANCE,0.0,0.179,0.089,0.089,0.0,0.0,0.0,0.0
6.73,2.46,34.43343,-119.81039,24249.00,6491.00,GOLETA VALLEY COTTAGE HOSPITAL,0.0,0.779,0.0,0.0,0.0,0.0,0.0,0.0
6.73,2.95,36.22008,-119.33764,24240.07,8511.00,TULARE REGIONAL MEDICAL CENTER,0.0,0.599,0.0,0.0,0.0,0.0,0.3,0.0
14.48,2.90,37.94748,-122.53677,56498.17,8328.39,MARIN GENERAL HOSPITAL,0.0,0.759,0.379,0.379,0.0,0.126,0.0,0.0
20.52,3.32,38.26174,-122.04662,81645.23,10056.87,NORTHBAY MEDICAL CENTER,0.0,0.52,0.26,0.26,0.0,0.0,0.26,0.0
9.69,4.13,34.06034,-118.21014,36549.42,13443.88,LAC+USC MEDICAL CENTER,0.0,1.243,0.621,0.0,0.0,0.311,0.0,0.0
9.24,4.28,33.83043,-118.29402,34710.30,14040.70,LAC/HARBOR-UCLA MED CENTER,0.0,1.155,0.385,0.385,0.0,0.0,0.0,0.0
5.54,3.44,34.24018,-118.39632,19287.82,10564.12,PACIFICA HOSPITAL OF THE VALLEY,0.0,0.0,0.0,0.0,0.0,0.0,0.0,0.402
14.76,2.94,37.25153,-121.94684,57680.09,8471.56,GOOD SAMARITAN HOSPITAL,0.0,0.222,0.998,1.996,0.0,0.0,0.111,0.0
8.37,3.18,34.08802,-117.89341,31066.39,9454.30,CITRUS VALLEY MEDICAL CENTER-IC CAMPUS,0.0,1.315,0.088,0.263,0.0,0.088,0.0,0.0
4.63,2.95,38.39711,-122.81924,15518.11,8519.79,PALM DRIVE HOSPITAL,0.0,0.0,0.724,0.0,0.0,0.0,0.0,0.0
7.32,2.71,33.75117,-116.96028,26682.72,7511.82,HEMET VALLEY MEDICAL CENTER,0.0,0.274,0.137,0.274,0.0,0.0,0.137,0.0
14.90,2.99,33.93530,-118.13030,58243.29,8686.83,DOWNEY REGIONAL MEDICAL CENTER,0.0,0.33,0.11,0.0,0.0,0.0,0.0,0.0
10.34,2.51,34.27459,-119.25812,39275.47,6693.15,COMMUNITY MEMORIAL HOSPITAL SAN BUENAVENTURA,0.0,0.114,0.114,0.114,0.0,0.114,0.341,0.114
9.01,2.74,34.42951,-119.72333,33747.91,7634.49,SANTA BARBARA COTTAGE HOSPITAL,0.0,0.0,0.239,0.159,0.0,0.0,0.08,0.08
11.49,3.04,37.79569,-122.40930,44046.62,8887.90,CHINESE HOSPITAL,0.0,0.0,0.584,0.0,0.0,0.584,0.0,0.0
4.35,2.39,33.78899,-118.29401,14363.16,6184.48,KAISER FOUNDATION HOSPITAL - SOUTH BAY,0.0,0.145,0.145,0.29,0.0,0.0,0.145,0.0
10.69,2.56,38.67039,-121.14552,40719.04,6909.16,MERCY HOSPITAL OF FOLSOM,0.0,0.64,0.32,0.32,0.0,0.0,0.0,0.0
7.44,2.98,41.77451,-124.19400,27197.67,8658.10,SUTTER COAST HOSPITAL,0.0,0.496,0.496,0.991,0.0,0.0,0.0,0.0
11.24,2.93,32.89810,-117.24217,43024.03,8445.81,SCRIPPS GREEN HOSPITAL,0.0,0.528,0.352,0.616,0.0,0.0,0.0,0.0
6.04,2.66,38.60127,-121.39412,21368.27,7324.76,KAISER FOUNDATION HOSPITAL - SACRAMENTO,0.0,0.261,0.392,1.697,0.0,0.0,0.131,0.0
10.49,2.70,33.82557,-117.99493,39876.81,7479.07,WEST ANAHEIM MEDICAL CENTER,0.0,0.191,0.191,0.0,0.0,0.0,0.0,0.0
8.21,3.68,39.20732,-122.00026,30392.83,11538.00,COLUSA REGIONAL MEDICAL CENTER,0.0,0.0,1.195,0.0,0.0,0.0,0.0,0.0
13.23,2.87,34.13364,-118.15275,51299.48,8175.62,HUNTINGTON MEMORIAL HOSPITAL,0.0,0.171,0.514,0.171,0.0,0.0,0.057,0.057
23.73,4.39,37.43436,-122.18013,94994.27,14527.22,STANFORD HOSPITAL,0.0,0.28,0.449,0.337,0.0,0.0,0.112,0.112
10.16,3.09,37.34027,-120.46817,38523.95,9117.81,MERCY MEDICAL CENTER,0.0,0.358,0.597,0.119,0.0,0.0,0.0,0.0
6.09,2.99,35.64086,-117.67119,21567.73,8681.40,RIDGECREST REGIONAL HOSPITAL,0.0,0.0,0.0,0.0,0.0,0.0,0.0,0.0
16.04,4.55,37.76421,-122.45716,62985.88,15154.73,UCSF MEDICAL CENTER,0.0,0.738,0.492,0.492,0.0,0.123,0.123,0.0
10.25,2.79,35.38338,-119.01969,38908.47,7861.35,SAN JOAQUIN COMMUNITY HOSPITAL,0.0,0.606,0.242,0.0,0.0,0.0,0.0,0.0
13.49,3.17,37.77449,-122.45429,52366.67,9431.42,ST MARY'S MEDICAL CENTER,0.0,0.171,0.513,0.0,0.0,0.0,0.0,0.0
22.46,3.07,37.66540,-120.99743,89702.15,9032.44,DOCTORS MEDICAL CENTER,0.0,0.232,0.928,0.464,0.0,0.0,0.116,0.0
6.83,3.13,33.89307,-118.29506,24671.05,9255.19,MEMORIAL HOSPITAL OF GARDENA,0.0,0.0,0.285,0.0,0.0,0.0,0.0,0.0
12.73,3.22,34.05336,-118.26558,49231.14,9660.19,GOOD SAMARITAN HOSPITAL,0.0,0.096,0.861,0.096,0.0,0.0,0.191,0.0
15.78,2.60,34.20285,-118.62962,61907.24,7042.24,WEST HILLS HOSPITAL & MEDICAL CENTER,0.0,0.0,0.581,0.726,0.0,0.145,0.29,0.0
10.47,2.97,33.80861,-118.18661,39805.27,8605.59,LONG BEACH MEMORIAL MEDICAL CENTER,0.0,0.66,0.6,0.42,0.0,0.0,0.0,0.06
11.77,3.12,37.69824,-122.08730,45214.34,9216.49,EDEN MEDICAL CENTER,0.0,0.431,0.0,0.431,0.0,0.0,0.288,0.288
9.29,2.65,36.83863,-119.66183,34907.95,7250.27,CLOVIS COMMUNITY MEDICAL CENTER,0.0,0.892,0.297,0.0,0.0,0.0,0.0,0.0
21.12,2.95,37.98396,-122.03464,84124.02,8504.18,JOHN MUIR MEDICAL CENTER - CONCORD CAMPUS,0.0,0.512,0.256,0.64,0.0,0.0,0.0,0.0
7.51,2.58,38.94514,-121.10174,27479.09,6972.73,SUTTER AUBURN FAITH HOSPITAL,0.0,0.0,0.0,0.287,0.0,0.0,0.0,0.0
12.49,3.46,34.06389,-118.27347,48202.00,10632.69,SAINT VINCENT MEDICAL CENTER,0.0,0.863,0.0,0.0,0.0,0.0,0.108,0.0
11.07,2.50,33.03634,-117.28487,42303.90,6663.34,SCRIPPS MEMORIAL HOSPITAL - ENCINITAS,0.0,0.19,0.569,0.569,0.0,0.19,0.0,0.0
20.11,2.69,35.29188,-120.66635,79927.00,7434.20,SIERRA VISTA REGIONAL MEDICAL CENTER,0.0,0.62,0.31,0.0,0.0,0.0,0.0,0.0
6.03,2.83,37.63058,-122.09502,21324.33,8028.96,KAISER FOUNDATION HOSPITAL FREMONT/HAYWARD,0.0,0.0,0.296,0.739,0.0,0.0,0.0,0.148
4.85,2.38,32.79197,-117.09498,16438.64,6126.55,KAISER FOUNDATION HOSPITAL - SAN DIEGO,0.0,0.081,0.323,0.404,0.0,0.0,0.323,0.0
11.36,2.94,38.66956,-121.31378,43504.64,8458.34,MERCY SAN JUAN MEDICAL CENTER,0.0,0.085,0.34,0.17,0.0,0.0,0.17,0.085
7.76,3.15,34.52856,-117.29305,28545.92,9338.00,VICTOR VALLEY COMMUNITY HOSPITAL,0.0,0.568,0.0,0.568,0.0,0.0,0.568,0.0
11.83,3.16,37.98224,-121.80362,45452.67,9377.81,SUTTER DELTA MEDICAL CENTER,0.0,1.247,1.069,0.356,0.0,0.178,0.0,0.0
6.81,2.70,33.70376,-117.98776,24565.48,7474.48,HUNTINGTON BEACH HOSPITAL,0.0,0.0,0.343,0.0,0.0,0.0,0.0,0.0
14.03,3.19,33.68179,-116.23394,54618.15,9509.80,JOHN F KENNEDY MEMORIAL HOSPITAL, INC,0.0,0.576,0.864,0.0,0.0,0.0,0.288,0.0
8.95,2.81,38.56276,-121.77207,33475.73,7935.55,SUTTER DAVIS HOSPITAL,0.0,0.559,0.0,0.0,0.0,0.0,0.0,0.0
13.69,2.79,34.20777,-118.88305,53206.69,7864.79,LOS ROBLES HOSPITAL & MEDICAL CENTER,0.0,0.543,0.633,0.543,0.0,0.181,0.0,0.09
16.91,2.65,33.80441,-118.06665,66623.47,7255.94,LOS ALAMITOS MEDICAL CENTER,0.0,0.563,0.563,1.314,0.0,0.188,0.188,0.0
11.93,2.69,37.66867,-120.97339,45896.75,7450.94,MEMORIAL  MEDICAL CENTER,0.0,0.667,0.167,0.25,0.0,0.0,0.0,0.0
6.83,2.45,34.03868,-118.37516,24649.43,6425.29,KAISER FOUNDATION HOSPITAL - WEST LA,0.0,0.496,0.165,0.165,0.0,0.0,0.165,0.0
10.33,2.54,33.56100,-117.66530,39243.05,6799.02,MISSION HOSPITAL REGIONAL MED CENTER,0.0,0.311,0.466,0.233,0.0,0.078,0.233,0.0
5.38,3.19,36.94433,-120.04507,18611.37,9529.74,MADERA COMMUNITY HOSPITAL,0.0,0.379,0.0,0.379,0.0,0.0,0.379,0.0
13.38,3.13,33.71466,-117.93322,51905.87,9252.78,FOUNTAIN VALLEY REGIONAL HOSPITAL & MEDICAL CENTER,0.0,0.882,0.196,0.0,0.0,0.0,0.0,0.0
15.06,2.59,33.76335,-116.40628,58890.10,7001.64,EISENHOWER MEDICAL CENTER,0.0,0.344,0.589,0.393,0.0,0.049,0.0,0.049
8.97,2.90,33.83340,-118.08118,33578.25,8288.75,TRI-CITY REGIONAL MEDICAL CENTER,0.0,0.0,0.0,0.0,0.0,0.0,0.308,0.0
6.89,2.99,33.84753,-118.03841,24905.69,8703.92,LA PALMA INTERCOMMUNITY HOSPITAL,0.0,0.318,0.0,0.0,0.0,0.0,0.0,0.0
15.68,2.73,33.84932,-118.15323,61489.31,7611.49,LAKEWOOD REGIONAL MEDICAL CENTER,0.0,0.143,0.57,0.143,0.0,0.0,0.0,0.0
5.76,2.84,34.02561,-117.68583,20212.13,8079.07,CHINO VALLEY MEDICAL CENTER,0.0,0.0,0.0,0.0,0.0,0.0,0.0,0.0
9.01,2.54,34.09764,-117.83444,33721.88,6804.12,SAN DIMAS COMMUNITY HOSPITAL,0.0,0.0,0.48,0.0,0.0,0.0,0.0,0.0
10.84,2.54,33.88515,-117.84346,41345.00,6803.55,PLACENTIA LINDA HOSPITAL,0.0,0.449,0.0,0.0,0.0,0.0,0.0,0.0
10.26,3.12,38.46387,-121.41645,38932.06,9243.27,METHODIST HOSPITAL OF SACRAMENTO,0.0,0.565,0.0,0.377,0.0,0.0,0.188,0.188
7.19,2.64,34.13289,-117.87121,26179.13,7239.74,FOOTHILL PRESBYTERIAN HOSPITAL,0.0,0.353,0.0,0.353,0.0,0.0,0.0,0.0
15.76,4.02,38.55484,-121.45628,61813.77,12989.64,UNIVERSITY OF CALIFORNIA DAVIS MEDICAL CENTER,0.0,1.915,0.479,2.668,0.0,0.137,0.0,0.137
9.26,2.42,33.60883,-117.70881,34773.32,6316.21,SADDLEBACK MEMORIAL MEDICAL CENTER,0.0,0.0,0.267,0.534,0.0,0.0,0.067,0.067
8.06,2.86,37.23946,-121.80035,29765.00,8160.20,KAISER FOUNDATION HOSPITAL-SAN JOSE,0.0,0.179,0.357,1.072,0.0,0.0,0.357,0.0
7.22,3.31,35.76216,-119.23889,26296.11,10031.37,DELANO REGIONAL MEDICAL CENTER,0.0,0.0,0.525,0.0,0.0,0.0,0.0,0.525
5.47,2.50,33.85375,-117.81651,19007.00,6652.82,KAISER FOUNDATION HOSPITAL ANAHEIM,0.0,0.7,0.817,0.117,0.0,0.0,0.117,0.0
14.57,2.49,34.24359,-119.01992,56867.63,6617.73,ST JOHNS PLEASANT VALLEY HOSPITAL,0.0,0.846,0.282,0.846,0.0,0.0,0.0,0.0
15.31,2.64,34.39755,-118.55330,59970.02,7239.47,HENRY MAYO NEWHALL MEMORIAL HOSPITAL,0.0,0.99,0.66,0.495,0.0,0.0,0.33,0.0
21.08,3.34,34.07664,-118.37955,83950.19,10124.64,CEDARS-SINAI MEDICAL CENTER,0.0,0.348,0.294,0.268,0.0,0.107,0.241,0.0
17.93,2.60,35.55536,-120.72067,70832.91,7040.42,TWIN CITIES COMMUNITY HOSPITAL,0.0,0.951,0.571,0.0,0.0,0.0,0.0,0.0
10.26,2.51,32.99711,-117.05783,38950.58,6687.92,POMERADO HOSPITAL,0.0,0.0,0.241,0.0,0.0,0.0,0.0,0.241
7.96,3.47,34.02391,-118.18386,29360.84,10695.00,EAST LOS ANGELES DOCTORS HOSPITAL,0.0,0.0,0.0,0.0,0.0,0.0,0.0,0.0
11.72,3.31,34.03556,-118.30962,45005.50,10032.86,LOS ANGELES METROPOLITAN MEDICAL CTR,0.0,0.0,0.0,0.0,0.0,0.0,0.0,0.0
7.64,3.44,34.01936,-118.18661,28031.93,10551.00,LOS ANGELES COMMUNITY HOSPITAL,0.0,0.0,0.0,0.0,0.0,0.0,0.194,0.0
6.20,2.78,38.46958,-121.41947,22058.58,7827.00,KAISER FOUNDATION HOSP SO SACRAMENTO,0.0,0.0,0.363,3.088,0.0,0.0,0.545,0.363
12.58,2.72,33.70167,-117.95566,48585.16,7552.43,ORANGE COAST MEMORIAL MEDICAL CENTER,0.0,0.223,0.0,0.0,0.0,0.0,0.0,0.223
22.91,2.96,38.35586,-121.95196,91566.00,8565.77,NORTHBAY VACAVALLEY HOSPITAL,0,0,0,0,0,0,0,0
6.49,2.51,33.71818,-117.16690,23243.26,6683.55,MENIFEE VALLEY MEDICAL CENTER,0.0,0.0,0.343,0.0,0.0,0.0,0.343,0.0
4.26,2.55,33.90752,-117.46879,13967.41,6832.24,KAISER FOUNDATION HOSPITAL, RIVERSIDE,0.0,0.0,0.706,0.177,0.0,0.0,0.0,0.0
14.17,3.19,37.03560,-121.57109,55191.72,9499.79,SAINT LOUISE REGIONAL HOSPITAL,0.0,0.0,0.776,0.0,0.0,0.0,0.0,0.0
18.54,2.82,37.77577,-121.95824,73409.04,7990.63,SAN RAMON REGIONAL MEDICAL CTR,0.0,0.325,0.325,0.0,0.0,0.325,0.0,0.325
18.18,3.94,34.06193,-118.20157,71878.71,12632.58,KECK HOSPITAL OF USC,0.0,0.521,1.042,0.0,0.0,0.0,0.13,0.0
6.82,2.63,33.55876,-117.18329,24637.22,7188.20,SOUTHWEST HEALTHCARE SYSTEM,0.0,0.0,1.03,0.257,0.0,0.0,0.129,0.0
5.89,3.22,34.22139,-118.45660,20742.64,9625.36,MISSION COMMUNITY HOSPITAL - PANORAMA,0.0,0.376,0.0,0.0,0.0,0.0,0.0,0.0
6.61,2.64,34.47174,-117.29791,23761.70,7225.84,DESERT VALLEY HOSPITAL,0.0,0.0,0.0,0.0,0.0,0.0,0.0,0.0
9.84,2.58,35.38506,-119.03992,37194.91,6997.37,BAKERSFIELD HEART HOSPITAL,0.0,0.0,0.213,0.0,0.0,0.0,0.0,0.0
16.55,2.57,33.78824,-118.14563,65118.93,6950.00,COMMUNITY HOSPITAL OF LONG BEACH,0.0,0.0,0.0,0.0,0.0,0.0,0.0,0.0
9.32,2.52,36.85992,-119.78858,35032.12,6733.08,FRESNO HEART AND SURGICAL HOSPITAL,0.0,0.402,0.402,0.402,0.0,0.805,0.0,0.0
14.67,3.11,33.95038,-118.00463,57303.74,9194.42,WHITTIER HOSPITAL MEDICAL CENTER,0.0,0.0,0.33,0.0,0.0,0.0,0.0,0.0
17.65,3.45,34.04924,-118.13842,69673.43,10611.14,MONTEREY PARK HOSPITAL,0.0,0.0,0.0,0.0,0.0,0.0,0.0,0.0
19.74,3.59,34.06760,-118.12291,78367.90,11190.51,GARFIELD MEDICAL CENTER,0.0,0.0,0.0,0.154,0.0,0.0,0.0,0.0
11.21,2.99,33.95076,-118.34828,42908.61,8689.21,CENTINELA HOSPITAL MEDICAL CENTER,0.0,0.139,0.279,0.0,0.0,0.07,0.139,0.0
9.99,2.50,33.98219,-118.43930,37824.69,6662.69,MARINA DEL REY HOSPITAL,0.0,0.0,0.0,0.0,0.0,0.0,0.295,0.0
21.19,2.74,34.05723,-118.36025,84434.57,7630.98,OLYMPIA MEDICAL CENTER,0.0,1.391,0.506,0.379,0.0,0.0,0.253,0.0
8.97,3.18,33.75286,-117.83409,33578.16,9464.20,WESTERN MEDICAL CENTER SANTA ANA,0.0,0.597,0.895,0.298,0.0,0.0,0.895,0.0
10.36,2.42,37.79809,-121.24610,39362.27,6299.18,KAISER FOUNDATION HOSPITAL MANTECA,0.0,0.0,0.0,0.0,0.0,0.0,0.0,0.0
14.31,2.78,34.02303,-118.39741,55808.88,7813.51,BROTMAN MEDICAL CENTER,0.0,0.494,0.0,0.0,0.0,0.0,0.0,0.0
6.45,2.73,34.16028,-118.44948,23092.10,7600.10,SHERMAN OAKS HOSPITAL,0.0,0.244,0.0,0.244,0.0,0.0,0.0,0.0
9.07,2.78,32.77629,-117.05730,33977.61,7798.36,ALVARADO HOSPITAL MEDICAL CENTER,0.0,0.667,0.133,0.0,0.0,0.0,0.133,0.0
14.38,2.61,34.17067,-118.53200,56093.84,7111.69,PROVIDENCE TARZANA MEDICAL CENTER,0.0,1.031,0.344,0.258,0.0,0.0,0.172,0.086
6.98,3.48,34.06958,-118.26344,25281.06,10708.75,SILVER LAKE MEDICAL CENTER,0.0,0.271,0.271,0.0,0.0,0.0,0.271,0.0
9.28,2.79,40.58532,-122.38702,34871.36,7854.75,SHASTA REGIONAL MEDICAL CENTER,0.0,0.0,0.113,0.225,0.0,0.113,0.0,0.0
5.46,2.35,33.89740,-117.18603,18952.55,6004.20,KAISER FOUNDATION HOSPITAL-MORENO VALLEY,0.0,0.0,0.0,0.0,0.0,0.0,0.0,0.0
8.13,2.42,33.61478,-117.16918,30073.95,6320.21,LOMA LINDA UNIVERSITY MEDICAL CENTER-MURRIETA,0.0,0.0,0.0,0.0,0.0,0.0,0.0,0.0
7.34,2.51,40.41481,-104.70890,26803.37,6677.37,NORTH COLORADO MEDICAL CENTER,0.0,0.0,0.603,0.345,0.0,0.0,0.172,0.0
7.98,2.41,40.18134,-105.12769,29466.09,6256.98,LONGMONT UNITED HOSPITAL,0.0,0.0,0.536,0.0,0.0,0.0,0.536,0.179
7.00,2.55,39.96455,-104.76855,25355.90,6866.71,PLATTE VALLEY MEDICAL CENTER,0.0,1.283,0.641,0.641,0.0,0.0,0.0,0.0
3.96,2.37,38.48040,-107.86857,12705.17,6100.00,MONTROSE MEMORIAL HOSPITAL,0.0,0.0,0.8,0.4,0.0,0.0,0.0,0.0
4.09,2.59,37.47150,-105.88350,13265.19,7029.00,SAN LUIS VALLEY REGIONAL MEDICAL CENTER,0.0,0.0,0.0,0.0,0.0,0.0,0.0,0.0
7.18,2.36,39.76893,-105.09006,26110.97,6048.03,EXEMPLA LUTHERAN MEDICAL CENTER,0.109,0.437,0.219,0.328,0.0,0.109,0.0,0.109
5.64,2.33,40.57315,-105.05741,19707.09,5939.58,POUDRE VALLEY HOSPITAL,0.0,0.181,0.543,0.362,0.0,0.0,0.0,0.091
5.93,3.46,39.72730,-104.99157,20929.82,10623.25,DENVER HEALTH MEDICAL CENTER,0.0,0.407,0.204,1.628,0.0,0.0,0.0,0.407
7.74,2.40,38.23421,-104.62292,28451.05,6239.49,CENTURA HEALTH-ST MARY CORWIN MEDICAL CENTER,0.0,0.304,1.064,0.152,0.0,0.304,0.456,0.0
5.67,2.75,37.23629,-107.82578,19818.81,7670.38,MERCY REGIONAL MEDICAL CENTER,0.0,0.0,0.0,0.0,0.0,0.0,0.0,0.0
7.78,2.69,39.74615,-104.96682,28632.35,7429.42,PRESBYTERIAN/ST LUKE'S MEDICAL CENTER,0.0,2.6,0.557,2.229,0.0,0.371,0.0,0.371
9.50,2.41,39.71712,-105.12874,35774.93,6250.10,CENTURA HEALTH-ST ANTHONY HOSPITAL,0.0,0.256,0.384,0.639,0.0,0.0,0.0,0.128
6.83,2.53,38.45565,-105.23021,24673.82,6789.82,CENTURA HEALTH-ST THOMAS MORE HOSPITAL,0.0,1.542,2.569,1.028,0.0,0.0,0.0,0.0
6.90,2.40,38.28184,-104.61256,24936.18,6228.06,PARKVIEW MEDICAL CENTER INC,0.0,0.206,0.619,0.206,0.0,0.0,0.31,0.0
6.86,2.50,38.83903,-104.80024,24805.14,6638.52,MEMORIAL HOSPITAL CENTRAL,0.0,0.363,0.544,0.06,0.0,0.0,0.0,0.181
6.21,2.61,39.09046,-108.56190,22092.77,7086.79,ST MARYS HOSPITAL AND MEDICAL CENTER,0.0,0.976,0.759,1.193,0.0,0.0,0.217,0.108
9.24,3.53,39.74234,-104.84156,34687.61,10927.30,UNIVERSITY OF COLORADO HOSPITAL ANSCHUTZ INPATIENT,0.0,0.843,0.169,1.096,0.0,0.0,0.084,0.0
8.37,2.29,40.02615,-105.28391,31078.59,5756.16,BOULDER COMMUNITY HOSPITAL,0.0,0.192,0.192,0.0,0.0,0.0,0.0,0.0
8.85,2.55,39.74601,-104.96909,33084.32,6852.68,EXEMPLA SAINT JOSEPH HOSPITAL,0.0,0.34,0.34,0.453,0.0,0.0,0.113,0.0
5.39,2.25,40.41320,-105.05139,18665.13,5610.58,MCKEE MEDICAL CENTER,0.0,0.0,0.0,0.252,0.0,0.0,0.0,0.0
6.02,2.34,38.86559,-104.82182,21301.88,5975.50,CENTURA HEALTH-PENROSE ST FRANCIS HEALTH SERVICES,0.0,0.655,0.298,0.119,0.0,0.0,0.238,0.0
11.33,2.53,39.73231,-104.93396,43391.84,6776.12,ROSE MEDICAL CENTER,0.0,2.064,0.551,1.789,0.0,0.0,0.275,0.138
9.23,2.42,39.65399,-104.98116,34662.84,6291.06,SWEDISH MEDICAL CENTER,0.0,1.376,0.994,0.688,0.0,0.076,0.0,0.306
3.46,2.52,37.98501,-103.54383,10648.88,6733.65,ARKANSAS VALLEY REGIONAL MEDICAL CENTER,0.0,0.0,0.556,0.0,0.0,0.0,0.0,0.0
7.08,2.71,40.26035,-103.79536,25696.22,7517.28,COLORADO PLAINS MEDICAL CENTER,0.0,0.0,0.0,0.0,0.0,0.0,1.037,0.0
4.81,2.28,39.08601,-108.55355,16268.00,5736.86,COMMUNITY HOSPITAL,0.0,0.513,1.026,0.513,0.0,0.0,0.0,0.0
8.35,2.49,39.67005,-104.97490,30979.82,6622.42,CENTURA HEALTH-PORTER ADVENTIST HOSPITAL,0.0,0.158,0.947,0.473,0.0,0.0,0.0,0.0
9.79,2.50,39.86430,-104.98481,36989.50,6639.75,NORTH SUBURBAN MEDICAL CENTER,0.0,0.0,0.431,1.292,0.0,0.0,0.0,0.0
3.51,2.28,38.74540,-108.04700,10830.43,5711.52,DELTA COUNTY MEMORIAL HOSPITAL,0.0,0.766,0.0,0.0,0.0,0.0,0.0,0.0
3.78,2.97,40.61244,-103.22063,11988.07,8607.21,STERLING REGIONAL MEDCENTER,0.0,0.0,0.698,0.698,0.0,0.0,0.0,0.0
9.21,2.46,39.68859,-104.83205,34546.63,6497.60,MEDICAL CENTER OF AURORA, THE,0.0,0.92,1.022,0.409,0.0,0.0,0.102,0.0
7.32,2.49,39.84960,-105.01825,26700.67,6619.39,CENTURA HEALTH-ST ANTHONY NORTH HOSPITAL,0.0,0.581,0.968,0.387,0.0,0.0,0.194,0.0
10.41,2.35,39.52910,-104.87121,39542.22,6005.73,SKY RIDGE MEDICAL CENTER,0.0,0.298,0.745,0.298,0.0,0.0,0.0,0.0
11.86,2.36,39.57629,-104.98610,45593.69,6065.75,CENTURA HEALTH-LITTLETON ADVENTIST HOSPITAL,0.0,0.0,0.35,0.175,0.0,0.0,0.175,0.0
8.74,2.37,39.54881,-104.77119,32591.21,6096.32,PARKER ADVENTIST HOSPITAL,0.0,0.328,0.985,0.0,0.0,0.0,0.328,0.328
7.26,2.28,39.97043,-105.08661,26469.76,5738.12,EXEMPLA GOOD SAMARITAN MEDICAL CENTER LLC,0.0,0.567,0.567,0.0,0.0,0.0,0.0,0.567
6.83,2.41,40.45184,-105.19608,24656.44,6278.32,MEDICAL CENTER OF THE ROCKIES,0.0,0.342,0.342,0.513,0.0,0.0,0.0,0.0
7.98,2.91,41.30978,-72.93806,29461.96,8362.83,HOSPITAL OF ST RAPHAEL,0.0,0.344,0.516,0.602,0.0,0.0,0.086,0.043
6.13,2.94,41.77507,-72.69941,21735.36,8485.28,ST FRANCIS HOSPITAL & MEDICAL CENTER,0.0,0.714,0.672,0.462,0.0,0.0,0.126,0.084
3.28,2.47,41.90922,-71.91467,9893.21,6515.21,DAY KIMBALL HOSPITAL,0.0,0.0,0.264,0.264,0.0,0.0,0.264,0.0
5.42,3.17,41.88142,-73.48367,18808.64,9415.32,SHARON HOSPITAL,0.0,0.0,0.856,1.284,0.0,0.0,0.0,0.0
7.38,2.76,41.55959,-73.05941,26965.53,7716.54,WATERBURY HOSPITAL,0.0,0.629,0.45,0.09,0.0,0.09,0.09,0.0
5.16,2.46,41.97762,-72.39127,17734.12,6493.41,JOHNSON MEMORIAL HOSPITAL,0.0,0.0,0.0,0.0,0.0,0.0,0.0,0.0
9.11,2.90,41.05562,-73.55390,34167.49,8313.10,STAMFORD HOSPITAL,0.0,1.067,0.534,0.32,0.0,0.0,0.854,0.107
4.66,2.62,41.33722,-72.10380,15646.18,7143.64,LAWRENCE & MEMORIAL HOSPITAL,0.0,0.401,0.321,0.08,0.0,0.08,0.0,0.0
7.97,3.26,41.18881,-73.16645,29417.00,9814.61,BRIDGEPORT HOSPITAL,0.0,0.711,0.622,0.622,0.0,0.0,0.622,0.089
3.53,2.53,41.79153,-73.13382,10932.95,6774.00,CHARLOTTE HUNGERFORD HOSPITAL,0.0,0.0,0.494,0.165,0.0,0.0,0.165,0.0
4.96,2.50,41.86708,-72.45056,16899.54,6627.54,ROCKVILLE GENERAL HOSPITAL,0.0,0.0,0.0,0.742,0.0,0.0,0.0,0.0
6.21,2.63,41.58181,-73.40955,22077.54,7199.88,NEW MILFORD HOSPITAL,0.0,0.0,0.449,0.0,0.0,0.0,0.0,0.0
4.14,2.90,41.55241,-73.03554,13480.48,8318.74,SAINT MARYS HOSPITAL,0.0,0.294,0.783,0.098,0.0,0.098,0.196,0.0
5.29,2.55,41.54874,-72.80148,18235.73,6871.65,MIDSTATE MEDICAL CENTER,0.0,1.042,0.781,0.391,0.0,0.13,0.0,0.0
7.48,2.69,41.03431,-73.63020,27373.02,7422.93,GREENWICH HOSPITAL ASSOCIATION,0.0,0.102,0.407,0.611,0.0,0.102,0.204,0.102
5.86,2.50,41.21646,-73.06525,20621.41,6643.20,MILFORD HOSPITAL, INC,0.0,1.751,1.459,2.334,0.0,0.0,0.0,0.0
7.39,2.60,41.55473,-72.64872,27009.50,7060.15,MIDDLESEX HOSPITAL,0.0,0.0,0.574,1.884,0.0,0.082,0.246,0.0
4.45,3.08,41.71622,-72.22399,14751.21,9066.55,WINDHAM COMM MEM HOSP & HATCH HOSP,0.0,0.0,0.458,0.0,0.0,0.0,0.687,0.0
8.55,3.52,41.30400,-72.93502,31801.35,10873.66,YALE-NEW HAVEN HOSPITAL,0.0,0.865,0.587,0.68,0.0,0.124,0.062,0.34
4.36,2.55,41.54301,-72.08799,14399.26,6840.11,WILLIAM W BACKUS HOSPITAL,0.0,0.555,0.333,0.111,0.0,0.0,0.0,0.111
7.28,3.20,41.75412,-72.67927,26526.85,9565.95,HARTFORD HOSPITAL,0.0,0.402,0.511,0.548,0.0,0.073,0.073,0.11
4.82,2.53,41.78185,-72.52591,16294.85,6764.52,MANCHESTER MEMORIAL HOSPITAL,0.0,0.0,0.863,0.0,0.0,0.0,0.173,0.173
7.68,2.87,41.20049,-73.20281,28204.83,8199.78,ST VINCENT'S MEDICAL CENTER,0.0,0.375,0.25,0.437,0.0,0.0,0.0,0.0
5.60,2.50,41.67540,-72.93617,19562.07,6641.45,BRISTOL HOSPITAL,0.0,0.0,0.591,0.197,0.0,0.0,0.394,0.0
7.22,2.80,41.33493,-73.08978,26283.88,7899.20,GRIFFIN HOSPITAL,0.0,0.0,0.163,0.327,0.0,0.163,0.0,0.0
5.20,2.83,41.40474,-73.44739,17864.26,8024.86,DANBURY HOSPITAL,0.0,0.0,0.517,0.46,0.0,0.0,0.057,0.23
8.08,2.84,41.11147,-73.42010,29859.42,8072.65,NORWALK HOSPITAL ASSOCIATION,0.0,0.195,0.39,0.098,0.0,0.0,0.293,0.0
6.14,2.75,41.66107,-72.78671,21772.34,7685.50,HOSPITAL OF CENTRAL CONNECTICUT, THE,0.0,0.249,0.187,0.435,0.0,0.062,0.124,0.124
5.86,3.76,41.73545,-72.79489,20611.28,11889.03,JOHN DEMPSEY HOSPITAL,0.0,1.01,0.866,0.722,0.0,0.0,0.144,0.0
2.14,2.45,41.46281,-72.83650,5144.82,6420.41,MASONIC HOME AND HOSPITAL,0.0,0.0,0.0,0.0,0.0,0.0,0.0,0.0
4.86,2.78,39.69005,-75.68408,16482.75,7791.47,CHRISTIANA CARE HEALTH SERVICES, INC.,0.0,0.513,0.424,0.379,0.0,0.0,0.067,0.089
6.06,2.66,39.74954,-75.56662,21474.80,7325.52,ST FRANCIS HOSPITAL,0.0,0.364,0.91,0.0,0.0,0.0,0.0,0.0
4.65,2.48,39.15135,-75.52309,15608.50,6544.15,BAYHEALTH - KENT GENERAL HOSPITAL,0.0,0.258,0.773,0.193,0.0,0.0,0.064,0.129
4.27,2.76,38.64231,-75.60660,13998.18,7737.81,NANTICOKE MEMORIAL HOSPITAL,0.0,0.421,0.0,0.0,0.0,0.0,0.211,0.0
6.12,2.45,38.77159,-75.14210,21723.55,6446.63,BEEBE MEDICAL CENTER,0.0,0.0,0.098,0.195,0.0,0.0,0.0,0.0
5.01,2.35,38.90742,-75.43278,17109.12,6008.25,BAYHEALTH - MILFORD MEMORIAL HOSPITAL,0.0,0.0,0.0,0.0,0.0,0.0,0.0,0.0
7.51,3.11,38.90106,-77.05079,27489.60,9189.78,GEORGE WASHINGTON UNIV HOSPITAL,0.0,0.445,1.112,0.778,0.0,0.445,0.0,0.111
8.00,4.07,38.91770,-77.02193,29525.49,13175.59,HOWARD UNIVERSITY HOSPITAL,0.0,0.805,0.322,0.644,0.0,0.0,0.161,0.0
7.51,3.34,38.91221,-77.07588,27494.96,10139.39,GEORGETOWN UNIVERSITY HOSPITAL,0.0,0.876,0.548,0.438,0.0,0.0,0.11,0.0
6.44,2.48,38.93576,-77.10909,23043.44,6553.95,SIBLEY MEMORIAL HOSPITAL,0.0,0.0,0.649,0.26,0.0,0.0,0.13,0.0
5.73,2.97,38.94397,-76.99040,20071.26,8620.41,PROVIDENCE HOSPITAL,0.0,0.322,0.215,0.0,0.107,0.107,0.322,0.0
7.75,2.85,38.83504,-76.98388,28510.02,8112.52,UNITED MEDICAL CENTER,0.0,0.0,0.0,0.0,0.0,0.0,0.355,0.0
7.24,3.07,38.92944,-77.01473,26381.12,9030.73,WASHINGTON HOSPITAL CENTER,0.0,0.761,0.217,0.362,0.0,0.0,0.145,0.109
6.16,3.04,30.34913,-81.66391,21857.46,8907.66,SHANDS JACKSONVILLE MEDICAL CENTER,0.0,0.31,0.31,0.186,0.0,0.0,0.124,0.186
9.02,2.52,26.50479,-80.06979,33762.24,6714.22,BETHESDA MEMORIAL HOSPITAL,0.0,0.508,0.799,0.29,0.0,0.073,0.29,0.0
8.55,2.59,28.52517,-81.37729,31806.57,7000.72,ORLANDO HEALTH,0.0,0.826,0.486,0.219,0.0,0.049,0.097,0.024
8.44,2.49,28.57345,-81.36990,31359.82,6586.76,FLORIDA HOSPITAL,0.0,0.317,0.317,0.136,0.0,0.0,0.011,0.023
11.98,2.80,25.68309,-80.34038,46092.30,7893.44,BAPTIST HOSPITAL OF MIAMI INC,0.0,0.316,0.443,0.19,0.0,0.0,0.19,0.063
12.92,2.84,25.78846,-80.21644,50003.89,8068.65,UNIVERSITY OF MIAMI HOSPITAL,0.0,0.929,0.547,0.109,0.0,0.0,1.093,0.055
5.98,2.35,26.62849,-81.87423,21122.28,6005.41,LEE MEMORIAL HOSPITAL,0.0,0.511,0.746,1.021,0.0,0.0,0.157,0.039
4.29,2.18,29.01347,-80.94096,14075.81,5293.26,BERT FISH MEDICAL CENTER,0.0,1.16,0.87,0.58,0.0,0.0,0.0,0.0
4.80,2.36,29.20117,-81.05828,16207.88,6073.42,HALIFAX HEALTH MEDICAL CENTER,0.0,0.425,0.729,0.121,0.0,0.0,0.0,0.0
5.71,2.31,26.15053,-81.79919,19995.89,5850.97,NAPLES COMMUNITY HOSPITAL,0.0,0.303,0.539,0.101,0.0,0.0,0.135,0.034
6.59,2.23,28.08771,-80.61362,23658.54,5510.32,HOLMES REGIONAL MEDICAL CENTER,0.0,0.475,0.647,0.216,0.0,0.043,0.043,0.0
8.78,4.00,25.79143,-80.21250,32776.15,12880.24,JACKSON MEMORIAL HOSPITAL,0.047,0.837,0.186,0.186,0.0,0.047,0.326,0.0
6.04,2.19,28.83363,-82.33561,21372.45,5342.05,CITRUS MEMORIAL HOSPITAL,0.0,0.415,0.415,2.24,0.0,0.0,0.249,0.083
4.64,2.45,30.47650,-87.21219,15547.15,6440.52,SACRED HEART HOSPITAL,0.058,0.231,0.231,0.81,0.0,0.173,0.058,0.116
4.53,2.27,30.15963,-85.64818,15078.54,5678.18,BAY MEDICAL CENTER,0.0,0.3,0.72,0.0,0.0,0.06,0.0,0.0
4.61,2.29,28.63051,-80.82437,15404.58,5753.81,PARRISH MEDICAL CENTER,0.0,0.588,0.441,0.294,0.0,0.0,0.147,0.0
12.28,2.76,25.86166,-80.21398,47360.22,7719.84,NORTH SHORE MEDICAL CENTER,0.0,0.15,0.225,0.0,0.0,0.0,0.075,0.0
7.12,2.39,28.54917,-81.52746,25869.88,6200.34,HEALTH CENTRAL,0.0,0.307,0.461,0.154,0.0,0.0,0.0,0.154
7.57,2.55,27.76332,-82.64325,27751.40,6868.18,BAYFRONT MEDICAL CENTER INC,0.0,1.031,0.469,0.0,0.0,0.0,0.0,0.0
12.84,2.90,25.81317,-80.13996,49659.78,8311.51,MOUNT SINAI MEDICAL CENTER,0.0,0.313,0.813,0.313,0.0,0.063,0.125,0.063
6.23,2.38,27.49789,-82.56220,22161.02,6144.65,MANATEE MEMORIAL HOSPITAL,0.0,0.271,0.542,0.542,0.0,0.09,0.181,0.0
9.85,2.62,26.01867,-80.17981,37223.76,7157.78,MEMORIAL REGIONAL HOSPITAL,0.0,0.273,0.436,0.164,0.0,0.0,0.055,0.109
7.26,2.99,26.10282,-80.14245,26434.89,8669.53,BROWARD HEALTH BROWARD GENERAL MEDICAL CENTER,0.0,0.847,0.423,0.212,0.0,0.0,0.0,0.0
5.38,2.33,30.30835,-81.68919,18620.64,5923.15,ST VINCENT'S MEDICAL CENTER,0.0,0.139,0.173,0.104,0.0,0.0,0.069,0.035
5.87,2.16,28.01404,-82.78368,20676.07,5239.45,MEASE HOSPITAL DUNEDIN,0.0,0.199,0.596,2.783,0.0,0.0,0.0,0.0
8.26,2.32,27.19837,-80.24306,30598.06,5893.35,MARTIN MEMORIAL MEDICAL CENTER,0.0,0.448,0.384,0.128,0.0,0.064,0.0,0.0
6.20,2.35,29.04263,-81.31635,22028.70,6035.26,FLORIDA HOSPITAL DELAND,0.0,0.0,0.348,0.0,0.0,0.0,0.174,0.0
8.94,2.23,28.26092,-82.18802,33423.94,5523.51,FLORIDA HOSPITAL ZEPHYRHILLS,0.0,0.131,0.262,0.262,0.0,0.131,0.262,0.0
6.25,2.19,26.94042,-82.04094,22252.37,5372.62,CHARLOTTE REGIONAL MEDICAL CENTER,0.0,0.199,0.099,0.397,0.0,0.0,0.0,0.099
5.19,2.45,30.95015,-87.15095,17831.39,6457.17,JAY HOSPITAL,0.0,0.0,0.0,0.0,0.0,0.0,0.0,0.0
5.53,2.21,27.46707,-81.43358,19238.82,5422.82,HIGHLANDS REGIONAL MEDICAL CENTER,0.0,0.0,0.736,1.104,0.0,0.368,0.0,0.368
6.82,2.81,25.86856,-80.31222,24608.69,7919.32,PALM SPRINGS GENERAL HOSPITAL,0.0,0.0,0.14,0.0,0.0,0.0,0.14,0.0
7.24,2.25,28.55140,-81.72120,26376.26,5586.77,SOUTH LAKE HOSPITAL,0.0,1.095,1.824,0.547,0.0,0.0,0.0,0.0
7.92,2.31,28.02768,-81.72466,29206.48,5849.96,WINTER HAVEN HOSPITAL,0.0,0.4,0.799,0.32,0.0,0.0,0.719,0.0
16.26,3.07,25.84597,-80.26872,63898.29,9012.29,HIALEAH HOSPITAL,0.0,0.0,0.468,0.0,0.0,0.0,0.468,0.0
11.10,2.12,30.53493,-86.49628,42411.07,5050.81,TWIN CITIES HOSPITAL,0.0,0.403,0.805,0.403,0.0,0.0,0.0,0.0
6.41,2.19,28.13321,-82.75839,22913.72,5336.83,HELEN ELLIS MEMORIAL HOSPITAL,0.0,0.289,0.0,0.289,0.0,0.0,0.0,0.0
5.49,2.25,28.82358,-81.71133,19084.81,5606.28,FLORIDA HOSPITAL WATERMAN,0.0,0.137,0.825,0.069,0.0,0.0,0.069,0.0
7.80,2.69,25.74067,-80.21244,28687.03,7435.81,MERCY HOSPITAL INC,0,0,0,0,0,0,0,0
5.66,2.22,29.17594,-82.13898,19786.64,5473.58,MUNROE REGIONAL MEDICAL CENTER,0.0,0.135,0.628,0.359,0.0,0.0,0.09,0.135
5.98,2.19,28.25431,-82.71447,21117.24,5360.80,MORTON PLANT NORTH BAY HOSPITAL,0.0,0.0,0.245,0.0,0.0,0.0,0.0,0.0
6.08,2.25,27.78088,-82.65126,21537.47,5608.88,ST ANTHONY'S HOSPITAL,0.0,0.632,0.316,0.316,0.0,0.0,0.105,0.0
4.96,2.25,29.24333,-81.10760,16871.56,5594.70,FLORIDA HOSPITAL MEMORIAL MEDICAL CENTER,0.0,0.378,0.472,0.189,0.0,0.094,0.0,0.0
7.69,2.30,28.01266,-82.50384,28257.93,5821.00,FLORIDA HOSPITAL CARROLLWOOD,0.0,0.0,0.734,0.734,0.0,0.0,0.367,0.0
5.79,2.19,27.09043,-82.44499,20338.59,5356.48,VENICE REGIONAL MEDICAL CENTER,0.0,0.41,0.614,0.205,0.0,0.0,0.0,0.0
10.85,2.40,28.53906,-82.44193,41387.44,6218.21,BROOKSVILLE REGIONAL HOSPITAL,0.0,0.525,0.393,0.0,0.0,0.0,0.262,0.0
5.64,2.25,28.91403,-81.28480,19691.11,5624.71,FLORIDA HOSPITAL FISH MEMORIAL,0.0,0.142,0.285,0.142,0.0,0.0,0.142,0.0
8.57,2.27,26.18711,-80.11941,31897.82,5695.84,HOLY CROSS HOSPITAL INC,0.0,0.328,0.46,1.182,0.0,0.0,0.131,0.066
6.17,2.47,27.98242,-82.49025,21919.51,6508.89,ST JOSEPH'S HOSPITAL,0.0,0.48,0.384,0.144,0.0,0.0,0.096,0.192
8.83,2.94,25.77941,-80.29397,33000.52,8455.78,METROPOLITAN HOSPITAL OF MIAMI,0.0,0.0,0.272,0.0,0.0,0.0,0.0,0.0
7.14,2.33,26.98905,-82.09559,25955.05,5917.34,PEACE RIVER REGIONAL MEDICAL CENTER,0.0,0.13,0.391,0.782,0.0,0.13,0.0,0.0
9.45,2.46,26.59805,-80.09271,35561.73,6462.38,JFK MEDICAL CENTER,0.0,0.454,0.578,0.165,0.0,0.041,0.041,0.0
5.59,2.29,30.64734,-86.11395,19502.14,5751.95,HEALTHMARK REGIONAL MEDICAL CENTER,0.0,0.0,0.803,0.0,0.0,0.0,0.0,0.0
6.03,2.25,28.80659,-81.86906,21337.37,5591.82,LEESBURG REGIONAL MEDICAL CENTER,0.0,0.322,0.643,0.214,0.0,0.054,0.0,0.0
6.94,2.40,26.27623,-80.12220,25105.34,6234.12,BROWARD HEALTH NORTH BROWARD MEDICAL CENTER,0.0,0.318,0.318,0.159,0.0,0.0,0.318,0.0
5.10,2.27,27.31827,-82.53140,17484.43,5688.69,SARASOTA MEMORIAL HOSPITAL,0.045,0.27,0.36,1.622,0.0,0.045,0.045,0.09
7.63,2.42,30.31525,-81.66398,27984.11,6303.19,BAPTIST MEDICAL CENTER,0.0,0.377,0.519,1.131,0.0,0.047,0.047,0.047
8.24,2.60,29.86371,-81.31749,30541.54,7065.24,FLAGLER HOSPITAL,0.0,0.591,0.739,0.074,0.0,0.0,0.0,0.0
5.85,2.28,28.33522,-80.72319,20596.83,5733.81,WUESTHOFF MEDICAL CENTER  ROCKLEDGE,0.0,0.193,1.158,0.289,0.0,0.0,0.0,0.193
6.23,2.30,30.43066,-87.23191,22149.94,5811.58,BAPTIST HOSPITAL,0.0,0.201,0.502,0.1,0.0,0.0,0.1,0.0
9.43,2.23,27.89590,-81.56547,35498.77,5525.66,LAKE WALES MEDICAL CENTER,0.0,0.0,0.381,0.0,0.0,0.0,0.0,0.0
7.18,2.37,30.19345,-82.63268,26121.66,6095.45,SHANDS LAKE SHORE REGIONAL MEDICAL CENTER,0.0,0.0,0.604,0.0,0.0,0.0,0.0,0.0
3.54,2.33,27.65832,-80.39307,10956.27,5922.68,INDIAN RIVER MEDICAL CENTER,0.0,0.068,0.204,0.136,0.0,0.068,0.0,0.0
3.78,2.47,30.12015,-83.59309,11971.56,6503.19,DOCTOR'S MEMORIAL HOSPITAL INC,0.0,0.0,0.88,0.0,0.0,0.0,0.0,0.0
7.39,2.26,26.61563,-81.65945,26974.60,5628.17,LEHIGH REGIONAL MEDICAL CENTER,0.0,0.0,1.162,0.0,0.0,0.0,0.291,0.0
6.44,2.31,27.50001,-81.43962,23054.01,5835.86,FLORIDA HOSPITAL HEARTLAND MEDICAL CENTER,0.0,0.568,0.812,0.487,0.0,0.081,0.0,0.0
11.46,2.51,28.29946,-81.41021,43923.12,6706.15,OSCEOLA REGIONAL MEDICAL CENTER,0.0,1.196,0.498,0.299,0.0,0.1,0.0,0.0
5.76,3.26,29.64155,-82.34844,20204.98,9787.44,SHANDS HOSPITAL AT THE UNIVERSITY OF FLORIDA,0.0,0.99,0.344,0.689,0.0,0.0,0.172,0.172
8.15,2.20,30.27449,-81.40071,30175.75,5386.78,BAPTIST MEDICAL CENTER  BEACHES,0.0,0.0,0.0,0.173,0.0,0.0,0.0,0.0
5.00,2.51,29.47897,-81.18915,17036.16,6688.72,FLORIDA HOSPITAL FLAGLER,0.0,0.778,1.089,0.156,0.0,0.156,0.0,0.156
5.58,2.20,27.91798,-81.84402,19453.35,5375.65,BARTOW REGIONAL MEDICAL CENTER,0.0,0.0,1.16,0.29,0.0,0.0,0.0,0.0
10.65,2.60,30.73540,-86.56171,40572.08,7070.65,NORTH OKALOOSA MEDICAL CENTER,0.0,0.163,0.325,0.0,0.0,0.0,0.0,0.0
7.10,2.34,30.63421,-87.06708,25786.69,5964.88,SANTA ROSA MEDICAL CENTER,0.0,0.0,0.317,0.317,0.0,0.0,0.0,0.317
9.18,2.74,25.47971,-80.43038,34461.27,7639.78,HOMESTEAD HOSPITAL,0.0,0.0,0.499,0.25,0.0,0.0,0.0,0.0
6.05,2.11,27.75214,-82.73951,21419.52,5031.85,PALMS OF PASADENA HOSPITAL,0.0,1.312,0.375,0.562,0.0,0.0,0.75,0.0
5.52,2.32,27.95192,-82.80379,19220.71,5891.92,MORTON PLANT HOSPITAL,0.052,0.209,0.731,0.992,0.0,0.0,0.0,0.0
10.32,2.97,27.93740,-82.45927,39176.81,8619.77,TAMPA GENERAL HOSPITAL,0.0,0.722,0.587,0.045,0.0,0.0,0.0,0.181
9.03,2.79,26.72399,-80.67127,33822.71,7861.36,LAKESIDE MEDICAL CENTER,0.0,0.0,0.0,0.0,0.0,0.0,0.0,0.0
12.88,2.43,25.96994,-80.14533,49843.99,6341.17,AVENTURA HOSPITAL AND MEDICAL CENTER,0.0,0.351,0.984,0.141,0.0,0.0,0.351,0.0
6.27,2.43,28.01563,-82.13900,22312.53,6372.08,SOUTH FLORIDA BAPTIST HOSPITAL,0.0,0.274,0.0,0.0,0.0,0.0,0.0,0.0
6.14,2.45,30.45726,-84.26175,21780.74,6423.88,TALLAHASSEE MEMORIAL HEALTHCARE,0.0,0.228,0.609,1.37,0.0,0.0,0.076,0.076
11.31,2.35,28.18120,-81.64018,43305.92,6039.69,HEART OF FLORIDA REGIONAL MEDICAL CENTER,0.0,0.246,0.246,0.123,0.0,0.0,0.0,0.123
5.24,2.26,30.65118,-81.44923,18053.94,5660.00,BAPTIST MEDICAL CENTER - NASSAU,0.0,0.0,0.471,0.0,0.0,0.0,0.0,0.0
3.40,2.24,30.78675,-85.24189,10404.61,5578.68,JACKSON HOSPITAL,0.0,0.313,0.313,0.0,0.0,0.0,0.313,0.313
10.81,2.95,24.58076,-81.74233,41210.44,8504.22,LOWER KEYS MEDICAL CENTER,0.0,1.094,1.094,1.094,0.0,0.0,0.0,0.0
4.27,2.74,30.26389,-81.44283,13998.81,7632.54,MAYO CLINIC,0.0,0.504,0.144,0.216,0.0,0.0,0.072,0.144
12.56,2.52,25.70328,-80.29391,48512.77,6738.53,SOUTH MIAMI HOSPITAL, INC,0.0,0.124,0.745,0.0,0.0,0.124,0.248,0.0
7.38,2.64,30.18340,-82.68783,26930.74,7240.34,LAKE CITY MEDICAL CENTER,0.0,0.547,0.182,0.365,0.0,0.0,0.0,0.0
6.25,2.30,28.06172,-81.95304,22268.89,5794.88,LAKELAND REGIONAL MEDICAL CENTER,0.0,1.08,0.68,0.52,0.0,0.0,0.12,0.04
6.74,2.32,28.81611,-81.28351,24293.82,5905.00,CENTRAL FLORIDA REGIONAL HOSPITAL,0.141,1.129,0.282,0.423,0.0,0.0,0.141,0.0
10.25,2.19,27.30187,-82.45428,38910.49,5343.58,DOCTORS HOSPITAL OF SARASOTA,0.0,0.261,0.521,0.652,0.0,0.0,0.13,0.0
11.78,2.84,26.12647,-80.20519,45281.88,8065.98,PLANTATION GENERAL HOSPITAL,0.0,1.164,0.582,0.0,0.0,0.0,0.0,0.0
6.61,2.30,26.35875,-80.10203,23742.05,5792.16,BOCA RATON REGIONAL HOSPITAL,0.0,0.324,0.486,0.648,0.0,0.054,0.324,0.108
7.29,2.28,28.07111,-82.42342,26583.06,5716.98,FLORIDA HOSPITAL TAMPA,0.0,0.307,0.461,0.307,0.0,0.077,0.0,0.0
5.09,2.41,27.22739,-81.85108,17419.76,6269.08,DESOTO MEMORIAL HOSPITAL,0.0,0.0,2.49,0.0,0.0,0.0,0.0,0.0
9.30,2.32,26.83035,-80.08655,34954.99,5905.98,PALM BEACH GARDENS MEDICAL CENTER,0.0,0.494,0.494,0.593,0.0,0.0,0.099,0.099
5.06,2.23,28.36005,-80.62309,17277.85,5523.95,CAPE CANAVERAL HOSPITAL,0.0,0.62,0.207,0.0,0.0,0.0,0.0,0.0
12.84,2.32,30.28793,-81.60103,49684.25,5897.46,MEMORIAL HOSPITAL JACKSONVILLE,0.0,0.449,0.337,0.281,0.0,0.112,0.449,0.056
14.59,2.52,27.80541,-82.72694,56937.31,6746.60,ST PETERSBURG GENERAL HOSPITAL,0.0,0.804,1.447,0.321,0.0,0.161,0.161,0.0
10.35,2.92,25.70558,-80.29311,39323.55,8388.42,LARKIN COMMUNITY HOSPITAL,0.0,0.0,1.559,0.0,0.0,0.0,0.0,0.0
17.32,2.89,25.74360,-80.25465,68329.42,8262.88,CORAL GABLES HOSPITAL,0.0,0.0,0.65,0.0,0.0,0.0,0.217,0.0
13.58,2.93,25.88563,-80.32635,52750.78,8419.74,PALMETTO GENERAL HOSPITAL,0.0,0.477,0.341,0.0,0.0,0.0,0.136,0.0
11.53,2.38,26.26259,-80.20292,44220.12,6156.38,NORTHWEST MEDICAL CENTER,0.0,0.203,0.507,0.101,0.0,0.101,0.101,0.101
10.66,2.23,28.19342,-82.46987,40619.48,5505.87,MEDICAL CENTER OF TRINITY,0.0,0.312,0.623,0.208,0.0,0.0,0.0,0.0
6.65,2.38,26.20644,-80.11086,23918.68,6137.09,BROWARD HEALTH IMPERIAL POINT MEDICAL CENTER,0.0,0.0,0.291,0.291,0.0,0.0,0.0,0.0
9.78,2.33,29.66085,-82.41172,36950.91,5937.34,NORTH FLORIDA REGIONAL MEDICAL CENTER,0.0,0.656,0.615,0.983,0.0,0.082,0.164,0.0
9.24,2.20,27.93758,-82.48933,34683.89,5414.91,MEMORIAL HOSPITAL OF TAMPA,0.0,0.25,0.25,0.0,0.0,0.0,0.5,0.0
10.39,2.81,25.73195,-80.38580,39497.12,7914.37,KENDALL REGIONAL MEDICAL CENTER,0.0,0.247,0.412,0.082,0.0,0.082,0.494,0.165
7.03,2.24,28.34805,-82.19963,25479.52,5561.62,PASCO REGIONAL MEDICAL CENTER,0.0,0.0,0.683,0.0,0.0,0.0,0.0,0.0
8.06,2.20,29.17550,-82.13680,29773.87,5382.15,OCALA REGIONAL MEDICAL CENTER,0.0,0.338,0.745,0.474,0.0,0.0,0.203,0.135
8.95,2.21,27.48213,-82.62126,33482.47,5437.90,BLAKE MEDICAL CENTER,0.0,0.073,1.028,0.0,0.0,0.0,0.22,0.0
8.21,2.28,27.84359,-80.48849,30403.47,5748.80,SEBASTIAN RIVER MEDICAL CENTER,0.0,0.172,1.204,1.547,0.0,0.0,0.0,0.0
7.00,2.33,26.52735,-81.83337,25365.33,5920.10,GULF COAST MEDICAL CENTER LEE MEM HEALTH SYSTEM,0.0,0.418,0.731,0.209,0.0,0.0,0.052,0.052
12.04,2.23,30.45448,-86.63362,46327.64,5533.03,FORT WALTON BEACH MEDICAL CENTER,0.0,1.008,0.807,0.202,0.0,0.0,0.0,0.0
11.12,2.31,26.21219,-80.25478,42522.43,5851.70,UNIVERSITY HOSPITAL AND MEDICAL CENTER,0.0,0.513,0.684,0.0,0.0,0.0,0.0,0.171
12.04,2.32,30.16550,-81.73775,46337.28,5889.61,ORANGE PARK MEDICAL CENTER,0.0,0.578,0.413,0.165,0.0,0.0,0.0,0.165
12.83,2.33,26.12354,-80.25951,49617.36,5956.64,WESTSIDE REGIONAL MEDICAL CENTER,0.0,0.441,0.617,0.176,0.0,0.088,0.088,0.0
9.66,2.45,26.02951,-80.24607,36437.28,6454.69,MEMORIAL HOSPITAL PEMBROKE,0.0,0.651,0.326,0.651,0.0,0.326,0.326,0.0
7.90,2.17,30.51624,-87.21856,29121.10,5256.04,WEST FLORIDA HOSPITAL,0.0,0.614,0.79,0.176,0.0,0.0,0.176,0.0
5.94,2.34,29.64481,-81.69431,20978.33,5972.49,PUTNAM COMMUNITY MEDICAL CENTER,0.0,0.0,0.326,0.163,0.0,0.163,0.0,0.0
12.58,2.56,26.76167,-80.08781,48574.48,6890.58,COLUMBIA HOSPITAL,0.0,0.565,0.283,0.0,0.0,0.0,0.0,0.0
10.62,2.21,26.98884,-82.09877,40415.01,5432.80,FAWCETT MEMORIAL HOSPITAL,0.0,0.333,0.333,0.416,0.0,0.0,0.0,0.0
11.70,2.34,27.82545,-82.70122,44913.62,5978.24,NORTHSIDE HOSPITAL,0.0,0.941,0.523,0.105,0.0,0.0,0.0,0.314
10.51,2.24,27.78151,-82.66458,39986.05,5569.21,EDWARD WHITE HOSPITAL,0.0,0.666,0.0,0.333,0.0,0.0,0.0,0.0
10.37,2.35,30.18657,-85.66513,39402.33,6027.37,GULF COAST MEDICAL CENTER,0.0,0.256,0.896,0.384,0.0,0.0,0.256,0.0
10.99,2.45,27.93259,-82.28759,41991.67,6417.34,BRANDON REGIONAL HOSPITAL,0.0,0.598,0.684,0.085,0.0,0.0,0.085,0.0
5.72,2.20,26.63958,-81.94164,20033.95,5390.36,CAPE CORAL HOSPITAL,0.0,0.526,1.278,0.301,0.0,0.075,0.15,0.0
11.02,2.59,27.43392,-80.34350,42086.13,7022.42,LAWNWOOD REGIONAL MEDICAL CENTER & HEART INSTITUTE,0.0,0.563,0.563,0.188,0.0,0.094,0.0,0.282
9.12,2.33,27.91458,-82.80382,34186.12,5920.45,LARGO MEDICAL CENTER,0.0,0.108,0.759,0.433,0.0,0.163,0.108,0.054
5.42,2.24,28.95195,-82.62421,18777.88,5581.67,SEVEN RIVERS REGIONAL MEDICAL CENTER,0.0,0.0,0.741,0.37,0.0,0.0,0.0,0.123
9.60,2.47,27.25983,-80.82855,36187.16,6533.55,RAULERSON HOSPITAL,0.0,0.0,1.138,0.0,0.0,0.0,0.228,0.0
8.40,2.52,26.92138,-80.09708,31185.80,6713.91,JUPITER MEDICAL CENTER,0.0,0.852,0.532,0.745,0.0,0.106,0.0,0.0
8.08,2.38,30.47616,-84.23140,29855.94,6131.30,CAPITAL REGIONAL MEDICAL CENTER,0.0,0.695,0.463,0.116,0.0,0.116,0.0,0.0
10.20,2.33,28.00237,-82.57309,38688.65,5935.77,TOWN & COUNTRY HOSPITAL,0.0,0.352,0.703,0.0,0.0,0.0,0.352,0.352
9.30,2.22,28.36128,-82.68883,34937.74,5486.19,REGIONAL MEDICAL CENTER BAYONET POINT,0.0,0.258,0.687,0.258,0.0,0.0,0.086,0.0
10.22,2.29,26.43709,-80.12728,38787.66,5753.69,DELRAY MEDICAL CENTER,0.0,0.373,0.479,0.053,0.0,0.0,0.053,0.0
11.32,2.20,27.71350,-82.36512,43346.44,5384.40,SOUTH BAY HOSPITAL,0.0,0.539,0.404,0.673,0.0,0.0,0.135,0.0
10.35,2.43,27.28861,-80.29431,39292.41,6334.59,ST LUCIE MEDICAL CENTER,0.0,0.407,0.652,0.244,0.0,0.0,0.0,0.244
11.11,2.20,28.53585,-82.53404,42492.82,5379.89,OAK HILL HOSPITAL,0.0,0.467,1.089,0.0,0.0,0.078,0.0,0.0
5.61,2.19,28.03957,-82.70875,19595.94,5333.97,MEASE COUNTRYSIDE HOSPITAL,0.0,0.083,0.667,0.833,0.0,0.0,0.083,0.0
5.36,2.14,30.35772,-87.16046,18526.91,5146.47,GULF BREEZE HOSPITAL,0.0,0.234,0.234,0.0,0.0,0.0,0.0,0.0
10.47,2.19,26.94996,-82.32651,39805.36,5337.78,ENGLEWOOD COMMUNITY HOSPITAL,0.0,0.0,0.447,0.447,0.0,0.0,0.0,0.0
9.32,2.39,26.35614,-80.19956,35030.21,6197.33,WEST BOCA MEDICAL CENTER,0.0,0.0,0.205,0.205,0.0,0.0,0.205,0.0
11.36,2.66,26.68337,-80.25269,43510.61,7296.70,PALMS WEST HOSPITAL,0.0,0.0,1.097,0.914,0.0,0.0,0.548,0.0
7.52,2.53,26.65230,-80.20504,27536.33,6754.81,WELLINGTON REGIONAL MEDICAL CENTER,0.0,0.312,0.623,0.0,0.0,0.0,0.0,0.312
6.34,2.40,26.26841,-80.25571,22617.53,6233.85,CORAL SPRINGS MEDICAL CENTER,0.0,1.241,0.248,0.248,0.0,0.0,0.248,0.0
10.98,2.47,26.01394,-80.30980,41919.14,6539.61,MEMORIAL HOSPITAL WEST,0.0,0.341,0.114,0.454,0.0,0.0,0.0,0.114
7.20,3.26,25.74731,-80.31765,26202.50,9796.00,WESTCHESTER GENERAL HOSPITAL,0.0,0.148,0.739,0.0,0.0,0.0,0.0,0.0
9.61,2.62,25.99079,-80.37333,36233.50,7158.02,MEMORIAL HOSPITAL MIRAMAR,0.0,0.369,0.0,0.0,0.0,0.0,0.0,0.0
8.93,2.25,26.21388,-81.73257,33400.86,5623.76,PHYSICIANS REGIONAL MEDICAL CENTER - PINE RIDGE,0.0,0.122,0.733,0.122,0.0,0.0,0.0,0.0
8.16,2.37,26.70181,-80.05055,30192.78,6111.24,GOOD SAMARITAN MEDICAL CENTER,0.0,0.825,0.275,0.138,0.138,0.0,0.138,0.0
9.10,2.87,26.75635,-80.06322,34106.18,8170.06,ST MARY'S MEDICAL CENTER,0.0,0.325,0.65,0.0,0.0,0.0,0.0,0.0
5.52,2.27,26.08155,-80.36449,19226.15,5699.38,CLEVELAND CLINIC HOSPITAL,0.0,0.237,0.356,0.356,0.0,0.119,0.237,0.0
5.53,2.19,28.94952,-81.95843,19256.04,5362.22,VILLAGES REGIONAL HOSPITAL, THE,0.0,0.386,0.258,0.0,0.0,0.0,0.064,0.0
5.42,2.28,28.10969,-80.67280,18806.41,5735.73,WUESTHOFF MEDICAL CENTER - MELBOURNE,0.0,0.249,0.746,0.0,0.0,0.497,0.0,0.0
5.65,2.11,30.37837,-86.30696,19748.04,5020.00,SACRED HEART HOSPITAL ON THE EMERALD COAST,0.0,0.0,0.583,0.0,0.0,0.0,0.0,0.291
15.16,2.97,25.72132,-80.27116,59315.26,8614.42,DOCTORS HOSPITAL INC,0.0,0.395,0.395,0.0,0.0,0.0,0.0,0.198
6.91,2.19,27.38993,-82.43343,25004.70,5348.80,LAKEWOOD RANCH MEDICAL CENTER,0.0,0.0,0.623,0.0,0.0,0.0,0.0,0.0
7.36,2.23,28.24311,-81.30279,26850.82,5536.15,ST CLOUD REGIONAL MEDICAL CENTER,0.0,0.525,0.263,0.0,0.0,0.0,0.0,0.0
6.16,2.19,30.25377,-81.58270,21874.64,5373.01,ST VINCENT'S MEDICAL CENTER SOUTHSIDE,0.0,0.499,0.333,0.333,0.0,0.0,0.0,0.0
13.94,2.42,25.62869,-80.45576,54256.00,6332.26,WEST KENDALL BAPTIST HOSPITAL,0.0,0.0,0.0,0.0,0.0,0.0,0.0,0.0
5.28,2.38,34.78963,-84.98398,18196.19,6164.49,HAMILTON MEDICAL CENTER,0.0,0.162,0.809,0.324,0.0,0.0,0.0,0.0
4.00,2.41,32.88710,-84.33393,12899.67,6267.36,UPSON REGIONAL MEDICAL CENTER,0.0,0.329,0.329,0.0,0.0,0.0,0.0,0.0
4.98,2.26,31.22516,-82.34898,16978.81,5634.73,SATILLA REGIONAL MEDICAL CENTER,0.0,0.0,0.535,0.0,0.0,0.0,0.0,0.0
6.01,2.33,34.94766,-85.26296,21238.10,5945.05,HUTCHESON MEDICAL CENTER,0.0,0.389,0.0,0.777,0.0,0.0,0.0,0.777
8.01,2.25,34.17863,-84.13992,29581.28,5620.19,NORTHSIDE HOSPITAL FORSYTH,0.0,0.696,0.974,0.139,0.0,0.0,0.0,0.139
6.34,2.58,33.94791,-83.40531,22617.46,6993.66,ST MARY'S HOSPITAL,0.0,0.179,0.358,0.0,0.0,0.0,0.179,0.0
4.46,2.62,31.59023,-84.15756,14807.52,7163.79,PHOEBE PUTNEY MEMORIAL HOSPITAL,0.177,0.177,0.795,0.0,0.0,0.177,0.088,0.0
7.13,2.34,34.24569,-84.49068,25891.95,5981.09,NORTHSIDE HOSPITAL CHEROKEE,0.0,0.622,0.933,0.311,0.0,0.0,0.0,0.0
5.60,3.09,33.79230,-84.32107,19533.13,9115.40,EMORY UNIVERSITY HOSPITAL,0.0,2.246,0.299,1.098,0.0,0.1,0.299,0.2
4.69,2.34,33.56970,-85.07276,15777.32,5991.70,TANNER MEDICAL CENTER - CARROLLTON,0.0,0.172,0.343,0.0,0.0,0.172,0.0,0.0
4.58,2.38,33.03204,-85.05781,15320.63,6124.46,WEST GEORGIA MEDICAL CENTER,0.0,0.151,0.303,0.0,0.0,0.151,0.0,0.0
3.71,2.35,33.60237,-83.84809,11675.76,6000.25,NEWTON MEDICAL CENTER,0.0,0.229,0.229,0.0,0.0,0.0,0.0,0.0
5.46,2.36,34.51192,-84.92579,18949.57,6042.86,GORDON HOSPITAL,0.0,0.0,0.273,0.273,0.0,0.0,0.0,0.0
6.01,2.40,32.02825,-81.09977,21270.78,6218.78,CANDLER HOSPITAL,0.0,0.559,0.0,0.0,0.0,0.0,0.14,0.0
5.03,2.77,31.17425,-81.48459,17190.22,7788.68,SOUTHEAST GEORGIA HEALTH SYSTEM- BRUNSWICK CAMPUS,0.0,0.576,0.346,0.115,0.0,0.0,0.115,0.115
3.38,2.29,34.11375,-82.87463,10313.55,5789.45,ELBERT MEMORIAL HOSPITAL,0.0,0.0,1.004,0.0,0.0,0.0,0.0,0.0
3.32,2.34,34.28705,-83.11015,10068.92,5981.19,COBB MEMORIAL HOSPITAL,0.0,0.0,0.818,0.0,0.0,0.0,0.0,0.0
5.37,2.41,33.47096,-81.98176,18592.84,6283.17,UNIVERSITY HOSPITAL,0.0,0.792,0.396,5.205,0.0,0.0,0.339,0.113
7.00,2.42,34.30335,-83.81737,25383.89,6291.01,NORTHEAST GEORGIA MEDICAL CENTER, INC,0.0,0.15,0.4,0.65,0.0,0.05,0.0,0.1
8.66,2.40,34.19990,-84.79378,32260.19,6234.93,CARTERSVILLE MEDICAL CENTER,0.0,0.414,0.621,0.621,0.0,0.0,0.0,0.414
9.11,2.42,33.23886,-84.26706,34152.79,6326.42,SPALDING REGIONAL MEDICAL CENTER,0.0,0.721,0.432,0.144,0.0,0.0,0.0,0.0
5.01,2.24,34.59332,-83.34788,17079.15,5565.51,STEPHENS COUNTY HOSPITAL,0.0,0.339,1.017,0.0,0.0,0.0,0.0,0.0
4.38,3.17,33.47091,-81.98988,14484.14,9413.45,MEDICAL COLLEGE OF GA HOSPITALS AND CLINICS,0.0,0.631,0.36,0.18,0.0,0.09,0.45,0.27
6.67,2.43,33.96770,-84.55011,24000.62,6357.33,WELLSTAR KENNESTONE HOSPITAL,0.0,0.818,0.696,0.368,0.0,0.0,0.082,0.0
4.68,2.61,32.03185,-81.09158,15716.48,7113.08,MEMORIAL HEALTH UNIV MED CEN, INC,0.0,0.179,0.359,0.299,0.0,0.06,0.179,0.0
5.35,2.33,30.82614,-83.97393,18486.92,5953.72,JOHN D ARCHBOLD MEMORIAL HOSPITAL,0.0,0.134,0.403,0.134,0.0,0.0,0.134,0.0
4.05,2.34,33.46767,-82.01807,13102.17,5963.83,TRINITY HOSPITAL OF AUGUSTA,0.0,0.611,0.0,0.0,0.0,0.0,0.0,0.0
4.49,2.55,34.21877,-83.46906,14922.26,6859.04,NORTHRIDGE MEDICAL CENTER,0.0,0.0,0.0,0.0,0.0,0.0,0.0,0.0
4.20,2.34,34.56510,-83.54517,13714.17,5961.00,HABERSHAM COUNTY MEDICAL CTR,0.0,0.0,0.515,0.0,0.0,0.0,0.0,0.0
5.07,2.40,33.91929,-84.85224,17336.88,6245.41,WELLSTAR PAULDING HOSPITAL,0.0,0.575,0.575,0.0,0.0,0.0,0.0,0.0
6.08,2.21,31.98515,-81.15475,21543.32,5422.88,ST JOSEPH'S HOSPITAL - SAVANNAH,0.0,0.375,0.844,0.0,0.0,0.0,0.094,0.0
4.13,2.30,32.06513,-84.25260,13445.79,5829.89,PHOEBE SUMTER MEDICAL CENTER,0.0,0.0,1.514,0.0,0.0,0.0,0.0,0.0
5.76,2.50,34.00816,-83.70796,20228.00,6633.44,BARROW REGIONAL MEDICAL CENTER,0.0,0.0,0.576,0.0,0.0,0.0,0.0,0.0
5.70,2.40,33.78334,-83.71709,19960.88,6238.81,WALTON REGIONAL MEDICAL CENTER,0.0,0.0,2.203,0.0,0.0,0.0,0.0,0.0
3.42,2.24,34.88620,-83.96241,10457.46,5551.00,UNION GENERAL HOSPITAL,0.0,0.613,0.613,0.0,0.0,0.0,0.0,0.0
6.24,2.62,34.26000,-85.17000,22195.05,7143.58,FLOYD MEDICAL CENTER,0.0,0.109,1.091,0.218,0.0,0.0,0.0,0.109
3.45,2.06,34.34695,-82.93906,10580.86,4830.29,HART COUNTY HOSPITAL,0,0,0,0,0,0,0,0
5.36,2.75,32.46602,-84.98695,18552.91,7695.70,MEDICAL CENTER, THE,0.0,0.0,0.177,0.0,0.0,0.177,0.0,0.0
4.46,2.36,32.61642,-83.63065,14782.25,6061.86,HOUSTON MEDICAL CENTER,0.0,0.863,0.384,0.767,0.0,0.0,0.0,0.0
2.82,2.16,31.71491,-83.25265,7963.12,5231.75,DORMINY MEDICAL CENTER,0.0,0.613,0.613,0.613,0.0,0.0,0.0,0.0
5.68,2.40,33.96117,-83.39832,19878.32,6247.05,ATHENS REGIONAL MEDICAL CENTER,0.0,0.276,0.276,0.414,0.0,0.138,0.0,0.0
6.46,2.49,32.41483,-81.76990,23132.57,6582.91,EAST GEORGIA REGIONAL MEDICAL CENTER,0.0,0.0,0.656,0.0,0.0,0.0,0.0,0.164
4.63,2.53,33.78956,-84.28077,15502.50,6776.88,DEKALB MEDICAL CENTER,0.0,0.243,0.243,0.081,0.0,0.0,0.0,0.0
5.28,2.65,33.76810,-84.38616,18210.68,7273.23,EMORY UNIVERSITY HOSPITAL MIDTOWN,0.0,1.358,0.647,0.453,0.0,0.065,0.129,0.065
6.49,3.18,33.75205,-84.38272,23268.38,9470.97,GRADY MEMORIAL HOSPITAL,0.0,0.528,0.211,1.056,0.0,0.106,0.106,0.0
6.07,2.25,33.90877,-84.35180,21480.85,5609.59,SAINT JOSEPH'S HOSPITAL OF ATLANTA, INC,0.0,0.348,0.557,0.696,0.0,0.07,0.0,0.07
5.67,2.37,33.81003,-84.39568,19852.51,6108.46,PIEDMONT HOSPITAL,0.0,0.146,0.438,0.049,0.0,0.049,0.049,0.049
3.67,2.42,32.99563,-82.80431,11521.86,6291.09,WASHINGTON COUNTY REGIONAL MEDICAL CENTER,0.0,0.0,0.841,0.0,0.0,0.0,0.841,0.0
4.66,2.44,33.96351,-84.01769,15616.76,6384.59,GWINNETT MEDICAL CENTER,0.0,0.159,0.239,0.0,0.0,0.0,0.0,0.0
4.96,2.22,31.50971,-82.86341,16882.94,5483.76,COFFEE REGIONAL MEDICAL CENTER,0.0,0.208,0.208,0.0,0.0,0.0,0.416,0.0
5.37,2.52,33.68072,-84.00200,18578.80,6718.18,ROCKDALE MEDICAL CENTER,0.0,0.0,0.369,0.185,0.0,0.185,0.185,0.185
3.95,2.51,32.18558,-83.17874,12670.67,6667.88,DODGE COUNTY HOSPITAL,0.0,0.0,0.517,0.0,0.0,0.0,0.0,0.0
5.85,2.38,31.47069,-83.50473,20588.16,6135.81,TIFT REGIONAL MEDICAL CENTER,0.0,0.0,0.751,0.0,0.0,0.0,0.501,0.0
2.60,2.49,33.00914,-82.40454,7074.29,6591.24,JEFFERSON HOSPITAL,0.0,0.0,0.962,0.962,0.0,0.962,0.0,0.0
3.20,2.15,31.14480,-83.42509,9568.25,5173.10,MEMORIAL HOSPITAL OF ADEL INC,0.0,0.0,0.0,0.0,0.0,0.0,0.0,0.0
3.85,2.20,31.97683,-83.78280,12254.22,5380.11,CRISP REGIONAL HOSPITAL,0.0,0.432,0.432,0.0,0.0,0.0,0.0,0.0
4.42,2.41,31.17991,-83.78906,14622.83,6276.39,COLQUITT REGIONAL MEDICAL CENTER,0.0,0.0,0.986,0.329,0.0,0.0,0.0,0.986
5.36,2.62,32.83041,-83.63476,18548.74,7156.23,MEDICAL CENTER OF CENTRAL GEORGIA,0.0,0.371,0.619,0.165,0.0,0.041,0.165,0.082
3.68,2.36,32.59212,-82.34541,11573.26,6054.43,EMANUEL MEDICAL CENTER,0.0,0.0,0.0,0.0,0.0,0.0,0.698,0.0
4.56,2.20,31.20306,-83.23872,15200.53,5396.93,BERRIEN COUNTY HOSPITAL,0.0,0.0,0.0,0.0,0.0,0.0,0.0,0.0
10.60,2.86,33.76372,-84.37315,40368.56,8124.58,ATLANTA MEDICAL CENTER,0.0,1.769,0.531,0.0,0.0,0.0,0.354,0.0
4.15,2.48,30.86359,-84.20030,13504.60,6573.53,GRADY GENERAL HOSPITAL,0.0,0.0,0.0,0.0,0.0,0.0,0.0,0.0
4.55,2.40,30.86250,-83.28630,15157.03,6212.64,SOUTH GEORGIA MEDICAL CENTER,0.0,0.41,0.41,0.513,0.0,0.0,0.103,0.0
4.29,2.52,31.60200,-81.89172,14081.76,6730.02,WAYNE MEMORIAL HOSPITAL,0.0,0.0,1.018,0.0,0.0,0.0,0.0,0.0
6.26,2.58,32.54026,-82.95741,22286.11,6961.03,FAIRVIEW PARK HOSPITAL,0.0,0.463,0.463,0.0,0.0,0.0,0.232,0.0
4.90,2.21,32.20903,-82.37585,16648.61,5451.64,MEADOWS REGIONAL MEDICAL CENTER,0.0,0.0,0.691,0.0,0.0,0.0,0.0,0.0
5.03,2.24,32.50679,-84.95933,17160.92,5551.77,ST FRANCIS HOSPITAL, INC,0.0,0.229,0.915,0.153,0.0,0.0,0.0,0.153
4.76,2.35,30.90295,-84.55203,16034.83,6011.00,MEMORIAL HOSPITAL AND MANOR,0.0,0.0,0.0,0.0,0.0,0.0,0.0,0.0
3.21,2.35,32.28377,-83.47212,9583.52,6002.16,TAYLOR REGIONAL HOSPITAL,0.0,0.0,0.801,0.0,0.0,0.0,0.0,0.801
4.10,2.33,32.16413,-81.90041,13293.38,5922.67,EVANS MEMORIAL HOSPITAL,0.0,0.0,0.0,0.0,0.0,0.0,0.0,0.0
6.49,2.51,33.85638,-84.60446,23235.77,6688.24,WELLSTAR COBB HOSPITAL,0.0,0.718,0.319,0.558,0.0,0.0,0.239,0.08
5.07,2.36,33.08014,-83.23210,17349.96,6058.54,OCONEE REGIONAL MEDICAL CENTER,0.0,0.343,0.343,0.0,0.0,0.0,0.0,0.0
4.21,2.39,32.45961,-83.70967,13776.11,6187.48,PERRY HOSPITAL,0.0,0.0,0.579,0.0,0.0,0.0,0.579,0.0
9.09,2.52,33.90903,-84.35410,34047.79,6740.62,NORTHSIDE HOSPITAL,0.0,0.579,0.579,0.193,0.0,0.0,0.0,0.386
5.42,2.29,31.53017,-84.17516,18813.00,5755.95,PHOEBE NORTH,0.0,0.577,0.865,0.288,0.0,0.0,0.0,0.0
6.87,2.38,32.84705,-83.61823,24813.90,6151.72,COLISEUM MEDICAL CENTER,0.0,0.817,0.584,0.35,0.0,0.0,0.234,0.0
5.79,2.56,33.57843,-84.38897,20315.97,6904.11,SOUTHERN REGIONAL MEDICAL CENTER,0.0,0.51,0.255,0.255,0.0,0.0,0.0,0.0
5.98,2.27,34.25704,-85.16467,21143.90,5703.12,REDMOND REGIONAL MEDICAL CENTER,0.0,0.0,0.501,0.167,0.0,0.0,0.0,0.0
9.64,2.50,33.48259,-82.09038,36345.34,6662.05,DOCTORS HOSPITAL,0.0,1.353,1.353,0.301,0.0,0.0,0.451,0.0
4.55,2.25,33.85770,-84.51542,15167.12,5607.24,EMORY-ADVENTIST HOSPITAL,0.0,0.0,2.056,0.685,0.0,0.0,0.0,0.0
5.75,2.28,33.73938,-84.73111,20153.67,5745.83,WELLSTAR DOUGLAS HOSPITAL,0.0,0.0,0.79,0.0,0.0,0.0,0.0,0.0
6.82,2.43,32.48040,-84.98468,24601.26,6348.65,DOCTORS HOSPITAL,0.0,1.426,0.713,1.783,0.0,0.0,0.357,0.0
4.00,2.59,34.52316,-83.97542,12881.58,7032.92,CHESTATEE REGIONAL HOSPITAL,0.0,0.0,0.718,0.0,0.0,0.0,0.0,0.0
7.04,2.39,34.91692,-84.37534,25553.88,6182.96,FANNIN REGIONAL HOSPITAL,0.0,0.0,0.448,0.0,0.0,0.0,0.0,0.448
4.60,2.39,33.51144,-84.22200,15394.15,6200.52,HENRY MEDICAL CENTER, INC,0.0,0.124,0.249,0.0,0.0,0.0,0.0,0.0
6.62,2.35,33.87683,-84.02136,23787.02,6030.19,EMORY EASTSIDE MEDICAL CENTER,0.0,0.0,0.297,0.446,0.0,0.0,0.297,0.0
14.84,2.39,34.06334,-84.31976,58013.82,6189.00,NORTH FULTON REGIONAL HOSPITAL,0.0,0.587,0.782,1.565,0.0,0.0,0.0,0.0
5.59,2.26,32.86625,-83.69421,19483.00,5630.09,COLISEUM NORTHSIDE HOSPITAL,0.0,1.417,1.771,0.0,0.0,0.0,0.0,0.354
4.36,2.31,33.80478,-84.33118,14381.27,5833.36,WESLEY WOODS GERIATRIC HOSPITAL,0.0,0.821,0.0,0.821,0.0,0.0,0.0,0.821
4.20,2.45,34.67985,-84.49269,13724.39,6434.39,NORTH GEORGIA MEDICAL CENTER,0.0,0.0,0.0,0.0,0.0,0.0,0.0,0.0
6.48,2.32,30.89823,-83.33519,23186.31,5899.54,SMITH NORTHVIEW HOSPITAL,0,0,0,0,0,0,0,0
4.70,2.25,33.45252,-84.50697,15795.33,5603.50,PIEDMONT FAYETTE HOSPITAL,0.0,0.375,0.876,0.0,0.0,0.0,0.375,0.125
11.84,2.69,33.68000,-84.42685,45508.65,7445.35,SOUTH FULTON MEDICAL CENTER,0.0,1.406,0.234,0.0,0.0,0.0,0.0,0.0
4.86,2.43,34.42855,-84.48026,16453.18,6371.05,PIEDMONT MOUNTAINSIDE HOSPITAL INC,0.0,0.0,2.489,0.0,0.0,0.0,0.0,0.0
4.64,2.36,33.70365,-84.14697,15543.41,6063.24,DEKALB MEDICAL CENTER AT HILLANDALE,0.0,1.109,0.37,0.0,0.0,0.0,0.0,0.0
5.27,2.36,33.39118,-84.81563,18163.52,6072.52,PIEDMONT NEWNAN HOSPITAL, INC,0.0,0.406,0.203,0.0,0.0,0.0,0.0,0.0
3.82,2.19,34.06670,-84.17643,12147.95,5347.68,EMORY JOHNS CREEK HOSPITAL,0.0,0.397,0.397,0.397,0.0,0.0,0.0,0.0
6.57,3.12,21.30780,-157.85505,23562.13,9231.88,THE QUEENS MEDICAL CENTER,0.0,0.369,0.442,0.811,0.0,0.0,0.074,0.0
8.21,4.17,20.88519,-156.48928,30419.03,13575.24,MAUI MEMORIAL MEDICAL CENTER,0.0,0.275,0.275,0.0,0.0,0.0,0.0,0.0
4.33,3.00,21.49879,-158.02633,14271.56,8720.44,WAHIAWA GENERAL HOSPITAL,0.0,0.0,0.0,0.0,0.0,0.0,0.0,0.0
4.98,3.38,19.71761,-155.11327,16955.90,10304.29,HILO MEDICAL CENTER,0.0,0.0,0.583,0.583,0.0,0.0,0.0,0.0
5.63,2.87,21.38095,-157.75759,19658.75,8195.43,CASTLE MEDICAL CENTER,0.0,0.259,0.517,0.776,0.0,0.0,0.0,0.0
6.22,2.81,21.32239,-157.85662,22139.59,7935.06,KUAKINI MEDICAL CENTER,0.0,0.0,0.371,1.857,0.0,0.0,0.186,0.0
6.61,2.90,21.32872,-157.85179,23763.50,8314.42,HAWAII MEDICAL CENTER EAST,0,0,0,0,0,0,0,0
7.92,3.50,21.98514,-159.36388,29194.00,10788.00,WILCOX MEMORIAL HOSPITAL,0.0,0.562,1.124,2.809,0.0,0.0,0.0,0.562
5.66,2.71,46.41668,-117.02441,19787.03,7520.15,ST JOSEPH REGIONAL MEDICAL CENTER,0.0,0.846,1.128,0.282,0.0,0.0,0.0,0.0
6.47,4.22,19.51963,-155.91744,23146.67,13810.43,KONA COMMUNITY HOSPITAL,0.0,0.0,3.135,0.0,0.0,0.0,0.0,0.0
6.89,2.74,21.30226,-157.85092,24918.30,7628.00,STRAUB CLINIC AND HOSPITAL,0.0,0.0,0.387,5.226,0.0,0.0,0.0,0.0
8.55,2.89,21.38328,-157.93828,31818.58,8272.29,PALI MOMI MEDICAL CENTER,0.0,0.0,0.442,3.981,0.0,0.0,0.0,0.0
7.12,2.89,21.37080,-158.02746,25872.57,8264.19,HAWAII MEDICAL CENTER WEST,0,0,0,0,0,0,0,0
4.16,3.32,20.02208,-155.66467,13537.08,10053.46,NORTH HAWAII COMMUNITY HOSPITAL,0.0,0.0,0.0,1.404,0.0,0.0,0.0,0.0
4.26,2.33,42.59072,-114.49627,13980.09,5928.52,ST LUKES MAGIC VALLEY RMC,0.0,0.491,0.818,0.327,0.0,0.0,0.0,0.164
5.43,2.42,43.61218,-116.19234,18841.43,6320.63,ST LUKES REGIONAL MEDICAL CENTER,0.068,0.342,0.342,0.342,0.0,0.0,0.068,0.0
3.96,2.33,43.61359,-116.25484,12721.68,5941.78,ST ALPHONSUS REGIONAL MEDICAL CENTER,0.0,0.085,0.683,0.256,0.0,0.0,0.0,0.0
4.19,2.36,43.55374,-116.57267,13694.04,6041.46,SAINT ALPHONSUS MEDICAL CENTER - NAMPA,0.0,0.393,0.393,0.393,0.0,0.0,0.0,0.0
5.23,2.42,43.65510,-116.69360,18025.04,6314.28,WEST VALLEY MEDICAL CENTER,0.0,0.0,0.0,0.0,0.0,0.0,0.0,0.0
6.73,2.42,43.46987,-111.99208,24257.57,6290.87,EASTERN IDAHO REGIONAL MEDICAL CENTER,0.0,0.338,0.676,0.169,0.0,0.0,0.0,0.169
3.18,2.36,43.82551,-111.77071,9486.92,6049.46,MADISON MEMORIAL HOSPITAL,0.0,0.0,0.759,0.0,0.0,0.759,0.0,0.0
5.02,2.84,42.87331,-112.42180,17130.59,8073.26,PORTNEUF MEDICAL CENTER,0.0,0.196,0.588,0.784,0.0,0.0,0.0,0.0
4.77,2.45,47.69645,-116.79476,16100.91,6446.25,KOOTENAI MEDICAL CENTER,0.0,0.246,1.229,0.738,0.0,0.0,0.0,0.0
4.33,2.59,40.55329,-90.03912,14244.64,7031.08,GRAHAM HOSPITAL ASSOCIATION,0.0,0.506,0.0,0.0,0.0,0.0,0.0,0.0
5.93,2.27,38.90068,-90.16026,20910.62,5701.31,ALTON MEMORIAL HOSPITAL,0.0,0.178,0.534,0.178,0.0,0.0,0.0,0.0
8.02,2.39,41.52896,-88.13550,29599.69,6194.43,PROVENA ST JOSEPH MEDICAL CENTER,0.0,0.0,0.289,2.213,0.0,0.0,0.192,0.0
13.47,2.55,41.91082,-87.84451,52297.38,6864.52,LOYOLA GOTTLIEB MEMORIAL HOSPITAL,0.0,0.569,0.711,0.0,0.0,0.0,0.0,0.0
6.84,2.61,42.06550,-87.68428,24684.91,7090.39,EVANSTON HOSPITAL,0.0,0.131,0.557,0.164,0.0,0.033,0.066,0.033
5.27,2.32,37.80207,-89.02660,18159.42,5876.02,HERRIN HOSPITAL,0.0,0.168,0.503,0.168,0.0,0.0,0.0,0.0
6.99,2.47,41.84429,-89.48014,25318.60,6530.10,KATHERINE SHAW BETHEA HOSPITAL,0.0,0.0,0.519,0.0,0.0,0.0,0.0,0.26
4.64,2.21,40.75318,-89.59321,15538.46,5424.78,PROCTOR HOSPITAL,0.0,0.0,0.368,0.368,0.0,0.0,0.0,0.184
5.64,2.47,39.93563,-91.39833,19706.52,6515.42,BLESSING HOSPITAL,0.0,0.164,0.164,0.082,0.0,0.082,0.409,0.164
6.58,3.48,41.86011,-87.69571,23641.15,10719.63,MT SINAI HOSPITAL MEDICAL CENTER,0.0,0.0,0.179,0.359,0.0,0.179,0.718,0.0
3.46,2.51,39.40572,-88.80723,10625.67,6699.14,SHELBY MEMORIAL HOSPITAL,0.0,0.0,0.0,0.0,0.0,0.0,0.0,0.0
5.24,2.45,41.11319,-88.83500,18055.63,6447.74,ST MARYS HOSPITAL,0.0,0.0,0.311,0.0,0.0,0.0,0.0,0.0
10.71,2.57,41.72930,-88.26976,40819.80,6935.85,COPLEY MEMORIAL HOSPITAL,0.0,0.135,0.405,0.0,0.0,0.0,0.0,0.0
7.33,2.74,42.07012,-88.33180,26759.13,7630.03,SHERMAN HOSPITAL,0.0,0.0,0.996,0.299,0.0,0.0,0.0,0.0
4.11,2.32,39.12680,-88.55059,13348.68,5882.85,ST ANTHONYS MEMORIAL HOSPITAL,0.0,0.135,0.811,0.811,0.0,0.0,0.135,0.0
4.32,2.36,38.52908,-89.11604,14223.99,6045.20,ST MARYS HOSPITAL,0.0,0.537,0.269,0.0,0.0,0.0,0.0,0.0
8.84,2.34,40.95560,-90.36618,33015.12,5969.11,GALESBURG COTTAGE HOSPITAL,0.0,0.0,0.0,0.0,0.0,0.244,0.0,0.0
6.34,2.38,41.80160,-89.69714,22617.57,6145.39,CGH MEDICAL CENTER,0.0,0.0,0.0,0.474,0.0,0.0,0.158,0.0
4.17,2.30,38.32292,-88.91026,13584.12,5799.28,GOOD SAMARITAN REGIONAL HLTH CENTER,0.0,0.137,0.274,0.411,0.0,0.0,0.0,0.0
6.03,2.78,41.72636,-87.56727,21354.04,7794.16,ADVOCATE TRINITY HOSPITAL,0.0,0.832,0.238,0.595,0.0,0.0,0.0,0.119
6.55,2.95,41.89141,-87.77618,23479.37,8510.44,WEST SUBURBAN MEDICAL CENTER,0.0,0.164,0.492,0.164,0.0,0.0,0.164,0.0
7.12,2.66,42.05624,-87.74012,25861.02,7329.62,SKOKIE HOSPITAL,0.0,0.207,0.311,0.104,0.0,0.0,0.104,0.0
6.07,2.15,38.90787,-90.17207,21499.44,5186.39,SAINT ANTHONY'S HEALTH CENTER,0.0,0.292,0.292,1.168,0.0,0.0,0.0,0.0
5.64,2.52,39.80726,-89.64496,19705.69,6710.83,ST JOHNS HOSPITAL,0.0,0.318,0.572,0.254,0.0,0.0,0.127,0.127
6.26,2.75,41.83195,-87.79266,22273.96,7674.09,MACNEAL  HOSPITAL,0.0,0.181,0.272,0.0,0.0,0.091,0.0,0.0
4.98,2.47,39.74629,-90.25907,16970.44,6519.76,PASSAVANT AREA HOSPITAL,0.0,0.0,0.795,0.265,0.0,0.265,0.0,0.0
3.08,2.31,39.11040,-90.34312,9068.21,5850.16,JERSEY COMMUNITY HOSPITAL,0.0,0.62,1.241,0.62,0.0,0.0,0.0,0.0
7.55,2.31,41.66900,-87.81414,27650.84,5869.43,PALOS COMMUNITY HOSPITAL,0.0,0.0,0.181,0.136,0.0,0.045,0.091,0.0
6.51,2.50,41.87870,-87.80322,23323.38,6645.98,RUSH OAK PARK HOSPITAL,0.0,0.477,0.954,0.0,0.0,0.0,0.477,0.0
6.54,2.73,40.98818,-90.36374,23467.94,7595.20,ST MARY MEDICAL CENTER,0.0,0.0,0.247,0.0,0.0,0.0,0.0,0.0
6.76,2.42,41.79660,-87.88627,24352.77,6304.05,ADVENTIST LA GRANGE MEMORIAL HOSPITAL,0.0,0.092,0.832,0.554,0.092,0.0,0.0,0.0
7.75,2.51,40.70200,-89.59222,28502.32,6695.41,SAINT FRANCIS MEDICAL CENTER,0.0,0.311,0.489,0.533,0.0,0.0,0.133,0.089
8.35,2.96,41.69322,-87.62436,30991.73,8564.25,ROSELAND COMMUNITY HOSPITAL,0.0,0.0,0.0,0.0,0.0,0.0,0.0,0.0
4.63,2.78,38.57057,-90.10769,15489.22,7822.26,TOUCHETTE REGIONAL HOSPITAL INC,0.0,0.0,0.0,0.0,0.0,0.0,0.0,0.0
7.83,3.03,42.02578,-87.68371,28815.96,8867.32,RHC ST FRANCIS HOSPITAL,0.0,0.378,0.378,0.0,0.0,0.126,0.0,0.0
7.18,2.97,41.96698,-87.64941,26126.00,8617.54,LOUIS A WEISS MEMORIAL HOSPITAL,0.0,0.387,1.161,0.0,0.0,0.0,0.258,0.0
2.84,2.86,41.87259,-87.76181,8040.76,8145.52,LORETTO HOSPITAL,0.0,0.0,0.219,0.0,0.0,0.0,0.219,0.0
8.16,2.60,42.37840,-87.83329,30179.19,7061.25,VISTA MEDICAL CENTER EAST,0.0,0.631,0.526,0.0,0.0,0.0,0.315,0.0
11.38,3.68,41.78829,-87.60485,43609.03,11544.22,THE UNIVERSITY OF CHICAGO MEDICAL CENTER,0.0,1.208,0.226,0.453,0.0,0.0,0.0,0.528
4.03,2.49,40.44791,-90.66578,13022.09,6616.59,MC DONOUGH DISTRICT HOSPITAL,0.0,0.0,0.93,1.395,0.0,0.0,0.0,0.0
6.43,2.57,40.11696,-88.21506,22995.52,6943.30,CARLE FOUNDATION HOSPITAL,0.0,0.374,0.524,0.824,0.0,0.0,0.225,0.0
7.42,2.38,40.13811,-87.64569,27132.29,6153.60,PROVENA UNITED SAMARITANS MEDCTR-LOGAN,0.0,0.166,0.498,0.332,0.0,0.0,0.0,0.0
7.80,2.98,41.85543,-87.69810,28712.91,8652.66,SAINT ANTHONY HOSPITAL,0.0,1.088,0.363,0.363,0.0,0.0,0.0,0.0
6.85,2.31,41.36897,-88.42537,24730.39,5843.43,MORRIS HOSPITAL & HEALTHCARE CENTERS,0.0,0.0,0.224,0.0,0.0,0.0,0.0,0.224
5.66,3.10,41.77813,-87.63330,19808.29,9156.57,ST BERNARD HOSPITAL,0.0,0.0,0.0,0.0,0.0,0.0,0.0,0.0
4.83,2.42,41.35763,-88.82439,16337.55,6325.77,OTTAWA REGIONAL HOSPITAL & HEALTHCARE CENTER,0.0,0.39,0.0,0.781,0.0,0.0,0.0,0.0
5.87,2.39,40.11739,-88.22714,20677.33,6204.87,PROVENA COVENANT MEDICAL CENTER- URBANA,0.0,0.0,0.877,0.146,0.0,0.0,0.438,0.146
9.09,2.82,41.97532,-87.69958,34054.34,7960.62,SWEDISH COVENANT HOSPITAL,0.0,0.276,0.0,0.276,0.0,0.0,0.0,0.0
5.22,2.87,41.95453,-87.65225,17983.90,8166.05,THOREK MEMORIAL HOSPITAL,0.0,0.682,0.0,0.0,0.0,0.0,0.227,0.0
5.57,2.31,42.31832,-88.27920,19414.73,5862.04,CENTEGRA HEALTH SYSTEM - MC HENRY HOSPITAL,0.0,0.205,0.307,0.102,0.0,0.0,0.0,0.0
8.53,2.63,41.98743,-87.81440,31732.29,7184.26,RESURRECTION MEDICAL CENTER,0.0,0.446,1.211,0.382,0.0,0.0,0.0,0.064
5.26,2.54,41.65880,-87.67729,18124.47,6810.99,METROSOUTH MEDICAL CENTER,0.0,0.11,0.44,0.11,0.0,0.0,0.11,0.11
7.14,3.38,41.87497,-87.66927,25967.13,10293.45,RUSH UNIVERSITY MEDICAL CENTER,0.0,0.884,0.416,0.988,0.0,0.156,0.104,0.156
9.37,2.39,40.56211,-89.63314,35243.49,6169.51,PEKIN MEMORIAL HOSPITAL,0.0,0.298,0.893,0.0,0.0,0.0,0.298,0.0
7.45,2.42,41.80555,-87.92059,27249.27,6321.55,HINSDALE HOSPITAL,0.0,0.507,0.304,0.304,0.0,0.101,0.0,0.0
4.63,3.77,41.87381,-87.67421,15526.35,11948.91,JOHN H STROGER JR HOSPITAL,0.0,1.269,0.423,0.211,0.0,0.0,0.211,0.423
15.21,2.59,38.70148,-90.14382,59537.12,7000.73,GATEWAY REGIONAL MEDICAL CENTER,0.0,0.428,0.856,0.0,0.0,0.0,0.0,0.0
4.45,2.45,40.49639,-88.99106,14744.44,6424.52,BROMENN HEALTHCARE,0.0,0.13,0.521,0.0,0.0,0.0,0.0,0.13
7.69,2.33,42.25244,-87.86528,28232.76,5917.78,LAKE FOREST HOSPITAL,0.0,0.167,0.333,0.0,0.0,0.0,0.0,0.0
6.49,2.65,41.76946,-87.69239,23263.83,7278.08,HOLY CROSS HOSPITAL,0.0,0.253,0.126,0.253,0.0,0.0,0.0,0.0
4.61,2.35,39.86644,-88.96090,15431.73,6001.68,DECATUR MEMORIAL HOSPITAL,0.0,0.161,1.048,0.161,0.0,0.0,0.081,0.081
3.33,2.46,38.90365,-89.40770,10083.06,6459.28,GREENVILLE REGIONAL HOSPITAL,0.0,1.266,0.0,0.0,0.0,0.0,0.0,0.0
4.77,2.28,41.32884,-89.19262,16071.64,5737.00,ST MARGARETS HOSPITAL,0.0,0.0,0.986,0.0,0.0,0.0,0.0,0.0
4.18,2.32,38.62608,-89.52336,13645.94,5907.22,ST JOSEPHS HOSPITAL,0.0,0.0,0.0,1.253,0.0,0.0,0.0,0.0
5.36,2.32,38.73505,-88.07708,18543.98,5883.94,RICHLAND MEMORIAL HOSPITAL,0.0,0.0,0.463,0.0,0.0,0.0,0.0,0.0
4.86,2.45,39.80893,-89.65530,16450.08,6447.49,MEMORIAL MEDICAL CENTER,0.0,0.643,0.683,0.121,0.0,0.0,0.08,0.08
7.16,4.08,41.86927,-87.67052,26018.52,13225.87,UNIVERSITY OF ILLINOIS HOSPITAL,0.0,1.673,0.257,0.0,0.0,0.0,0.129,0.0
6.55,3.12,41.89006,-87.70757,23506.10,9204.90,SACRED HEART HOSPITAL,0.0,0.323,0.968,0.0,0.0,0.0,0.0,0.0
9.27,2.61,41.12049,-87.87187,34806.88,7083.92,PROVENA ST MARYS HOSPITAL,0.0,0.145,0.435,0.58,0.0,0.0,0.0,0.145
4.86,3.12,41.84639,-87.62345,16446.49,9204.90,MERCY HOSPITAL AND MEDICAL CENTER,0.0,0.442,0.442,0.53,0.0,0.088,0.088,0.088
4.48,2.37,42.29592,-89.63773,14894.06,6092.31,FHN MEMORIAL HOSPITAL,0.0,0.0,0.225,0.0,0.0,0.0,0.0,0.0
6.04,2.80,40.87085,-88.67943,21369.53,7908.24,SAINT JAMES HOSPITAL,0.0,0.0,2.185,0.728,0.0,0.0,0.0,0.0
5.49,2.26,40.48254,-88.95519,19085.84,5653.55,ST JOSEPH MEDICAL CENTER,0.0,0.201,0.201,0.0,0.0,0.0,0.0,0.0
4.48,2.36,37.72790,-89.22058,14899.83,6081.52,MEMORIAL HOSPITAL OF CARBONDALE,0.0,0.504,0.504,0.0,0.0,0.126,0.126,0.0
5.93,2.49,39.82659,-88.93119,20901.61,6601.97,ST MARYS HOSPITAL,0.0,0.327,0.982,0.0,0.0,0.0,0.327,0.0
3.27,2.43,40.76601,-87.73169,9855.64,6370.82,IROQUOIS MEMORIAL HOSPITAL,0.0,0.0,0.0,0.453,0.0,0.0,0.0,0.0
6.44,2.75,41.52283,-87.71111,23043.76,7678.53,FRANCISCAN ST JAMES HEALTH,0.0,0.0,0.196,0.147,0.0,0.0,0.049,0.049
7.89,2.51,41.78566,-88.32886,29093.93,6666.80,PROVENA MERCY MEDICAL CENTER,0.0,1.262,0.361,0.0,0.0,0.0,0.0,0.18
5.98,2.49,42.27597,-88.40019,21124.19,6621.10,CENTEGRA HEALTH SYSTEM - WOODSTOCK HOSPITAL,0.0,0.173,1.553,0.0,0.0,0.0,0.0,0.173
10.40,3.05,41.75746,-87.58559,39512.14,8946.49,JACKSON PARK HOSPITAL,0.0,0.0,0.0,0.0,0.0,0.0,0.0,0.0
6.84,2.51,41.72094,-87.69220,24716.82,6687.65,LITTLE COMPANY OF MARY HOSPITAL,0.0,0.218,0.436,0.291,0.0,0.0,0.073,0.145
10.13,3.18,41.90414,-87.68254,38414.62,9456.47,ST MARY & ELIZABETH MED CTR-DIVISION CAMPUS,0.0,0.285,0.57,0.071,0.0,0.071,0.428,0.071
7.20,2.80,41.74948,-87.56909,26194.51,7902.11,SOUTH SHORE HOSPITAL,0.0,0.466,0.233,0.0,0.0,0.0,0.0,0.0
8.55,3.26,41.93641,-87.65295,31832.07,9827.45,ADVOCATE ILLINOIS MASONIC MEDICAL CENTER,0.0,0.399,0.199,0.0,0.0,0.1,0.0,0.0
8.29,2.29,37.74480,-88.99329,30755.55,5769.30,HEARTLAND REGIONAL MEDICAL CENTER,0.0,0.573,0.955,0.191,0.0,0.0,0.0,0.191
6.14,2.34,38.55020,-90.02146,21776.75,5986.47,MEMORIAL HOSPITAL,0.0,0.611,0.229,0.153,0.0,0.0,0.0,0.0
5.23,2.55,41.12572,-87.88526,17987.86,6837.33,RIVERSIDE MEDICAL CENTER,0.0,0.186,0.931,1.117,0.0,0.0,0.0,0.0
5.84,2.30,38.51081,-89.99014,20545.68,5814.25,ST ELIZABETH HOSPITAL,0.0,0.211,0.949,0.527,0.0,0.0,0.105,0.0
4.46,2.31,39.48849,-88.27581,14812.71,5871.50,SARAH BUSH LINCOLN HEALTH CENTER,0.0,0.53,0.177,0.884,0.0,0.177,0.177,0.0
6.39,2.52,41.60726,-87.66060,22835.17,6726.29,INGALLS MEMORIAL HOSPITAL,0.0,0.279,0.21,0.279,0.0,0.07,0.07,0.0
5.13,2.89,41.97310,-87.67090,17581.00,8279.00,METHODIST HOSPITAL OF CHICAGO,0.0,2.169,0.0,0.0,0.0,0.0,0.0,0.0
7.80,2.41,41.86362,-87.93567,28697.58,6258.38,ELMHURST MEMORIAL HOSPITAL,0.0,0.449,0.299,0.973,0.0,0.0,0.0,0.0
9.22,2.52,42.27447,-87.95764,34591.85,6737.73,ADVOCATE CONDELL MEDICAL CENTER,0.0,0.279,0.488,0.209,0.0,0.0,0.0,0.07
6.62,3.19,41.90078,-87.69925,23791.86,9500.72,NORWEGIAN-AMERICAN HOSPITAL,0.0,0.24,0.48,0.0,0.0,0.0,0.0,0.0
7.08,2.89,41.72031,-87.73249,25699.62,8286.74,ADVOCATE CHRIST HOSPITAL & MEDICAL CENTER,0.0,0.172,0.138,0.034,0.0,0.069,0.241,0.034
6.13,2.50,40.70065,-89.59505,21747.94,6658.40,METHODIST MEDICAL CENTER OF ILLINOIS,0.0,0.178,0.446,0.0,0.0,0.0,0.0,0.089
3.85,2.34,37.73083,-88.52299,12244.06,5975.48,HARRISBURG MEDICAL CENTER,0.0,0.0,0.398,0.0,0.0,0.0,0.0,0.0
8.42,2.32,41.88566,-88.34311,31273.44,5892.59,DELNOR COMMUNITY HOSPITAL,0.0,0.132,0.397,0.397,0.0,0.0,0.0,0.0
5.51,2.39,41.54446,-87.98379,19179.05,6188.83,SILVER CROSS HOSPITAL  AND MEDICAL CENTERS,0.0,0.513,0.22,0.439,0.0,0.0,0.0,0.073
9.23,2.54,42.03576,-88.32575,34644.38,6810.78,PROVENA - SAINT JOSEPH HOSPITAL,0.0,0.295,0.884,0.295,0.0,0.0,0.0,0.147
7.02,2.98,42.03837,-87.84820,25458.19,8647.90,ADVOCATE LUTHERAN GENERAL HOSPITAL,0.0,0.181,0.135,0.045,0.0,0.0,0.0,0.045
7.51,2.97,41.93418,-87.63579,27480.53,8580.26,SAINT JOSEPH HOSPITAL,0.0,0.24,0.24,0.12,0.12,0.0,0.0,0.12
7.06,2.54,42.26584,-89.07428,25604.63,6798.23,SWEDISH AMERICAN HOSPITAL,0.0,0.156,0.857,0.312,0.0,0.0,0.312,0.0
7.12,2.41,41.76076,-88.15016,25881.53,6253.08,EDWARD HOSPITAL,0.0,0.393,0.131,0.524,0.0,0.066,0.0,0.0
6.30,2.26,42.26634,-89.00900,22442.31,5641.34,SAINT ANTHONY MEDICAL CENTER,0.0,0.311,0.414,0.311,0.0,0.104,0.104,0.104
6.32,2.51,41.32878,-89.12520,22520.27,6702.95,ILLINOIS VALLEY COMMUNITY HOSPITAL,0.0,0.0,1.607,0.0,0.0,0.0,0.0,0.0
5.83,2.62,42.29844,-89.09897,20518.06,7153.93,ROCKFORD MEMORIAL HOSPITAL,0.0,0.197,0.492,0.0,0.0,0.0,0.0,0.0
7.94,2.91,41.89166,-87.84838,29277.16,8364.44,WESTLAKE COMMUNITY HOSPITAL,0.0,0.511,0.256,0.256,0.0,0.0,0.0,0.256
8.71,2.29,41.87269,-88.15684,32479.22,5751.35,CENTRAL DUPAGE HOSPITAL,0.0,0.067,0.599,0.399,0.0,0.0,0.067,0.067
5.61,2.47,41.56720,-87.69566,19590.71,6515.44,ADVOCATE SOUTH SUBURBAN HOSPITAL,0.0,0.588,0.098,0.196,0.0,0.0,0.0,0.0
7.39,2.48,41.94560,-87.76897,26999.58,6556.35,OUR LADY OF THE RESURRECTION MED CTR,0.0,0.801,0.572,0.114,0.0,0.0,0.0,0.0
6.15,2.30,42.06732,-87.99368,21845.78,5794.80,NORTHWEST COMMUNITY HOSPITAL,0.0,0.249,0.87,0.207,0.0,0.0,0.041,0.0
7.92,2.32,42.00413,-88.01745,29192.46,5905.54,ALEXIAN BROTHERS MEDICAL CENTER,0.0,0.056,0.726,0.223,0.0,0.0,0.0,0.0
4.31,2.30,41.49581,-90.41871,14178.87,5803.21,GENESIS MEDICAL CENTER ILLINI CAMPUS,0.0,0.0,0.475,0.0,0.0,0.0,0.0,0.0
6.11,3.13,41.86110,-87.83404,21659.20,9275.11,LOYOLA UNIVERSITY MEDICAL CENTER,0.0,0.47,0.352,0.587,0.0,0.117,0.235,0.059
4.20,2.31,41.48200,-90.57158,13712.89,5849.97,TRINITY ROCK ISLAND,0.0,0.145,0.867,0.145,0.0,0.072,0.145,0.0
9.45,3.69,41.89477,-87.62131,35569.92,11576.43,NORTHWESTERN MEMORIAL HOSPITAL,0.0,0.382,0.243,0.208,0.0,0.0,0.243,0.035
6.74,2.31,41.96185,-88.72130,24270.19,5865.79,KISHWAUKEE COMMUNITY HOSPITAL,0.0,0.181,0.542,0.181,0.0,0.0,0.0,0.0
6.74,2.34,41.81791,-88.00907,24303.66,5973.45,ADVOCATE GOOD SAMARITAN HOSPITAL,0.0,0.125,0.25,0.063,0.0,0.0,0.0,0.0
4.98,2.26,38.73818,-89.94728,16946.47,5660.65,ANDERSON HOSPITAL,0.0,0.0,0.187,0.561,0.0,0.0,0.0,0.0
7.72,2.42,42.05260,-88.14173,28374.84,6291.29,ST ALEXIUS MEDICAL CENTER,0.0,0.232,0.232,0.0,0.0,0.077,0.0,0.0
5.89,2.39,42.19586,-88.17286,20746.09,6195.57,ADVOCATE GOOD SHEPHERD HOSPITAL,0.0,0.501,0.201,0.301,0.0,0.0,0.0,0.0
8.63,2.71,41.91465,-88.05724,32140.58,7526.63,ADVENTIST GLENOAKS,0.0,0.297,0.0,0.0,0.0,0.0,0.0,0.0
5.63,2.50,38.31198,-88.93514,19653.33,6653.94,CROSSROADS COMMUNITY HOSPITAL,0.0,0.0,0.505,0.0,0.0,0.0,0.0,0.0
2.79,3.00,41.80249,-87.61357,7856.96,8732.44,PROVIDENT HOSPITAL OF CHICAGO,0.0,0.0,0.0,0.0,0.0,0.0,0.0,0.0
7.98,2.50,41.68062,-88.08319,29435.74,6662.02,ADVENTIST BOLINGBROOK HOSPITAL,0.0,0.0,0.533,0.799,0.0,0.0,0.0,0.0
4.68,2.26,39.48010,-86.07773,15716.33,5640.80,JOHNSON MEMORIAL HOSPITAL,0.0,0.438,0.876,0.438,0.0,0.0,0.0,0.438
4.51,2.58,41.59920,-87.35764,15022.03,6987.86,METHODIST HOSPITALS INC,0.0,0.576,0.384,0.0,0.0,0.064,0.192,0.0
5.35,2.29,40.42687,-86.88197,18510.49,5764.58,FRANCISCAN ST ELIZABETH HEALTH - LAFAYETTE CENTRAL,0.0,0.456,0.684,0.228,0.0,0.0,0.228,0.0
5.30,2.57,41.61514,-87.52413,18309.75,6920.67,FRANCISCAN ST MARGARET HEALTH - HAMMOND,0.0,0.732,0.209,0.105,0.0,0.0,0.0,0.0
5.61,2.29,39.76255,-86.50165,19567.63,5764.46,HENDRICKS REGIONAL HEALTH,0.0,0.485,0.0,1.941,0.0,0.0,0.0,0.0
6.39,2.22,41.61055,-86.72511,22828.48,5481.85,INDIANA UNIVERSITY HEALTH LA PORTE HOSPITAL,0.0,0.0,0.777,0.0,0.0,0.0,0.0,0.0
3.89,2.16,40.44665,-86.12707,12411.36,5230.92,HOWARD REGIONAL HEALTH SYSTEM,0.0,0.0,0.223,0.223,0.0,0.0,0.223,0.0
4.90,2.60,41.63466,-87.44901,16632.28,7054.77,ST CATHERINE HOSPITAL INC,0.0,0.171,0.686,0.171,0.0,0.0,0.0,0.0
4.38,2.36,38.28244,-85.74923,14487.33,6041.15,CLARK MEMORIAL HOSPITAL,0.0,0.0,0.695,0.261,0.0,0.0,0.0,0.0
6.33,2.34,40.48720,-86.15548,22581.46,5970.82,ST JOSEPH HOSPITAL & HEALTH CENTER INC,0.0,0.229,0.0,0.229,0.0,0.0,0.458,0.0
4.20,2.36,40.56435,-85.66576,13703.72,6067.80,MARION GENERAL HOSPITAL,0.0,0.212,0.425,0.212,0.0,0.0,0.0,0.425
5.70,2.53,41.70877,-86.17026,19949.73,6778.68,SAINT JOSEPH REGIONAL MEDICAL CENTER,0.0,0.0,0.439,0.146,0.0,0.0,0.0,0.0
5.34,2.42,41.70639,-86.89936,18477.61,6326.63,FRANCISCAN ST ANTHONY HEALTH - MICHIGAN CITY,0.0,0.156,0.0,0.311,0.0,0.0,0.156,0.156
7.50,2.39,41.03874,-85.24876,27471.42,6183.83,LUTHERAN HOSPITAL OF INDIANA,0.0,0.481,0.962,0.361,0.0,0.0,0.12,0.0
5.07,2.32,41.70568,-85.93404,17354.90,5913.14,ELKHART GENERAL HOSPITAL,0.0,0.0,0.791,0.099,0.099,0.0,0.297,0.099
5.35,2.39,41.04659,-85.10906,18522.02,6170.34,PARKVIEW REGIONAL MEDICAL CENTER,0.0,0.131,0.524,1.114,0.0,0.0,0.131,0.066
5.10,2.22,40.06464,-86.90821,17451.53,5469.50,FRANCISCAN ST ELIZABETH HEALTH - CRAWFORDSVILLE,0.0,0.0,1.638,0.0,0.0,0.0,0.0,0.0
5.10,2.40,39.48518,-87.40893,17476.49,6224.05,UNION HOSPITAL INC,0.0,0.182,0.728,0.182,0.0,0.0,0.061,0.061
3.71,3.13,39.78091,-86.17629,11683.59,9265.14,WILLIAM N WISHARD MEMORIAL HOSPITAL,0.0,0.291,0.145,0.436,0.0,0.145,0.0,0.0
5.05,2.24,41.56352,-85.83039,17238.04,5567.39,IU HEALTH GOSHEN HOSPITAL,0.0,0.21,0.0,0.0,0.0,0.21,0.0,0.0
5.55,2.55,39.94340,-85.36306,19337.09,6848.74,HENRY COUNTY MEMORIAL HOSPITAL,0.0,0.0,0.595,0.0,0.0,0.0,0.0,0.298
5.50,2.28,39.72432,-86.10055,19121.21,5746.83,FRANCISCAN ST FRANCIS HEALTH - BEECH GROVE,0,0,0,0,0,0,0,0
5.28,2.37,41.51266,-87.26125,18201.77,6088.80,ST MARY MEDICAL CENTER INC,0.0,0.19,0.476,0.381,0.0,0.0,0.0,0.0
6.30,2.38,41.46729,-87.05130,22463.40,6159.67,PORTER VALPARAISO HOSPITAL,0.0,0.342,0.684,0.342,0.0,0.0,0.0,0.0
4.77,2.33,39.79490,-85.76770,16076.62,5942.94,HANCOCK REGIONAL HOSPITAL,0.0,0.0,0.0,0.312,0.0,0.0,0.0,0.0
5.80,2.26,39.42628,-86.40515,20366.06,5650.64,INDIANA UNIVERSITY HEALTH MORGAN HOSPITAL INC,0.0,0.0,1.165,0.0,0.0,0.0,0.0,0.0
4.16,2.18,38.67313,-87.53370,13563.75,5294.45,GOOD SAMARITAN HOSPITAL,0.0,0.285,0.285,0.142,0.0,0.0,0.0,0.142
5.17,2.26,38.30195,-85.83409,17750.49,5631.14,FLOYD MEMORIAL HOSPITAL AND HEALTH SERVICES,0.0,0.077,0.154,0.309,0.0,0.0,0.0,0.0
4.61,2.41,41.36880,-85.03512,15407.56,6286.69,DEKALB HEALTH,0.0,0.846,0.0,0.0,0.0,0.0,0.846,0.0
6.60,2.30,39.41951,-87.40898,23703.18,5810.35,TERRE HAUTE REGIONAL HOSPITAL,0.0,0.0,0.563,0.0,0.0,0.0,0.0,0.0
6.48,2.51,41.07820,-85.14936,23214.96,6688.04,ST JOSEPH HOSPITAL,0.0,0.313,0.313,0.313,0.0,0.0,0.0,0.313
3.73,2.50,39.86405,-84.88413,11756.87,6651.71,REID HOSPITAL & HEALTH CARE SERVICES,0.0,0.354,0.707,0.0,0.0,0.0,0.088,0.088
4.46,2.36,39.16006,-86.54038,14784.45,6046.64,INDIANA UNIVERSITY HEALTH BLOOMINGTON HOSPITAL,0.0,0.287,0.382,0.955,0.0,0.096,0.096,0.0
6.88,3.06,39.79009,-86.16260,24868.66,8962.54,INDIANA UNIVERSITY HEALTH,0.028,0.369,0.454,0.17,0.0,0.0,0.057,0.057
6.55,2.49,41.68479,-86.25217,23491.22,6620.12,MEMORIAL HOSPITAL OF SOUTH BEND,0.0,0.0,1.135,1.059,0.0,0.076,0.151,0.0
5.48,2.28,40.04526,-86.02297,19050.45,5720.08,RIVERVIEW HOSPITAL,0.0,0.0,1.487,0.0,0.0,0.0,0.0,0.0
3.26,2.33,38.65870,-87.16032,9817.15,5932.05,DAVIESS COMMUNITY HOSPITAL,0.0,0.0,0.0,0.0,0.0,0.0,0.546,0.0
5.05,2.45,39.65626,-85.13265,17242.41,6416.73,FAYETTE REGIONAL HEALTH SYSTEM,0.0,0.0,0.518,0.518,0.0,0.0,0.0,0.0
4.00,2.40,38.95542,-85.89223,12876.33,6215.44,SCHNECK MEDICAL CENTER,0.0,0.0,0.38,0.759,0.0,0.0,0.0,0.0
3.72,2.26,38.73589,-85.37996,11726.94,5650.69,KING'S DAUGHTERS' HOSPITAL AND HEALTH SERVICES,THE,0.0,0.0,0.265,0.796,0.0,0.0,0.0,0.0
4.48,2.78,40.76324,-86.36162,14888.74,7814.61,MEMORIAL HOSPITAL,0.0,0.0,0.567,0.567,0.0,0.0,0.0,0.0
5.25,2.56,39.78704,-86.07673,18085.02,6886.32,COMMUNITY HOSPITAL EAST,0.0,0.299,0.1,0.299,0.0,0.0,0.0,0.0
5.02,2.27,40.73751,-85.17118,17135.38,5667.42,BLUFFTON REGIONAL MEDICAL CENTER,0.0,0.0,0.427,0.0,0.0,0.0,0.0,0.0
4.60,2.43,41.33298,-86.33336,15391.00,6339.00,SAINT JOSEPH'S REGIONAL MEDICAL CENTER - PLYMOUTH,0.0,0.0,0.0,0.0,0.0,0.0,0.0,0.511
5.77,2.27,37.98293,-87.57072,20242.72,5703.54,DEACONESS HOSPITAL INC,0.0,0.472,0.515,0.215,0.0,0.086,0.0,0.0
6.96,2.58,39.91001,-86.19660,25190.34,6969.95,ST VINCENT HOSPITAL & HEALTH SERVICES,0.0,0.773,0.258,0.472,0.0,0.086,0.043,0.086
5.67,2.39,39.11138,-84.88343,19823.33,6202.90,DEARBORN COUNTY HOSPITAL,0.0,0.515,0.772,1.029,0.0,0.0,0.257,0.0
5.32,2.38,40.09594,-85.68152,18360.53,6125.22,SAINT JOHN'S HEALTH SYSTEM,0.0,0.15,0.15,0.451,0.0,0.0,0.0,0.15
6.29,2.64,40.19679,-85.41573,22405.59,7217.01,INDIANA UNIVERSITY HEALTH BALL MEMORIAL HOSPITAL,0.0,0.066,0.66,0.264,0.0,0.0,0.132,0.066
5.31,2.39,41.49222,-87.52429,18325.07,6174.18,FRANCISCAN ST MARGARET HEALTH - DYER,0.0,0.765,0.306,0.0,0.0,0.0,0.0,0.0
4.76,2.58,40.90491,-85.48821,16060.74,6972.96,PARKVIEW HUNTINGTON HOSPITAL,0.0,0.0,0.0,0.0,0.0,0.0,0.0,0.0
6.04,2.32,39.52494,-85.78113,21394.78,5879.29,MAJOR HOSPITAL,0.0,0.0,0.397,0.0,0.0,0.0,0.0,0.0
5.50,2.27,37.96320,-87.50292,19117.62,5679.20,ST MARY'S MEDICAL CENTER OF EVANSVILLE INC,0.0,0.262,0.589,0.327,0.0,0.0,0.131,0.0
4.16,2.51,41.15823,-85.46490,13534.71,6688.86,PARKVIEW WHITLEY HOSPITAL,0.0,0.0,0.0,0.0,0.0,0.0,0.0,0.0
5.11,2.52,40.07620,-86.47506,17519.05,6720.69,WITHAM HEALTH SERVICES,0.0,0.503,1.006,0.0,0.0,0.0,0.0,0.0
6.27,2.43,40.39424,-86.83516,22330.96,6371.70,FRANCISCAN ST ELIZABETH HEALTH - LAFAYETTE EAST,0.0,0.361,0.181,0.181,0.0,0.0,0.0,0.0
5.05,2.40,39.21585,-85.89683,17249.45,6226.70,COLUMBUS REGIONAL HOSPITAL,0.0,0.0,0.652,0.13,0.0,0.0,0.0,0.13
4.19,2.30,40.12998,-85.69436,13663.55,5818.12,COMMUNITY HOSPITAL OF ANDERSON AND MADISON COUNTY,0.0,0.159,0.637,0.0,0.0,0.0,0.0,0.0
2.93,2.17,38.39499,-86.94089,8429.00,5280.29,MEMORIAL HOSPITAL AND HEALTH CARE CENTER,0.0,0.0,0.692,0.519,0.0,0.0,0.0,0.0
5.26,2.38,41.55065,-87.50619,18119.34,6156.20,COMMUNITY HOSPITAL,0.0,0.554,0.604,0.252,0.0,0.0,0.0,0.0
4.90,2.32,41.39576,-87.36689,16622.49,5908.89,FRANCISCAN ST ANTHONY HEALTH - CROWN POINT,0.0,0.0,0.849,0.189,0.0,0.0,0.0,0.0
4.94,2.24,39.63776,-86.13260,16803.95,5562.40,COMMUNITY HOSPITAL SOUTH,0.0,0.0,0.922,0.0,0.0,0.154,0.0,0.154
7.39,2.49,39.82100,-86.22251,26983.58,6612.79,WESTVIEW HOSPITAL,0.0,0.624,1.248,0.0,0.0,0.0,0.0,0.0
6.26,2.34,41.24786,-85.82927,22290.98,5962.29,KOSCIUSKO COMMUNITY HOSPITAL,0.0,0.0,1.3,0.0,0.0,0.0,0.0,0.0
4.36,2.54,41.44803,-85.29574,14404.74,6790.32,PARKVIEW NOBLE HOSPITAL,0.0,0.0,0.0,0.0,0.0,0.0,0.0,0.0
6.57,2.24,39.94017,-86.15975,23598.91,5574.97,ST VINCENT HEART CENTER OF INDIANA LLC,0.0,0.165,0.165,0.661,0.0,0.0,0.0,0.0
5.26,2.22,39.90201,-86.04478,18117.33,5492.83,INDIANA HEART HOSPITAL THE,0.0,0.0,0.24,0.0,0.0,0.0,0.24,0.0
6.61,2.22,39.98275,-86.14343,23731.13,5490.60,ST VINCENT CARMEL HOSPITAL INC,0.0,0.735,1.103,0.735,0.0,0.0,0.0,0.0
6.14,2.32,39.78047,-86.34084,21793.64,5892.51,IU HEALTH WEST HOSPITAL,0.0,0.194,1.357,0.0,0.0,0.0,0.194,0.0
5.53,2.55,39.95930,-86.16016,19239.19,6869.00,INDIANA UNIVERSITY HEALTH NORTH HOSPITAL,0.0,0.804,0.536,0.268,0.0,0.0,0.0,0.0
5.36,2.41,39.64935,-86.07960,18560.46,6254.03,FRANCISCAN ST FRANCIS HEALTH - INDIANAPOLIS,0.0,0.0,0.13,0.261,0.0,0.0,0.0,0.13
4.83,2.24,39.12069,-86.57191,16341.53,5577.33,MONROE HOSPITAL,0.0,0.0,0.0,0.0,0.0,0.0,0.0,0.0
5.23,2.34,41.53822,-87.51231,17996.87,5966.73,FRANCISCAN PHYSICIANS HOSPITAL LLC,0.0,0.0,1.195,0.0,0.0,0.0,0.0,0.0
5.45,2.42,39.90060,-86.04218,18929.30,6318.49,COMMUNITY HOSPITAL NORTH,0.0,0.335,0.781,0.112,0.0,0.0,0.0,0.0
6.34,2.22,40.40296,-86.80885,22616.63,5493.65,INDIANA UNIVERSITY HEALTH ARNETT HOSPITAL,0.0,0.14,0.279,0.14,0.0,0.0,0.0,0.0
3.67,2.12,37.97481,-87.44457,11517.13,5075.00,THE HEART HOSPITAL AT DEACONESS GATEWAY LLC,0.0,0.0,1.163,0.582,0.0,0.0,0.0,0.0
4.40,2.32,42.04855,-92.90625,14547.50,5890.58,MARSHALLTOWN MEDICAL & SURGICAL CENTER,0.0,0.367,0.734,1.835,0.0,0.0,0.0,0.367
3.83,2.44,40.40766,-91.38808,12175.96,6407.56,KEOKUK AREA HOSPITAL,0.0,0.0,0.0,0.0,0.0,0.0,0.0,0.0
3.94,2.83,41.43313,-91.05476,12617.40,8004.80,TRINITY MUSCATINE,0.0,0.0,0.762,0.0,0.0,0.0,0.0,0.0
4.97,2.36,42.49388,-94.18926,16920.83,6051.93,TRINITY REGIONAL MEDICAL CENTER,0.0,0.0,0.359,0.359,0.0,0.0,0.0,0.0
5.60,2.48,41.60051,-93.61086,19561.27,6562.73,IOWA LUTHERAN HOSPITAL,0.0,0.187,0.187,0.187,0.0,0.0,0.0,0.0
6.30,2.47,41.26886,-95.83923,22439.00,6527.10,ALEGENT HEALTH MERCY HOSPITAL,0.0,0.197,0.592,0.0,0.0,0.197,0.0,0.0
5.27,2.28,41.66411,-91.52841,18151.67,5717.55,MERCY HOSPITAL,0.0,0.133,0.665,0.798,0.0,0.133,0.0,0.0
5.29,2.36,42.03321,-93.61164,18274.03,6048.09,MARY GREELEY MEDICAL CENTER,0.0,0.0,0.135,0.541,0.0,0.0,0.0,0.0
3.65,2.45,41.70263,-93.05510,11413.92,6442.38,SKIFF MEDICAL CENTER,0.0,0.0,1.019,1.019,0.0,0.0,0.0,0.0
4.71,2.30,41.54190,-90.55691,15834.71,5815.02,GENESIS MEDICAL CENTER-DAVENPORT,0.0,0.118,0.296,0.059,0.0,0.059,0.118,0.059
5.51,2.35,41.98570,-91.66093,19163.63,6004.76,ST LUKES HOSPITAL,0.0,0.0,0.589,0.098,0.0,0.098,0.0,0.0
5.67,2.32,41.26786,-95.83505,19851.09,5874.93,JENNIE EDMUNDSON HOSPITAL,0.0,0.0,0.193,0.0,0.0,0.0,0.193,0.0
4.41,2.31,40.81009,-91.17356,14594.10,5853.60,GREAT RIVER MEDICAL CENTER,0.0,0.798,1.117,0.0,0.0,0.16,0.0,0.0
6.68,3.13,41.66092,-91.54800,24055.45,9277.13,UNIVERSITY OF IOWA HOSPITAL & CLINICS,0.0,0.58,1.159,0.58,0.0,0.064,0.386,0.064
5.02,2.37,43.15063,-93.21718,17136.66,6091.89,MERCY MEDICAL CENTER-NORTH IOWA,0.0,0.076,0.076,0.534,0.0,0.0,0.0,0.0
4.33,2.39,42.46407,-92.34532,14246.50,6204.66,COVENANT MEDICAL CENTER,0.0,0.0,0.372,0.0,0.0,0.0,0.0,0.0
4.30,2.15,42.49227,-90.67404,14132.63,5207.67,MERCY MEDICAL CENTER-DUBUQUE,0.0,0.261,0.651,0.0,0.0,0.0,0.0,0.13
4.20,2.19,41.97864,-91.65507,13729.50,5351.16,MERCY MEDICAL CENTER - CEDAR RAPIDS,0.0,0.226,0.113,0.0,0.0,0.113,0.0,0.0
4.64,2.48,41.86141,-90.18921,15561.09,6563.77,MERCY MEDICAL CENTER-CLINTON,0.0,0.0,0.358,0.0,0.0,0.0,0.0,0.0
6.08,2.52,41.58955,-93.63248,21542.69,6732.41,IOWA METHODIST MEDICAL CENTER,0.0,0.502,0.669,1.339,0.0,0.112,0.223,0.335
5.65,2.48,41.59886,-93.62344,19732.50,6545.89,MERCY MEDICAL CENTER-DES MOINES,0.0,0.201,0.402,0.08,0.0,0.0,0.12,0.0
4.08,2.35,41.02751,-92.38994,13227.38,6015.00,OTTUMWA REGIONAL HEALTH CENTER,0.0,0.0,0.563,0.0,0.0,0.0,0.0,0.0
4.63,2.27,41.56571,-90.51968,15514.96,5687.40,TRINITY BETTENDORF,0.0,0.35,0.35,0.0,0.0,0.0,0.0,0.0
3.76,2.29,42.52665,-92.33957,11898.76,5789.25,ALLEN MEMORIAL HOSPITAL,0.0,0.165,0.165,0.0,0.0,0.082,0.0,0.0
3.31,2.30,43.14994,-95.14317,10020.20,5808.75,SPENCER MUNICIPAL HOSPITAL,0.0,0.0,0.364,1.092,0.0,0.0,0.0,0.0
4.09,2.18,42.49632,-90.68587,13271.02,5305.70,THE FINLEY HOSPITAL,0.0,0.0,1.134,0.0,0.0,0.0,0.454,0.0
3.59,2.36,40.62419,-91.38232,11162.72,6080.07,FORT MADISON COMMUNITY HOSPITAL,0.0,0.0,1.072,1.608,0.0,0.0,0.0,0.0
4.54,2.43,42.51846,-96.40581,15128.86,6354.61,ST LUKES REGIONAL MEDICAL CENTER,0.0,0.187,1.494,0.0,0.187,0.0,0.374,0.0
3.28,2.47,41.74325,-92.73450,9870.85,6515.70,GRINNELL REGIONAL MEDICAL CENTER,0.0,0.0,1.43,0.0,0.0,0.0,0.0,0.0
4.14,2.25,42.49250,-96.39975,13477.49,5592.83,MERCY MEDICAL CENTER-SIOUX CITY,0.0,0.417,0.104,0.208,0.0,0.0,0.208,0.0
4.69,2.38,38.41149,-96.19524,15757.14,6157.68,NEWMAN REGIONAL HEALTH,0.0,0.0,2.17,1.085,0.0,0.0,1.447,0.0
5.06,2.32,37.37991,-94.68739,17305.04,5878.62,VIA CHRISTI HOSPITAL PITTSBURG INC,0.0,1.024,1.28,0.768,0.0,0.0,0.0,0.0
6.52,2.27,39.28218,-94.90368,23357.83,5669.96,SAINT JOHN HOSPITAL,0.0,0.0,0.0,0.0,0.0,0.0,0.0,0.0
