size_charge,size_pay,lat,lon,charge,pay,name
5.11,2.19,36.18082,-94.13644,24701.53,5819.22,NW ARKANSAS HOSPITALS, LLC
4.59,2.18,34.46784,-93.06667,21360.61,5729.12,ST JOSEPHS MERCY HEALTH CENTER INC
4.42,2.42,35.14320,-90.18837,20204.07,7312.80,CRITTENDEN MEMORIAL HOSPITAL
2.72,2.10,36.34295,-92.39442,9248.14,5240.88,BAXTER REGIONAL MEDICAL CENTER
3.79,2.16,35.08546,-92.45774,16140.67,5615.90,CONWAY REGIONAL MEDICAL CENTER
3.83,2.15,34.77770,-92.12539,16389.78,5514.55,BAPTIST HEALTH MEDICAL CENTER NORTH LITTLE ROCK
3.05,2.20,36.05214,-90.49908,11346.81,5884.78,ARKANSAS METHODIST MEDICAL CENTER
4.51,2.24,35.28275,-93.14901,20787.98,6091.60,ST MARYS REGIONAL MEDICAL CENTER
2.34,2.10,36.28982,-90.99750,6745.50,5203.39,FIVE RIVERS MEDICAL CENTER
3.26,2.18,33.57575,-92.83683,12749.52,5712.30,OUACHITA COUNTY MEDICAL CENTER
2.45,2.12,33.62900,-91.79096,7476.37,5355.30,DREW MEMORIAL HOSPITAL
2.98,2.17,35.37445,-94.41868,10930.52,5682.38,SPARKS REGIONAL MEDICAL CENTER
4.24,2.13,35.35395,-94.35262,19052.21,5376.65,ST EDWARD MERCY MEDICAL CENTER
2.79,2.24,33.27510,-93.24001,9664.62,6114.55,MAGNOLIA HOSPITAL
5.12,2.28,34.18894,-92.01886,24787.54,6397.54,JEFFERSON REGIONAL MEDICAL CENTER
2.73,2.29,34.51764,-91.55932,9277.60,6434.17,BAPTIST HEALTH MEDICAL CENTER-STUTTGART
3.38,2.13,34.87240,-92.12256,13482.53,5381.78,NORTH METRO MEDICAL CENTER
3.66,2.20,34.35877,-92.78638,15329.14,5841.32,HOT SPRING COUNTY MEDICAL CENTER
7.51,2.23,34.48600,-93.03521,40254.45,6036.31,NATIONAL PARK MEDICAL CENTER
6.37,2.15,35.60836,-91.26499,32840.04,5530.46,HARRIS HOSPITAL
3.94,2.16,34.57290,-92.58508,17105.22,5607.35,SALINE MEMORIAL HOSPITAL
5.16,2.30,34.51022,-90.62718,24989.29,6496.62,HELENA REGIONAL MEDICAL CENTER
6.27,2.31,33.22053,-92.67102,32173.40,6569.78,MEDICAL CENTER SOUTH ARKANSAS
3.65,2.18,33.64905,-93.58704,15240.00,5752.78,MEDICAL PARK HOSPITAL
4.23,2.21,34.74866,-92.35422,18981.66,5913.10,BAPTIST HEALTH MEDICAL CENTER-LITTLE ROCK
3.52,2.24,35.80838,-90.66658,14410.29,6111.39,NEA BAPTIST MEMORIAL HOSPITAL
4.38,2.24,35.76927,-91.63408,19963.01,6090.45,WHITE RIVER MEDICAL CENTER
3.67,2.08,34.73868,-92.39307,15362.41,5107.62,ARKANSAS HEART HOSPITAL
3.60,2.12,34.81290,-92.20814,14935.11,5339.49,ST VINCENT MEDICAL CENTER/NORTH
13.35,3.17,37.63362,-122.08802,78032.84,12121.42,ST ROSE HOSPITAL
6.91,2.55,40.78366,-124.14246,36339.15,8142.29,ST JOSEPH HOSPITAL
6.96,2.52,37.59283,-122.38249,36664.50,7905.15,PENINSULA MEDICAL CENTER
8.92,2.63,38.32472,-122.29671,49382.56,8610.92,QUEEN OF THE VALLEY MEDICAL CENTER
9.57,2.74,38.54384,-122.47401,53579.19,9367.77,ST HELENA HOSPITAL
6.72,2.61,38.35073,-120.76468,35138.91,8525.82,SUTTER AMADOR HOSPITAL
7.87,2.35,35.11346,-120.59054,42576.88,6846.42,ARROYO GRANDE COMMUNITY HOSPITAL
7.34,2.82,38.57053,-121.45216,39103.92,9864.22,MERCY GENERAL HOSPITAL
5.36,3.10,34.06505,-118.23913,26325.42,11669.81,PACIFIC ALLIANCE MEDICAL CENTER
8.61,2.64,33.97659,-117.38184,47351.89,8695.65,RIVERSIDE COMMUNITY HOSPITAL
5.22,2.71,32.68425,-117.08161,25439.19,9150.98,PARADISE VALLEY HOSPITAL
6.06,3.11,32.75426,-117.16592,30871.49,11717.24,UNIVERSITY OF CALIFORNIA SAN DIEGO MEDICAL CENTER
7.12,2.47,32.77495,-117.01467,37698.82,7580.08,GROSSMONT HOSPITAL
5.14,2.37,40.89631,-124.09145,24863.57,6954.43,MAD RIVER COMMUNITY HOSPITAL
5.94,2.51,39.50528,-121.54100,30089.51,7873.64,OROVILLE HOSPITAL
8.35,2.51,35.38736,-119.01690,45698.56,7883.93,BAKERSFIELD MEMORIAL HOSPITAL
7.38,3.56,37.31288,-121.93329,39379.30,14667.71,SANTA CLARA VALLEY MEDICAL CENTER
8.45,2.40,39.74221,-121.85000,46326.43,7154.15,ENLOE MEDICAL CENTER
7.27,3.59,34.30238,-118.36957,38672.32,14838.77,LAC/OLIVE VIEW-UCLA MEDICAL CENTER
6.52,2.50,40.14813,-122.21934,33837.09,7813.79,ST ELIZABETH COMMUNITY HOSPITAL
8.25,2.91,37.82206,-122.26275,45034.91,10452.32,ALTA BATES SUMMIT MEDICAL CENTER
5.19,2.43,33.93183,-116.94587,25218.28,7366.33,SAN GORGONIO MEMORIAL HOSPITAL
7.07,2.60,32.78037,-115.56848,37388.76,8450.73,EL CENTRO REGIONAL MEDICAL CENTER
10.41,3.23,37.79100,-122.43125,59028.60,12506.22,CALIFORNIA PACIFIC MEDICAL CTR-PACIFIC CAMPUS HOSP
9.62,3.20,37.74717,-122.42088,53913.42,12310.42,CALIFORNIA PACIFIC MEDICAL CTR - ST. LUKE'S CAMPUS
4.40,2.63,34.67486,-118.15771,20124.78,8644.27,ANTELOPE VALLEY HOSPITAL MED CENTER
6.06,2.53,36.32737,-119.29548,30820.92,8022.18,KAWEAH DELTA MEDICAL CENTER
7.87,2.84,34.12834,-118.25777,42567.63,10013.24,GLENDALE MEM HOSPITAL & HLTH CENTER
6.14,2.85,36.73000,-119.78000,31371.66,10064.43,COMMUNITY REGIONAL MEDICAL CENTER
7.07,3.07,34.09643,-118.29103,37409.24,11505.03,HOLLYWOOD PRESBYTERIAN MEDICAL CENTER
5.77,2.35,37.75708,-120.86109,28999.00,6824.18,OAK VALLEY DISTRICT HOSPITAL
6.86,2.41,33.78036,-117.86495,36001.01,7235.00,ST JOSEPH HOSPITAL
6.14,3.06,37.33569,-121.99595,31366.28,11433.00,KAISER FOUNDATION HOSPITAL-SANTA CLARA
6.01,2.57,37.89135,-122.05971,30488.67,8236.72,KAISER FOUNDATION HOSPITAL - WALNUT CREEK
6.04,2.53,38.12852,-122.24704,30684.81,7998.78,KAISER FOUNDATION HOSPITAL AND REHAB CENTER
6.36,2.69,37.82448,-122.25759,32775.20,9006.74,KAISER FOUNDATION HOSPITAL OAKLAND/RICHMOND
7.39,2.70,32.75143,-117.16083,39422.73,9123.30,SCRIPPS MERCY HOSPITAL
8.91,2.45,33.73798,-118.30525,49283.67,7453.11,PROVIDENCE LITTLE CO OF MARY MED CTR SAN PEDRO
10.95,2.81,37.95337,-122.33672,62519.10,9793.56,DOCTORS MEDICAL CENTER-SAN PABLO
8.81,2.52,34.21674,-119.15631,48666.25,7947.82,ST JOHNS REGIONAL MEDICAL CENTER
9.21,2.60,37.96987,-121.28873,51231.43,8437.87,ST JOSEPHS MED CENTER OF STOCKTON
6.51,2.90,34.13101,-117.32181,33762.22,10369.11,COMMUNITY HOSPITAL OF SAN BERNARDINO
5.78,2.59,38.28820,-122.46533,29006.40,8375.60,SONOMA VALLEY HOSPITAL
8.18,2.85,33.98932,-118.22426,44536.15,10033.81,COMMUNITY AND MISSION  HOSPITAL OF HUNTINGTON PARK
5.75,2.47,36.83532,-119.76562,28823.06,7579.34,SAINT AGNES MEDICAL CENTER
6.85,2.37,34.10130,-117.63651,35941.52,6969.22,SAN ANTONIO COMMUNITY HOSPITAL
8.92,2.66,32.79949,-117.15394,49336.11,8810.09,SHARP MEMORIAL HOSPITAL
7.02,2.79,38.13118,-122.23732,37043.21,9665.00,SUTTER SOLANO MEDICAL CENTER
8.13,2.60,33.92798,-117.43847,44223.93,8420.21,PARKVIEW COMMUNITY HOSPITAL MEDICAL CENTER
9.31,2.99,34.04932,-118.21746,51889.94,10952.31,WHITE MEMORIAL MEDICAL CENTER
7.95,3.04,33.92963,-118.20332,43060.81,11319.44,SAINT FRANCIS MEDICAL CENTER
7.74,2.52,34.95099,-120.41322,41714.30,7901.48,MARIAN MEDICAL CENTER
7.21,2.64,38.57155,-121.46874,38308.30,8682.95,SUTTER GENERAL HOSPITAL
3.34,2.52,34.64075,-120.43958,13253.53,7944.27,LOMPOC VALLEY MEDICAL CENTER
7.41,2.77,34.07558,-118.28424,39600.58,9520.55,TEMPLE COMMUNITY HOSPITAL
9.62,2.66,34.02685,-118.48651,53856.62,8865.91,SANTA MONICA - UCLA MED CTR & ORTHOPAEDIC HOSPITAL
6.55,2.39,33.12535,-117.07336,34033.29,7089.76,PALOMAR MEDICAL CENTER
4.34,2.86,34.09638,-118.32518,19733.44,10161.11,HOLLYWOOD COMMUNITY HOSPITAL OF HOLLYWOOD
9.68,2.57,34.22014,-118.53410,54268.94,8236.60,NORTHRIDGE HOSPITAL MEDICAL CENTER
14.08,2.40,37.80132,-121.19690,82745.54,7130.04,DOCTORS HOSPITAL OF MANTECA
5.07,2.53,36.32362,-119.66726,24413.47,7978.00,ADVENTIST MEDICAL CENTER
11.05,2.51,37.96125,-121.30103,63131.21,7832.89,DAMERON HOSPITAL
6.15,2.35,34.20495,-118.21589,31440.64,6816.12,VERDUGO HILLS HOSPITAL
15.65,3.11,37.36257,-121.84974,92913.73,11765.59,REGIONAL MEDICAL CENTER OF SAN JOSE
6.36,2.74,34.19494,-118.46319,32818.75,9370.34,VALLEY PRESBYTERIAN HOSPITAL
5.33,2.42,33.18402,-117.29661,26149.08,7265.77,TRI-CITY MEDICAL CENTER
8.35,2.61,34.13495,-117.27603,45671.15,8513.81,ST BERNARDINE MEDICAL CENTER
8.50,2.49,38.09906,-122.56011,46656.70,7749.74,NOVATO COMMUNITY HOSPITAL
10.95,2.73,34.10081,-118.10588,62501.12,9278.75,SAN GABRIEL VALLEY MEDICAL CENTER
6.91,2.50,39.13822,-121.59436,36367.72,7790.80,RIDEOUT MEMORIAL HOSPITAL
7.43,2.60,38.25455,-122.63177,39741.39,8424.48,PETALUMA VALLEY HOSPITAL
3.46,2.26,34.22143,-118.43018,14035.36,6239.86,KAISER FOUNDATION HOSPITAL - PANORAMA CITY
6.26,2.73,34.09816,-118.29541,32128.69,9275.85,KAISER FOUNDATION HOSPITAL - LOS ANGELES
3.25,2.27,33.91909,-118.12873,12629.67,6330.83,KAISER FOUNDATION HOSPITAL - DOWNEY
3.22,2.33,34.07225,-117.43197,12447.45,6718.35,KAISER FOUNDATION HOSPITAL FONTANA
8.27,2.61,36.57886,-121.91316,45162.46,8544.52,COMMUNITY HOSPITAL OF THE MONTEREY PENINSULA
6.73,3.02,34.03705,-118.26575,35166.41,11147.06,CALIFORNIA HOSPITAL MEDICAL CENTER LA
7.14,2.42,39.22809,-121.04721,37852.66,7265.00,SIERRA NEVADA MEMORIAL HOSPITAL
14.20,2.96,37.78963,-122.41700,83557.13,10751.27,SAINT FRANCIS MEMORIAL HOSPITAL
12.61,2.89,37.32710,-121.93863,73271.62,10340.57,O'CONNOR HOSPITAL
6.07,2.99,34.28029,-119.25410,30941.00,10943.33,VENTURA COUNTY MEDICAL CENTER
7.92,3.07,37.88664,-121.28308,42910.38,11460.48,SAN JOAQUIN GENERAL HOSPITAL
7.31,2.32,33.89465,-117.92716,38936.33,6604.49,ST JUDE MEDICAL CENTER
8.88,2.44,33.96860,-118.04831,49075.40,7425.05,PRESBYTERIAN INTERCOMMUNITY HOSPITAL
8.18,2.65,38.44369,-122.70138,44536.06,8801.79,SANTA ROSA MEMORIAL HOSPITAL
11.26,2.50,37.51164,-120.83800,64530.87,7792.75,EMANUEL MEDICAL CENTER INC
14.43,2.60,37.91341,-122.04163,85034.86,8442.11,JOHN MUIR MEDICAL CENTER - WALNUT CREEK CAMPUS
8.46,2.85,33.77991,-118.18602,46359.90,10046.10,ST MARY MEDICAL CENTER
10.98,3.00,36.92821,-121.79360,62694.29,11015.69,WATSONVILLE COMMUNITY HOSPITAL
14.10,2.85,37.55717,-121.98126,82887.08,10048.07,WASHINGTON HOSPITAL
13.68,2.54,37.48000,-122.25441,80194.67,8087.61,SEQUOIA HOSPITAL
8.11,2.45,34.58305,-118.14490,44098.82,7493.76,PALMDALE REGIONAL MEDICAL CENTER
6.54,2.67,37.76288,-122.25412,33949.67,8882.00,ALAMEDA HOSPITAL
5.51,2.68,33.91255,-118.09846,27270.58,8935.11,COAST PLAZA HOSPITAL
10.62,2.56,32.61972,-117.02278,60377.47,8157.93,SHARP CHULA VISTA MEDICAL CENTER
4.90,2.30,33.62229,-117.92995,23366.56,6496.23,HOAG MEMORIAL HOSPITAL PRESBYTERIAN
13.37,2.39,39.75720,-121.57018,78180.62,7056.50,FEATHER RIVER HOSPITAL
7.13,2.43,33.84780,-117.93661,37757.85,7359.74,AHMC ANAHEIM REGIONAL MEDICAL CENTER
9.76,3.81,37.75676,-122.40461,54777.10,16253.79,SAN FRANCISCO GENERAL HOSPITAL
9.93,2.79,34.07709,-117.75063,55863.28,9663.65,POMONA VALLEY HOSPITAL MEDICAL CENTER
8.13,2.34,35.27882,-120.65047,44262.44,6760.80,FRENCH HOSPITAL MEDICAL CENTER
7.10,2.24,32.69430,-117.16793,37573.32,6101.56,SHARP CORONADO HOSPITAL AND HLTHCR CTR
12.00,2.48,34.15601,-118.32834,69322.36,7687.80,PROVIDENCE SAINT JOSEPH MEDICAL CTR
9.37,2.38,34.28920,-118.74484,52279.94,7049.08,SIMI VALLEY HOSPITAL & HEALTH CARE SERVICES
7.01,2.50,34.13973,-118.03534,37007.53,7807.34,METHODIST HOSPITAL OF SOUTHERN CA
8.41,2.84,34.14987,-118.23117,46053.93,9975.07,GLENDALE ADVENTIST MEDICAL CENTER
11.68,2.73,36.98999,-121.98357,67237.84,9276.10,DOMINICAN HOSPITAL
10.14,2.52,33.83862,-116.54557,57225.02,7917.02,DESERT REGIONAL MEDICAL CENTER
5.74,3.10,34.07389,-117.35111,28769.41,11708.45,ARROWHEAD REGIONAL MEDICAL CENTER
13.65,3.28,36.69761,-121.63320,79976.42,12878.58,NATIVIDAD MEDICAL CENTER
9.29,2.47,38.72562,-120.79096,51773.38,7604.62,MARSHALL MEDICAL CENTER (1-RH)
6.54,2.68,36.06956,-119.02748,33931.44,8944.92,SIERRA VIEW DISTRICT HOSPITAL
9.60,3.54,34.06675,-118.44613,53728.53,14513.46,RONALD REAGAN UCLA MEDICAL CENTER
7.87,2.67,37.71291,-122.14320,42565.95,8884.36,SAN LEANDRO HOSPITAL
6.96,2.39,34.03721,-117.20474,36674.22,7093.87,REDLANDS COMMUNITY HOSPITAL
5.40,3.91,38.00655,-122.13312,26569.30,16916.50,CONTRA COSTA REGIONAL MEDICAL CENTER
8.81,2.87,33.80733,-118.19305,48619.29,10215.93,PACIFIC HOSPITAL OF LONG BEACH
13.87,2.57,34.27915,-118.46006,81385.97,8226.99,PROVIDENCE HOLY CROSS MEDICAL CENTER
4.80,2.59,34.13075,-116.27502,22661.67,8382.08,HI-DESERT MEDICAL CENTER
7.27,2.59,40.58654,-122.39168,38675.12,8370.14,MERCY MEDICAL CENTER REDDING
8.53,2.81,34.09049,-118.14410,46818.17,9820.30,ALHAMBRA HOSPITAL MEDICAL CENTER
13.86,2.67,37.69502,-121.88095,81303.48,8886.11,VALLEYCARE MEDICAL CENTER
13.46,2.78,37.67947,-122.47447,78761.30,9618.68,SETON MEDICAL CENTER
6.18,2.29,34.03009,-118.47833,31602.55,6427.57,SAINT JOHN'S HEALTH CENTER
6.75,2.98,38.46964,-122.70746,35337.24,10894.68,SUTTER MEDICAL CENTER OF SANTA ROSA
8.87,2.87,33.91173,-117.19590,49028.11,10169.52,RIVERSIDE COUNTY REGIONAL MEDICAL CENTER
8.52,2.41,35.37279,-119.02817,46782.26,7216.63,MERCY HOSPITAL
6.82,2.84,36.83491,-121.38651,35732.92,9995.40,HAZEL HAWKINS MEMORIAL HOSPITAL
9.74,2.69,34.89341,-117.01930,54676.73,9018.86,BARSTOW COMMUNITY HOSPITAL
7.40,2.50,34.50107,-117.17285,39506.13,7774.00,ST MARY MEDICAL CENTER
4.25,2.49,39.15350,-123.20435,19099.00,7745.95,UKIAH VALLEY MEDICAL CENTER/HOSPITAL D
9.42,3.02,37.85593,-122.25730,52573.28,11145.92,ALTA BATES SUMMIT MEDICAL CENTER - ALTA BATES CAMP
9.33,2.54,37.36934,-122.08047,52019.30,8037.63,EL CAMINO HOSPITAL
6.77,2.49,38.76514,-121.24979,35450.28,7706.82,SUTTER ROSEVILLE MEDICAL CENTER
6.80,2.46,37.74409,-121.43469,35640.94,7524.00,SUTTER TRACY COMMUNITY HOSPITAL
7.37,3.61,37.79943,-122.23307,39353.05,14995.52,ALAMEDA COUNTY MEDICAL CENTER
8.93,2.29,32.88461,-117.22244,49432.71,6449.82,SCRIPPS MEMORIAL HOSPITAL LA JOLLA
9.22,3.06,34.05076,-117.26395,51267.67,11435.33,LOMA LINDA UNIVERSITY MEDICAL CENTER
6.99,2.54,33.87236,-117.56809,36886.64,8075.84,CORONA REGIONAL MEDICAL CENTER
8.06,2.86,36.65910,-121.64630,43780.03,10101.32,SALINAS VALLEY MEMORIAL HOSPITAL
6.50,2.58,37.97780,-120.37150,33668.80,8311.20,SONORA REGIONAL MEDICAL CENTER
14.39,2.48,38.12186,-121.28665,84749.77,7697.79,LODI MEMORIAL HOSPITAL
5.30,2.62,32.95813,-115.55388,25900.63,8545.68,PIONEERS MEMORIAL HEALTHCARE DISTRICT
10.21,3.21,33.78798,-117.89026,57693.03,12426.76,UNIVERSITY OF CALIFORNIA IRVINE MED CENTER
4.18,2.67,34.01501,-118.10064,18699.85,8909.78,BEVERLY HOSPITAL
7.95,2.36,33.81131,-118.34364,43070.58,6903.54,TORRANCE MEMORIAL MEDICAL CENTER
6.30,2.90,38.91161,-119.99760,32378.41,10411.29,BARTON MEMORIAL HOSPITAL
10.25,2.43,33.83891,-118.35677,57940.04,7346.53,PROVIDENCE LITTLE COMPANY OF MARY MED CTR TORRANCE
5.04,2.30,34.43343,-119.81039,24249.00,6491.00,GOLETA VALLEY COTTAGE HOSPITAL
5.04,2.61,36.22008,-119.33764,24240.07,8511.00,TULARE REGIONAL MEDICAL CENTER
10.02,2.58,37.94748,-122.53677,56498.17,8328.39,MARIN GENERAL HOSPITAL
13.91,2.85,38.26174,-122.04662,81645.23,10056.87,NORTHBAY MEDICAL CENTER
6.94,3.37,34.06034,-118.21014,36549.42,13443.88,LAC+USC MEDICAL CENTER
6.66,3.46,33.83043,-118.29402,34710.30,14040.70,LAC/HARBOR-UCLA MED CENTER
4.27,2.93,34.24018,-118.39632,19287.82,10564.12,PACIFICA HOSPITAL OF THE VALLEY
10.21,2.60,37.25153,-121.94684,57680.09,8471.56,GOOD SAMARITAN HOSPITAL
6.09,2.76,34.08802,-117.89341,31066.39,9454.30,CITRUS VALLEY MEDICAL CENTER-IC CAMPUS
3.69,2.61,38.39711,-122.81924,15518.11,8519.79,PALM DRIVE HOSPITAL
5.42,2.46,33.75117,-116.96028,26682.72,7511.82,HEMET VALLEY MEDICAL CENTER
10.29,2.64,33.93530,-118.13030,58243.29,8686.83,DOWNEY REGIONAL MEDICAL CENTER
7.36,2.33,34.27459,-119.25812,39275.47,6693.15,COMMUNITY MEMORIAL HOSPITAL SAN BUENAVENTURA
6.51,2.47,34.42951,-119.72333,33747.91,7634.49,SANTA BARBARA COTTAGE HOSPITAL
8.10,2.67,37.79569,-122.40930,44046.62,8887.90,CHINESE HOSPITAL
3.51,2.25,33.78899,-118.29401,14363.16,6184.48,KAISER FOUNDATION HOSPITAL - SOUTH BAY
7.59,2.36,38.67039,-121.14552,40719.04,6909.16,MERCY HOSPITAL OF FOLSOM
5.50,2.63,41.77451,-124.19400,27197.67,8658.10,SUTTER COAST HOSPITAL
7.94,2.60,32.89810,-117.24217,43024.03,8445.81,SCRIPPS GREEN HOSPITAL
4.60,2.43,38.60127,-121.39412,21368.27,7324.76,KAISER FOUNDATION HOSPITAL - SACRAMENTO
7.46,2.45,33.82557,-117.99493,39876.81,7479.07,WEST ANAHEIM MEDICAL CENTER
5.99,3.08,39.20732,-122.00026,30392.83,11538.00,COLUSA REGIONAL MEDICAL CENTER
9.22,2.56,34.13364,-118.15275,51299.48,8175.62,HUNTINGTON MEMORIAL HOSPITAL
15.97,3.54,37.43436,-122.18013,94994.27,14527.22,STANFORD HOSPITAL
7.25,2.70,37.34027,-120.46817,38523.95,9117.81,MERCY MEDICAL CENTER
4.63,2.64,35.64086,-117.67119,21567.73,8681.40,RIDGECREST REGIONAL HOSPITAL
11.03,3.64,37.76421,-122.45716,62985.88,15154.73,UCSF MEDICAL CENTER
7.31,2.51,35.38338,-119.01969,38908.47,7861.35,SAN JOAQUIN COMMUNITY HOSPITAL
9.38,2.75,37.77449,-122.45429,52366.67,9431.42,ST MARY'S MEDICAL CENTER
15.15,2.69,37.66540,-120.99743,89702.15,9032.44,DOCTORS MEDICAL CENTER
5.11,2.72,33.89307,-118.29506,24671.05,9255.19,MEMORIAL HOSPITAL OF GARDENA
8.90,2.79,34.05336,-118.26558,49231.14,9660.19,GOOD SAMARITAN HOSPITAL
10.86,2.38,34.20285,-118.62962,61907.24,7042.24,WEST HILLS HOSPITAL & MEDICAL CENTER
7.44,2.62,33.80861,-118.18661,39805.27,8605.59,LONG BEACH MEMORIAL MEDICAL CENTER
8.28,2.72,37.69824,-122.08730,45214.34,9216.49,EDEN MEDICAL CENTER
6.69,2.42,36.83863,-119.66183,34907.95,7250.27,CLOVIS COMMUNITY MEDICAL CENTER
14.29,2.61,37.98396,-122.03464,84124.02,8504.18,JOHN MUIR MEDICAL CENTER - CONCORD CAMPUS
5.54,2.37,38.94514,-121.10174,27479.09,6972.73,SUTTER AUBURN FAITH HOSPITAL
8.74,2.94,34.06389,-118.27347,48202.00,10632.69,SAINT VINCENT MEDICAL CENTER
7.83,2.32,33.03634,-117.28487,42303.90,6663.34,SCRIPPS MEMORIAL HOSPITAL - ENCINITAS
13.64,2.44,35.29188,-120.66635,79927.00,7434.20,SIERRA VISTA REGIONAL MEDICAL CENTER
4.59,2.54,37.63058,-122.09502,21324.33,8028.96,KAISER FOUNDATION HOSPITAL FREMONT/HAYWARD
3.83,2.24,32.79197,-117.09498,16438.64,6126.55,KAISER FOUNDATION HOSPITAL - SAN DIEGO
8.02,2.60,38.66956,-121.31378,43504.64,8458.34,MERCY SAN JUAN MEDICAL CENTER
5.70,2.74,34.52856,-117.29305,28545.92,9338.00,VICTOR VALLEY COMMUNITY HOSPITAL
8.32,2.74,37.98224,-121.80362,45452.67,9377.81,SUTTER DELTA MEDICAL CENTER
5.09,2.45,33.70376,-117.98776,24565.48,7474.48,HUNTINGTON BEACH HOSPITAL
9.73,2.76,33.68179,-116.23394,54618.15,9509.80,JOHN F KENNEDY MEMORIAL HOSPITAL, INC
6.47,2.52,38.56276,-121.77207,33475.73,7935.55,SUTTER DAVIS HOSPITAL
9.51,2.51,34.20777,-118.88305,53206.69,7864.79,LOS ROBLES HOSPITAL & MEDICAL CENTER
11.59,2.42,33.80441,-118.06665,66623.47,7255.94,LOS ALAMITOS MEDICAL CENTER
8.39,2.45,37.66867,-120.97339,45896.75,7450.94,MEMORIAL  MEDICAL CENTER
5.10,2.29,34.03868,-118.37516,24649.43,6425.29,KAISER FOUNDATION HOSPITAL - WEST LA
7.36,2.35,33.56100,-117.66530,39243.05,6799.02,MISSION HOSPITAL REGIONAL MED CENTER
4.17,2.77,36.94433,-120.04507,18611.37,9529.74,MADERA COMMUNITY HOSPITAL
9.31,2.72,33.71466,-117.93322,51905.87,9252.78,FOUNTAIN VALLEY REGIONAL HOSPITAL & MEDICAL CENTER
10.39,2.38,33.76335,-116.40628,58890.10,7001.64,EISENHOWER MEDICAL CENTER
6.48,2.58,33.83340,-118.08118,33578.25,8288.75,TRI-CITY REGIONAL MEDICAL CENTER
5.14,2.64,33.84753,-118.03841,24905.69,8703.92,LA PALMA INTERCOMMUNITY HOSPITAL
10.79,2.47,33.84932,-118.15323,61489.31,7611.49,LAKEWOOD REGIONAL MEDICAL CENTER
4.42,2.54,34.02561,-117.68583,20212.13,8079.07,CHINO VALLEY MEDICAL CENTER
6.50,2.35,34.09764,-117.83444,33721.88,6804.12,SAN DIMAS COMMUNITY HOSPITAL
7.68,2.35,33.88515,-117.84346,41345.00,6803.55,PLACENTIA LINDA HOSPITAL
7.31,2.72,38.46387,-121.41645,38932.06,9243.27,METHODIST HOSPITAL OF SACRAMENTO
5.34,2.41,34.13289,-117.87121,26179.13,7239.74,FOOTHILL PRESBYTERIAN HOSPITAL
10.84,3.30,38.55484,-121.45628,61813.77,12989.64,UNIVERSITY OF CALIFORNIA DAVIS MEDICAL CENTER
6.67,2.27,33.60883,-117.70881,34773.32,6316.21,SADDLEBACK MEMORIAL MEDICAL CENTER
5.89,2.56,37.23946,-121.80035,29765.00,8160.20,KAISER FOUNDATION HOSPITAL-SAN JOSE
5.36,2.84,35.76216,-119.23889,26296.11,10031.37,DELANO REGIONAL MEDICAL CENTER
4.23,2.32,33.85375,-117.81651,19007.00,6652.82,KAISER FOUNDATION HOSPITAL ANAHEIM
10.08,2.32,34.24359,-119.01992,56867.63,6617.73,ST JOHNS PLEASANT VALLEY HOSPITAL
10.56,2.41,34.39755,-118.55330,59970.02,7239.47,HENRY MAYO NEWHALL MEMORIAL HOSPITAL
14.26,2.86,34.07664,-118.37955,83950.19,10124.64,CEDARS-SINAI MEDICAL CENTER
12.24,2.38,35.55536,-120.72067,70832.91,7040.42,TWIN CITIES COMMUNITY HOSPITAL
7.31,2.33,32.99711,-117.05783,38950.58,6687.92,POMERADO HOSPITAL
5.83,2.95,34.02391,-118.18386,29360.84,10695.00,EAST LOS ANGELES DOCTORS HOSPITAL
8.25,2.84,34.03556,-118.30962,45005.50,10032.86,LOS ANGELES METROPOLITAN MEDICAL CTR
5.63,2.92,34.01936,-118.18661,28031.93,10551.00,LOS ANGELES COMMUNITY HOSPITAL
4.70,2.50,38.46958,-121.41947,22058.58,7827.00,KAISER FOUNDATION HOSP SO SACRAMENTO
8.80,2.46,33.70167,-117.95566,48585.16,7552.43,ORANGE COAST MEMORIAL MEDICAL CENTER
15.44,2.62,38.35586,-121.95196,91566.00,8565.77,NORTHBAY VACAVALLEY HOSPITAL
4.89,2.33,33.71818,-117.16690,23243.26,6683.55,MENIFEE VALLEY MEDICAL CENTER
3.45,2.35,33.90752,-117.46879,13967.41,6832.24,KAISER FOUNDATION HOSPITAL, RIVERSIDE
9.82,2.76,37.03560,-121.57109,55191.72,9499.79,SAINT LOUISE REGIONAL HOSPITAL
12.64,2.53,37.77577,-121.95824,73409.04,7990.63,SAN RAMON REGIONAL MEDICAL CTR
12.40,3.25,34.06193,-118.20157,71878.71,12632.58,KECK HOSPITAL OF USC
5.10,2.41,33.55876,-117.18329,24637.22,7188.20,SOUTHWEST HEALTHCARE SYSTEM
4.50,2.78,34.22139,-118.45660,20742.64,9625.36,MISSION COMMUNITY HOSPITAL - PANORAMA
4.97,2.41,34.47174,-117.29791,23761.70,7225.84,DESERT VALLEY HOSPITAL
7.04,2.38,35.38506,-119.03992,37194.91,6997.37,BAKERSFIELD HEART HOSPITAL
11.35,2.37,33.78824,-118.14563,65118.93,6950.00,COMMUNITY HOSPITAL OF LONG BEACH
6.71,2.34,36.85992,-119.78858,35032.12,6733.08,FRESNO HEART AND SURGICAL HOSPITAL
10.15,2.72,33.95038,-118.00463,57303.74,9194.42,WHITTIER HOSPITAL MEDICAL CENTER
12.06,2.93,34.04924,-118.13842,69673.43,10611.14,MONTEREY PARK HOSPITAL
13.40,3.02,34.06760,-118.12291,78367.90,11190.51,GARFIELD MEDICAL CENTER
7.92,2.64,33.95076,-118.34828,42908.61,8689.21,CENTINELA HOSPITAL MEDICAL CENTER
7.14,2.32,33.98219,-118.43930,37824.69,6662.69,MARINA DEL REY HOSPITAL
14.34,2.47,34.05723,-118.36025,84434.57,7630.98,OLYMPIA MEDICAL CENTER
6.48,2.76,33.75286,-117.83409,33578.16,9464.20,WESTERN MEDICAL CENTER SANTA ANA
7.38,2.27,37.79809,-121.24610,39362.27,6299.18,KAISER FOUNDATION HOSPITAL MANTECA
9.92,2.50,34.02303,-118.39741,55808.88,7813.51,BROTMAN MEDICAL CENTER
4.86,2.47,34.16028,-118.44948,23092.10,7600.10,SHERMAN OAKS HOSPITAL
6.54,2.50,32.77629,-117.05730,33977.61,7798.36,ALVARADO HOSPITAL MEDICAL CENTER
9.96,2.39,34.17067,-118.53200,56093.84,7111.69,PROVIDENCE TARZANA MEDICAL CENTER
5.20,2.95,34.06958,-118.26344,25281.06,10708.75,SILVER LAKE MEDICAL CENTER
6.68,2.51,40.58532,-122.38702,34871.36,7854.75,SHASTA REGIONAL MEDICAL CENTER
4.22,2.22,33.89740,-117.18603,18952.55,6004.20,KAISER FOUNDATION HOSPITAL-MORENO VALLEY
5.94,2.27,33.61478,-117.16918,30073.95,6320.21,LOMA LINDA UNIVERSITY MEDICAL CENTER-MURRIETA
5.44,2.33,40.41481,-104.70890,26803.37,6677.37,NORTH COLORADO MEDICAL CENTER
5.85,2.26,40.18134,-105.12769,29466.09,6256.98,LONGMONT UNITED HOSPITAL
5.21,2.36,39.96455,-104.76855,25355.90,6866.71,PLATTE VALLEY MEDICAL CENTER
3.26,2.24,38.48040,-107.86857,12705.17,6100.00,MONTROSE MEMORIAL HOSPITAL
3.34,2.38,37.47150,-105.88350,13265.19,7029.00,SAN LUIS VALLEY REGIONAL MEDICAL CENTER
5.33,2.23,39.76893,-105.09006,26110.97,6048.03,EXEMPLA LUTHERAN MEDICAL CENTER
4.34,2.21,40.57315,-105.05741,19707.09,5939.58,POUDRE VALLEY HOSPITAL
4.53,2.94,39.72730,-104.99157,20929.82,10623.25,DENVER HEALTH MEDICAL CENTER
5.69,2.26,38.23421,-104.62292,28451.05,6239.49,CENTURA HEALTH-ST MARY CORWIN MEDICAL CENTER
4.36,2.48,37.23629,-107.82578,19818.81,7670.38,MERCY REGIONAL MEDICAL CENTER
5.72,2.44,39.74615,-104.96682,28632.35,7429.42,PRESBYTERIAN/ST LUKE'S MEDICAL CENTER
6.82,2.26,39.71712,-105.12874,35774.93,6250.10,CENTURA HEALTH-ST ANTHONY HOSPITAL
5.11,2.34,38.45565,-105.23021,24673.82,6789.82,CENTURA HEALTH-ST THOMAS MORE HOSPITAL
5.15,2.26,38.28184,-104.61256,24936.18,6228.06,PARKVIEW MEDICAL CENTER INC
5.13,2.32,38.83903,-104.80024,24805.14,6638.52,MEMORIAL HOSPITAL CENTRAL
4.71,2.39,39.09046,-108.56190,22092.77,7086.79,ST MARYS HOSPITAL AND MEDICAL CENTER
6.65,2.98,39.74234,-104.84156,34687.61,10927.30,UNIVERSITY OF COLORADO HOSPITAL ANSCHUTZ INPATIENT
6.10,2.18,40.02615,-105.28391,31078.59,5756.16,BOULDER COMMUNITY HOSPITAL
6.41,2.35,39.74601,-104.96909,33084.32,6852.68,EXEMPLA SAINT JOSEPH HOSPITAL
4.18,2.16,40.41320,-105.05139,18665.13,5610.58,MCKEE MEDICAL CENTER
4.59,2.22,38.86559,-104.82182,21301.88,5975.50,CENTURA HEALTH-PENROSE ST FRANCIS HEALTH SERVICES
8.00,2.34,39.73231,-104.93396,43391.84,6776.12,ROSE MEDICAL CENTER
6.65,2.27,39.65399,-104.98116,34662.84,6291.06,SWEDISH MEDICAL CENTER
2.94,2.34,37.98501,-103.54383,10648.88,6733.65,ARKANSAS VALLEY REGIONAL MEDICAL CENTER
5.26,2.46,40.26035,-103.79536,25696.22,7517.28,COLORADO PLAINS MEDICAL CENTER
3.81,2.18,39.08601,-108.55355,16268.00,5736.86,COMMUNITY HOSPITAL
6.08,2.32,39.67005,-104.97490,30979.82,6622.42,CENTURA HEALTH-PORTER ADVENTIST HOSPITAL
7.01,2.32,39.86430,-104.98481,36989.50,6639.75,NORTH SUBURBAN MEDICAL CENTER
2.97,2.18,38.74540,-108.04700,10830.43,5711.52,DELTA COUNTY MEMORIAL HOSPITAL
3.15,2.62,40.61244,-103.22063,11988.07,8607.21,STERLING REGIONAL MEDCENTER
6.63,2.30,39.68859,-104.83205,34546.63,6497.60,MEDICAL CENTER OF AURORA, THE
5.42,2.32,39.84960,-105.01825,26700.67,6619.39,CENTURA HEALTH-ST ANTHONY NORTH HOSPITAL
7.40,2.22,39.52910,-104.87121,39542.22,6005.73,SKY RIDGE MEDICAL CENTER
8.34,2.23,39.57629,-104.98610,45593.69,6065.75,CENTURA HEALTH-LITTLETON ADVENTIST HOSPITAL
6.33,2.24,39.54881,-104.77119,32591.21,6096.32,PARKER ADVENTIST HOSPITAL
5.38,2.18,39.97043,-105.08661,26469.76,5738.12,EXEMPLA GOOD SAMARITAN MEDICAL CENTER LLC
5.10,2.26,40.45184,-105.19608,24656.44,6278.32,MEDICAL CENTER OF THE ROCKIES
5.85,2.59,41.30978,-72.93806,29461.96,8362.83,HOSPITAL OF ST RAPHAEL
4.65,2.61,41.77507,-72.69941,21735.36,8485.28,ST FRANCIS HOSPITAL & MEDICAL CENTER
2.82,2.30,41.90922,-71.91467,9893.21,6515.21,DAY KIMBALL HOSPITAL
4.20,2.75,41.88142,-73.48367,18808.64,9415.32,SHARON HOSPITAL
5.46,2.49,41.55959,-73.05941,26965.53,7716.54,WATERBURY HOSPITAL
4.03,2.30,41.97762,-72.39127,17734.12,6493.41,JOHNSON MEMORIAL HOSPITAL
6.57,2.58,41.05562,-73.55390,34167.49,8313.10,STAMFORD HOSPITAL
3.71,2.40,41.33722,-72.10380,15646.18,7143.64,LAWRENCE & MEMORIAL HOSPITAL
5.84,2.81,41.18881,-73.16645,29417.00,9814.61,BRIDGEPORT HOSPITAL
2.98,2.34,41.79153,-73.13382,10932.95,6774.00,CHARLOTTE HUNGERFORD HOSPITAL
3.91,2.32,41.86708,-72.45056,16899.54,6627.54,ROCKVILLE GENERAL HOSPITAL
4.71,2.41,41.58181,-73.40955,22077.54,7199.88,NEW MILFORD HOSPITAL
3.38,2.58,41.55241,-73.03554,13480.48,8318.74,SAINT MARYS HOSPITAL
4.11,2.36,41.54874,-72.80148,18235.73,6871.65,MIDSTATE MEDICAL CENTER
5.52,2.44,41.03431,-73.63020,27373.02,7422.93,GREENWICH HOSPITAL ASSOCIATION
4.48,2.32,41.21646,-73.06525,20621.41,6643.20,MILFORD HOSPITAL, INC
5.47,2.39,41.55473,-72.64872,27009.50,7060.15,MIDDLESEX HOSPITAL
3.57,2.70,41.71622,-72.22399,14751.21,9066.55,WINDHAM COMM MEM HOSP & HATCH HOSP
6.21,2.97,41.30400,-72.93502,31801.35,10873.66,YALE-NEW HAVEN HOSPITAL
3.52,2.35,41.54301,-72.08799,14399.26,6840.11,WILLIAM W BACKUS HOSPITAL
5.39,2.77,41.75412,-72.67927,26526.85,9565.95,HARTFORD HOSPITAL
3.81,2.34,41.78185,-72.52591,16294.85,6764.52,MANCHESTER MEMORIAL HOSPITAL
5.65,2.56,41.20049,-73.20281,28204.83,8199.78,ST VINCENT'S MEDICAL CENTER
4.32,2.32,41.67540,-72.93617,19562.07,6641.45,BRISTOL HOSPITAL
5.36,2.52,41.33493,-73.08978,26283.88,7899.20,GRIFFIN HOSPITAL
4.05,2.53,41.40474,-73.44739,17864.26,8024.86,DANBURY HOSPITAL
5.91,2.54,41.11147,-73.42010,29859.42,8072.65,NORWALK HOSPITAL ASSOCIATION
4.66,2.48,41.66107,-72.78671,21772.34,7685.50,HOSPITAL OF CENTRAL CONNECTICUT, THE
4.48,3.13,41.73545,-72.79489,20611.28,11889.03,JOHN DEMPSEY HOSPITAL
2.09,2.29,41.46281,-72.83650,5144.82,6420.41,MASONIC HOME AND HOSPITAL
3.84,2.50,39.69005,-75.68408,16482.75,7791.47,CHRISTIANA CARE HEALTH SERVICES, INC.
4.61,2.43,39.74954,-75.56662,21474.80,7325.52,ST FRANCIS HOSPITAL
3.71,2.31,39.15135,-75.52309,15608.50,6544.15,BAYHEALTH - KENT GENERAL HOSPITAL
3.46,2.49,38.64231,-75.60660,13998.18,7737.81,NANTICOKE MEMORIAL HOSPITAL
4.65,2.29,38.77159,-75.14210,21723.55,6446.63,BEEBE MEDICAL CENTER
3.94,2.22,38.90742,-75.43278,17109.12,6008.25,BAYHEALTH - MILFORD MEMORIAL HOSPITAL
5.54,2.71,38.90106,-77.05079,27489.60,9189.78,GEORGE WASHINGTON UNIV HOSPITAL
5.86,3.33,38.91770,-77.02193,29525.49,13175.59,HOWARD UNIVERSITY HOSPITAL
5.54,2.86,38.91221,-77.07588,27494.96,10139.39,GEORGETOWN UNIVERSITY HOSPITAL
4.85,2.31,38.93576,-77.10909,23043.44,6553.95,SIBLEY MEMORIAL HOSPITAL
4.40,2.63,38.94397,-76.99040,20071.26,8620.41,PROVIDENCE HOSPITAL
5.70,2.55,38.83504,-76.98388,28510.02,8112.52,UNITED MEDICAL CENTER
5.37,2.69,38.92944,-77.01473,26381.12,9030.73,WASHINGTON HOSPITAL CENTER
4.67,2.67,30.34913,-81.66391,21857.46,8907.66,SHANDS JACKSONVILLE MEDICAL CENTER
6.51,2.33,26.50479,-80.06979,33762.24,6714.22,BETHESDA MEMORIAL HOSPITAL
6.21,2.38,28.52517,-81.37729,31806.57,7000.72,ORLANDO HEALTH
6.14,2.31,28.57345,-81.36990,31359.82,6586.76,FLORIDA HOSPITAL
8.42,2.51,25.68309,-80.34038,46092.30,7893.44,BAPTIST HOSPITAL OF MIAMI INC
9.02,2.54,25.78846,-80.21644,50003.89,8068.65,UNIVERSITY OF MIAMI HOSPITAL
4.56,2.22,26.62849,-81.87423,21122.28,6005.41,LEE MEMORIAL HOSPITAL
3.47,2.11,29.01347,-80.94096,14075.81,5293.26,BERT FISH MEDICAL CENTER
3.80,2.23,29.20117,-81.05828,16207.88,6073.42,HALIFAX HEALTH MEDICAL CENTER
4.38,2.20,26.15053,-81.79919,19995.89,5850.97,NAPLES COMMUNITY HOSPITAL
4.95,2.15,28.08771,-80.61362,23658.54,5510.32,HOLMES REGIONAL MEDICAL CENTER
6.36,3.28,25.79143,-80.21250,32776.15,12880.24,JACKSON MEMORIAL HOSPITAL
4.60,2.12,28.83363,-82.33561,21372.45,5342.05,CITRUS MEMORIAL HOSPITAL
3.70,2.29,30.47650,-87.21219,15547.15,6440.52,SACRED HEART HOSPITAL
3.62,2.17,30.15963,-85.64818,15078.54,5678.18,BAY MEDICAL CENTER
3.67,2.18,28.63051,-80.82437,15404.58,5753.81,PARRISH MEDICAL CENTER
8.61,2.49,25.86166,-80.21398,47360.22,7719.84,NORTH SHORE MEDICAL CENTER
5.29,2.25,28.54917,-81.52746,25869.88,6200.34,HEALTH CENTRAL
5.58,2.36,27.76332,-82.64325,27751.40,6868.18,BAYFRONT MEDICAL CENTER INC
8.97,2.58,25.81317,-80.13996,49659.78,8311.51,MOUNT SINAI MEDICAL CENTER
4.72,2.24,27.49789,-82.56220,22161.02,6144.65,MANATEE MEMORIAL HOSPITAL
7.05,2.40,26.01867,-80.17981,37223.76,7157.78,MEMORIAL REGIONAL HOSPITAL
5.38,2.63,26.10282,-80.14245,26434.89,8669.53,BROWARD HEALTH BROWARD GENERAL MEDICAL CENTER
4.17,2.21,30.30835,-81.68919,18620.64,5923.15,ST VINCENT'S MEDICAL CENTER
4.49,2.10,28.01404,-82.78368,20676.07,5239.45,MEASE HOSPITAL DUNEDIN
6.02,2.21,27.19837,-80.24306,30598.06,5893.35,MARTIN MEMORIAL MEDICAL CENTER
4.70,2.23,29.04263,-81.31635,22028.70,6035.26,FLORIDA HOSPITAL DELAND
6.46,2.15,28.26092,-82.18802,33423.94,5523.51,FLORIDA HOSPITAL ZEPHYRHILLS
4.73,2.12,26.94042,-82.04094,22252.37,5372.62,CHARLOTTE REGIONAL MEDICAL CENTER
4.05,2.29,30.95015,-87.15095,17831.39,6457.17,JAY HOSPITAL
4.27,2.13,27.46707,-81.43358,19238.82,5422.82,HIGHLANDS REGIONAL MEDICAL CENTER
5.10,2.52,25.86856,-80.31222,24608.69,7919.32,PALM SPRINGS GENERAL HOSPITAL
5.37,2.16,28.55140,-81.72120,26376.26,5586.77,SOUTH LAKE HOSPITAL
5.81,2.20,28.02768,-81.72466,29206.48,5849.96,WINTER HAVEN HOSPITAL
11.17,2.69,25.84597,-80.26872,63898.29,9012.29,HIALEAH HOSPITAL
7.85,2.08,30.53493,-86.49628,42411.07,5050.81,TWIN CITIES HOSPITAL
4.83,2.12,28.13321,-82.75839,22913.72,5336.83,HELEN ELLIS MEMORIAL HOSPITAL
4.24,2.16,28.82358,-81.71133,19084.81,5606.28,FLORIDA HOSPITAL WATERMAN
5.73,2.44,25.74067,-80.21244,28687.03,7435.81,MERCY HOSPITAL INC
4.35,2.14,29.17594,-82.13898,19786.64,5473.58,MUNROE REGIONAL MEDICAL CENTER
4.56,2.12,28.25431,-82.71447,21117.24,5360.80,MORTON PLANT NORTH BAY HOSPITAL
4.62,2.16,27.78088,-82.65126,21537.47,5608.88,ST ANTHONY'S HOSPITAL
3.90,2.16,29.24333,-81.10760,16871.56,5594.70,FLORIDA HOSPITAL MEMORIAL MEDICAL CENTER
5.66,2.19,28.01266,-82.50384,28257.93,5821.00,FLORIDA HOSPITAL CARROLLWOOD
4.44,2.12,27.09043,-82.44499,20338.59,5356.48,VENICE REGIONAL MEDICAL CENTER
7.69,2.26,28.53906,-82.44193,41387.44,6218.21,BROOKSVILLE REGIONAL HOSPITAL
4.34,2.16,28.91403,-81.28480,19691.11,5624.71,FLORIDA HOSPITAL FISH MEMORIAL
6.22,2.17,26.18711,-80.11941,31897.82,5695.84,HOLY CROSS HOSPITAL INC
4.68,2.30,27.98242,-82.49025,21919.51,6508.89,ST JOSEPH'S HOSPITAL
6.39,2.60,25.77941,-80.29397,33000.52,8455.78,METROPOLITAN HOSPITAL OF MIAMI
5.30,2.21,26.98905,-82.09559,25955.05,5917.34,PEACE RIVER REGIONAL MEDICAL CENTER
6.79,2.29,26.59805,-80.09271,35561.73,6462.38,JFK MEDICAL CENTER
4.31,2.18,30.64734,-86.11395,19502.14,5751.95,HEALTHMARK REGIONAL MEDICAL CENTER
4.59,2.16,28.80659,-81.86906,21337.37,5591.82,LEESBURG REGIONAL MEDICAL CENTER
5.17,2.26,26.27623,-80.12220,25105.34,6234.12,BROWARD HEALTH NORTH BROWARD MEDICAL CENTER
4.00,2.17,27.31827,-82.53140,17484.43,5688.69,SARASOTA MEMORIAL HOSPITAL
5.62,2.27,30.31525,-81.66398,27984.11,6303.19,BAPTIST MEDICAL CENTER
6.01,2.39,29.86371,-81.31749,30541.54,7065.24,FLAGLER HOSPITAL
4.48,2.18,28.33522,-80.72319,20596.83,5733.81,WUESTHOFF MEDICAL CENTER  ROCKLEDGE
4.72,2.19,30.43066,-87.23191,22149.94,5811.58,BAPTIST HOSPITAL
6.78,2.15,27.89590,-81.56547,35498.77,5525.66,LAKE WALES MEDICAL CENTER
5.33,2.24,30.19345,-82.63268,26121.66,6095.45,SHANDS LAKE SHORE REGIONAL MEDICAL CENTER
2.99,2.21,27.65832,-80.39307,10956.27,5922.68,INDIAN RIVER MEDICAL CENTER
3.14,2.30,30.12015,-83.59309,11971.56,6503.19,DOCTOR'S MEMORIAL HOSPITAL INC
5.46,2.16,26.61563,-81.65945,26974.60,5628.17,LEHIGH REGIONAL MEDICAL CENTER
4.86,2.20,27.50001,-81.43962,23054.01,5835.86,FLORIDA HOSPITAL HEARTLAND MEDICAL CENTER
8.08,2.33,28.29946,-81.41021,43923.12,6706.15,OSCEOLA REGIONAL MEDICAL CENTER
4.42,2.81,29.64155,-82.34844,20204.98,9787.44,SHANDS HOSPITAL AT THE UNIVERSITY OF FLORIDA
5.96,2.13,30.27449,-81.40071,30175.75,5386.78,BAPTIST MEDICAL CENTER  BEACHES
3.93,2.33,29.47897,-81.18915,17036.16,6688.72,FLORIDA HOSPITAL FLAGLER
4.30,2.13,27.91798,-81.84402,19453.35,5375.65,BARTOW REGIONAL MEDICAL CENTER
7.56,2.39,30.73540,-86.56171,40572.08,7070.65,NORTH OKALOOSA MEDICAL CENTER
5.28,2.22,30.63421,-87.06708,25786.69,5964.88,SANTA ROSA MEDICAL CENTER
6.62,2.48,25.47971,-80.43038,34461.27,7639.78,HOMESTEAD HOSPITAL
4.60,2.07,27.75214,-82.73951,21419.52,5031.85,PALMS OF PASADENA HOSPITAL
4.26,2.21,27.95192,-82.80379,19220.71,5891.92,MORTON PLANT HOSPITAL
7.35,2.63,27.93740,-82.45927,39176.81,8619.77,TAMPA GENERAL HOSPITAL
6.52,2.51,26.72399,-80.67127,33822.71,7861.36,LAKESIDE MEDICAL CENTER
9.00,2.27,25.96994,-80.14533,49843.99,6341.17,AVENTURA HOSPITAL AND MEDICAL CENTER
4.74,2.28,28.01563,-82.13900,22312.53,6372.08,SOUTH FLORIDA BAPTIST HOSPITAL
4.66,2.29,30.45726,-84.26175,21780.74,6423.88,TALLAHASSEE MEMORIAL HEALTHCARE
7.99,2.23,28.18120,-81.64018,43305.92,6039.69,HEART OF FLORIDA REGIONAL MEDICAL CENTER
4.08,2.17,30.65118,-81.44923,18053.94,5660.00,BAPTIST MEDICAL CENTER - NASSAU
2.90,2.16,30.78675,-85.24189,10404.61,5578.68,JACKSON HOSPITAL
7.66,2.61,24.58076,-81.74233,41210.44,8504.22,LOWER KEYS MEDICAL CENTER
3.46,2.47,30.26389,-81.44283,13998.81,7632.54,MAYO CLINIC
8.79,2.34,25.70328,-80.29391,48512.77,6738.53,SOUTH MIAMI HOSPITAL, INC
5.46,2.41,30.18340,-82.68783,26930.74,7240.34,LAKE CITY MEDICAL CENTER
4.74,2.19,28.06172,-81.95304,22268.89,5794.88,LAKELAND REGIONAL MEDICAL CENTER
5.05,2.21,28.81611,-81.28351,24293.82,5905.00,CENTRAL FLORIDA REGIONAL HOSPITAL
7.31,2.12,27.30187,-82.45428,38910.49,5343.58,DOCTORS HOSPITAL OF SARASOTA
8.29,2.54,26.12647,-80.20519,45281.88,8065.98,PLANTATION GENERAL HOSPITAL
4.96,2.19,26.35875,-80.10203,23742.05,5792.16,BOCA RATON REGIONAL HOSPITAL
5.40,2.18,28.07111,-82.42342,26583.06,5716.98,FLORIDA HOSPITAL TAMPA
3.99,2.26,27.22739,-81.85108,17419.76,6269.08,DESOTO MEMORIAL HOSPITAL
6.69,2.21,26.83035,-80.08655,34954.99,5905.98,PALM BEACH GARDENS MEDICAL CENTER
3.96,2.15,28.36005,-80.62309,17277.85,5523.95,CAPE CANAVERAL HOSPITAL
8.97,2.21,30.28793,-81.60103,49684.25,5897.46,MEMORIAL HOSPITAL JACKSONVILLE
10.09,2.34,27.80541,-82.72694,56937.31,6746.60,ST PETERSBURG GENERAL HOSPITAL
7.37,2.59,25.70558,-80.29311,39323.55,8388.42,LARKIN COMMUNITY HOSPITAL
11.85,2.57,25.74360,-80.25465,68329.42,8262.88,CORAL GABLES HOSPITAL
9.44,2.60,25.88563,-80.32635,52750.78,8419.74,PALMETTO GENERAL HOSPITAL
8.13,2.25,26.26259,-80.20292,44220.12,6156.38,NORTHWEST MEDICAL CENTER
7.57,2.15,28.19342,-82.46987,40619.48,5505.87,MEDICAL CENTER OF TRINITY
4.99,2.24,26.20644,-80.11086,23918.68,6137.09,BROWARD HEALTH IMPERIAL POINT MEDICAL CENTER
7.00,2.21,29.66085,-82.41172,36950.91,5937.34,NORTH FLORIDA REGIONAL MEDICAL CENTER
6.65,2.13,27.93758,-82.48933,34683.89,5414.91,MEMORIAL HOSPITAL OF TAMPA
7.40,2.52,25.73195,-80.38580,39497.12,7914.37,KENDALL REGIONAL MEDICAL CENTER
5.23,2.15,28.34805,-82.19963,25479.52,5561.62,PASCO REGIONAL MEDICAL CENTER
5.89,2.13,29.17550,-82.13680,29773.87,5382.15,OCALA REGIONAL MEDICAL CENTER
6.47,2.14,27.48213,-82.62126,33482.47,5437.90,BLAKE MEDICAL CENTER
5.99,2.18,27.84359,-80.48849,30403.47,5748.80,SEBASTIAN RIVER MEDICAL CENTER
5.21,2.21,26.52735,-81.83337,25365.33,5920.10,GULF COAST MEDICAL CENTER LEE MEM HEALTH SYSTEM
8.45,2.15,30.45448,-86.63362,46327.64,5533.03,FORT WALTON BEACH MEDICAL CENTER
7.86,2.20,26.21219,-80.25478,42522.43,5851.70,UNIVERSITY HOSPITAL AND MEDICAL CENTER
8.45,2.20,30.16550,-81.73775,46337.28,5889.61,ORANGE PARK MEDICAL CENTER
8.96,2.22,26.12354,-80.25951,49617.36,5956.64,WESTSIDE REGIONAL MEDICAL CENTER
6.92,2.29,26.02951,-80.24607,36437.28,6454.69,MEMORIAL HOSPITAL PEMBROKE
5.79,2.11,30.51624,-87.21856,29121.10,5256.04,WEST FLORIDA HOSPITAL
4.54,2.22,29.64481,-81.69431,20978.33,5972.49,PUTNAM COMMUNITY MEDICAL CENTER
8.80,2.36,26.76167,-80.08781,48574.48,6890.58,COLUMBIA HOSPITAL
7.54,2.13,26.98884,-82.09877,40415.01,5432.80,FAWCETT MEMORIAL HOSPITAL
8.23,2.22,27.82545,-82.70122,44913.62,5978.24,NORTHSIDE HOSPITAL
7.47,2.16,27.78151,-82.66458,39986.05,5569.21,EDWARD WHITE HOSPITAL
7.38,2.23,30.18657,-85.66513,39402.33,6027.37,GULF COAST MEDICAL CENTER
7.78,2.29,27.93259,-82.28759,41991.67,6417.34,BRANDON REGIONAL HOSPITAL
4.39,2.13,26.63958,-81.94164,20033.95,5390.36,CAPE CORAL HOSPITAL
7.80,2.38,27.43392,-80.34350,42086.13,7022.42,LAWNWOOD REGIONAL MEDICAL CENTER & HEART INSTITUTE
6.58,2.21,27.91458,-82.80382,34186.12,5920.45,LARGO MEDICAL CENTER
4.20,2.16,28.95195,-82.62421,18777.88,5581.67,SEVEN RIVERS REGIONAL MEDICAL CENTER
6.89,2.30,27.25983,-80.82855,36187.16,6533.55,RAULERSON HOSPITAL
6.11,2.33,26.92138,-80.09708,31185.80,6713.91,JUPITER MEDICAL CENTER
5.91,2.24,30.47616,-84.23140,29855.94,6131.30,CAPITAL REGIONAL MEDICAL CENTER
7.27,2.21,28.00237,-82.57309,38688.65,5935.77,TOWN & COUNTRY HOSPITAL
6.69,2.14,28.36128,-82.68883,34937.74,5486.19,REGIONAL MEDICAL CENTER BAYONET POINT
7.29,2.18,26.43709,-80.12728,38787.66,5753.69,DELRAY MEDICAL CENTER
7.99,2.13,27.71350,-82.36512,43346.44,5384.40,SOUTH BAY HOSPITAL
7.37,2.27,27.28861,-80.29431,39292.41,6334.59,ST LUCIE MEDICAL CENTER
7.86,2.13,28.53585,-82.53404,42492.82,5379.89,OAK HILL HOSPITAL
4.32,2.12,28.03957,-82.70875,19595.94,5333.97,MEASE COUNTRYSIDE HOSPITAL
4.16,2.09,30.35772,-87.16046,18526.91,5146.47,GULF BREEZE HOSPITAL
7.44,2.12,26.94996,-82.32651,39805.36,5337.78,ENGLEWOOD COMMUNITY HOSPITAL
6.71,2.25,26.35614,-80.19956,35030.21,6197.33,WEST BOCA MEDICAL CENTER
8.02,2.42,26.68337,-80.25269,43510.61,7296.70,PALMS WEST HOSPITAL
5.55,2.34,26.65230,-80.20504,27536.33,6754.81,WELLINGTON REGIONAL MEDICAL CENTER
4.79,2.26,26.26841,-80.25571,22617.53,6233.85,CORAL SPRINGS MEDICAL CENTER
7.77,2.31,26.01394,-80.30980,41919.14,6539.61,MEMORIAL HOSPITAL WEST
5.34,2.81,25.74731,-80.31765,26202.50,9796.00,WESTCHESTER GENERAL HOSPITAL
6.89,2.40,25.99079,-80.37333,36233.50,7158.02,MEMORIAL HOSPITAL MIRAMAR
6.45,2.16,26.21388,-81.73257,33400.86,5623.76,PHYSICIANS REGIONAL MEDICAL CENTER - PINE RIDGE
5.96,2.24,26.70181,-80.05055,30192.78,6111.24,GOOD SAMARITAN MEDICAL CENTER
6.56,2.56,26.75635,-80.06322,34106.18,8170.06,ST MARY'S MEDICAL CENTER
4.27,2.18,26.08155,-80.36449,19226.15,5699.38,CLEVELAND CLINIC HOSPITAL
4.27,2.12,28.94952,-81.95843,19256.04,5362.22,VILLAGES REGIONAL HOSPITAL, THE
4.20,2.18,28.10969,-80.67280,18806.41,5735.73,WUESTHOFF MEDICAL CENTER - MELBOURNE
4.35,2.07,30.37837,-86.30696,19748.04,5020.00,SACRED HEART HOSPITAL ON THE EMERALD COAST
10.46,2.63,25.72132,-80.27116,59315.26,8614.42,DOCTORS HOSPITAL INC
5.16,2.12,27.38993,-82.43343,25004.70,5348.80,LAKEWOOD RANCH MEDICAL CENTER
5.44,2.15,28.24311,-81.30279,26850.82,5536.15,ST CLOUD REGIONAL MEDICAL CENTER
4.67,2.13,30.25377,-81.58270,21874.64,5373.01,ST VINCENT'S MEDICAL CENTER SOUTHSIDE
9.68,2.27,25.62869,-80.45576,54256.00,6332.26,WEST KENDALL BAPTIST HOSPITAL
4.11,2.25,34.78963,-84.98398,18196.19,6164.49,HAMILTON MEDICAL CENTER
3.29,2.26,32.88710,-84.33393,12899.67,6267.36,UPSON REGIONAL MEDICAL CENTER
3.92,2.17,31.22516,-82.34898,16978.81,5634.73,SATILLA REGIONAL MEDICAL CENTER
4.58,2.21,34.94766,-85.26296,21238.10,5945.05,HUTCHESON MEDICAL CENTER
5.86,2.16,34.17863,-84.13992,29581.28,5620.19,NORTHSIDE HOSPITAL FORSYTH
4.79,2.38,33.94791,-83.40531,22617.46,6993.66,ST MARY'S HOSPITAL
3.58,2.40,31.59023,-84.15756,14807.52,7163.79,PHOEBE PUTNEY MEMORIAL HOSPITAL
5.29,2.22,34.24569,-84.49068,25891.95,5981.09,NORTHSIDE HOSPITAL CHEROKEE
4.31,2.70,33.79230,-84.32107,19533.13,9115.40,EMORY UNIVERSITY HOSPITAL
3.73,2.22,33.56970,-85.07276,15777.32,5991.70,TANNER MEDICAL CENTER - CARROLLTON
3.66,2.24,33.03204,-85.05781,15320.63,6124.46,WEST GEORGIA MEDICAL CENTER
3.10,2.22,33.60237,-83.84809,11675.76,6000.25,NEWTON MEDICAL CENTER
4.22,2.23,34.51192,-84.92579,18949.57,6042.86,GORDON HOSPITAL
4.58,2.26,32.02825,-81.09977,21270.78,6218.78,CANDLER HOSPITAL
3.95,2.50,31.17425,-81.48459,17190.22,7788.68,SOUTHEAST GEORGIA HEALTH SYSTEM- BRUNSWICK CAMPUS
2.89,2.19,34.11375,-82.87463,10313.55,5789.45,ELBERT MEMORIAL HOSPITAL
2.85,2.22,34.28705,-83.11015,10068.92,5981.19,COBB MEMORIAL HOSPITAL
4.17,2.27,33.47096,-81.98176,18592.84,6283.17,UNIVERSITY HOSPITAL
5.22,2.27,34.30335,-83.81737,25383.89,6291.01,NORTHEAST GEORGIA MEDICAL CENTER, INC
6.28,2.26,34.19990,-84.79378,32260.19,6234.93,CARTERSVILLE MEDICAL CENTER
6.57,2.27,33.23886,-84.26706,34152.79,6326.42,SPALDING REGIONAL MEDICAL CENTER
3.93,2.15,34.59332,-83.34788,17079.15,5565.51,STEPHENS COUNTY HOSPITAL
3.53,2.75,33.47091,-81.98988,14484.14,9413.45,MEDICAL COLLEGE OF GA HOSPITALS AND CLINICS
5.00,2.28,33.96770,-84.55011,24000.62,6357.33,WELLSTAR KENNESTONE HOSPITAL
3.72,2.39,32.03185,-81.09158,15716.48,7113.08,MEMORIAL HEALTH UNIV MED CEN, INC
4.15,2.21,30.82614,-83.97393,18486.92,5953.72,JOHN D ARCHBOLD MEMORIAL HOSPITAL
3.32,2.22,33.46767,-82.01807,13102.17,5963.83,TRINITY HOSPITAL OF AUGUSTA
3.60,2.35,34.21877,-83.46906,14922.26,6859.04,NORTHRIDGE MEDICAL CENTER
3.41,2.22,34.56510,-83.54517,13714.17,5961.00,HABERSHAM COUNTY MEDICAL CTR
3.97,2.26,33.91929,-84.85224,17336.88,6245.41,WELLSTAR PAULDING HOSPITAL
4.62,2.13,31.98515,-81.15475,21543.32,5422.88,ST JOSEPH'S HOSPITAL - SAVANNAH
3.37,2.20,32.06513,-84.25260,13445.79,5829.89,PHOEBE SUMTER MEDICAL CENTER
4.42,2.32,34.00816,-83.70796,20228.00,6633.44,BARROW REGIONAL MEDICAL CENTER
4.38,2.26,33.78334,-83.71709,19960.88,6238.81,WALTON REGIONAL MEDICAL CENTER
2.91,2.15,34.88620,-83.96241,10457.46,5551.00,UNION GENERAL HOSPITAL
4.72,2.40,34.26000,-85.17000,22195.05,7143.58,FLOYD MEDICAL CENTER
2.93,2.04,34.34695,-82.93906,10580.86,4830.29,HART COUNTY HOSPITAL
4.16,2.48,32.46602,-84.98695,18552.91,7695.70,MEDICAL CENTER, THE
3.58,2.23,32.61642,-83.63065,14782.25,6061.86,HOUSTON MEDICAL CENTER
2.53,2.10,31.71491,-83.25265,7963.12,5231.75,DORMINY MEDICAL CENTER
4.37,2.26,33.96117,-83.39832,19878.32,6247.05,ATHENS REGIONAL MEDICAL CENTER
4.87,2.31,32.41483,-81.76990,23132.57,6582.91,EAST GEORGIA REGIONAL MEDICAL CENTER
3.69,2.34,33.78956,-84.28077,15502.50,6776.88,DEKALB MEDICAL CENTER
4.11,2.42,33.76810,-84.38616,18210.68,7273.23,EMORY UNIVERSITY HOSPITAL MIDTOWN
4.89,2.76,33.75205,-84.38272,23268.38,9470.97,GRADY MEMORIAL HOSPITAL
4.61,2.16,33.90877,-84.35180,21480.85,5609.59,SAINT JOSEPH'S HOSPITAL OF ATLANTA, INC
4.36,2.24,33.81003,-84.39568,19852.51,6108.46,PIEDMONT HOSPITAL
3.07,2.27,32.99563,-82.80431,11521.86,6291.09,WASHINGTON COUNTY REGIONAL MEDICAL CENTER
3.71,2.28,33.96351,-84.01769,15616.76,6384.59,GWINNETT MEDICAL CENTER
3.90,2.14,31.50971,-82.86341,16882.94,5483.76,COFFEE REGIONAL MEDICAL CENTER
4.17,2.33,33.68072,-84.00200,18578.80,6718.18,ROCKDALE MEDICAL CENTER
3.25,2.33,32.18558,-83.17874,12670.67,6667.88,DODGE COUNTY HOSPITAL
4.48,2.24,31.47069,-83.50473,20588.16,6135.81,TIFT REGIONAL MEDICAL CENTER
2.39,2.31,33.00914,-82.40454,7074.29,6591.24,JEFFERSON HOSPITAL
2.77,2.09,31.14480,-83.42509,9568.25,5173.10,MEMORIAL HOSPITAL OF ADEL INC
3.19,2.13,31.97683,-83.78280,12254.22,5380.11,CRISP REGIONAL HOSPITAL
3.55,2.26,31.17991,-83.78906,14622.83,6276.39,COLQUITT REGIONAL MEDICAL CENTER
4.16,2.40,32.83041,-83.63476,18548.74,7156.23,MEDICAL CENTER OF CENTRAL GEORGIA
3.08,2.23,32.59212,-82.34541,11573.26,6054.43,EMANUEL MEDICAL CENTER
3.64,2.13,31.20306,-83.23872,15200.53,5396.93,BERRIEN COUNTY HOSPITAL
7.53,2.55,33.76372,-84.37315,40368.56,8124.58,ATLANTA MEDICAL CENTER
3.38,2.31,30.86359,-84.20030,13504.60,6573.53,GRADY GENERAL HOSPITAL
3.64,2.25,30.86250,-83.28630,15157.03,6212.64,SOUTH GEORGIA MEDICAL CENTER
3.47,2.33,31.60200,-81.89172,14081.76,6730.02,WAYNE MEMORIAL HOSPITAL
4.74,2.37,32.54026,-82.95741,22286.11,6961.03,FAIRVIEW PARK HOSPITAL
3.87,2.14,32.20903,-82.37585,16648.61,5451.64,MEADOWS REGIONAL MEDICAL CENTER
3.95,2.15,32.50679,-84.95933,17160.92,5551.77,ST FRANCIS HOSPITAL, INC
3.77,2.22,30.90295,-84.55203,16034.83,6011.00,MEMORIAL HOSPITAL AND MANOR
2.78,2.22,32.28377,-83.47212,9583.52,6002.16,TAYLOR REGIONAL HOSPITAL
3.35,2.21,32.16413,-81.90041,13293.38,5922.67,EVANS MEMORIAL HOSPITAL
4.88,2.33,33.85638,-84.60446,23235.77,6688.24,WELLSTAR COBB HOSPITAL
3.98,2.23,33.08014,-83.23210,17349.96,6058.54,OCONEE REGIONAL MEDICAL CENTER
3.42,2.25,32.45961,-83.70967,13776.11,6187.48,PERRY HOSPITAL
6.55,2.34,33.90903,-84.35410,34047.79,6740.62,NORTHSIDE HOSPITAL
4.20,2.18,31.53017,-84.17516,18813.00,5755.95,PHOEBE NORTH
5.13,2.25,32.84705,-83.61823,24813.90,6151.72,COLISEUM MEDICAL CENTER
4.43,2.36,33.57843,-84.38897,20315.97,6904.11,SOUTHERN REGIONAL MEDICAL CENTER
4.56,2.18,34.25704,-85.16467,21143.90,5703.12,REDMOND REGIONAL MEDICAL CENTER
6.91,2.32,33.48259,-82.09038,36345.34,6662.05,DOCTORS HOSPITAL
3.64,2.16,33.85770,-84.51542,15167.12,5607.24,EMORY-ADVENTIST HOSPITAL
4.41,2.18,33.73938,-84.73111,20153.67,5745.83,WELLSTAR DOUGLAS HOSPITAL
5.10,2.28,32.48040,-84.98468,24601.26,6348.65,DOCTORS HOSPITAL
3.28,2.38,34.52316,-83.97542,12881.58,7032.92,CHESTATEE REGIONAL HOSPITAL
5.24,2.25,34.91692,-84.37534,25553.88,6182.96,FANNIN REGIONAL HOSPITAL
3.67,2.25,33.51144,-84.22200,15394.15,6200.52,HENRY MEDICAL CENTER, INC
4.97,2.23,33.87683,-84.02136,23787.02,6030.19,EMORY EASTSIDE MEDICAL CENTER
10.26,2.25,34.06334,-84.31976,58013.82,6189.00,NORTH FULTON REGIONAL HOSPITAL
4.30,2.16,32.86625,-83.69421,19483.00,5630.09,COLISEUM NORTHSIDE HOSPITAL
3.52,2.20,33.80478,-84.33118,14381.27,5833.36,WESLEY WOODS GERIATRIC HOSPITAL
3.42,2.29,34.67985,-84.49269,13724.39,6434.39,NORTH GEORGIA MEDICAL CENTER
4.88,2.21,30.89823,-83.33519,23186.31,5899.54,SMITH NORTHVIEW HOSPITAL
3.74,2.16,33.45252,-84.50697,15795.33,5603.50,PIEDMONT FAYETTE HOSPITAL
8.33,2.45,33.68000,-84.42685,45508.65,7445.35,SOUTH FULTON MEDICAL CENTER
3.84,2.28,34.42855,-84.48026,16453.18,6371.05,PIEDMONT MOUNTAINSIDE HOSPITAL INC
3.70,2.23,33.70365,-84.14697,15543.41,6063.24,DEKALB MEDICAL CENTER AT HILLANDALE
4.10,2.23,33.39118,-84.81563,18163.52,6072.52,PIEDMONT NEWNAN HOSPITAL, INC
3.17,2.12,34.06670,-84.17643,12147.95,5347.68,EMORY JOHNS CREEK HOSPITAL
4.93,2.72,21.30780,-157.85505,23562.13,9231.88,THE QUEENS MEDICAL CENTER
5.99,3.39,20.88519,-156.48928,30419.03,13575.24,MAUI MEMORIAL MEDICAL CENTER
3.50,2.64,21.49879,-158.02633,14271.56,8720.44,WAHIAWA GENERAL HOSPITAL
3.91,2.89,19.71761,-155.11327,16955.90,10304.29,HILO MEDICAL CENTER
4.33,2.56,21.38095,-157.75759,19658.75,8195.43,CASTLE MEDICAL CENTER
4.72,2.52,21.32239,-157.85662,22139.59,7935.06,KUAKINI MEDICAL CENTER
4.97,2.58,21.32872,-157.85179,23763.50,8314.42,HAWAII MEDICAL CENTER EAST
5.81,2.96,21.98514,-159.36388,29194.00,10788.00,WILCOX MEMORIAL HOSPITAL
4.35,2.46,46.41668,-117.02441,19787.03,7520.15,ST JOSEPH REGIONAL MEDICAL CENTER
4.87,3.43,19.51963,-155.91744,23146.67,13810.43,KONA COMMUNITY HOSPITAL
5.14,2.47,21.30226,-157.85092,24918.30,7628.00,STRAUB CLINIC AND HOSPITAL
6.21,2.57,21.38328,-157.93828,31818.58,8272.29,PALI MOMI MEDICAL CENTER
5.29,2.57,21.37080,-158.02746,25872.57,8264.19,HAWAII MEDICAL CENTER WEST
3.39,2.85,20.02208,-155.66467,13537.08,10053.46,NORTH HAWAII COMMUNITY HOSPITAL
3.45,2.21,42.59072,-114.49627,13980.09,5928.52,ST LUKES MAGIC VALLEY RMC
4.21,2.27,43.61218,-116.19234,18841.43,6320.63,ST LUKES REGIONAL MEDICAL CENTER
3.26,2.21,43.61359,-116.25484,12721.68,5941.78,ST ALPHONSUS REGIONAL MEDICAL CENTER
3.41,2.23,43.55374,-116.57267,13694.04,6041.46,SAINT ALPHONSUS MEDICAL CENTER - NAMPA
4.08,2.27,43.65510,-116.69360,18025.04,6314.28,WEST VALLEY MEDICAL CENTER
5.04,2.27,43.46987,-111.99208,24257.57,6290.87,EASTERN IDAHO REGIONAL MEDICAL CENTER
2.76,2.23,43.82551,-111.77071,9486.92,6049.46,MADISON MEMORIAL HOSPITAL
3.94,2.54,42.87331,-112.42180,17130.59,8073.26,PORTNEUF MEDICAL CENTER
3.78,2.29,47.69645,-116.79476,16100.91,6446.25,KOOTENAI MEDICAL CENTER
3.50,2.38,40.55329,-90.03912,14244.64,7031.08,GRAHAM HOSPITAL ASSOCIATION
4.53,2.18,38.90068,-90.16026,20910.62,5701.31,ALTON MEMORIAL HOSPITAL
5.87,2.25,41.52896,-88.13550,29599.69,6194.43,PROVENA ST JOSEPH MEDICAL CENTER
9.37,2.36,41.91082,-87.84451,52297.38,6864.52,LOYOLA GOTTLIEB MEMORIAL HOSPITAL
5.11,2.39,42.06550,-87.68428,24684.91,7090.39,EVANSTON HOSPITAL
4.10,2.20,37.80207,-89.02660,18159.42,5876.02,HERRIN HOSPITAL
5.21,2.30,41.84429,-89.48014,25318.60,6530.10,KATHERINE SHAW BETHEA HOSPITAL
3.70,2.13,40.75318,-89.59321,15538.46,5424.78,PROCTOR HOSPITAL
4.34,2.30,39.93563,-91.39833,19706.52,6515.42,BLESSING HOSPITAL
4.95,2.95,41.86011,-87.69571,23641.15,10719.63,MT SINAI HOSPITAL MEDICAL CENTER
2.94,2.33,39.40572,-88.80723,10625.67,6699.14,SHELBY MEMORIAL HOSPITAL
4.08,2.29,41.11319,-88.83500,18055.63,6447.74,ST MARYS HOSPITAL
7.60,2.37,41.72930,-88.26976,40819.80,6935.85,COPLEY MEMORIAL HOSPITAL
5.43,2.47,42.07012,-88.33180,26759.13,7630.03,SHERMAN HOSPITAL
3.36,2.20,39.12680,-88.55059,13348.68,5882.85,ST ANTHONYS MEMORIAL HOSPITAL
3.49,2.23,38.52908,-89.11604,14223.99,6045.20,ST MARYS HOSPITAL
6.40,2.22,40.95560,-90.36618,33015.12,5969.11,GALESBURG COTTAGE HOSPITAL
4.79,2.24,41.80160,-89.69714,22617.57,6145.39,CGH MEDICAL CENTER
3.39,2.19,38.32292,-88.91026,13584.12,5799.28,GOOD SAMARITAN REGIONAL HLTH CENTER
4.59,2.50,41.72636,-87.56727,21354.04,7794.16,ADVOCATE TRINITY HOSPITAL
4.92,2.61,41.89141,-87.77618,23479.37,8510.44,WEST SUBURBAN MEDICAL CENTER
5.29,2.43,42.05624,-87.74012,25861.02,7329.62,SKOKIE HOSPITAL
4.62,2.10,38.90787,-90.17207,21499.44,5186.39,SAINT ANTHONY'S HEALTH CENTER
4.34,2.33,39.80726,-89.64496,19705.69,6710.83,ST JOHNS HOSPITAL
4.74,2.48,41.83195,-87.79266,22273.96,7674.09,MACNEAL  HOSPITAL
3.92,2.30,39.74629,-90.25907,16970.44,6519.76,PASSAVANT AREA HOSPITAL
2.70,2.20,39.11040,-90.34312,9068.21,5850.16,JERSEY COMMUNITY HOSPITAL
5.57,2.20,41.66900,-87.81414,27650.84,5869.43,PALOS COMMUNITY HOSPITAL
4.90,2.32,41.87870,-87.80322,23323.38,6645.98,RUSH OAK PARK HOSPITAL
4.92,2.47,40.98818,-90.36374,23467.94,7595.20,ST MARY MEDICAL CENTER
5.06,2.27,41.79660,-87.88627,24352.77,6304.05,ADVENTIST LA GRANGE MEMORIAL HOSPITAL
5.70,2.33,40.70200,-89.59222,28502.32,6695.41,SAINT FRANCIS MEDICAL CENTER
6.08,2.62,41.69322,-87.62436,30991.73,8564.25,ROSELAND COMMUNITY HOSPITAL
3.69,2.50,38.57057,-90.10769,15489.22,7822.26,TOUCHETTE REGIONAL HOSPITAL INC
5.75,2.66,42.02578,-87.68371,28815.96,8867.32,RHC ST FRANCIS HOSPITAL
5.33,2.63,41.96698,-87.64941,26126.00,8617.54,LOUIS A WEISS MEMORIAL HOSPITAL
2.54,2.55,41.87259,-87.76181,8040.76,8145.52,LORETTO HOSPITAL
5.96,2.39,42.37840,-87.83329,30179.19,7061.25,VISTA MEDICAL CENTER EAST
8.03,3.08,41.78829,-87.60485,43609.03,11544.22,THE UNIVERSITY OF CHICAGO MEDICAL CENTER
3.31,2.32,40.44791,-90.66578,13022.09,6616.59,MC DONOUGH DISTRICT HOSPITAL
4.85,2.37,40.11696,-88.21506,22995.52,6943.30,CARLE FOUNDATION HOSPITAL
5.49,2.25,40.13811,-87.64569,27132.29,6153.60,PROVENA UNITED SAMARITANS MEDCTR-LOGAN
5.73,2.63,41.85543,-87.69810,28712.91,8652.66,SAINT ANTHONY HOSPITAL
5.12,2.20,41.36897,-88.42537,24730.39,5843.43,MORRIS HOSPITAL & HEALTHCARE CENTERS
4.36,2.71,41.77813,-87.63330,19808.29,9156.57,ST BERNARD HOSPITAL
3.82,2.27,41.35763,-88.82439,16337.55,6325.77,OTTAWA REGIONAL HOSPITAL & HEALTHCARE CENTER
4.49,2.25,40.11739,-88.22714,20677.33,6204.87,PROVENA COVENANT MEDICAL CENTER- URBANA
6.56,2.52,41.97532,-87.69958,34054.34,7960.62,SWEDISH COVENANT HOSPITAL
4.07,2.56,41.95453,-87.65225,17983.90,8166.05,THOREK MEMORIAL HOSPITAL
4.29,2.20,42.31832,-88.27920,19414.73,5862.04,CENTEGRA HEALTH SYSTEM - MC HENRY HOSPITAL
6.20,2.40,41.98743,-87.81440,31732.29,7184.26,RESURRECTION MEDICAL CENTER
4.09,2.35,41.65880,-87.67729,18124.47,6810.99,METROSOUTH MEDICAL CENTER
5.31,2.89,41.87497,-87.66927,25967.13,10293.45,RUSH UNIVERSITY MEDICAL CENTER
6.74,2.25,40.56211,-89.63314,35243.49,6169.51,PEKIN MEMORIAL HOSPITAL
5.50,2.27,41.80555,-87.92059,27249.27,6321.55,HINSDALE HOSPITAL
3.69,3.14,41.87381,-87.67421,15526.35,11948.91,JOHN H STROGER JR HOSPITAL
10.49,2.38,38.70148,-90.14382,59537.12,7000.73,GATEWAY REGIONAL MEDICAL CENTER
3.57,2.29,40.49639,-88.99106,14744.44,6424.52,BROMENN HEALTHCARE
5.66,2.21,42.25244,-87.86528,28232.76,5917.78,LAKE FOREST HOSPITAL
4.89,2.42,41.76946,-87.69239,23263.83,7278.08,HOLY CROSS HOSPITAL
3.68,2.22,39.86644,-88.96090,15431.73,6001.68,DECATUR MEMORIAL HOSPITAL
2.85,2.29,38.90365,-89.40770,10083.06,6459.28,GREENVILLE REGIONAL HOSPITAL
3.78,2.18,41.32884,-89.19262,16071.64,5737.00,ST MARGARETS HOSPITAL
3.40,2.21,38.62608,-89.52336,13645.94,5907.22,ST JOSEPHS HOSPITAL
4.16,2.20,38.73505,-88.07708,18543.98,5883.94,RICHLAND MEMORIAL HOSPITAL
3.84,2.29,39.80893,-89.65530,16450.08,6447.49,MEMORIAL MEDICAL CENTER
5.31,3.34,41.86927,-87.67052,26018.52,13225.87,UNIVERSITY OF ILLINOIS HOSPITAL
4.93,2.72,41.89006,-87.70757,23506.10,9204.90,SACRED HEART HOSPITAL
6.67,2.39,41.12049,-87.87187,34806.88,7083.92,PROVENA ST MARYS HOSPITAL
3.84,2.72,41.84639,-87.62345,16446.49,9204.90,MERCY HOSPITAL AND MEDICAL CENTER
3.60,2.24,42.29592,-89.63773,14894.06,6092.31,FHN MEMORIAL HOSPITAL
4.60,2.52,40.87085,-88.67943,21369.53,7908.24,SAINT JAMES HOSPITAL
4.24,2.17,40.48254,-88.95519,19085.84,5653.55,ST JOSEPH MEDICAL CENTER
3.60,2.23,37.72790,-89.22058,14899.83,6081.52,MEMORIAL HOSPITAL OF CARBONDALE
4.52,2.31,39.82659,-88.93119,20901.61,6601.97,ST MARYS HOSPITAL
2.82,2.28,40.76601,-87.73169,9855.64,6370.82,IROQUOIS MEMORIAL HOSPITAL
4.85,2.48,41.52283,-87.71111,23043.76,7678.53,FRANCISCAN ST JAMES HEALTH
5.79,2.32,41.78566,-88.32886,29093.93,6666.80,PROVENA MERCY MEDICAL CENTER
4.56,2.32,42.27597,-88.40019,21124.19,6621.10,CENTEGRA HEALTH SYSTEM - WOODSTOCK HOSPITAL
7.40,2.68,41.75746,-87.58559,39512.14,8946.49,JACKSON PARK HOSPITAL
5.11,2.33,41.72094,-87.69220,24716.82,6687.65,LITTLE COMPANY OF MARY HOSPITAL
7.23,2.76,41.90414,-87.68254,38414.62,9456.47,ST MARY & ELIZABETH MED CTR-DIVISION CAMPUS
5.34,2.52,41.74948,-87.56909,26194.51,7902.11,SOUTH SHORE HOSPITAL
6.21,2.81,41.93641,-87.65295,31832.07,9827.45,ADVOCATE ILLINOIS MASONIC MEDICAL CENTER
6.05,2.19,37.74480,-88.99329,30755.55,5769.30,HEARTLAND REGIONAL MEDICAL CENTER
4.66,2.22,38.55020,-90.02146,21776.75,5986.47,MEMORIAL HOSPITAL
4.07,2.35,41.12572,-87.88526,17987.86,6837.33,RIVERSIDE MEDICAL CENTER
4.47,2.19,38.51081,-89.99014,20545.68,5814.25,ST ELIZABETH HOSPITAL
3.58,2.20,39.48849,-88.27581,14812.71,5871.50,SARAH BUSH LINCOLN HEALTH CENTER
4.82,2.33,41.60726,-87.66060,22835.17,6726.29,INGALLS MEMORIAL HOSPITAL
4.01,2.57,41.97310,-87.67090,17581.00,8279.00,METHODIST HOSPITAL OF CHICAGO
5.73,2.26,41.86362,-87.93567,28697.58,6258.38,ELMHURST MEMORIAL HOSPITAL
6.64,2.34,42.27447,-87.95764,34591.85,6737.73,ADVOCATE CONDELL MEDICAL CENTER
4.97,2.76,41.90078,-87.69925,23791.86,9500.72,NORWEGIAN-AMERICAN HOSPITAL
5.27,2.58,41.72031,-87.73249,25699.62,8286.74,ADVOCATE CHRIST HOSPITAL & MEDICAL CENTER
4.65,2.32,40.70065,-89.59505,21747.94,6658.40,METHODIST MEDICAL CENTER OF ILLINOIS
3.19,2.22,37.73083,-88.52299,12244.06,5975.48,HARRISBURG MEDICAL CENTER
6.13,2.21,41.88566,-88.34311,31273.44,5892.59,DELNOR COMMUNITY HOSPITAL
4.26,2.25,41.54446,-87.98379,19179.05,6188.83,SILVER CROSS HOSPITAL  AND MEDICAL CENTERS
6.65,2.35,42.03576,-88.32575,34644.38,6810.78,PROVENA - SAINT JOSEPH HOSPITAL
5.23,2.63,42.03837,-87.84820,25458.19,8647.90,ADVOCATE LUTHERAN GENERAL HOSPITAL
5.54,2.62,41.93418,-87.63579,27480.53,8580.26,SAINT JOSEPH HOSPITAL
5.25,2.35,42.26584,-89.07428,25604.63,6798.23,SWEDISH AMERICAN HOSPITAL
5.29,2.26,41.76076,-88.15016,25881.53,6253.08,EDWARD HOSPITAL
4.76,2.17,42.26634,-89.00900,22442.31,5641.34,SAINT ANTHONY MEDICAL CENTER
4.77,2.33,41.32878,-89.12520,22520.27,6702.95,ILLINOIS VALLEY COMMUNITY HOSPITAL
4.46,2.40,42.29844,-89.09897,20518.06,7153.93,ROCKFORD MEMORIAL HOSPITAL
5.82,2.59,41.89166,-87.84838,29277.16,8364.44,WESTLAKE COMMUNITY HOSPITAL
6.31,2.18,41.87269,-88.15684,32479.22,5751.35,CENTRAL DUPAGE HOSPITAL
4.32,2.30,41.56720,-87.69566,19590.71,6515.44,ADVOCATE SOUTH SUBURBAN HOSPITAL
5.47,2.31,41.94560,-87.76897,26999.58,6556.35,OUR LADY OF THE RESURRECTION MED CTR
4.67,2.19,42.06732,-87.99368,21845.78,5794.80,NORTHWEST COMMUNITY HOSPITAL
5.80,2.21,42.00413,-88.01745,29192.46,5905.54,ALEXIAN BROTHERS MEDICAL CENTER
3.49,2.19,41.49581,-90.41871,14178.87,5803.21,GENESIS MEDICAL CENTER ILLINI CAMPUS
4.64,2.73,41.86110,-87.83404,21659.20,9275.11,LOYOLA UNIVERSITY MEDICAL CENTER
3.41,2.20,41.48200,-90.57158,13712.89,5849.97,TRINITY ROCK ISLAND
6.79,3.08,41.89477,-87.62131,35569.92,11576.43,NORTHWESTERN MEMORIAL HOSPITAL
5.04,2.20,41.96185,-88.72130,24270.19,5865.79,KISHWAUKEE COMMUNITY HOSPITAL
5.05,2.22,41.81791,-88.00907,24303.66,5973.45,ADVOCATE GOOD SAMARITAN HOSPITAL
3.91,2.17,38.73818,-89.94728,16946.47,5660.65,ANDERSON HOSPITAL
5.68,2.27,42.05260,-88.14173,28374.84,6291.29,ST ALEXIUS MEDICAL CENTER
4.50,2.25,42.19586,-88.17286,20746.09,6195.57,ADVOCATE GOOD SHEPHERD HOSPITAL
6.26,2.46,41.91465,-88.05724,32140.58,7526.63,ADVENTIST GLENOAKS
4.33,2.32,38.31198,-88.93514,19653.33,6653.94,CROSSROADS COMMUNITY HOSPITAL
2.51,2.64,41.80249,-87.61357,7856.96,8732.44,PROVIDENT HOSPITAL OF CHICAGO
5.84,2.32,41.68062,-88.08319,29435.74,6662.02,ADVENTIST BOLINGBROOK HOSPITAL
3.72,2.17,39.48010,-86.07773,15716.33,5640.80,JOHNSON MEMORIAL HOSPITAL
3.62,2.37,41.59920,-87.35764,15022.03,6987.86,METHODIST HOSPITALS INC
4.15,2.19,40.42687,-86.88197,18510.49,5764.58,FRANCISCAN ST ELIZABETH HEALTH - LAFAYETTE CENTRAL
4.12,2.36,41.61514,-87.52413,18309.75,6920.67,FRANCISCAN ST MARGARET HEALTH - HAMMOND
4.32,2.19,39.76255,-86.50165,19567.63,5764.46,HENDRICKS REGIONAL HEALTH
4.82,2.14,41.61055,-86.72511,22828.48,5481.85,INDIANA UNIVERSITY HEALTH LA PORTE HOSPITAL
3.21,2.10,40.44665,-86.12707,12411.36,5230.92,HOWARD REGIONAL HEALTH SYSTEM
3.86,2.38,41.63466,-87.44901,16632.28,7054.77,ST CATHERINE HOSPITAL INC
3.53,2.23,38.28244,-85.74923,14487.33,6041.15,CLARK MEMORIAL HOSPITAL
4.78,2.22,40.48720,-86.15548,22581.46,5970.82,ST JOSEPH HOSPITAL & HEALTH CENTER INC
3.41,2.23,40.56435,-85.66576,13703.72,6067.80,MARION GENERAL HOSPITAL
4.38,2.34,41.70877,-86.17026,19949.73,6778.68,SAINT JOSEPH REGIONAL MEDICAL CENTER
4.15,2.27,41.70639,-86.89936,18477.61,6326.63,FRANCISCAN ST ANTHONY HEALTH - MICHIGAN CITY
5.54,2.25,41.03874,-85.24876,27471.42,6183.83,LUTHERAN HOSPITAL OF INDIANA
3.98,2.21,41.70568,-85.93404,17354.90,5913.14,ELKHART GENERAL HOSPITAL
4.16,2.25,41.04659,-85.10906,18522.02,6170.34,PARKVIEW REGIONAL MEDICAL CENTER
3.99,2.14,40.06464,-86.90821,17451.53,5469.50,FRANCISCAN ST ELIZABETH HEALTH - CRAWFORDSVILLE
3.99,2.26,39.48518,-87.40893,17476.49,6224.05,UNION HOSPITAL INC
3.10,2.73,39.78091,-86.17629,11683.59,9265.14,WILLIAM N WISHARD MEMORIAL HOSPITAL
3.96,2.16,41.56352,-85.83039,17238.04,5567.39,IU HEALTH GOSHEN HOSPITAL
4.28,2.35,39.94340,-85.36306,19337.09,6848.74,HENRY COUNTY MEMORIAL HOSPITAL
4.25,2.18,39.72432,-86.10055,19121.21,5746.83,FRANCISCAN ST FRANCIS HEALTH - BEECH GROVE
4.11,2.24,41.51266,-87.26125,18201.77,6088.80,ST MARY MEDICAL CENTER INC
4.77,2.25,41.46729,-87.05130,22463.40,6159.67,PORTER VALPARAISO HOSPITAL
3.78,2.21,39.79490,-85.76770,16076.62,5942.94,HANCOCK REGIONAL HOSPITAL
4.44,2.17,39.42628,-86.40515,20366.06,5650.64,INDIANA UNIVERSITY HEALTH MORGAN HOSPITAL INC
3.39,2.11,38.67313,-87.53370,13563.75,5294.45,GOOD SAMARITAN HOSPITAL
4.04,2.16,38.30195,-85.83409,17750.49,5631.14,FLOYD MEMORIAL HOSPITAL AND HEALTH SERVICES
3.68,2.27,41.36880,-85.03512,15407.56,6286.69,DEKALB HEALTH
4.96,2.19,39.41951,-87.40898,23703.18,5810.35,TERRE HAUTE REGIONAL HOSPITAL
4.88,2.33,41.07820,-85.14936,23214.96,6688.04,ST JOSEPH HOSPITAL
3.11,2.32,39.86405,-84.88413,11756.87,6651.71,REID HOSPITAL & HEALTH CARE SERVICES
3.58,2.23,39.16006,-86.54038,14784.45,6046.64,INDIANA UNIVERSITY HEALTH BLOOMINGTON HOSPITAL
5.14,2.68,39.79009,-86.16260,24868.66,8962.54,INDIANA UNIVERSITY HEALTH
4.92,2.32,41.68479,-86.25217,23491.22,6620.12,MEMORIAL HOSPITAL OF SOUTH BEND
4.24,2.18,40.04526,-86.02297,19050.45,5720.08,RIVERVIEW HOSPITAL
2.81,2.21,38.65870,-87.16032,9817.15,5932.05,DAVIESS COMMUNITY HOSPITAL
3.96,2.29,39.65626,-85.13265,17242.41,6416.73,FAYETTE REGIONAL HEALTH SYSTEM
3.28,2.26,38.95542,-85.89223,12876.33,6215.44,SCHNECK MEDICAL CENTER
3.11,2.17,38.73589,-85.37996,11726.94,5650.69,KING'S DAUGHTERS' HOSPITAL AND HEALTH SERVICES,THE
3.60,2.50,40.76324,-86.36162,14888.74,7814.61,MEMORIAL HOSPITAL
4.09,2.36,39.78704,-86.07673,18085.02,6886.32,COMMUNITY HOSPITAL EAST
3.94,2.17,40.73751,-85.17118,17135.38,5667.42,BLUFFTON REGIONAL MEDICAL CENTER
3.67,2.27,41.33298,-86.33336,15391.00,6339.00,SAINT JOSEPH'S REGIONAL MEDICAL CENTER - PLYMOUTH
4.42,2.18,37.98293,-87.57072,20242.72,5703.54,DEACONESS HOSPITAL INC
5.19,2.37,39.91001,-86.19660,25190.34,6969.95,ST VINCENT HOSPITAL & HEALTH SERVICES
4.36,2.25,39.11138,-84.88343,19823.33,6202.90,DEARBORN COUNTY HOSPITAL
4.13,2.24,40.09594,-85.68152,18360.53,6125.22,SAINT JOHN'S HEALTH SYSTEM
4.76,2.41,40.19679,-85.41573,22405.59,7217.01,INDIANA UNIVERSITY HEALTH BALL MEMORIAL HOSPITAL
4.13,2.25,41.49222,-87.52429,18325.07,6174.18,FRANCISCAN ST MARGARET HEALTH - DYER
3.78,2.37,40.90491,-85.48821,16060.74,6972.96,PARKVIEW HUNTINGTON HOSPITAL
4.60,2.20,39.52494,-85.78113,21394.78,5879.29,MAJOR HOSPITAL
4.25,2.17,37.96320,-87.50292,19117.62,5679.20,ST MARY'S MEDICAL CENTER OF EVANSVILLE INC
3.39,2.33,41.15823,-85.46490,13534.71,6688.86,PARKVIEW WHITLEY HOSPITAL
4.00,2.33,40.07620,-86.47506,17519.05,6720.69,WITHAM HEALTH SERVICES
4.74,2.28,40.39424,-86.83516,22330.96,6371.70,FRANCISCAN ST ELIZABETH HEALTH - LAFAYETTE EAST
3.96,2.26,39.21585,-85.89683,17249.45,6226.70,COLUMBUS REGIONAL HOSPITAL
3.41,2.19,40.12998,-85.69436,13663.55,5818.12,COMMUNITY HOSPITAL OF ANDERSON AND MADISON COUNTY
2.60,2.11,38.39499,-86.94089,8429.00,5280.29,MEMORIAL HOSPITAL AND HEALTH CARE CENTER
4.09,2.25,41.55065,-87.50619,18119.34,6156.20,COMMUNITY HOSPITAL
3.86,2.21,41.39576,-87.36689,16622.49,5908.89,FRANCISCAN ST ANTHONY HEALTH - CROWN POINT
3.89,2.15,39.63776,-86.13260,16803.95,5562.40,COMMUNITY HOSPITAL SOUTH
5.46,2.32,39.82100,-86.22251,26983.58,6612.79,WESTVIEW HOSPITAL
4.74,2.22,41.24786,-85.82927,22290.98,5962.29,KOSCIUSKO COMMUNITY HOSPITAL
3.52,2.34,41.44803,-85.29574,14404.74,6790.32,PARKVIEW NOBLE HOSPITAL
4.94,2.16,39.94017,-86.15975,23598.91,5574.97,ST VINCENT HEART CENTER OF INDIANA LLC
4.09,2.14,39.90201,-86.04478,18117.33,5492.83,INDIANA HEART HOSPITAL THE
4.96,2.14,39.98275,-86.14343,23731.13,5490.60,ST VINCENT CARMEL HOSPITAL INC
4.66,2.21,39.78047,-86.34084,21793.64,5892.51,IU HEALTH WEST HOSPITAL
4.27,2.36,39.95930,-86.16016,19239.19,6869.00,INDIANA UNIVERSITY HEALTH NORTH HOSPITAL
4.16,2.26,39.64935,-86.07960,18560.46,6254.03,FRANCISCAN ST FRANCIS HEALTH - INDIANAPOLIS
3.82,2.16,39.12069,-86.57191,16341.53,5577.33,MONROE HOSPITAL
4.08,2.22,41.53822,-87.51231,17996.87,5966.73,FRANCISCAN PHYSICIANS HOSPITAL LLC
4.22,2.27,39.90060,-86.04218,18929.30,6318.49,COMMUNITY HOSPITAL NORTH
4.79,2.14,40.40296,-86.80885,22616.63,5493.65,INDIANA UNIVERSITY HEALTH ARNETT HOSPITAL
3.07,2.08,37.97481,-87.44457,11517.13,5075.00,THE HEART HOSPITAL AT DEACONESS GATEWAY LLC
3.54,2.20,42.04855,-92.90625,14547.50,5890.58,MARSHALLTOWN MEDICAL & SURGICAL CENTER
3.18,2.28,40.40766,-91.38808,12175.96,6407.56,KEOKUK AREA HOSPITAL
3.24,2.53,41.43313,-91.05476,12617.40,8004.80,TRINITY MUSCATINE
3.91,2.23,42.49388,-94.18926,16920.83,6051.93,TRINITY REGIONAL MEDICAL CENTER
4.32,2.31,41.60051,-93.61086,19561.27,6562.73,IOWA LUTHERAN HOSPITAL
4.76,2.30,41.26886,-95.83923,22439.00,6527.10,ALEGENT HEALTH MERCY HOSPITAL
4.10,2.18,41.66411,-91.52841,18151.67,5717.55,MERCY HOSPITAL
4.12,2.23,42.03321,-93.61164,18274.03,6048.09,MARY GREELEY MEDICAL CENTER
3.06,2.29,41.70263,-93.05510,11413.92,6442.38,SKIFF MEDICAL CENTER
3.74,2.19,41.54190,-90.55691,15834.71,5815.02,GENESIS MEDICAL CENTER-DAVENPORT
4.26,2.22,41.98570,-91.66093,19163.63,6004.76,ST LUKES HOSPITAL
4.36,2.20,41.26786,-95.83505,19851.09,5874.93,JENNIE EDMUNDSON HOSPITAL
3.55,2.20,40.81009,-91.17356,14594.10,5853.60,GREAT RIVER MEDICAL CENTER
5.01,2.73,41.66092,-91.54800,24055.45,9277.13,UNIVERSITY OF IOWA HOSPITAL & CLINICS
3.94,2.24,43.15063,-93.21718,17136.66,6091.89,MERCY MEDICAL CENTER-NORTH IOWA
3.50,2.25,42.46407,-92.34532,14246.50,6204.66,COVENANT MEDICAL CENTER
3.48,2.10,42.49227,-90.67404,14132.63,5207.67,MERCY MEDICAL CENTER-DUBUQUE
3.42,2.12,41.97864,-91.65507,13729.50,5351.16,MERCY MEDICAL CENTER - CEDAR RAPIDS
3.70,2.31,41.86141,-90.18921,15561.09,6563.77,MERCY MEDICAL CENTER-CLINTON
4.62,2.34,41.58955,-93.63248,21542.69,6732.41,IOWA METHODIST MEDICAL CENTER
4.34,2.31,41.59886,-93.62344,19732.50,6545.89,MERCY MEDICAL CENTER-DES MOINES
3.34,2.22,41.02751,-92.38994,13227.38,6015.00,OTTUMWA REGIONAL HEALTH CENTER
3.69,2.17,41.56571,-90.51968,15514.96,5687.40,TRINITY BETTENDORF
3.13,2.19,42.52665,-92.33957,11898.76,5789.25,ALLEN MEMORIAL HOSPITAL
2.84,2.19,43.14994,-95.14317,10020.20,5808.75,SPENCER MUNICIPAL HOSPITAL
3.35,2.11,42.49632,-90.68587,13271.02,5305.70,THE FINLEY HOSPITAL
3.02,2.23,40.62419,-91.38232,11162.72,6080.07,FORT MADISON COMMUNITY HOSPITAL
3.63,2.28,42.51846,-96.40581,15128.86,6354.61,ST LUKES REGIONAL MEDICAL CENTER
2.82,2.30,41.74325,-92.73450,9870.85,6515.70,GRINNELL REGIONAL MEDICAL CENTER
3.38,2.16,42.49250,-96.39975,13477.49,5592.83,MERCY MEDICAL CENTER-SIOUX CITY
3.73,2.25,38.41149,-96.19524,15757.14,6157.68,NEWMAN REGIONAL HEALTH
3.97,2.20,37.37991,-94.68739,17305.04,5878.62,VIA CHRISTI HOSPITAL PITTSBURG INC
4.90,2.17,39.28218,-94.90368,23357.83,5669.96,SAINT JOHN HOSPITAL
4.45,2.22,38.83324,-97.61028,20419.17,5982.48,SALINA REGIONAL HEALTH CENTER
4.78,2.40,38.87847,-99.29923,22546.90,7183.78,HAYS MEDICAL CENTER
4.06,2.37,38.59724,-95.26874,17913.50,6979.67,RANSOM MEMORIAL HOSPITAL
3.58,2.16,39.05660,-95.69599,14812.31,5617.70,ST FRANCIS HEALTH CENTER INC
3.90,2.31,37.81826,-96.85834,16851.47,6538.95,SUSAN B ALLEN MEMORIAL HOSPITAL
4.04,2.31,38.07731,-97.89183,17766.82,6585.00,HUTCHINSON REGIONAL MEDICAL CENTER INC
3.68,2.63,37.97004,-100.86878,15445.41,8668.47,ST CATHERINE HOSPITAL
6.14,2.47,39.05583,-94.60912,31348.12,7615.13,UNIVERSITY OF KANSAS HOSPITAL
4.78,2.13,38.85279,-94.82413,22581.56,5435.26,OLATHE MEDICAL CENTER
5.11,2.26,37.80616,-94.71059,24716.77,6237.77,MERCY HEALTH CENTER
3.57,2.26,39.01420,-96.84975,14695.43,6259.14,GEARY COMMUNITY HOSPITAL
5.05,2.25,39.05128,-95.69572,24298.46,6168.97,STORMONT-VAIL HEALTHCARE
2.13,2.59,38.20158,-95.73855,5377.62,8403.62,COFFEY COUNTY HOSPITAL
3.54,2.11,38.02419,-97.33117,14505.82,5247.68,NEWTON MEDICAL CENTER
5.81,2.13,38.99549,-94.69061,29224.95,5422.02,SHAWNEE MISSION MEDICAL CENTER
3.24,2.41,38.37857,-97.67107,12580.28,7247.06,MCPHERSON HOSPITAL INC
3.06,2.18,37.32093,-95.26537,11407.18,5734.11,LABETTE HEALTH
5.34,2.28,37.70405,-97.31386,26207.25,6379.57,VIA CHRISTI HOSPITALS WICHITA INC
7.07,2.32,37.69556,-97.29785,37374.01,6663.44,WESLEY MEDICAL CENTER
4.85,2.23,39.30739,-94.91854,23042.18,6055.18,CUSHING MEMORIAL HOSPITAL
3.08,2.16,38.97848,-95.24771,11551.41,5619.68,LAWRENCE MEMORIAL HOSPITAL
3.39,2.13,39.20164,-96.60003,13587.71,5386.12,MERCY REGIONAL HEALTH CENTER
2.75,2.09,37.04095,-95.63956,9433.30,5140.91,COFFEYVILLE REGIONAL MEDICAL CENTER
5.02,2.29,39.12677,-94.78643,24096.33,6421.48,PROVIDENCE MEDICAL CENTER
2.34,2.38,37.00254,-101.90475,6765.86,7052.00,MORTON COUNTY HOSPITAL
4.28,2.28,37.78537,-100.01492,19298.65,6358.74,WESTERN PLAINS MEDICAL COMPLEX
7.90,2.23,38.93763,-94.72630,42729.86,6060.66,OVERLAND PARK REG MED CTR
6.80,2.13,38.91047,-94.65205,35624.93,5395.33,MENORAH MEDICAL CENTER
5.61,2.14,38.90355,-94.66966,27925.46,5479.12,SAINT LUKE'S SOUTH HOSPITAL
2.63,2.13,37.74995,-97.22652,8647.02,5393.36,KANSAS HEART HOSPITAL
2.98,2.12,37.73142,-97.26078,10898.56,5308.94,GALICHIA HEART HOSPITAL LLC
3.88,2.11,37.72341,-97.14628,16721.55,5245.33,KANSAS MEDICAL CENTER LLC
4.22,2.06,37.66639,-97.49224,18931.93,4929.00,VIA CHRISTI HOSPITAL WICHITA ST TERESA INC
4.32,2.23,39.07816,-84.46695,19585.63,6050.65,ST ELIZABETH FT THOMAS
4.16,2.19,37.11520,-82.81022,18562.46,5775.38,WHITESBURG ARH HOSPITAL
3.31,2.17,37.19610,-87.18933,13021.16,5681.37,MUHLENBERG COMMUNITY HOSPITAL
3.31,2.27,37.72943,-82.76716,13018.98,6334.50,HIGHLANDS REGIONAL MEDICAL CENTER
3.77,2.25,38.47021,-82.63498,16052.20,6168.91,KING'S DAUGHTERS' MEDICAL CENTER
3.67,2.16,38.03140,-84.52194,15405.95,5586.87,SAINT JOSEPH HOSPITAL
4.05,2.29,37.11784,-84.10910,17865.10,6440.71,SAINT JOSEPH HOSPITAL LONDON
2.95,2.15,37.71183,-85.87623,10729.95,5539.31,HARDIN MEMORIAL HOSPITAL
3.91,2.29,36.99641,-86.43006,16949.75,6436.67,THE MEDICAL CENTER AT BOWLING GREEN
4.46,2.20,38.20960,-85.23598,20492.27,5875.91,JEWISH HOSPITAL - SHELBYVILLE
3.14,2.28,37.01079,-85.90342,11928.29,6385.55,T J SAMSON COMMUNITY HOSPITAL
3.06,2.37,38.18397,-83.43268,11417.69,6938.08,ST CLAIRE REGIONAL MEDICAL CENTER
3.08,2.14,38.63961,-83.80820,11570.85,5442.81,MEADOWVIEW REGIONAL MEDICAL CENTER
3.92,2.19,36.60615,-83.74024,17013.86,5763.52,MIDDLESBORO APPALACHIAN REGIONAL HEALTHCARE HOSPIT
2.75,2.15,36.76316,-83.70793,9414.16,5554.64,PINEVILLE COMMUNITY HOSPITAL
3.62,2.29,37.57060,-85.26071,15079.14,6430.09,SPRING VIEW HOSPITAL
3.57,2.15,37.86188,-85.52322,14697.67,5538.14,FLAGET MEMORIAL HOSPITAL (MEMBER OF SAINT JOSEPH H
4.24,2.15,36.60798,-88.30957,19050.71,5516.92,MURRAY-CALLOWAY COUNTY HOSPITAL
4.40,2.28,37.27729,-83.22802,20098.17,6406.08,HAZARD ARH REGIONAL MEDICAL CENTER
4.13,2.25,39.06704,-84.49946,18323.11,6212.21,ST ELIZABETH MEDICAL CENTER NORTH
3.53,2.22,38.50697,-82.69222,14444.83,5998.58,OUR LADY OF BELLEFONTE HOSPITAL
3.28,2.39,37.76518,-87.10197,12868.62,7087.94,OWENSBORO MEDICAL HEALTH SYSTEM
3.95,2.35,38.24927,-85.75081,17197.86,6858.20,JEWISH HOSPITAL & ST MARY'S HEALTHCARE
4.95,2.36,37.16218,-83.76137,23644.06,6914.48,MEMORIAL HOSPITAL
5.54,2.48,37.47264,-82.52605,27491.04,7678.43,PIKEVILLE MEDICAL CENTER
3.95,2.29,39.01660,-84.63078,17215.34,6467.71,ST ELIZABETH FLORENCE
2.85,2.16,38.22249,-84.23816,10091.96,5585.09,BOURBON COMMUNITY HOSPITAL
3.30,2.23,37.64378,-84.77272,12992.85,6069.34,EPHRAIM MCDOWELL REGIONAL MEDICAL CENTER
2.98,2.33,37.73107,-84.29238,10910.76,6682.35,PATTIE A CLAY REGIONAL MEDICAL CENTER
3.24,2.23,36.80963,-83.31313,12622.69,6067.00,HARLAN APPALACHIAN REGIONAL HEALTHCARE HOSPITAL
3.36,2.15,36.86034,-87.49528,13377.48,5532.08,JENNIE STUART MEDICAL CENTER
3.65,2.24,38.42221,-83.73390,15259.46,6139.42,FLEMING COUNTY HOSPITAL
4.48,2.24,37.85504,-87.58345,20596.44,6106.20,METHODIST HOSPITAL
2.81,2.29,38.07683,-83.94761,9833.15,6431.00,SAINT JOSEPH MOUNT STERLING
3.98,2.23,36.81465,-86.88220,17392.54,6045.73,LOGAN MEMORIAL HOSPITAL
5.32,2.91,38.03282,-84.50674,26047.41,10422.24,UNIVERSITY OF KENTUCKY HOSPITAL
3.70,2.22,37.67604,-82.29731,15564.15,6006.23,WILLIAMSON ARH HOSPITAL
3.36,2.26,37.47273,-86.28820,13377.05,6271.48,TWIN LAKES REGIONAL MEDICAL CENTER
7.87,2.18,37.81455,-82.81102,42557.86,5720.48,PAUL B HALL REGIONAL MEDICAL CENTER
2.90,2.26,38.38564,-84.27793,10383.50,6232.50,HARRISON MEMORIAL HOSPITAL
3.70,2.23,36.92128,-84.11838,15564.13,6028.50,BAPTIST REGIONAL MEDICAL CENTER
3.36,2.21,37.36583,-85.33917,13394.61,5953.39,TAYLOR REGIONAL HOSPITAL
4.99,2.35,38.24806,-85.75125,23896.05,6846.39,NORTON HOSPITALS, INC
3.09,2.29,38.00003,-84.19667,11627.52,6416.66,CLARK REGIONAL MEDICAL CENTER
3.42,2.25,37.33959,-87.48988,13723.60,6197.87,REGIONAL MEDICAL CENTER OF HOPKINS COUNTY
2.83,2.19,37.32930,-88.08884,9904.84,5788.74,CRITTENDEN HEALTH SYSTEM
3.50,2.19,38.18660,-84.56120,14294.92,5796.08,GEORGETOWN COMMUNITY HOSPITAL
3.58,2.10,37.06431,-88.67523,14788.01,5190.44,LOURDES HOSPITAL
4.21,2.22,38.01849,-84.51236,18847.62,6007.56,CENTRAL BAPTIST HOSPITAL
2.85,2.13,37.07404,-88.62685,10047.55,5426.38,WESTERN BAPTIST HOSPITAL
2.87,2.38,36.70006,-85.67862,10182.07,7038.81,MONROE COUNTY MEDICAL CENTER
2.55,2.29,36.69659,-85.13726,8145.59,6455.52,CLINTON COUNTY HOSPITAL, INC
2.56,2.34,37.35762,-84.33605,8218.07,6774.79,ROCKCASTLE REG HOSPITAL & RESPIRATORY CARE CTR
3.49,2.19,36.75751,-88.65129,14196.11,5780.83,JACKSON PURCHASE MEDICAL CENTER
4.69,2.15,36.51878,-88.89564,21970.45,5564.18,PARKWAY REGIONAL HOSPITAL
5.11,2.21,36.96603,-86.43639,24703.56,5911.30,GREENVIEW REGIONAL HOSPITAL
4.73,2.21,38.16020,-84.90519,22229.49,5914.06,FRANKFORT REGIONAL MEDICAL CENTER
5.22,2.15,38.11425,-82.60321,25390.56,5511.48,THREE RIVERS MEDICAL CENTER
3.68,2.13,38.23898,-85.63941,15442.88,5394.53,BAPTIST HOSPITAL EAST
4.65,2.29,37.08724,-84.61828,21739.84,6444.63,LAKE CUMBERLAND REGIONAL HOSPITAL
3.30,2.18,38.39635,-85.37324,12950.97,5718.08,BAPTIST HOSPITAL NORTHEAST
4.83,2.11,37.56166,-83.37202,22903.54,5291.97,KENTUCKY RIVER MEDICAL CENTER
5.61,2.68,38.24802,-85.74464,27959.44,8965.36,UNIVERSITY OF LOUISVILLE HOSPITAL
3.46,2.28,37.99944,-84.43941,13985.14,6350.43,SAINT JOSEPH EAST
3.24,2.33,37.09412,-85.29359,12620.73,6712.65,WESTLAKE REGIONAL HOSPITAL
3.37,2.25,30.77914,-89.86795,13419.60,6193.28,WASHINGTON ST TAMMANY  REGIONAL MEDICAL CENTER
3.90,2.26,30.20227,-92.01906,16883.55,6240.35,LAFAYETTE GENERAL MEDICAL CENTER
5.15,2.41,30.00890,-91.79475,24942.27,7205.60,DAUTERIVE HOSPITAL
4.48,2.11,29.77956,-90.80568,20625.48,5269.01,THIBODAUX REGIONAL MEDICAL CENTER
4.94,2.94,29.95958,-90.07701,23598.95,10630.37,CHARITY HOSPITAL & MEDICAL CENTER OF LOUI AT NO
3.21,2.26,31.75235,-93.07788,12410.31,6221.00,NATCHITOCHES REGIONAL MEDICAL CENTER
4.37,2.18,29.59851,-90.71397,19903.93,5739.16,TERREBONNE GENERAL MEDICAL CENTER
3.61,2.56,32.45097,-92.10545,15012.40,8216.40,E A CONWAY MEDICAL CENTER
3.77,2.16,30.22981,-93.36867,16014.95,5597.66,WEST CALCASIEU CAMERON HOSPITAL
4.61,2.37,29.69402,-91.20867,21456.00,6955.31,TECHE REGIONAL MEDICAL CENTER
7.76,2.30,30.46813,-90.45814,41861.39,6516.19,NORTH OAKS MEDICAL CENTER, LLC
4.07,2.34,30.54354,-92.07608,17970.75,6782.38,OPELOUSAS GENERAL HEALTH SYSTEM
4.55,2.23,31.28258,-92.46060,21052.87,6026.21,CHRISTUS ST FRANCES CABRINI HOSPITAL
4.49,2.11,30.65001,-91.13821,20694.94,5270.02,LANE REGIONAL MEDICAL CENTER
4.62,2.11,30.64108,-92.41842,21515.96,5279.04,SAVOY MEDICAL CENTER
5.30,2.29,31.31451,-92.44997,25945.54,6447.82,RAPIDES REGIONAL MEDICAL CENTER
4.91,2.10,30.21521,-93.22682,23374.67,5202.24,CHRISTUS ST PATRICK HOSPITAL
3.87,2.31,29.97352,-92.10790,16700.65,6544.50,ABBEVILLE GENERAL HOSPITAL
4.03,2.40,30.01875,-90.19452,17681.33,7162.93,OCHSNER FOUNDATION HOSPITAL
4.47,2.27,29.89089,-90.09395,20584.55,6288.98,WEST JEFFERSON MEDICAL CENTER
5.62,2.20,30.28456,-89.77038,27972.24,5883.96,SLIDELL MEMORIAL HOSPITAL AND MEDICAL CENTER
5.62,2.32,32.49443,-93.75011,27997.23,6608.19,CHRISTUS SCHUMPERT HEALTH SYSTEM
2.42,2.14,30.22762,-92.36253,7289.77,5499.04,AMERICAN LEGION HOSPITAL
5.40,2.19,30.46834,-90.11383,26541.41,5797.41,ST TAMMANY PARISH HOSPITAL
6.22,2.39,29.92596,-90.09191,31866.13,7081.51,TOURO INFIRMARY
5.41,2.18,30.84189,-93.28906,26615.27,5750.60,BEAUREGARD MEMORIAL HOSPITAL
3.23,2.07,30.23913,-92.66205,12542.71,5033.88,JENNINGS AMERICAN LEGION HOSPITAL
5.27,2.13,29.98815,-91.78471,25731.77,5410.38,IBERIA GENERAL HOSPITAL AND MEDICAL CENTER
4.84,2.42,30.20458,-93.19774,22939.16,7301.30,LAKE CHARLES MEMORIAL HOSPITAL
3.26,2.22,30.40118,-91.11160,12694.24,5957.82,OUR LADY OF THE LAKE REGIONAL MEDICAL CENTER
2.84,2.35,30.45015,-91.15273,10021.85,6818.69,BATON ROUGE GENERAL MEDICAL CENTER
3.65,2.24,29.92432,-90.37174,15268.29,6139.04,ST CHARLES PARISH HOSPITAL
2.70,2.24,32.86785,-91.38322,9114.75,6117.65,WEST CARROLL MEMORIAL HOSPITAL
5.76,2.24,32.51544,-92.63343,28895.81,6139.90,NORTHERN LOUISIANA MEDICAL CENTER
2.77,2.24,33.01101,-93.44337,9553.10,6145.33,SPRINGHILL MEDICAL CENTER
4.53,2.30,31.92544,-92.63959,20937.06,6481.44,WINN PARISH MEDICAL CENTER
3.16,2.65,32.48177,-93.76264,12073.09,8761.01,LSU HEALTH SCIENCES CENTER - SHREVEPORT
4.53,2.21,31.14344,-92.06453,20927.90,5898.31,AVOYELLES HOSPITAL
3.71,2.20,30.15052,-92.03698,15658.21,5830.33,OUR LADY OF LOURDES REGIONAL MEDICAL CENTER, INC
5.17,2.50,30.81615,-92.64383,25101.06,7809.29,OAKDALE COMMUNITY HOSPITAL
4.55,2.23,32.48393,-93.77884,21062.34,6047.69,WILLIS KNIGHTON MEDICAL CENTER
3.50,2.22,32.79391,-93.06245,14243.86,5979.00,HOMER MEMORIAL HOSPITAL
2.96,2.26,32.77541,-91.91736,10755.39,6222.22,MOREHOUSE GENERAL HOSPITAL
3.07,2.27,32.03593,-93.70910,11504.00,6338.76,DESOTO REGIONAL HEALTH SYSTEM
4.38,2.23,32.49997,-92.11359,19969.59,6065.06,ST FRANCIS MEDICAL CENTER
3.36,2.20,29.93718,-90.10329,13342.68,5851.55,OCHSNER BAPTIST MEDICAL CENTER LLC
3.16,2.32,32.15824,-91.70520,12090.17,6611.49,FRANKLIN MEDICAL CENTER
3.98,2.32,32.61700,-93.28566,17411.09,6613.94,MINDEN MEDICAL CENTER
4.22,2.20,30.01438,-90.18155,18923.10,5869.66,EAST JEFFERSON GENERAL HOSPITAL
5.38,2.23,32.51315,-92.15713,26425.90,6051.87,GLENWOOD REGIONAL MEDICAL CENTER
6.07,2.16,31.13861,-93.26892,30916.06,5593.70,BYRD REGIONAL HOSPITAL
3.62,2.28,30.68494,-92.26601,15048.98,6398.86,MERCY REGIONAL MEDICAL CENTER
5.29,2.30,30.07331,-90.51602,25840.43,6480.53,RIVER PARISHES HOSPITAL
5.52,2.64,29.95570,-90.07587,27343.09,8701.66,TULANE MEDICAL CENTER
6.52,2.27,30.47547,-90.10091,33802.49,6309.05,LAKEVIEW REGIONAL MEDICAL CENTER
2.32,2.35,29.57147,-90.68974,6659.58,6800.83,LEONARD J CHABERT MEDICAL CENTER
2.58,2.14,32.10429,-92.07602,8314.32,5443.90,CALDWELL MEMORIAL HOSPITAL
3.58,2.19,30.43973,-91.00727,14822.00,5817.18,OCHSNER MEDICAL CENTER-BATON ROUGE
7.33,2.20,30.28681,-89.74295,39082.73,5829.42,OCHSNER MEDICAL CENTER - NORTHSHORE, LLC
5.22,2.37,30.19775,-92.07724,25404.90,6952.81,THE REGIONAL MEDICAL CENTER OF ACADIANA
2.13,2.29,32.80743,-91.17128,5424.27,6423.64,EAST CARROLL PARISH HOSPITAL
3.05,2.35,31.56038,-93.47134,11341.08,6798.00,SABINE MEDICAL CENTER
4.45,2.12,32.55761,-93.71874,20441.31,5361.16,WILLIS KNIGHTON BOSSIER HEALTH CENTER
3.13,2.31,30.20918,-90.93215,11876.20,6538.20,ST ELIZABETH HOSPITAL
4.55,2.12,30.35437,-89.91917,21093.88,5355.31,LOUISIANA MEDICAL CENTER AND HEART HOSPITAL, LLC
3.94,2.11,30.17316,-92.02697,17133.81,5254.13,HEART HOSPITAL OF LAFAYETTE
5.65,2.42,29.99409,-90.24174,28216.52,7265.69,OCHSNER MEDICAL CENTER-KENNER LLC
3.08,2.18,44.81469,-68.77153,11555.36,5709.40,ST JOSEPH HOSPITAL
3.96,2.74,44.02611,-69.52811,17241.79,9359.03,MILES MEMORIAL HOSPITAL (LINCOLN COUNTY HEALTHCARE
3.75,2.27,43.65159,-70.26482,15860.00,6280.64,MERCY HOSPITAL
3.87,2.47,43.65325,-70.27533,16637.85,7636.50,MAINE MEDICAL CENTER
4.07,2.53,46.67663,-67.99905,17941.41,7971.30,AROOSTOOK MEDICAL CENTER,THE
3.89,2.28,43.47840,-70.49221,16767.18,6354.15,SOUTHERN MAINE MEDICAL CENTER
3.70,2.17,53.96230,-1.08188,15567.12,5640.84,YORK HOSPITAL
3.23,2.21,43.90901,-69.89611,12533.10,5947.52,MID COAST HOSPITAL
3.29,2.28,44.10107,-70.21432,12939.95,6365.07,CENTRAL MAINE MEDICAL CENTER
4.57,2.16,43.91137,-69.81471,21204.58,5603.67,PARKVIEW ADVENTIST MEDICAL CENTER
3.02,2.26,35.79154,-78.78112,11188.88,6244.93,CARY MEDICAL CENTER
3.54,2.35,44.80988,-68.74929,14547.89,6859.09,EASTERN MAINE MEDICAL CENTER
3.63,2.33,44.10276,-70.20093,15140.31,6698.08,ST MARYS REGIONAL MEDICAL CENTER
3.79,2.48,44.62294,-70.16307,16154.46,7642.67,FRANKLIN MEMORIAL HOSPITAL
4.39,2.33,45.25378,-69.44547,20045.20,6672.32,MAINE GENERAL MEDICAL CENTER
3.19,2.19,43.44850,-70.76743,12288.29,5821.03,HENRIETTA D GOODALL HOSPITAL
3.32,2.56,44.54279,-69.66335,13076.29,8209.05,INLAND HOSPITAL
3.81,2.28,44.54695,-68.41654,16301.77,6386.51,MAINE COAST MEMORIAL HOSPITAL
3.66,2.73,47.26827,-68.59140,15291.56,9266.94,NORTHERN MAINE MEDICAL CENTER
3.60,2.39,44.14436,-69.08577,14908.23,7074.20,PENOBSCOT BAY MEDICAL CENTER
2.48,2.41,39.62183,-77.68219,7673.22,7212.78,MERITUS MEDICAL CENTER
3.70,3.56,39.28817,-76.62438,15592.71,14693.83,UNIVERSITY OF MARYLAND MEDICAL CENTER
3.03,2.93,38.93090,-76.92161,11247.43,10597.82,PRINCE GEORGES HOSPITAL CENTER
2.70,2.62,39.01578,-77.03591,9107.11,8586.02,HOLY CROSS HOSPITAL
2.61,2.53,39.42366,-77.41386,8528.32,8025.63,FREDERICK MEMORIAL HOSPITAL
2.83,2.75,39.54345,-76.09153,9960.20,9393.11,HARFORD MEMORIAL HOSPITAL
2.56,2.49,39.38813,-76.61068,8191.26,7721.57,SAINT JOSEPH MEDICAL CENTER
2.78,2.69,39.29297,-76.61314,9624.80,9047.34,MERCY MEDICAL CENTER INC
3.93,3.77,39.29688,-76.59242,17050.43,16034.30,JOHNS HOPKINS HOSPITAL, THE
2.75,2.66,39.27352,-76.67219,9399.77,8853.27,SAINT AGNES HOSPITAL
2.86,2.77,39.35262,-76.66196,10138.79,9572.59,SINAI HOSPITAL OF BALTIMORE
2.95,2.85,39.28833,-76.64912,10731.76,10087.78,BON SECOURS HOSPITAL
2.68,2.60,39.35169,-76.47919,8952.64,8433.60,FRANKLIN SQUARE HOSPITAL CENTER
2.76,2.67,38.98482,-77.00139,9474.76,8906.24,WASHINGTON ADVENTIST HOSPITAL
2.70,2.62,39.41339,-79.40103,9091.00,8545.59,GARRETT COUNTY MEMORIAL HOSPITAL
2.62,2.54,39.15402,-77.05431,8578.14,8063.42,MONTGOMERY GENERAL HOSPITAL INC
2.74,2.65,38.36248,-75.59799,9341.86,8782.28,PENINSULA REGIONAL MEDICAL CENTER
2.64,2.56,38.99743,-77.11048,8732.91,8208.91,SUBURBAN HOSPITAL
2.61,2.53,38.99014,-76.53398,8487.62,7995.09,ANNE ARUNDEL MEDICAL CENTER
2.89,2.80,39.32930,-76.61432,10346.89,9734.03,UNION MEMORIAL HOSPITAL
2.74,2.66,39.64928,-78.73206,9348.24,8811.27,WESTERN MARYLAND REGIONAL MEDICAL CENTER
2.58,2.50,38.29124,-76.63579,8302.96,7804.76,SAINT MARY'S HOSPITAL
3.12,3.01,39.29100,-76.54623,11810.09,11113.64,JOHNS HOPKINS BAYVIEW MEDICAL CENTER
2.81,2.72,39.21770,-76.06494,9826.79,9237.25,CHESTER RIVER HOSPITAL CENTER
2.61,2.53,39.60859,-75.83201,8483.37,7974.43,UNION HOSPITAL OF CECIL COUNTY
2.75,2.66,39.55808,-76.99107,9419.06,8862.70,CARROLL HOSPITAL CENTER
2.61,2.54,39.25189,-76.61399,8485.11,8039.25,HARBOR HOSPITAL
2.63,2.55,38.52905,-76.97068,8661.81,8142.12,CIVISTA MEDICAL CENTER
2.88,2.79,38.76970,-76.07697,10282.90,9665.96,MEMORIAL HOSPITAL AT EASTON
3.02,2.92,39.29994,-76.62138,11195.61,10523.93,MARYLAND GENERAL  HOSPITAL
2.50,2.43,38.55963,-76.59455,7783.81,7334.89,CALVERT MEMORIAL HOSPITAL
2.80,2.71,39.35852,-76.78208,9721.81,9144.22,NORTHWEST HOSPITAL CENTER
2.70,2.62,39.13732,-76.62228,9088.80,8561.14,BALTIMORE WASHINGTON  MEDICAL CENTER
2.90,2.80,39.39017,-76.62216,10367.40,9754.19,GREATER BALTIMORE MEDICAL CENTER
2.97,2.87,37.99754,-75.85256,10852.33,10201.24,EDWARD MCCREADY MEMORIAL HOSPITAL
2.38,2.32,39.21273,-76.88526,7040.96,6618.53,HOWARD COUNTY GENERAL HOSPITAL
2.52,2.45,39.51870,-76.34688,7910.95,7449.30,UPPER CHESAPEAKE MEDICAL CENTER
2.49,2.43,38.96851,-76.86203,7763.90,7333.82,DOCTORS'  COMMUNITY HOSPITAL
2.67,2.59,38.74827,-76.87590,8931.78,8402.23,SOUTHERN MARYLAND HOSPITAL CENTER
2.38,2.31,39.08690,-76.88163,7009.87,6589.35,LAUREL REGIONAL MEDICAL CENTER
2.80,2.71,39.35962,-76.58851,9743.67,9183.88,GOOD SAMARITAN HOSPITAL
2.81,2.72,39.09796,-77.19799,9820.30,9231.15,SHADY GROVE ADVENTIST HOSPITAL
2.54,2.47,38.72818,-76.99214,8084.60,7599.47,FORT WASHINGTON HOSPITAL
2.18,2.13,38.33876,-75.21128,5732.78,5389.51,ATLANTIC GENERAL HOSPITAL
3.58,2.42,42.54113,-71.76120,14803.05,7280.25,HEALTHALLIANCE HOSPITALS, INC
3.05,2.41,42.37441,-71.13378,11330.88,7223.79,MOUNT AUBURN HOSPITAL
3.24,2.31,41.94236,-71.27364,12621.53,6570.17,STURDY MEMORIAL HOSPITAL
3.11,2.49,42.70912,-71.14877,11769.51,7766.63,LAWRENCE GENERAL HOSPITAL
3.59,2.79,42.37451,-71.10418,14829.40,9649.93,CAMBRIDGE HEALTH ALLIANCE
2.94,2.58,41.65298,-70.27484,10647.03,8320.75,CAPE COD HOSPITAL
3.05,2.22,42.33185,-72.65422,11380.24,5968.37,COOLEY DICKINSON HOSPITAL INC,THE
3.60,2.27,42.59584,-72.59255,14946.21,6282.84,BAYSTATE FRANKLIN MEDICAL CENTER
3.18,2.83,42.27872,-71.06625,12181.89,9913.25,CARNEY HOSPITAL
3.26,2.47,42.07708,-72.04298,12705.26,7577.50,HARRINGTON MEMORIAL HOSPITAL
3.04,2.40,41.69217,-71.16474,11284.98,7160.17,SAINT ANNE'S HOSPITAL
2.72,2.31,42.20038,-72.62762,9233.51,6587.12,HOLYOKE MEDICAL CENTER
3.23,2.33,42.81476,-70.89068,12554.15,6726.19,ANNA JAQUES HOSPITAL
3.29,2.23,42.16849,-72.34130,12888.78,6069.57,WING MEMORIAL HOSPITAL AND MEDICAL CENTER
3.48,3.22,42.35843,-71.05977,14111.70,12490.55,BOSTON MEDICAL CENTER CORPORATION
3.07,2.38,42.56407,-70.87543,11506.32,6995.24,BEVERLY HOSPITAL CORPORATION
4.93,2.42,42.51078,-70.90712,23547.01,7290.02,NORTH SHORE MEDICAL CENTER
3.12,2.89,42.34896,-71.14768,11785.64,10313.63,ST ELIZABETH'S MEDICAL CENTER
3.10,2.52,51.46599,-1.28140,11656.52,7951.83,BERKSHIRE MEDICAL CENTER INC
3.51,2.26,42.35375,-71.55485,14313.22,6270.38,MARLBOROUGH HOSPITAL
3.18,2.28,42.25388,-72.24267,12225.17,6395.00,BAYSTATE MARY LANE HOSPITAL
3.24,2.26,42.70589,-73.10840,12591.50,6262.56,NORTH ADAMS REGIONAL HOSPITAL
3.30,2.51,42.03597,-71.09792,12951.42,7838.65,SIGNATURE HEALTHCARE BROCKTON HOSPITAL
2.58,2.33,41.94445,-70.64511,8288.27,6715.98,JORDAN HOSPITAL INC
3.55,2.51,42.64636,-71.34118,14587.51,7853.99,LOWELL GENERAL HOSPITAL
3.02,2.21,42.11807,-72.75921,11184.71,5899.15,NOBLE HOSPITAL
3.98,2.41,42.11449,-72.59502,17407.02,7217.19,MERCY MEDICAL CENTER
3.23,2.33,42.25105,-71.01411,12515.80,6708.55,QUINCY MEDICAL CENTER
2.86,2.41,42.46049,-71.06203,10125.99,7224.84,HALLMARK HEALTH SYSTEM
7.07,2.91,42.36227,-71.06941,37358.82,10434.89,MASSACHUSETTS GENERAL HOSPITAL
2.64,2.35,41.90456,-71.09562,8704.36,6805.24,MORTON HOSPITAL
3.59,2.44,41.70928,-71.14519,14871.92,7392.72,SOUTHCOAST HOSPITAL GROUP, INC
3.57,2.64,42.12077,-72.60525,14733.78,8679.45,BAYSTATE MEDICAL CENTER
3.06,2.37,42.72846,-71.16830,11427.91,6928.89,HOLY FAMILY HOSPITAL
3.10,2.36,42.64529,-71.30052,11711.98,6925.20,SAINTS  MEDICAL CENTER INC
3.22,2.24,42.27743,-71.23690,12437.20,6107.34,BETH ISRAEL DEACONESS HOSPITAL - NEEDHAM
3.23,2.23,42.43082,-71.37554,12498.09,6076.34,EMERSON HOSPITAL
3.58,2.89,42.33719,-71.10939,14806.79,10348.89,BETH ISRAEL DEACONESS MEDICAL CENTER
3.51,2.31,42.13234,-71.52825,14357.65,6557.07,MILFORD REGIONAL MEDICAL CENTER
2.79,2.42,42.58660,-71.98678,9685.27,7257.00,HEYWOOD HOSPITAL
3.48,2.33,42.57727,-71.57393,14165.07,6702.13,NASHOBA VALLEY MEDICAL CENTER
3.16,2.28,42.17644,-70.95398,12047.77,6359.85,SOUTH SHORE HOSPITAL
4.12,2.31,42.33149,-71.24568,18306.94,6572.73,NEWTON-WELLESLEY HOSPITAL
2.62,2.28,42.46581,-71.12210,8561.00,6372.93,WINCHESTER HOSPITAL
2.99,2.24,42.25232,-71.07515,10960.27,6129.02,MILTON HOSPITAL INC
7.02,2.87,42.33600,-71.10704,37079.63,10170.66,BRIGHAM AND WOMEN'S HOSPITAL
2.57,2.49,42.09864,-71.06607,8237.78,7715.38,GOOD SAMARITAN MEDICAL CENTER
3.44,2.93,42.34951,-71.06331,13883.03,10573.52,TUFTS MEDICAL CENTER
4.20,2.43,42.30049,-71.12771,18811.28,7374.79,FAULKNER HOSPITAL
2.61,2.30,42.18869,-71.20197,8522.26,6484.57,NORWOOD HOSPITAL
2.66,2.34,41.56412,-70.62200,8822.36,6767.09,FALMOUTH HOSPITAL
4.56,2.89,42.27720,-71.75922,21147.19,10328.63,UMASS MEMORIAL MEDICAL CENTER INC
2.76,2.47,42.48585,-71.20686,9457.76,7581.40,LAHEY CLINIC HOSPITAL
3.15,2.27,42.76256,-71.04507,12036.64,6291.38,MERRIMACK VALLEY HOSPITAL
3.16,2.43,42.28385,-71.41896,12060.35,7318.54,METROWEST MEDICAL CENTER
3.03,2.47,42.26633,-71.79760,11248.75,7612.92,ST VINCENT HOSPITAL
3.28,2.19,42.39466,-83.40537,12853.99,5803.23,ST MARY MERCY HOSPITAL
3.16,2.17,42.82157,-85.98743,12087.96,5679.00,SPECTRUM HEALTH ZEELAND COMMUNITY HOSPITAL
3.16,2.30,43.20588,-86.20839,12069.23,6492.46,MERCY HEALTH PARTNERS, MERCY CAMPUS
4.55,2.21,41.91313,-84.04966,21077.63,5935.16,EMMA L BIXBY MEDICAL CENTER
3.14,2.49,42.63347,-83.30925,11920.96,7764.15,DOCTORS' HOSPITAL OF MICHIGAN
3.21,2.33,41.93393,-85.64715,12412.26,6676.24,THREE RIVERS HEALTH
4.09,2.46,42.28551,-85.58042,18095.71,7527.16,BRONSON METHODIST HOSPITAL
4.19,2.48,42.45741,-83.20513,18750.66,7661.71,PROVIDENCE HOSPITAL AND MEDICAL CENTERS
4.41,2.44,42.29077,-83.21504,20140.17,7388.86,OAKWOOD HOSPITAL AND MEDICAL CENTER
2.84,2.26,42.08955,-86.47781,9997.24,6250.50,LAKELAND HOSPITAL, ST JOSEPH
3.26,2.25,41.93815,-84.98935,12750.09,6181.66,COMMUNITY HEALTH CENTER OF BRANCH COUNTY
3.49,2.69,42.41911,-83.18228,14194.76,9027.07,SINAI-GRACE HOSPITAL
3.29,2.51,42.61425,-83.27602,12928.66,7883.23,ST JOSEPH MERCY OAKLAND
2.88,2.57,43.39166,-84.66140,10282.92,8254.92,MIDMICHIGAN MEDICAL CENTER-GRATIOT
3.25,2.17,42.95582,-82.43222,12671.00,5654.11,ST JOSEPH MERCY PORT HURON
3.12,2.26,43.17554,-85.26879,11795.26,6254.94,SPECTRUM HEALTH UNITED MEMORIAL - UNITED CAMPUS
4.23,2.37,45.07773,-83.45146,19004.65,6977.88,ALPENA REGIONAL MEDICAL CENTER
3.71,2.30,41.91180,-84.63294,15628.79,6483.50,HILLSDALE COMMUNITY HEALTH CENTER
3.50,2.48,42.96881,-85.66649,14249.77,7647.81,SPECTRUM HEALTH - BUTTERWORTH CAMPUS
3.28,2.25,42.64303,-85.30706,12835.29,6203.08,PENNOCK HOSPITAL
4.67,2.23,43.58941,-83.86908,21872.84,6072.83,MCLAREN BAY REGION
4.91,2.94,42.28388,-83.72960,23410.30,10662.27,UNIVERSITY OF MICHIGAN HEALTH SYSTEM
3.23,2.28,42.61490,-82.96060,12520.54,6375.58,HENRY FORD MACOMB HOSPITAL
3.94,2.76,42.36762,-83.08461,17122.61,9464.03,HENRY FORD HOSPITAL
2.89,2.42,46.54758,-87.39560,10325.96,7261.91,MARQUETTE GENERAL HOSPITAL
3.51,2.35,45.80941,-88.04422,14362.18,6851.89,DICKINSON COUNTY MEMORIAL HOSPITAL
3.12,2.25,44.66805,-84.70733,11814.09,6164.97,MERCY HOSPITAL - GRAYLING
2.89,2.44,42.95817,-85.66253,10331.75,7402.93,SAINT MARY'S HEALTH CARE
3.08,2.34,43.22169,-86.24283,11581.07,6762.29,MERCY HEALTH PARTNERS, HACKLEY CAMPUS
3.67,2.37,42.61504,-83.93929,15353.70,6941.18,SAINT JOSEPH MERCY LIVINGSTON HOSPITAL
3.71,2.30,43.42857,-83.95556,15644.95,6526.50,COVENANT MEDICAL CENTER, INC
3.39,2.21,42.77487,-86.11378,13575.69,5913.93,HOLLAND COMMUNITY HOSPITAL
2.99,2.25,42.33111,-85.17817,10955.39,6207.34,BRONSON BATTLE CREEK HOSPITAL
4.01,2.31,43.42612,-83.94185,17579.56,6542.16,ST MARY'S OF MICHIGAN MEDICAL CENTER
2.96,2.41,42.18588,-86.24885,10804.73,7249.73,COMMUNITY HOSPITAL
3.28,2.15,43.59935,-84.76097,12824.22,5557.18,CENTRAL MICHIGAN COMMUNITY HOSPITAL
3.34,2.19,44.24532,-85.38950,13241.44,5806.06,MERCY HOSPITAL - CADILLAC
3.65,2.25,42.38392,-82.91480,15236.06,6186.17,BEAUMONT HOSPITAL, GROSSE POINTE
4.64,2.23,42.25117,-84.39240,21648.35,6021.86,ALLEGIANCE HEALTH
2.28,2.26,43.69399,-85.47533,6364.72,6260.61,MECOSTA COUNTY MEDICAL CENTER
2.64,2.24,44.26333,-84.24625,8677.60,6108.92,WEST BRANCH REGIONAL MEDICAL CENTER
2.93,2.32,41.79423,-85.40861,10611.76,6622.28,STURGIS HOSPITAL
4.80,2.41,44.76156,-85.64143,22706.81,7204.51,MUNSON MEDICAL CENTER
4.00,2.28,41.91643,-83.39771,17504.99,6372.94,MERCY MEMORIAL HOSPITAL SYSTEM
2.40,2.22,44.27548,-83.51170,7143.75,5969.96,TAWAS ST JOSEPH HOSPITAL
4.76,2.34,45.74575,-87.10106,22412.25,6770.11,ST FRANCIS HOSPITAL
3.65,2.96,42.35230,-83.05676,15257.23,10804.46,HARPER UNIVERSITY HOSPITAL
3.65,2.33,45.37209,-84.97065,15226.31,6670.66,NORTHERN MICHIGAN REGIONAL HOSPITAL
3.12,2.26,43.46517,-85.95072,11833.64,6258.07,SPECTRUM HEALTH GERBER MEMORIAL
2.50,2.40,47.14130,-88.58580,7773.11,7180.72,PORTAGE HEALTH HOSPITAL
4.57,2.34,43.95934,-86.42921,21199.57,6755.93,MEMORIAL MEDICAL CENTER OF WEST MICHIGAN
3.65,2.39,42.30489,-85.56152,15240.37,7100.59,BORGESS MEDICAL CENTER
2.19,2.34,43.79961,-83.04527,5825.32,6742.37,HURON MEDICAL CENTER
4.39,2.25,43.00546,-84.18145,20056.13,6155.10,MEMORIAL HEALTHCARE
4.99,2.48,42.51418,-83.19259,23941.29,7672.08,WILLIAM BEAUMONT HOSPITAL
4.08,2.31,42.27424,-83.36580,18032.43,6564.69,OAKWOOD ANNAPOLIS HOSPITAL
4.52,2.82,43.02135,-83.70308,20863.34,9897.31,HURLEY MEDICAL CENTER
2.62,2.30,45.03551,-84.67540,8556.20,6523.65,OTSEGO MEMORIAL HOSPITAL
3.59,2.45,43.01399,-83.73250,14847.58,7447.57,MCLAREN FLINT
3.68,2.29,42.21065,-83.14861,15465.07,6437.47,HENRY FORD WYANDOTTE HOSPITAL
3.91,2.60,42.46176,-83.37629,16922.35,8452.51,BOTSFORD HOSPITAL
4.20,2.32,42.26181,-83.66003,18783.49,6642.23,ST JOSEPH MERCY HOSPITAL
3.88,2.54,42.41975,-82.91442,16761.10,8035.57,ST JOHN HOSPITAL AND MEDICAL CENTER
4.22,2.40,42.70417,-84.55488,18921.06,7171.91,MCLAREN - GREATER LANSING
3.41,2.11,43.05082,-86.22893,13706.42,5280.67,NORTH OTTAWA COMMUNITY HOSPITAL
4.28,2.34,42.11695,-83.21365,19337.68,6747.57,OAKWOOD SOUTHSHORE MEDICAL CENTER
3.11,2.17,43.82092,-84.76857,11733.88,5687.69,MIDMICHIGAN MEDICAL CENTER-CLARE
4.12,2.21,43.06290,-83.32082,18266.74,5906.42,LAPEER REGIONAL MEDICAL CENTER
4.24,2.36,42.50514,-83.00422,19074.52,6886.71,ST JOHN MACOMB-OAKLAND HOSPITAL-MACOMB CENTER
3.88,2.51,42.89254,-83.63621,16703.29,7885.70,GENESYS REGIONAL MEDICAL CENTER - HEALTH PARK
3.33,2.76,42.63849,-83.29062,13149.51,9484.37,MCLAREN OAKLAND
2.66,2.39,43.17597,-84.84268,8851.52,7097.38,CARSON CITY HOSPITAL
4.12,2.23,42.98625,-82.42802,18278.77,6083.88,PORT HURON HOSPITAL
4.23,2.15,42.27302,-84.95775,18979.13,5542.43,OAKLAWN HOSPITAL
3.32,2.34,43.63618,-84.26187,13121.17,6748.38,MIDMICHIGAN MEDICAL CENTER-MIDLAND
3.11,2.33,42.58900,-82.89799,11773.23,6697.36,MOUNT CLEMENS REGIONAL MEDICAL CENTER
4.87,2.46,42.73767,-84.51698,23143.49,7564.76,EDWARD W SPARROW HOSPITAL
3.38,2.42,42.85736,-85.71774,13505.32,7297.20,METRO HEALTH HOSPITAL
3.07,2.54,46.43131,-84.28107,11467.37,8033.19,CHIPPEWA COUNTY WAR MEMORIAL HOSPITAL
3.10,2.18,42.78564,-82.48337,11704.04,5744.50,ST JOHN RIVER DISTRICT HOSPITAL
3.49,2.48,42.33215,-83.31195,14210.93,7665.87,GARDEN CITY HOSPITAL
4.27,2.24,42.67850,-83.14771,19280.04,6145.34,CRITTENTON HOSPITAL MEDICAL CENTER
3.24,2.23,42.31028,-84.01594,12582.42,6062.39,CHELSEA COMMUNITY HOSPITAL
5.09,2.25,42.61826,-83.09239,24539.68,6213.12,WILLIAM BEAUMONT HOSPITAL-TROY
4.64,2.28,42.23506,-83.27602,21665.95,6347.85,OAKWOOD HERITAGE HOSPITAL
4.84,2.84,42.35295,-83.05447,22958.64,10002.32,DETROIT RECEIVING HOSPITAL & UNIV HEALTH CENTER
4.28,2.34,42.59290,-83.49920,19302.64,6750.07,HURON VALLEY-SINAI HOSPITAL
3.98,2.14,42.53914,-83.40777,17353.98,5492.04,HENRY FORD WEST BLOOMFIELD HOSPITAL
4.68,2.30,45.01403,-93.32177,21892.49,6536.20,NORTH MEMORIAL MEDICAL CENTER
3.72,2.34,46.79380,-92.09573,15696.78,6789.38,ESSENTIA HEALTH ST MARY'S MEDICAL CENTER
4.61,3.37,44.97210,-93.26240,21427.27,13402.45,HENNEPIN COUNTY MEDICAL CENTER
4.21,2.70,44.02052,-92.48292,18873.89,9085.77,MAYO CLINIC - SAINT MARYS HOSPITAL
4.02,2.36,44.47336,-93.19115,17628.12,6902.68,NORTHFIELD HOSPITAL
3.29,2.31,44.56023,-92.57240,12887.70,6565.43,FAIRVIEW RED WING HOSPITAL
4.74,2.35,45.56696,-93.23046,22315.39,6836.52,CAMBRIDGE MEDICAL CENTER
3.15,2.37,43.62182,-95.59907,11986.08,6960.58,SANFORD  WORTHINGTON MEDICAL CENTER
3.92,2.31,45.87327,-95.37599,16974.65,6549.00,DOUGLAS COUNTY HOSPITAL
4.45,2.50,45.57390,-94.16942,20404.76,7820.89,ST CLOUD HOSPITAL
6.01,2.36,44.94214,-93.10858,30491.25,6901.96,UNITED HOSPITAL
3.89,2.34,47.41117,-92.93183,16768.05,6782.91,UNIVERSITY MEDICAL CENTER-MESABI/ MESABA CLINICS
3.17,2.22,43.65162,-93.37263,12138.42,6014.32,MAYO CLINIC HEALTH SYSTEM - ALBERT LEA
3.21,2.39,44.03521,-91.62181,12403.73,7064.85,WINONA HEALTH SERVICES
3.28,2.35,46.79634,-92.08793,12876.46,6800.05,ST LUKES HOSPITAL
3.69,2.30,45.33639,-92.99722,15502.21,6537.09,FAIRVIEW LAKES  HEALTH SERVICES
3.76,2.18,46.27712,-96.07244,15935.65,5722.61,LAKE REGION HEALTHCARE CORPORATION
2.80,2.28,44.93031,-93.36276,9754.04,6387.59,PARK NICOLLET METHODIST HOSPITAL
3.66,2.18,44.84294,-93.79336,15303.91,5734.62,RIDGEVIEW MEDICAL CENTER
6.81,2.38,44.95248,-93.26196,35723.23,7012.77,ABBOTT NORTHWESTERN HOSPITAL
4.70,2.34,44.74684,-92.87286,22062.58,6789.00,REGINA MEDICAL CENTER
4.39,2.35,44.94898,-93.10016,20054.52,6813.12,ST JOSEPH'S HOSPITAL
2.99,2.25,47.22110,-93.55229,10947.55,6175.95,GRAND ITASCA CLINIC AND HOSPITAL
3.51,2.18,45.04805,-92.81903,14348.28,5709.16,LAKEVIEW MEMORIAL HOSPITAL
4.17,2.44,44.11113,-93.25076,18612.62,7436.04,OWATONNA HOSPITAL
2.95,2.48,44.28857,-93.25773,10732.88,7645.92,DISTRICT ONE HOSPITAL
3.36,2.29,46.36166,-94.20573,13380.17,6411.20,ESSENTIA HEALTH ST JOSEPH'S MEDICAL CENTER
3.87,2.39,45.19325,-93.87136,16675.23,7117.58,BUFFALO HOSPITAL
4.45,2.25,44.88645,-93.32693,20454.91,6190.92,FAIRVIEW SOUTHDALE HOSPITAL
5.40,2.81,44.96766,-93.23640,26582.95,9781.58,UNIVERSITY OF MINNESOTA  MEDICAL CENTER, FAIRVIEW
3.08,2.33,47.53102,-92.55580,11535.20,6715.33,VIRGINIA REGIONAL MEDICAL CENTER
3.57,2.43,45.11989,-95.04525,14703.95,7348.00,RICE MEMORIAL HOSPITAL
3.64,2.35,44.16396,-94.00412,15211.70,6826.43,MAYO CLINIC HEALTH SYSTEM - MANKATO
3.32,2.25,47.50390,-94.89776,13131.53,6151.60,SANFORD BEMIDJI MEDICAL CENTER
3.59,2.53,46.81480,-95.84535,14868.00,8007.82,ESSENTIA HEALTH ST MARYS
4.18,2.29,44.77252,-93.50323,18705.78,6411.60,ST FRANCIS REGIONAL MEDICAL CENTER
4.16,2.58,44.95570,-93.09429,18574.11,8345.76,REGIONS HOSPITAL
5.33,2.29,45.18355,-93.36789,26105.94,6469.16,MERCY HOSPITAL
3.58,2.25,43.67462,-92.97732,14802.63,6159.22,MAYO CLINIC HEALTH SYSTEM - AUSTIN
6.04,2.24,45.10789,-93.25685,30687.88,6117.35,UNITY HOSPITAL
4.25,2.41,45.55758,-93.58615,19109.50,7208.20,FAIRVIEW NORTHLAND REGIONAL HOSPITAL
3.63,2.51,43.63765,-94.44962,15125.04,7869.84,MAYO CLINIC HEALTH SYSTEM - FAIRMONT
4.35,2.51,44.87576,-94.37391,19796.90,7874.65,HUTCHINSON AREA HEALTH CARE
4.51,2.28,44.74846,-93.27289,20836.70,6369.89,FAIRVIEW RIDGES HOSPITAL
4.22,2.30,45.02892,-93.03418,18959.71,6493.32,HEALTHEAST ST JOHN'S HOSPITAL
4.13,2.21,44.91542,-92.94757,18362.43,5891.09,HEALTHEAST WOODWINDS HOSPITAL
3.58,2.15,45.13294,-93.47922,14764.56,5559.12,MAPLE GROVE HOSPITAL
4.25,2.61,32.33069,-90.17030,19143.97,8534.37,UNIVERSITY OF MISSISSIPPI MED CENTER
3.25,2.14,34.80355,-88.20905,12629.32,5440.89,TISHOMINGO HEALTH SERVICES INC
3.73,2.27,34.24336,-88.71753,15734.41,6303.45,NORTH MISSISSIPPI MEDICAL CENTER
3.39,2.23,34.49648,-89.03326,13531.14,6039.45,BAPTIST MEMORIAL HOSPITAL UNION COUNTY
6.56,2.26,30.39599,-88.89061,34098.24,6229.89,BILOXI REGIONAL MEDICAL CENTER
5.41,2.20,34.93596,-88.55955,26626.41,5873.24,MAGNOLIA REGIONAL HEALTH CENTER
2.53,2.23,34.72982,-88.95062,8024.57,6082.38,TIPPAH COUNTY HOSPITAL
3.44,2.43,34.78720,-89.41707,13895.94,7372.00,ALLIANCE HEALTHCARE SYSTEM
3.45,2.13,33.76246,-89.81743,13931.21,5436.21,GRENADA LAKE MEDICAL CENTER
3.13,2.30,33.89232,-88.98141,11876.07,6522.40,TRACE REGIONAL HOSP AND SWING BED
6.89,2.31,30.36674,-89.11535,36244.23,6548.56,MEMORIAL HOSPITAL AT GULFPORT
3.67,2.21,33.54068,-89.26701,15354.56,5942.81,WEBSTER GENERAL HOSPITAL/SWING BED
3.97,2.20,33.97458,-88.47761,17321.00,5857.78,GILMORE MEMORIAL HOSPITAL
5.77,2.30,32.35265,-90.87788,28963.22,6535.95,RIVER REGION HEALTH SYSTEM
3.72,2.23,34.34899,-89.52062,15695.02,6059.17,BAPTIST MEMORIAL HOSPITAL NORTH MS
2.72,2.16,30.92176,-88.59286,9222.11,5569.59,GEORGE COUNTY HOSPITAL
4.51,2.21,32.58161,-90.08338,20806.42,5914.29,MADISON RIVER OAKS MEDICAL CENTER
5.00,2.18,30.37516,-88.53226,23968.92,5712.02,SINGING RIVER HOSPITAL
5.29,2.43,34.19610,-90.55208,25842.85,7376.86,NORTHWEST MISSISSIPPI REGIONAL MEDICAL CENTER
2.86,2.27,32.75331,-89.10091,10101.50,6336.79,NESHOBA COUNTY GENERAL HOSPITAL
3.58,2.28,34.65637,-88.56564,14792.19,6391.81,BAPTIST MEMORIAL HOSPITAL BOONEVILLE
3.48,2.17,32.33616,-90.15652,14173.80,5656.70,ST DOMINIC-JACKSON MEMORIAL HOSPITAL
3.11,2.13,31.14529,-90.45945,11776.05,5409.15,BEACHAM MEMORIAL HOSPITAL
3.64,2.20,33.47600,-88.82100,15176.35,5850.00,OCH REGIONAL MEDICAL CENTER
2.95,2.15,31.57544,-90.45670,10712.48,5558.14,KING'S DAUGHTERS MEDICAL CENTER-BROOKHAVEN
