size,lat,lon,price,name
3.40,34.46784,-93.06667,21360.61,ST JOSEPHS MERCY HEALTH CENTER INC
2.36,36.34295,-92.39442,9248.14,BAXTER REGIONAL MEDICAL CENTER
3.35,35.28275,-93.14901,20787.98,ST MARYS REGIONAL MEDICAL CENTER
2.50,35.37445,-94.41868,10930.52,SPARKS REGIONAL MEDICAL CENTER
3.70,34.18894,-92.01886,24787.54,JEFFERSON REGIONAL MEDICAL CENTER
2.36,34.51764,-91.55932,9277.60,BAPTIST HEALTH MEDICAL CENTER-STUTTGART
5.03,34.48600,-93.03521,40254.45,NATIONAL PARK MEDICAL CENTER
4.39,35.60836,-91.26499,32840.04,HARRIS HOSPITAL
3.72,34.51022,-90.62718,24989.29,HELENA REGIONAL MEDICAL CENTER
2.88,33.64905,-93.58704,15240.00,MEDICAL PARK HOSPITAL
3.20,34.74866,-92.35422,18981.66,BAPTIST HEALTH MEDICAL CENTER-LITTLE ROCK
2.80,35.80838,-90.66658,14410.29,NEA BAPTIST MEMORIAL HOSPITAL
3.28,35.76927,-91.63408,19963.01,WHITE RIVER MEDICAL CENTER
2.89,34.73868,-92.39307,15362.41,ARKANSAS HEART HOSPITAL
2.85,34.81290,-92.20814,14935.11,ST VINCENT MEDICAL CENTER/NORTH
8.29,37.63362,-122.08802,78032.84,ST ROSE HOSPITAL
4.69,40.78366,-124.14246,36339.15,ST JOSEPH HOSPITAL
5.82,38.32472,-122.29671,49382.56,QUEEN OF THE VALLEY MEDICAL CENTER
6.18,38.54384,-122.47401,53579.19,ST HELENA HOSPITAL
5.23,35.11346,-120.59054,42576.88,ARROYO GRANDE COMMUNITY HOSPITAL
4.93,38.57053,-121.45216,39103.92,MERCY GENERAL HOSPITAL
3.70,40.89631,-124.09145,24863.57,MAD RIVER COMMUNITY HOSPITAL
4.16,39.50528,-121.54100,30089.51,OROVILLE HOSPITAL
5.50,35.38736,-119.01690,45698.56,BAKERSFIELD MEMORIAL HOSPITAL
4.96,37.31288,-121.93329,39379.30,SANTA CLARA VALLEY MEDICAL CENTER
4.48,40.14813,-122.21934,33837.09,ST ELIZABETH COMMUNITY HOSPITAL
6.65,37.79100,-122.43125,59028.60,CALIFORNIA PACIFIC MEDICAL CTR-PACIFIC CAMPUS HOSP
6.21,37.74717,-122.42088,53913.42,CALIFORNIA PACIFIC MEDICAL CTR - ST. LUKE'S CAMPUS
3.30,34.67486,-118.15771,20124.78,ANTELOPE VALLEY HOSPITAL MED CENTER
4.22,36.32737,-119.29548,30820.92,KAWEAH DELTA MEDICAL CENTER
5.23,34.12834,-118.25777,42567.63,GLENDALE MEM HOSPITAL & HLTH CENTER
4.06,37.75708,-120.86109,28999.00,OAK VALLEY DISTRICT HOSPITAL
4.67,33.78036,-117.86495,36001.01,ST JOSEPH HOSPITAL
4.27,37.33569,-121.99595,31366.28,KAISER FOUNDATION HOSPITAL-SANTA CLARA
4.39,37.82448,-122.25759,32775.20,KAISER FOUNDATION HOSPITAL OAKLAND/RICHMOND
5.81,33.73798,-118.30525,49283.67,PROVIDENCE LITTLE CO OF MARY MED CTR SAN PEDRO
6.95,37.95337,-122.33672,62519.10,DOCTORS MEDICAL CENTER-SAN PABLO
5.98,37.96987,-121.28873,51231.43,ST JOSEPHS MED CENTER OF STOCKTON
4.06,38.28820,-122.46533,29006.40,SONOMA VALLEY HOSPITAL
5.40,33.98932,-118.22426,44536.15,COMMUNITY AND MISSION  HOSPITAL OF HUNTINGTON PARK
4.05,36.83532,-119.76562,28823.06,SAINT AGNES MEDICAL CENTER
4.66,34.10130,-117.63651,35941.52,SAN ANTONIO COMMUNITY HOSPITAL
5.81,32.79949,-117.15394,49336.11,SHARP MEMORIAL HOSPITAL
4.75,38.13118,-122.23732,37043.21,SUTTER SOLANO MEDICAL CENTER
5.37,33.92798,-117.43847,44223.93,PARKVIEW COMMUNITY HOSPITAL MEDICAL CENTER
6.03,34.04932,-118.21746,51889.94,WHITE MEMORIAL MEDICAL CENTER
5.16,34.95099,-120.41322,41714.30,MARIAN MEDICAL CENTER
4.86,38.57155,-121.46874,38308.30,SUTTER GENERAL HOSPITAL
2.70,34.64075,-120.43958,13253.53,LOMPOC VALLEY MEDICAL CENTER
4.98,34.07558,-118.28424,39600.58,TEMPLE COMMUNITY HOSPITAL
6.20,34.02685,-118.48651,53856.62,SANTA MONICA - UCLA MED CTR & ORTHOPAEDIC HOSPITAL
3.67,36.32362,-119.66726,24413.47,ADVENTIST MEDICAL CENTER
9.57,37.36257,-121.84974,92913.73,REGIONAL MEDICAL CENTER OF SAN JOSE
4.39,34.19494,-118.46319,32818.75,VALLEY PRESBYTERIAN HOSPITAL
3.82,33.18402,-117.29661,26149.08,TRI-CITY MEDICAL CENTER
5.58,38.09906,-122.56011,46656.70,NOVATO COMMUNITY HOSPITAL
4.70,39.13822,-121.59436,36367.72,RIDEOUT MEMORIAL HOSPITAL
4.99,38.25455,-122.63177,39741.39,PETALUMA VALLEY HOSPITAL
2.77,34.22143,-118.43018,14035.36,KAISER FOUNDATION HOSPITAL - PANORAMA CITY
4.33,34.09816,-118.29541,32128.69,KAISER FOUNDATION HOSPITAL - LOS ANGELES
2.65,33.91909,-118.12873,12629.67,KAISER FOUNDATION HOSPITAL - DOWNEY
2.63,34.07225,-117.43197,12447.45,KAISER FOUNDATION HOSPITAL FONTANA
4.59,34.03705,-118.26575,35166.41,CALIFORNIA HOSPITAL MEDICAL CENTER LA
4.82,39.22809,-121.04721,37852.66,SIERRA NEVADA MEMORIAL HOSPITAL
7.88,37.32710,-121.93863,73271.62,O'CONNOR HOSPITAL
4.23,34.28029,-119.25410,30941.00,VENTURA COUNTY MEDICAL CENTER
5.26,37.88664,-121.28308,42910.38,SAN JOAQUIN GENERAL HOSPITAL
5.79,33.96860,-118.04831,49075.40,PRESBYTERIAN INTERCOMMUNITY HOSPITAL
5.40,38.44369,-122.70138,44536.06,SANTA ROSA MEMORIAL HOSPITAL
8.71,37.55717,-121.98126,82887.08,WASHINGTON HOSPITAL
8.48,37.48000,-122.25441,80194.67,SEQUOIA HOSPITAL
5.36,34.58305,-118.14490,44098.82,PALMDALE REGIONAL MEDICAL CENTER
4.49,37.76288,-122.25412,33949.67,ALAMEDA HOSPITAL
3.91,33.91255,-118.09846,27270.58,COAST PLAZA HOSPITAL
6.77,32.61972,-117.02278,60377.47,SHARP CHULA VISTA MEDICAL CENTER
3.58,33.62229,-117.92995,23366.56,HOAG MEMORIAL HOSPITAL PRESBYTERIAN
4.82,33.84780,-117.93661,37757.85,AHMC ANAHEIM REGIONAL MEDICAL CENTER
5.38,35.27882,-120.65047,44262.44,FRENCH HOSPITAL MEDICAL CENTER
7.54,34.15601,-118.32834,69322.36,PROVIDENCE SAINT JOSEPH MEDICAL CTR
6.07,34.28920,-118.74484,52279.94,SIMI VALLEY HOSPITAL & HEALTH CARE SERVICES
6.49,33.83862,-116.54557,57225.02,DESERT REGIONAL MEDICAL CENTER
8.46,36.69761,-121.63320,79976.42,NATIVIDAD MEDICAL CENTER
6.02,38.72562,-120.79096,51773.38,MARSHALL MEDICAL CENTER (1-RH)
4.49,36.06956,-119.02748,33931.44,SIERRA VIEW DISTRICT HOSPITAL
6.19,34.06675,-118.44613,53728.53,RONALD REAGAN UCLA MEDICAL CENTER
4.72,34.03721,-117.20474,36674.22,REDLANDS COMMUNITY HOSPITAL
3.85,38.00655,-122.13312,26569.30,CONTRA COSTA REGIONAL MEDICAL CENTER
5.75,33.80733,-118.19305,48619.29,PACIFIC HOSPITAL OF LONG BEACH
3.52,34.13075,-116.27502,22661.67,HI-DESERT MEDICAL CENTER
4.90,40.58654,-122.39168,38675.12,MERCY MEDICAL CENTER REDDING
5.60,34.09049,-118.14410,46818.17,ALHAMBRA HOSPITAL MEDICAL CENTER
8.57,37.69502,-121.88095,81303.48,VALLEYCARE MEDICAL CENTER
4.29,34.03009,-118.47833,31602.55,SAINT JOHN'S HEALTH CENTER
4.61,38.46964,-122.70746,35337.24,SUTTER MEDICAL CENTER OF SANTA ROSA
4.64,36.83491,-121.38651,35732.92,HAZEL HAWKINS MEMORIAL HOSPITAL
6.28,34.89341,-117.01930,54676.73,BARSTOW COMMUNITY HOSPITAL
4.97,34.50107,-117.17285,39506.13,ST MARY MEDICAL CENTER
6.09,37.85593,-122.25730,52573.28,ALTA BATES SUMMIT MEDICAL CENTER - ALTA BATES CAMP
6.05,37.36934,-122.08047,52019.30,EL CAMINO HOSPITAL
4.62,38.76514,-121.24979,35450.28,SUTTER ROSEVILLE MEDICAL CENTER
4.63,37.74409,-121.43469,35640.94,SUTTER TRACY COMMUNITY HOSPITAL
5.82,32.88461,-117.22244,49432.71,SCRIPPS MEMORIAL HOSPITAL LA JOLLA
5.98,34.05076,-117.26395,51267.67,LOMA LINDA UNIVERSITY MEDICAL CENTER
4.74,33.87236,-117.56809,36886.64,CORONA REGIONAL MEDICAL CENTER
4.46,37.97780,-120.37150,33668.80,SONORA REGIONAL MEDICAL CENTER
8.87,38.12186,-121.28665,84749.77,LODI MEMORIAL HOSPITAL
3.79,32.95813,-115.55388,25900.63,PIONEERS MEMORIAL HEALTHCARE DISTRICT
3.17,34.01501,-118.10064,18699.85,BEVERLY HOSPITAL
3.65,34.43343,-119.81039,24249.00,GOLETA VALLEY COTTAGE HOSPITAL
3.65,36.22008,-119.33764,24240.07,TULARE REGIONAL MEDICAL CENTER
6.43,37.94748,-122.53677,56498.17,MARIN GENERAL HOSPITAL
8.60,38.26174,-122.04662,81645.23,NORTHBAY MEDICAL CENTER
4.71,34.06034,-118.21014,36549.42,LAC+USC MEDICAL CENTER
4.55,33.83043,-118.29402,34710.30,LAC/HARBOR-UCLA MED CENTER
3.22,34.24018,-118.39632,19287.82,PACIFICA HOSPITAL OF THE VALLEY
6.53,37.25153,-121.94684,57680.09,GOOD SAMARITAN HOSPITAL
2.90,38.39711,-122.81924,15518.11,PALM DRIVE HOSPITAL
3.86,33.75117,-116.96028,26682.72,HEMET VALLEY MEDICAL CENTER
6.58,33.93530,-118.13030,58243.29,DOWNEY REGIONAL MEDICAL CENTER
5.36,37.79569,-122.40930,44046.62,CHINESE HOSPITAL
2.80,33.78899,-118.29401,14363.16,KAISER FOUNDATION HOSPITAL - SOUTH BAY
3.91,41.77451,-124.19400,27197.67,SUTTER COAST HOSPITAL
5.27,32.89810,-117.24217,43024.03,SCRIPPS GREEN HOSPITAL
5.00,33.82557,-117.99493,39876.81,WEST ANAHEIM MEDICAL CENTER
4.18,39.20732,-122.00026,30392.83,COLUSA REGIONAL MEDICAL CENTER
5.98,34.13364,-118.15275,51299.48,HUNTINGTON MEMORIAL HOSPITAL
9.75,37.43436,-122.18013,94994.27,STANFORD HOSPITAL
3.42,35.64086,-117.67119,21567.73,RIDGECREST REGIONAL HOSPITAL
6.99,37.76421,-122.45716,62985.88,UCSF MEDICAL CENTER
4.92,35.38338,-119.01969,38908.47,SAN JOAQUIN COMMUNITY HOSPITAL
9.29,37.66540,-120.99743,89702.15,DOCTORS MEDICAL CENTER
3.69,33.89307,-118.29506,24671.05,MEMORIAL HOSPITAL OF GARDENA
5.81,34.05336,-118.26558,49231.14,GOOD SAMARITAN HOSPITAL
6.90,34.20285,-118.62962,61907.24,WEST HILLS HOSPITAL & MEDICAL CENTER
5.46,37.69824,-122.08730,45214.34,EDEN MEDICAL CENTER
5.72,34.06389,-118.27347,48202.00,SAINT VINCENT MEDICAL CENTER
8.45,35.29188,-120.66635,79927.00,SIERRA VISTA REGIONAL MEDICAL CENTER
4.02,34.52856,-117.29305,28545.92,VICTOR VALLEY COMMUNITY HOSPITAL
4.45,38.56276,-121.77207,33475.73,SUTTER DAVIS HOSPITAL
6.15,34.20777,-118.88305,53206.69,LOS ROBLES HOSPITAL & MEDICAL CENTER
7.31,33.80441,-118.06665,66623.47,LOS ALAMITOS MEDICAL CENTER
3.69,34.03868,-118.37516,24649.43,KAISER FOUNDATION HOSPITAL - WEST LA
6.04,33.71466,-117.93322,51905.87,FOUNTAIN VALLEY REGIONAL HOSPITAL & MEDICAL CENTER
3.71,33.84753,-118.03841,24905.69,LA PALMA INTERCOMMUNITY HOSPITAL
3.30,34.02561,-117.68583,20212.13,CHINO VALLEY MEDICAL CENTER
4.92,38.46387,-121.41645,38932.06,METHODIST HOSPITAL OF SACRAMENTO
3.82,34.13289,-117.87121,26179.13,FOOTHILL PRESBYTERIAN HOSPITAL
6.89,38.55484,-121.45628,61813.77,UNIVERSITY OF CALIFORNIA DAVIS MEDICAL CENTER
4.56,33.60883,-117.70881,34773.32,SADDLEBACK MEMORIAL MEDICAL CENTER
3.83,35.76216,-119.23889,26296.11,DELANO REGIONAL MEDICAL CENTER
6.46,34.24359,-119.01992,56867.63,ST JOHNS PLEASANT VALLEY HOSPITAL
8.80,34.07664,-118.37955,83950.19,CEDARS-SINAI MEDICAL CENTER
4.09,34.02391,-118.18386,29360.84,EAST LOS ANGELES DOCTORS HOSPITAL
5.44,34.03556,-118.30962,45005.50,LOS ANGELES METROPOLITAN MEDICAL CTR
3.46,38.46958,-121.41947,22058.58,KAISER FOUNDATION HOSP SO SACRAMENTO
5.75,33.70167,-117.95566,48585.16,ORANGE COAST MEMORIAL MEDICAL CENTER
9.46,38.35586,-121.95196,91566.00,NORTHBAY VACAVALLEY HOSPITAL
3.57,33.71818,-117.16690,23243.26,MENIFEE VALLEY MEDICAL CENTER
2.77,33.90752,-117.46879,13967.41,KAISER FOUNDATION HOSPITAL, RIVERSIDE
6.32,37.03560,-121.57109,55191.72,SAINT LOUISE REGIONAL HOSPITAL
3.35,34.22139,-118.45660,20742.64,MISSION COMMUNITY HOSPITAL - PANORAMA
3.61,34.47174,-117.29791,23761.70,DESERT VALLEY HOSPITAL
4.77,35.38506,-119.03992,37194.91,BAKERSFIELD HEART HOSPITAL
7.18,33.78824,-118.14563,65118.93,COMMUNITY HOSPITAL OF LONG BEACH
4.58,36.85992,-119.78858,35032.12,FRESNO HEART AND SURGICAL HOSPITAL
8.32,34.06760,-118.12291,78367.90,GARFIELD MEDICAL CENTER
5.26,33.95076,-118.34828,42908.61,CENTINELA HOSPITAL MEDICAL CENTER
8.84,34.05723,-118.36025,84434.57,OLYMPIA MEDICAL CENTER
3.55,34.16028,-118.44948,23092.10,SHERMAN OAKS HOSPITAL
4.49,32.77629,-117.05730,33977.61,ALVARADO HOSPITAL MEDICAL CENTER
6.40,34.17067,-118.53200,56093.84,PROVIDENCE TARZANA MEDICAL CENTER
4.57,40.58532,-122.38702,34871.36,SHASTA REGIONAL MEDICAL CENTER
3.20,33.89740,-117.18603,18952.55,KAISER FOUNDATION HOSPITAL-MORENO VALLEY
4.15,33.61478,-117.16918,30073.95,LOMA LINDA UNIVERSITY MEDICAL CENTER-MURRIETA
4.10,40.18134,-105.12769,29466.09,LONGMONT UNITED HOSPITAL
3.75,39.96455,-104.76855,25355.90,PLATTE VALLEY MEDICAL CENTER
2.70,37.47150,-105.88350,13265.19,SAN LUIS VALLEY REGIONAL MEDICAL CENTER
3.26,40.57315,-105.05741,19707.09,POUDRE VALLEY HOSPITAL
4.01,38.23421,-104.62292,28451.05,CENTURA HEALTH-ST MARY CORWIN MEDICAL CENTER
3.27,37.23629,-107.82578,19818.81,MERCY REGIONAL MEDICAL CENTER
4.03,39.74615,-104.96682,28632.35,PRESBYTERIAN/ST LUKE'S MEDICAL CENTER
4.65,39.71712,-105.12874,35774.93,CENTURA HEALTH-ST ANTHONY HOSPITAL
3.71,38.28184,-104.61256,24936.18,PARKVIEW MEDICAL CENTER INC
4.55,39.74234,-104.84156,34687.61,UNIVERSITY OF COLORADO HOSPITAL ANSCHUTZ INPATIENT
4.24,40.02615,-105.28391,31078.59,BOULDER COMMUNITY HOSPITAL
4.41,39.74601,-104.96909,33084.32,EXEMPLA SAINT JOSEPH HOSPITAL
3.17,40.41320,-105.05139,18665.13,MCKEE MEDICAL CENTER
3.40,38.86559,-104.82182,21301.88,CENTURA HEALTH-PENROSE ST FRANCIS HEALTH SERVICES
5.30,39.73231,-104.93396,43391.84,ROSE MEDICAL CENTER
4.55,39.65399,-104.98116,34662.84,SWEDISH MEDICAL CENTER
4.23,39.67005,-104.97490,30979.82,CENTURA HEALTH-PORTER ADVENTIST HOSPITAL
2.50,38.74540,-108.04700,10830.43,DELTA COUNTY MEMORIAL HOSPITAL
3.86,39.84960,-105.01825,26700.67,CENTURA HEALTH-ST ANTHONY NORTH HOSPITAL
4.97,39.52910,-104.87121,39542.22,SKY RIDGE MEDICAL CENTER
3.44,41.77507,-72.69941,21735.36,ST FRANCIS HOSPITAL & MEDICAL CENTER
3.89,41.55959,-73.05941,26965.53,WATERBURY HOSPITAL
3.09,41.97762,-72.39127,17734.12,JOHNSON MEMORIAL HOSPITAL
4.51,41.05562,-73.55390,34167.49,STAMFORD HOSPITAL
2.91,41.33722,-72.10380,15646.18,LAWRENCE & MEMORIAL HOSPITAL
4.10,41.18881,-73.16645,29417.00,BRIDGEPORT HOSPITAL
2.50,41.79153,-73.13382,10932.95,CHARLOTTE HUNGERFORD HOSPITAL
3.02,41.86708,-72.45056,16899.54,ROCKVILLE GENERAL HOSPITAL
2.72,41.55241,-73.03554,13480.48,SAINT MARYS HOSPITAL
3.13,41.54874,-72.80148,18235.73,MIDSTATE MEDICAL CENTER
3.92,41.03431,-73.63020,27373.02,GREENWICH HOSPITAL ASSOCIATION
3.34,41.21646,-73.06525,20621.41,MILFORD HOSPITAL, INC
2.83,41.71622,-72.22399,14751.21,WINDHAM COMM MEM HOSP & HATCH HOSP
2.80,41.54301,-72.08799,14399.26,WILLIAM W BACKUS HOSPITAL
3.85,41.75412,-72.67927,26526.85,HARTFORD HOSPITAL
2.97,41.78185,-72.52591,16294.85,MANCHESTER MEMORIAL HOSPITAL
3.99,41.20049,-73.20281,28204.83,ST VINCENT'S MEDICAL CENTER
3.10,41.40474,-73.44739,17864.26,DANBURY HOSPITAL
3.44,41.66107,-72.78671,21772.34,HOSPITAL OF CENTRAL CONNECTICUT, THE
3.34,41.73545,-72.79489,20611.28,JOHN DEMPSEY HOSPITAL
3.41,39.74954,-75.56662,21474.80,ST FRANCIS HOSPITAL
2.91,39.15135,-75.52309,15608.50,BAYHEALTH - KENT GENERAL HOSPITAL
2.77,38.64231,-75.60660,13998.18,NANTICOKE MEMORIAL HOSPITAL
3.43,38.77159,-75.14210,21723.55,BEEBE MEDICAL CENTER
3.93,38.90106,-77.05079,27489.60,GEORGE WASHINGTON UNIV HOSPITAL
4.11,38.91770,-77.02193,29525.49,HOWARD UNIVERSITY HOSPITAL
3.93,38.91221,-77.07588,27494.96,GEORGETOWN UNIVERSITY HOSPITAL
3.55,38.93576,-77.10909,23043.44,SIBLEY MEMORIAL HOSPITAL
3.29,38.94397,-76.99040,20071.26,PROVIDENCE HOSPITAL
4.02,38.83504,-76.98388,28510.02,UNITED MEDICAL CENTER
3.84,38.92944,-77.01473,26381.12,WASHINGTON HOSPITAL CENTER
3.45,30.34913,-81.66391,21857.46,SHANDS JACKSONVILLE MEDICAL CENTER
4.47,26.50479,-80.06979,33762.24,BETHESDA MEMORIAL HOSPITAL
4.30,28.52517,-81.37729,31806.57,ORLANDO HEALTH
5.54,25.68309,-80.34038,46092.30,BAPTIST HOSPITAL OF MIAMI INC
5.87,25.78846,-80.21644,50003.89,UNIVERSITY OF MIAMI HOSPITAL
2.96,29.20117,-81.05828,16207.88,HALIFAX HEALTH MEDICAL CENTER
3.29,26.15053,-81.79919,19995.89,NAPLES COMMUNITY HOSPITAL
4.39,25.79143,-80.21250,32776.15,JACKSON MEMORIAL HOSPITAL
3.40,28.83363,-82.33561,21372.45,CITRUS MEMORIAL HOSPITAL
2.90,30.47650,-87.21219,15547.15,SACRED HEART HOSPITAL
2.86,30.15963,-85.64818,15078.54,BAY MEDICAL CENTER
5.64,25.86166,-80.21398,47360.22,NORTH SHORE MEDICAL CENTER
5.84,25.81317,-80.13996,49659.78,MOUNT SINAI MEDICAL CENTER
4.77,26.01867,-80.17981,37223.76,MEMORIAL REGIONAL HOSPITAL
3.17,30.30835,-81.68919,18620.64,ST VINCENT'S MEDICAL CENTER
4.20,27.19837,-80.24306,30598.06,MARTIN MEMORIAL MEDICAL CENTER
3.46,29.04263,-81.31635,22028.70,FLORIDA HOSPITAL DELAND
4.44,28.26092,-82.18802,33423.94,FLORIDA HOSPITAL ZEPHYRHILLS
3.48,26.94042,-82.04094,22252.37,CHARLOTTE REGIONAL MEDICAL CENTER
3.10,30.95015,-87.15095,17831.39,JAY HOSPITAL
3.84,28.55140,-81.72120,26376.26,SOUTH LAKE HOSPITAL
5.22,30.53493,-86.49628,42411.07,TWIN CITIES HOSPITAL
3.54,28.13321,-82.75839,22913.72,HELEN ELLIS MEMORIAL HOSPITAL
3.27,29.17594,-82.13898,19786.64,MUNROE REGIONAL MEDICAL CENTER
3.38,28.25431,-82.71447,21117.24,MORTON PLANT NORTH BAY HOSPITAL
3.42,27.78088,-82.65126,21537.47,ST ANTHONY'S HOSPITAL
3.02,29.24333,-81.10760,16871.56,FLORIDA HOSPITAL MEMORIAL MEDICAL CENTER
3.31,27.09043,-82.44499,20338.59,VENICE REGIONAL MEDICAL CENTER
5.13,28.53906,-82.44193,41387.44,BROOKSVILLE REGIONAL HOSPITAL
4.31,26.18711,-80.11941,31897.82,HOLY CROSS HOSPITAL INC
3.80,26.98905,-82.09559,25955.05,PEACE RIVER REGIONAL MEDICAL CENTER
4.63,26.59805,-80.09271,35561.73,JFK MEDICAL CENTER
3.40,28.80659,-81.86906,21337.37,LEESBURG REGIONAL MEDICAL CENTER
3.73,26.27623,-80.12220,25105.34,BROWARD HEALTH NORTH BROWARD MEDICAL CENTER
3.97,30.31525,-81.66398,27984.11,BAPTIST MEDICAL CENTER
3.34,28.33522,-80.72319,20596.83,WUESTHOFF MEDICAL CENTER  ROCKLEDGE
3.47,30.43066,-87.23191,22149.94,BAPTIST HOSPITAL
3.81,30.19345,-82.63268,26121.66,SHANDS LAKE SHORE REGIONAL MEDICAL CENTER
2.51,27.65832,-80.39307,10956.27,INDIAN RIVER MEDICAL CENTER
2.59,30.12015,-83.59309,11971.56,DOCTOR'S MEMORIAL HOSPITAL INC
3.89,26.61563,-81.65945,26974.60,LEHIGH REGIONAL MEDICAL CENTER
3.30,29.64155,-82.34844,20204.98,SHANDS HOSPITAL AT THE UNIVERSITY OF FLORIDA
4.16,30.27449,-81.40071,30175.75,BAPTIST MEDICAL CENTER  BEACHES
3.24,27.91798,-81.84402,19453.35,BARTOW REGIONAL MEDICAL CENTER
3.41,27.75214,-82.73951,21419.52,PALMS OF PASADENA HOSPITAL
3.48,28.01563,-82.13900,22312.53,SOUTH FLORIDA BAPTIST HOSPITAL
3.12,30.65118,-81.44923,18053.94,BAPTIST MEDICAL CENTER - NASSAU
2.46,30.78675,-85.24189,10404.61,JACKSON HOSPITAL
5.11,24.58076,-81.74233,41210.44,LOWER KEYS MEDICAL CENTER
2.77,30.26389,-81.44283,13998.81,MAYO CLINIC
5.74,25.70328,-80.29391,48512.77,SOUTH MIAMI HOSPITAL, INC
3.48,28.06172,-81.95304,22268.89,LAKELAND REGIONAL MEDICAL CENTER
3.66,28.81611,-81.28351,24293.82,CENTRAL FLORIDA REGIONAL HOSPITAL
4.92,27.30187,-82.45428,38910.49,DOCTORS HOSPITAL OF SARASOTA
3.06,27.22739,-81.85108,17419.76,DESOTO MEMORIAL HOSPITAL
3.05,28.36005,-80.62309,17277.85,CAPE CANAVERAL HOSPITAL
6.47,27.80541,-82.72694,56937.31,ST PETERSBURG GENERAL HOSPITAL
4.95,25.70558,-80.29311,39323.55,LARKIN COMMUNITY HOSPITAL
5.37,26.26259,-80.20292,44220.12,NORTHWEST MEDICAL CENTER
4.55,27.93758,-82.48933,34683.89,MEMORIAL HOSPITAL OF TAMPA
4.97,25.73195,-80.38580,39497.12,KENDALL REGIONAL MEDICAL CENTER
3.76,28.34805,-82.19963,25479.52,PASCO REGIONAL MEDICAL CENTER
4.45,27.48213,-82.62126,33482.47,BLAKE MEDICAL CENTER
5.84,26.12354,-80.25951,49617.36,WESTSIDE REGIONAL MEDICAL CENTER
3.37,29.64481,-81.69431,20978.33,PUTNAM COMMUNITY MEDICAL CENTER
5.18,27.93259,-82.28759,41991.67,BRANDON REGIONAL HOSPITAL
5.19,27.43392,-80.34350,42086.13,LAWNWOOD REGIONAL MEDICAL CENTER & HEART INSTITUTE
4.68,27.25983,-80.82855,36187.16,RAULERSON HOSPITAL
4.25,26.92138,-80.09708,31185.80,JUPITER MEDICAL CENTER
4.90,28.00237,-82.57309,38688.65,TOWN & COUNTRY HOSPITAL
4.57,28.36128,-82.68883,34937.74,REGIONAL MEDICAL CENTER BAYONET POINT
4.91,26.43709,-80.12728,38787.66,DELRAY MEDICAL CENTER
5.30,27.71350,-82.36512,43346.44,SOUTH BAY HOSPITAL
4.95,27.28861,-80.29431,39292.41,ST LUCIE MEDICAL CENTER
5.22,28.53585,-82.53404,42492.82,OAK HILL HOSPITAL
3.25,28.03957,-82.70875,19595.94,MEASE COUNTRYSIDE HOSPITAL
4.99,26.94996,-82.32651,39805.36,ENGLEWOOD COMMUNITY HOSPITAL
4.58,26.35614,-80.19956,35030.21,WEST BOCA MEDICAL CENTER
5.31,26.68337,-80.25269,43510.61,PALMS WEST HOSPITAL
5.18,26.01394,-80.30980,41919.14,MEMORIAL HOSPITAL WEST
4.69,25.99079,-80.37333,36233.50,MEMORIAL HOSPITAL MIRAMAR
4.44,26.21388,-81.73257,33400.86,PHYSICIANS REGIONAL MEDICAL CENTER - PINE RIDGE
4.16,26.70181,-80.05055,30192.78,GOOD SAMARITAN MEDICAL CENTER
3.22,26.08155,-80.36449,19226.15,CLEVELAND CLINIC HOSPITAL
3.26,30.37837,-86.30696,19748.04,SACRED HEART HOSPITAL ON THE EMERALD COAST
3.72,27.38993,-82.43343,25004.70,LAKEWOOD RANCH MEDICAL CENTER
3.13,34.78963,-84.98398,18196.19,HAMILTON MEDICAL CENTER
2.67,32.88710,-84.33393,12899.67,UPSON REGIONAL MEDICAL CENTER
3.03,31.22516,-82.34898,16978.81,SATILLA REGIONAL MEDICAL CENTER
3.39,34.94766,-85.26296,21238.10,HUTCHESON MEDICAL CENTER
2.84,31.59023,-84.15756,14807.52,PHOEBE PUTNEY MEMORIAL HOSPITAL
3.79,34.24569,-84.49068,25891.95,NORTHSIDE HOSPITAL CHEROKEE
3.25,33.79230,-84.32107,19533.13,EMORY UNIVERSITY HOSPITAL
2.88,33.03204,-85.05781,15320.63,WEST GEORGIA MEDICAL CENTER
2.57,33.60237,-83.84809,11675.76,NEWTON MEDICAL CENTER
3.19,34.51192,-84.92579,18949.57,GORDON HOSPITAL
3.40,32.02825,-81.09977,21270.78,CANDLER HOSPITAL
3.16,33.47096,-81.98176,18592.84,UNIVERSITY HOSPITAL
3.75,34.30335,-83.81737,25383.89,NORTHEAST GEORGIA MEDICAL CENTER, INC
4.34,34.19990,-84.79378,32260.19,CARTERSVILLE MEDICAL CENTER
2.81,33.47091,-81.98988,14484.14,MEDICAL COLLEGE OF GA HOSPITALS AND CLINICS
3.63,33.96770,-84.55011,24000.62,WELLSTAR KENNESTONE HOSPITAL
2.69,33.46767,-82.01807,13102.17,TRINITY HOSPITAL OF AUGUSTA
2.85,34.21877,-83.46906,14922.26,NORTHRIDGE MEDICAL CENTER
3.06,33.91929,-84.85224,17336.88,WELLSTAR PAULDING HOSPITAL
3.42,31.98515,-81.15475,21543.32,ST JOSEPH'S HOSPITAL - SAVANNAH
2.72,32.06513,-84.25260,13445.79,PHOEBE SUMTER MEDICAL CENTER
3.47,34.26000,-85.17000,22195.05,FLOYD MEDICAL CENTER
2.84,32.61642,-83.63065,14782.25,HOUSTON MEDICAL CENTER
2.25,31.71491,-83.25265,7963.12,DORMINY MEDICAL CENTER
3.28,33.96117,-83.39832,19878.32,ATHENS REGIONAL MEDICAL CENTER
2.90,33.78956,-84.28077,15502.50,DEKALB MEDICAL CENTER
3.13,33.76810,-84.38616,18210.68,EMORY UNIVERSITY HOSPITAL MIDTOWN
3.57,33.75205,-84.38272,23268.38,GRADY MEMORIAL HOSPITAL
3.41,33.90877,-84.35180,21480.85,SAINT JOSEPH'S HOSPITAL OF ATLANTA, INC
3.16,33.68072,-84.00200,18578.80,ROCKDALE MEDICAL CENTER
2.65,32.18558,-83.17874,12670.67,DODGE COUNTY HOSPITAL
3.34,31.47069,-83.50473,20588.16,TIFT REGIONAL MEDICAL CENTER
2.39,31.14480,-83.42509,9568.25,MEMORIAL HOSPITAL OF ADEL INC
2.62,31.97683,-83.78280,12254.22,CRISP REGIONAL HOSPITAL
3.16,32.83041,-83.63476,18548.74,MEDICAL CENTER OF CENTRAL GEORGIA
2.56,32.59212,-82.34541,11573.26,EMANUEL MEDICAL CENTER
5.04,33.76372,-84.37315,40368.56,ATLANTA MEDICAL CENTER
2.73,30.86359,-84.20030,13504.60,GRADY GENERAL HOSPITAL
2.87,30.86250,-83.28630,15157.03,SOUTH GEORGIA MEDICAL CENTER
2.78,31.60200,-81.89172,14081.76,WAYNE MEMORIAL HOSPITAL
3.00,32.20903,-82.37585,16648.61,MEADOWS REGIONAL MEDICAL CENTER
2.39,32.28377,-83.47212,9583.52,TAYLOR REGIONAL HOSPITAL
2.71,32.16413,-81.90041,13293.38,EVANS MEMORIAL HOSPITAL
3.56,33.85638,-84.60446,23235.77,WELLSTAR COBB HOSPITAL
3.06,33.08014,-83.23210,17349.96,OCONEE REGIONAL MEDICAL CENTER
2.75,32.45961,-83.70967,13776.11,PERRY HOSPITAL
4.50,33.90903,-84.35410,34047.79,NORTHSIDE HOSPITAL
3.70,32.84705,-83.61823,24813.90,COLISEUM MEDICAL CENTER
3.31,33.57843,-84.38897,20315.97,SOUTHERN REGIONAL MEDICAL CENTER
4.69,33.48259,-82.09038,36345.34,DOCTORS HOSPITAL
2.87,33.85770,-84.51542,15167.12,EMORY-ADVENTIST HOSPITAL
2.89,33.51144,-84.22200,15394.15,HENRY MEDICAL CENTER, INC
6.56,34.06334,-84.31976,58013.82,NORTH FULTON REGIONAL HOSPITAL
3.24,32.86625,-83.69421,19483.00,COLISEUM NORTHSIDE HOSPITAL
2.92,33.45252,-84.50697,15795.33,PIEDMONT FAYETTE HOSPITAL
5.48,33.68000,-84.42685,45508.65,SOUTH FULTON MEDICAL CENTER
2.90,33.70365,-84.14697,15543.41,DEKALB MEDICAL CENTER AT HILLANDALE
2.61,34.06670,-84.17643,12147.95,EMORY JOHNS CREEK HOSPITAL
3.59,21.30780,-157.85505,23562.13,THE QUEENS MEDICAL CENTER
3.02,19.71761,-155.11327,16955.90,HILO MEDICAL CENTER
3.26,21.38095,-157.75759,19658.75,CASTLE MEDICAL CENTER
3.47,21.32239,-157.85662,22139.59,KUAKINI MEDICAL CENTER
3.61,21.32872,-157.85179,23763.50,HAWAII MEDICAL CENTER EAST
4.08,21.98514,-159.36388,29194.00,WILCOX MEMORIAL HOSPITAL
3.56,19.51963,-155.91744,23146.67,KONA COMMUNITY HOSPITAL
3.71,21.30226,-157.85092,24918.30,STRAUB CLINIC AND HOSPITAL
3.79,21.37080,-158.02746,25872.57,HAWAII MEDICAL CENTER WEST
3.19,43.61218,-116.19234,18841.43,ST LUKES REGIONAL MEDICAL CENTER
2.74,43.55374,-116.57267,13694.04,SAINT ALPHONSUS MEDICAL CENTER - NAMPA
3.12,43.65510,-116.69360,18025.04,WEST VALLEY MEDICAL CENTER
3.65,43.46987,-111.99208,24257.57,EASTERN IDAHO REGIONAL MEDICAL CENTER
2.38,43.82551,-111.77071,9486.92,MADISON MEMORIAL HOSPITAL
3.69,42.06550,-87.68428,24684.91,EVANSTON HOSPITAL
2.90,40.75318,-89.59321,15538.46,PROCTOR HOSPITAL
3.26,39.93563,-91.39833,19706.52,BLESSING HOSPITAL
3.60,41.86011,-87.69571,23641.15,MT SINAI HOSPITAL MEDICAL CENTER
5.08,41.72930,-88.26976,40819.80,COPLEY MEMORIAL HOSPITAL
2.71,39.12680,-88.55059,13348.68,ST ANTHONYS MEMORIAL HOSPITAL
2.79,38.52908,-89.11604,14223.99,ST MARYS HOSPITAL
4.41,40.95560,-90.36618,33015.12,GALESBURG COTTAGE HOSPITAL
3.51,41.80160,-89.69714,22617.57,CGH MEDICAL CENTER
2.73,38.32292,-88.91026,13584.12,GOOD SAMARITAN REGIONAL HLTH CENTER
3.40,41.72636,-87.56727,21354.04,ADVOCATE TRINITY HOSPITAL
3.59,41.89141,-87.77618,23479.37,WEST SUBURBAN MEDICAL CENTER
3.79,42.05624,-87.74012,25861.02,SKOKIE HOSPITAL
3.41,38.90787,-90.17207,21499.44,SAINT ANTHONY'S HEALTH CENTER
3.26,39.80726,-89.64496,19705.69,ST JOHNS HOSPITAL
3.48,41.83195,-87.79266,22273.96,MACNEAL  HOSPITAL
3.95,41.66900,-87.81414,27650.84,PALOS COMMUNITY HOSPITAL
3.58,40.98818,-90.36374,23467.94,ST MARY MEDICAL CENTER
4.02,40.70200,-89.59222,28502.32,SAINT FRANCIS MEDICAL CENTER
4.23,41.69322,-87.62436,30991.73,ROSELAND COMMUNITY HOSPITAL
2.25,41.87259,-87.76181,8040.76,LORETTO HOSPITAL
4.16,42.37840,-87.83329,30179.19,VISTA MEDICAL CENTER EAST
5.32,41.78829,-87.60485,43609.03,THE UNIVERSITY OF CHICAGO MEDICAL CENTER
2.68,40.44791,-90.66578,13022.09,MC DONOUGH DISTRICT HOSPITAL
3.90,40.13811,-87.64569,27132.29,PROVENA UNITED SAMARITANS MEDCTR-LOGAN
3.69,41.36897,-88.42537,24730.39,MORRIS HOSPITAL & HEALTHCARE CENTERS
3.27,41.77813,-87.63330,19808.29,ST BERNARD HOSPITAL
3.34,40.11739,-88.22714,20677.33,PROVENA COVENANT MEDICAL CENTER- URBANA
4.50,41.97532,-87.69958,34054.34,SWEDISH COVENANT HOSPITAL
3.11,41.95453,-87.65225,17983.90,THOREK MEMORIAL HOSPITAL
3.24,42.31832,-88.27920,19414.73,CENTEGRA HEALTH SYSTEM - MC HENRY HOSPITAL
3.91,41.80555,-87.92059,27249.27,HINSDALE HOSPITAL
2.90,41.87381,-87.67421,15526.35,JOHN H STROGER JR HOSPITAL
6.69,38.70148,-90.14382,59537.12,GATEWAY REGIONAL MEDICAL CENTER
2.83,40.49639,-88.99106,14744.44,BROMENN HEALTHCARE
3.57,41.76946,-87.69239,23263.83,HOLY CROSS HOSPITAL
3.16,38.73505,-88.07708,18543.98,RICHLAND MEMORIAL HOSPITAL
3.80,41.86927,-87.67052,26018.52,UNIVERSITY OF ILLINOIS HOSPITAL
3.59,41.89006,-87.70757,23506.10,SACRED HEART HOSPITAL
4.56,41.12049,-87.87187,34806.88,PROVENA ST MARYS HOSPITAL
2.98,41.84639,-87.62345,16446.49,MERCY HOSPITAL AND MEDICAL CENTER
2.85,42.29592,-89.63773,14894.06,FHN MEMORIAL HOSPITAL
2.85,37.72790,-89.22058,14899.83,MEMORIAL HOSPITAL OF CARBONDALE
3.36,39.82659,-88.93119,20901.61,ST MARYS HOSPITAL
4.07,41.78566,-88.32886,29093.93,PROVENA MERCY MEDICAL CENTER
3.38,42.27597,-88.40019,21124.19,CENTEGRA HEALTH SYSTEM - WOODSTOCK HOSPITAL
3.69,41.72094,-87.69220,24716.82,LITTLE COMPANY OF MARY HOSPITAL
4.87,41.90414,-87.68254,38414.62,ST MARY & ELIZABETH MED CTR-DIVISION CAMPUS
3.11,41.12572,-87.88526,17987.86,RIVERSIDE MEDICAL CENTER
3.33,38.51081,-89.99014,20545.68,ST ELIZABETH HOSPITAL
2.84,39.48849,-88.27581,14812.71,SARAH BUSH LINCOLN HEALTH CENTER
4.04,41.86362,-87.93567,28697.58,ELMHURST MEMORIAL HOSPITAL
4.54,42.27447,-87.95764,34591.85,ADVOCATE CONDELL MEDICAL CENTER
3.78,41.72031,-87.73249,25699.62,ADVOCATE CHRIST HOSPITAL & MEDICAL CENTER
4.26,41.88566,-88.34311,31273.44,DELNOR COMMUNITY HOSPITAL
4.55,42.03576,-88.32575,34644.38,PROVENA - SAINT JOSEPH HOSPITAL
3.76,42.03837,-87.84820,25458.19,ADVOCATE LUTHERAN GENERAL HOSPITAL
3.93,41.93418,-87.63579,27480.53,SAINT JOSEPH HOSPITAL
3.77,42.26584,-89.07428,25604.63,SWEDISH AMERICAN HOSPITAL
3.50,42.26634,-89.00900,22442.31,SAINT ANTHONY MEDICAL CENTER
3.50,41.32878,-89.12520,22520.27,ILLINOIS VALLEY COMMUNITY HOSPITAL
3.33,42.29844,-89.09897,20518.06,ROCKFORD MEMORIAL HOSPITAL
4.09,41.89166,-87.84838,29277.16,WESTLAKE COMMUNITY HOSPITAL
3.25,41.56720,-87.69566,19590.71,ADVOCATE SOUTH SUBURBAN HOSPITAL
3.89,41.94560,-87.76897,26999.58,OUR LADY OF THE RESURRECTION MED CTR
2.78,41.49581,-90.41871,14178.87,GENESIS MEDICAL CENTER ILLINI CAMPUS
2.74,41.48200,-90.57158,13712.89,TRINITY ROCK ISLAND
3.65,41.96185,-88.72130,24270.19,KISHWAUKEE COMMUNITY HOSPITAL
3.66,41.81791,-88.00907,24303.66,ADVOCATE GOOD SAMARITAN HOSPITAL
3.02,38.73818,-89.94728,16946.47,ANDERSON HOSPITAL
4.33,41.91465,-88.05724,32140.58,ADVENTIST GLENOAKS
3.26,38.31198,-88.93514,19653.33,CROSSROADS COMMUNITY HOSPITAL
2.24,41.80249,-87.61357,7856.96,PROVIDENT HOSPITAL OF CHICAGO
3.25,39.76255,-86.50165,19567.63,HENDRICKS REGIONAL HEALTH
3.53,41.61055,-86.72511,22828.48,INDIANA UNIVERSITY HEALTH LA PORTE HOSPITAL
2.63,40.44665,-86.12707,12411.36,HOWARD REGIONAL HEALTH SYSTEM
3.00,41.63466,-87.44901,16632.28,ST CATHERINE HOSPITAL INC
3.51,40.48720,-86.15548,22581.46,ST JOSEPH HOSPITAL & HEALTH CENTER INC
2.74,40.56435,-85.66576,13703.72,MARION GENERAL HOSPITAL
3.15,41.70639,-86.89936,18477.61,FRANCISCAN ST ANTHONY HEALTH - MICHIGAN CITY
3.06,41.70568,-85.93404,17354.90,ELKHART GENERAL HOSPITAL
3.07,40.06464,-86.90821,17451.53,FRANCISCAN ST ELIZABETH HEALTH - CRAWFORDSVILLE
3.23,39.94340,-85.36306,19337.09,HENRY COUNTY MEMORIAL HOSPITAL
3.13,41.51266,-87.26125,18201.77,ST MARY MEDICAL CENTER INC
3.50,41.46729,-87.05130,22463.40,PORTER VALPARAISO HOSPITAL
3.32,39.42628,-86.40515,20366.06,INDIANA UNIVERSITY HEALTH MORGAN HOSPITAL INC
2.89,41.36880,-85.03512,15407.56,DEKALB HEALTH
3.71,39.79009,-86.16260,24868.66,INDIANA UNIVERSITY HEALTH
3.20,40.04526,-86.02297,19050.45,RIVERVIEW HOSPITAL
2.41,38.65870,-87.16032,9817.15,DAVIESS COMMUNITY HOSPITAL
3.05,39.65626,-85.13265,17242.41,FAYETTE REGIONAL HEALTH SYSTEM
2.67,38.95542,-85.89223,12876.33,SCHNECK MEDICAL CENTER
3.12,39.78704,-86.07673,18085.02,COMMUNITY HOSPITAL EAST
3.31,37.98293,-87.57072,20242.72,DEACONESS HOSPITAL INC
3.73,39.91001,-86.19660,25190.34,ST VINCENT HOSPITAL & HEALTH SERVICES
3.27,39.11138,-84.88343,19823.33,DEARBORN COUNTY HOSPITAL
3.14,40.09594,-85.68152,18360.53,SAINT JOHN'S HEALTH SYSTEM
3.49,40.19679,-85.41573,22405.59,INDIANA UNIVERSITY HEALTH BALL MEMORIAL HOSPITAL
2.95,40.90491,-85.48821,16060.74,PARKVIEW HUNTINGTON HOSPITAL
3.41,39.52494,-85.78113,21394.78,MAJOR HOSPITAL
3.21,37.96320,-87.50292,19117.62,ST MARY'S MEDICAL CENTER OF EVANSVILLE INC
2.73,41.15823,-85.46490,13534.71,PARKVIEW WHITLEY HOSPITAL
3.07,40.07620,-86.47506,17519.05,WITHAM HEALTH SERVICES
3.05,39.21585,-85.89683,17249.45,COLUMBUS REGIONAL HOSPITAL
2.29,38.39499,-86.94089,8429.00,MEMORIAL HOSPITAL AND HEALTH CARE CENTER
3.48,41.24786,-85.82927,22290.98,KOSCIUSKO COMMUNITY HOSPITAL
2.80,41.44803,-85.29574,14404.74,PARKVIEW NOBLE HOSPITAL
3.60,39.94017,-86.15975,23598.91,ST VINCENT HEART CENTER OF INDIANA LLC
3.12,39.90201,-86.04478,18117.33,INDIANA HEART HOSPITAL THE
3.61,39.98275,-86.14343,23731.13,ST VINCENT CARMEL HOSPITAL INC
3.22,39.95930,-86.16016,19239.19,INDIANA UNIVERSITY HEALTH NORTH HOSPITAL
3.16,39.64935,-86.07960,18560.46,FRANCISCAN ST FRANCIS HEALTH - INDIANAPOLIS
3.19,39.90060,-86.04218,18929.30,COMMUNITY HOSPITAL NORTH
3.51,40.40296,-86.80885,22616.63,INDIANA UNIVERSITY HEALTH ARNETT HOSPITAL
2.55,37.97481,-87.44457,11517.13,THE HEART HOSPITAL AT DEACONESS GATEWAY LLC
2.82,42.04855,-92.90625,14547.50,MARSHALLTOWN MEDICAL & SURGICAL CENTER
3.02,42.49388,-94.18926,16920.83,TRINITY REGIONAL MEDICAL CENTER
3.50,41.26886,-95.83923,22439.00,ALEGENT HEALTH MERCY HOSPITAL
3.13,41.66411,-91.52841,18151.67,MERCY HOSPITAL
2.55,41.70263,-93.05510,11413.92,SKIFF MEDICAL CENTER
2.93,41.54190,-90.55691,15834.71,GENESIS MEDICAL CENTER-DAVENPORT
3.21,41.98570,-91.66093,19163.63,ST LUKES HOSPITAL
3.27,41.26786,-95.83505,19851.09,JENNIE EDMUNDSON HOSPITAL
3.64,41.66092,-91.54800,24055.45,UNIVERSITY OF IOWA HOSPITAL & CLINICS
3.04,43.15063,-93.21718,17136.66,MERCY MEDICAL CENTER-NORTH IOWA
2.74,41.97864,-91.65507,13729.50,MERCY MEDICAL CENTER - CEDAR RAPIDS
2.90,41.86141,-90.18921,15561.09,MERCY MEDICAL CENTER-CLINTON
3.26,41.59886,-93.62344,19732.50,MERCY MEDICAL CENTER-DES MOINES
2.70,41.02751,-92.38994,13227.38,OTTUMWA REGIONAL HEALTH CENTER
2.43,43.14994,-95.14317,10020.20,SPENCER MUNICIPAL HOSPITAL
2.71,42.49632,-90.68587,13271.02,THE FINLEY HOSPITAL
2.52,40.62419,-91.38232,11162.72,FORT MADISON COMMUNITY HOSPITAL
2.87,42.51846,-96.40581,15128.86,ST LUKES REGIONAL MEDICAL CENTER
2.41,41.74325,-92.73450,9870.85,GRINNELL REGIONAL MEDICAL CENTER
2.72,42.49250,-96.39975,13477.49,MERCY MEDICAL CENTER-SIOUX CITY
2.92,38.41149,-96.19524,15757.14,NEWMAN REGIONAL HEALTH
3.05,37.37991,-94.68739,17305.04,VIA CHRISTI HOSPITAL PITTSBURG INC
3.58,39.28218,-94.90368,23357.83,SAINT JOHN HOSPITAL
3.32,38.83324,-97.61028,20419.17,SALINA REGIONAL HEALTH CENTER
3.51,38.87847,-99.29923,22546.90,HAYS MEDICAL CENTER
3.11,38.59724,-95.26874,17913.50,RANSOM MEMORIAL HOSPITAL
2.84,39.05660,-95.69599,14812.31,ST FRANCIS HEALTH CENTER INC
3.01,37.81826,-96.85834,16851.47,SUSAN B ALLEN MEMORIAL HOSPITAL
3.51,38.85279,-94.82413,22581.56,OLATHE MEDICAL CENTER
2.81,38.02419,-97.33117,14505.82,NEWTON MEDICAL CENTER
4.78,37.69556,-97.29785,37374.01,WESLEY MEDICAL CENTER
2.56,38.97848,-95.24771,11551.41,LAWRENCE MEMORIAL HOSPITAL
3.64,39.12677,-94.78643,24096.33,PROVIDENCE MEDICAL CENTER
2.14,37.00254,-101.90475,6765.86,MORTON COUNTY HOSPITAL
3.23,37.78537,-100.01492,19298.65,WESTERN PLAINS MEDICAL COMPLEX
5.25,38.93763,-94.72630,42729.86,OVERLAND PARK REG MED CTR
4.63,38.91047,-94.65205,35624.93,MENORAH MEDICAL CENTER
3.97,38.90355,-94.66966,27925.46,SAINT LUKE'S SOUTH HOSPITAL
2.50,37.73142,-97.26078,10898.56,GALICHIA HEART HOSPITAL LLC
3.25,39.07816,-84.46695,19585.63,ST ELIZABETH FT THOMAS
2.95,38.47021,-82.63498,16052.20,KING'S DAUGHTERS' MEDICAL CENTER
3.10,37.11784,-84.10910,17865.10,SAINT JOSEPH HOSPITAL LONDON
3.33,38.20960,-85.23598,20492.27,JEWISH HOSPITAL - SHELBYVILLE
2.59,37.01079,-85.90342,11928.29,T J SAMSON COMMUNITY HOSPITAL
2.55,38.18397,-83.43268,11417.69,ST CLAIRE REGIONAL MEDICAL CENTER
2.56,38.63961,-83.80820,11570.85,MEADOWVIEW REGIONAL MEDICAL CENTER
3.03,36.60615,-83.74024,17013.86,MIDDLESBORO APPALACHIAN REGIONAL HEALTHCARE HOSPIT
2.86,37.57060,-85.26071,15079.14,SPRING VIEW HOSPITAL
2.83,37.86188,-85.52322,14697.67,FLAGET MEMORIAL HOSPITAL (MEMBER OF SAINT JOSEPH H
3.20,36.60798,-88.30957,19050.71,MURRAY-CALLOWAY COUNTY HOSPITAL
3.29,37.27729,-83.22802,20098.17,HAZARD ARH REGIONAL MEDICAL CENTER
3.14,39.06704,-84.49946,18323.11,ST ELIZABETH MEDICAL CENTER NORTH
2.67,37.76518,-87.10197,12868.62,OWENSBORO MEDICAL HEALTH SYSTEM
3.60,37.16218,-83.76137,23644.06,MEMORIAL HOSPITAL
3.93,37.47264,-82.52605,27491.04,PIKEVILLE MEDICAL CENTER
2.43,38.22249,-84.23816,10091.96,BOURBON COMMUNITY HOSPITAL
2.41,38.07683,-83.94761,9833.15,SAINT JOSEPH MOUNT STERLING
3.06,36.81465,-86.88220,17392.54,LOGAN MEMORIAL HOSPITAL
5.23,37.81455,-82.81102,42557.86,PAUL B HALL REGIONAL MEDICAL CENTER
2.46,38.38564,-84.27793,10383.50,HARRISON MEMORIAL HOSPITAL
2.72,37.36583,-85.33917,13394.61,TAYLOR REGIONAL HOSPITAL
2.56,38.00003,-84.19667,11627.52,CLARK REGIONAL MEDICAL CENTER
2.74,37.33959,-87.48988,13723.60,REGIONAL MEDICAL CENTER OF HOPKINS COUNTY
3.19,38.01849,-84.51236,18847.62,CENTRAL BAPTIST HOSPITAL
2.44,36.70006,-85.67862,10182.07,MONROE COUNTY MEDICAL CENTER
2.26,36.69659,-85.13726,8145.59,CLINTON COUNTY HOSPITAL, INC
2.27,37.35762,-84.33605,8218.07,ROCKCASTLE REG HOSPITAL & RESPIRATORY CARE CTR
3.48,38.16020,-84.90519,22229.49,FRANKFORT REGIONAL MEDICAL CENTER
3.44,37.08724,-84.61828,21739.84,LAKE CUMBERLAND REGIONAL HOSPITAL
2.68,38.39635,-85.37324,12950.97,BAPTIST HOSPITAL NORTHEAST
3.54,37.56166,-83.37202,22903.54,KENTUCKY RIVER MEDICAL CENTER
2.65,37.09412,-85.29359,12620.73,WESTLAKE REGIONAL HOSPITAL
3.02,30.20227,-92.01906,16883.55,LAFAYETTE GENERAL MEDICAL CENTER
3.71,30.00890,-91.79475,24942.27,DAUTERIVE HOSPITAL
3.28,29.59851,-90.71397,19903.93,TERREBONNE GENERAL MEDICAL CENTER
2.86,32.45097,-92.10545,15012.40,E A CONWAY MEDICAL CENTER
2.94,30.22981,-93.36867,16014.95,WEST CALCASIEU CAMERON HOSPITAL
5.17,30.46813,-90.45814,41861.39,NORTH OAKS MEDICAL CENTER, LLC
3.11,30.54354,-92.07608,17970.75,OPELOUSAS GENERAL HEALTH SYSTEM
3.38,31.28258,-92.46060,21052.87,CHRISTUS ST FRANCES CABRINI HOSPITAL
3.35,30.65001,-91.13821,20694.94,LANE REGIONAL MEDICAL CENTER
3.42,30.64108,-92.41842,21515.96,SAVOY MEDICAL CENTER
3.80,31.31451,-92.44997,25945.54,RAPIDES REGIONAL MEDICAL CENTER
3.97,30.28456,-89.77038,27972.24,SLIDELL MEMORIAL HOSPITAL AND MEDICAL CENTER
2.19,30.22762,-92.36253,7289.77,AMERICAN LEGION HOSPITAL
3.86,30.84189,-93.28906,26615.27,BEAUREGARD MEMORIAL HOSPITAL
3.54,30.20458,-93.19774,22939.16,LAKE CHARLES MEMORIAL HOSPITAL
2.66,30.40118,-91.11160,12694.24,OUR LADY OF THE LAKE REGIONAL MEDICAL CENTER
2.43,30.45015,-91.15273,10021.85,BATON ROUGE GENERAL MEDICAL CENTER
2.35,32.86785,-91.38322,9114.75,WEST CARROLL MEMORIAL HOSPITAL
4.05,32.51544,-92.63343,28895.81,NORTHERN LOUISIANA MEDICAL CENTER
2.60,32.48177,-93.76264,12073.09,LSU HEALTH SCIENCES CENTER - SHREVEPORT
3.37,31.14344,-92.06453,20927.90,AVOYELLES HOSPITAL
3.38,32.48393,-93.77884,21062.34,WILLIS KNIGHTON MEDICAL CENTER
2.79,32.79391,-93.06245,14243.86,HOMER MEMORIAL HOSPITAL
2.55,32.03593,-93.70910,11504.00,DESOTO REGIONAL HEALTH SYSTEM
2.71,29.93718,-90.10329,13342.68,OCHSNER BAPTIST MEDICAL CENTER LLC
3.06,32.61700,-93.28566,17411.09,MINDEN MEDICAL CENTER
3.19,30.01438,-90.18155,18923.10,EAST JEFFERSON GENERAL HOSPITAL
4.23,31.13861,-93.26892,30916.06,BYRD REGIONAL HOSPITAL
2.86,30.68494,-92.26601,15048.98,MERCY REGIONAL MEDICAL CENTER
3.79,30.07331,-90.51602,25840.43,RIVER PARISHES HOSPITAL
3.92,29.95570,-90.07587,27343.09,TULANE MEDICAL CENTER
2.28,32.10429,-92.07602,8314.32,CALDWELL MEMORIAL HOSPITAL
2.84,30.43973,-91.00727,14822.00,OCHSNER MEDICAL CENTER-BATON ROUGE
4.93,30.28681,-89.74295,39082.73,OCHSNER MEDICAL CENTER - NORTHSHORE, LLC
2.03,32.80743,-91.17128,5424.27,EAST CARROLL PARISH HOSPITAL
2.54,31.56038,-93.47134,11341.08,SABINE MEDICAL CENTER
2.59,30.20918,-90.93215,11876.20,ST ELIZABETH HOSPITAL
3.38,30.35437,-89.91917,21093.88,LOUISIANA MEDICAL CENTER AND HEART HOSPITAL, LLC
3.04,30.17316,-92.02697,17133.81,HEART HOSPITAL OF LAFAYETTE
3.05,44.02611,-69.52811,17241.79,MILES MEMORIAL HOSPITAL (LINCOLN COUNTY HEALTHCARE
2.93,43.65159,-70.26482,15860.00,MERCY HOSPITAL
3.00,43.65325,-70.27533,16637.85,MAINE MEDICAL CENTER
3.01,43.47840,-70.49221,16767.18,SOUTHERN MAINE MEDICAL CENTER
2.68,44.10107,-70.21432,12939.95,CENTRAL MAINE MEDICAL CENTER
3.39,43.91137,-69.81471,21204.58,PARKVIEW ADVENTIST MEDICAL CENTER
2.87,44.10276,-70.20093,15140.31,ST MARYS REGIONAL MEDICAL CENTER
2.95,44.62294,-70.16307,16154.46,FRANKLIN MEMORIAL HOSPITAL
2.88,47.26827,-68.59140,15291.56,NORTHERN MAINE MEDICAL CENTER
2.85,44.14436,-69.08577,14908.23,PENOBSCOT BAY MEDICAL CENTER
2.22,39.62183,-77.68219,7673.22,MERITUS MEDICAL CENTER
2.91,39.28817,-76.62438,15592.71,UNIVERSITY OF MARYLAND MEDICAL CENTER
2.53,38.93090,-76.92161,11247.43,PRINCE GEORGES HOSPITAL CENTER
2.35,39.01578,-77.03591,9107.11,HOLY CROSS HOSPITAL
2.30,39.42366,-77.41386,8528.32,FREDERICK MEMORIAL HOSPITAL
2.42,39.54345,-76.09153,9960.20,HARFORD MEMORIAL HOSPITAL
2.27,39.38813,-76.61068,8191.26,SAINT JOSEPH MEDICAL CENTER
3.03,39.29688,-76.59242,17050.43,JOHNS HOPKINS HOSPITAL, THE
2.37,39.27352,-76.67219,9399.77,SAINT AGNES HOSPITAL
2.44,39.35262,-76.66196,10138.79,SINAI HOSPITAL OF BALTIMORE
2.33,39.35169,-76.47919,8952.64,FRANKLIN SQUARE HOSPITAL CENTER
2.35,39.41339,-79.40103,9091.00,GARRETT COUNTY MEMORIAL HOSPITAL
2.30,39.15402,-77.05431,8578.14,MONTGOMERY GENERAL HOSPITAL INC
2.37,38.36248,-75.59799,9341.86,PENINSULA REGIONAL MEDICAL CENTER
2.29,38.99014,-76.53398,8487.62,ANNE ARUNDEL MEDICAL CENTER
2.45,39.32930,-76.61432,10346.89,UNION MEMORIAL HOSPITAL
2.28,38.29124,-76.63579,8302.96,SAINT MARY'S HOSPITAL
2.29,39.60859,-75.83201,8483.37,UNION HOSPITAL OF CECIL COUNTY
2.37,39.55808,-76.99107,9419.06,CARROLL HOSPITAL CENTER
2.31,38.52905,-76.97068,8661.81,CIVISTA MEDICAL CENTER
2.45,38.76970,-76.07697,10282.90,MEMORIAL HOSPITAL AT EASTON
2.53,39.29994,-76.62138,11195.61,MARYLAND GENERAL  HOSPITAL
2.23,38.55963,-76.59455,7783.81,CALVERT MEMORIAL HOSPITAL
2.40,39.35852,-76.78208,9721.81,NORTHWEST HOSPITAL CENTER
2.34,39.13732,-76.62228,9088.80,BALTIMORE WASHINGTON  MEDICAL CENTER
2.17,39.21273,-76.88526,7040.96,HOWARD COUNTY GENERAL HOSPITAL
2.24,39.51870,-76.34688,7910.95,UPPER CHESAPEAKE MEDICAL CENTER
2.33,38.74827,-76.87590,8931.78,SOUTHERN MARYLAND HOSPITAL CENTER
2.40,39.35962,-76.58851,9743.67,GOOD SAMARITAN HOSPITAL
2.41,39.09796,-77.19799,9820.30,SHADY GROVE ADVENTIST HOSPITAL
2.26,38.72818,-76.99214,8084.60,FORT WASHINGTON HOSPITAL
2.06,38.33876,-75.21128,5732.78,ATLANTIC GENERAL HOSPITAL
2.54,42.37441,-71.13378,11330.88,MOUNT AUBURN HOSPITAL
2.58,42.70912,-71.14877,11769.51,LAWRENCE GENERAL HOSPITAL
2.85,42.59584,-72.59255,14946.21,BAYSTATE FRANKLIN MEDICAL CENTER
2.61,42.27872,-71.06625,12181.89,CARNEY HOSPITAL
2.66,42.07708,-72.04298,12705.26,HARRINGTON MEMORIAL HOSPITAL
2.53,41.69217,-71.16474,11284.98,SAINT ANNE'S HOSPITAL
2.36,42.20038,-72.62762,9233.51,HOLYOKE MEDICAL CENTER
2.64,42.81476,-70.89068,12554.15,ANNA JAQUES HOSPITAL
2.67,42.16849,-72.34130,12888.78,WING MEMORIAL HOSPITAL AND MEDICAL CENTER
2.55,42.56407,-70.87543,11506.32,BEVERLY HOSPITAL CORPORATION
3.59,42.51078,-70.90712,23547.01,NORTH SHORE MEDICAL CENTER
2.58,42.34896,-71.14768,11785.64,ST ELIZABETH'S MEDICAL CENTER
2.80,42.35375,-71.55485,14313.22,MARLBOROUGH HOSPITAL
2.65,42.70589,-73.10840,12591.50,NORTH ADAMS REGIONAL HOSPITAL
2.68,42.03597,-71.09792,12951.42,SIGNATURE HEALTHCARE BROCKTON HOSPITAL
2.28,41.94445,-70.64511,8288.27,JORDAN HOSPITAL INC
2.82,42.64636,-71.34118,14587.51,LOWELL GENERAL HOSPITAL
2.43,42.46049,-71.06203,10125.99,HALLMARK HEALTH SYSTEM
4.78,42.36227,-71.06941,37358.82,MASSACHUSETTS GENERAL HOSPITAL
2.31,41.90456,-71.09562,8704.36,MORTON HOSPITAL
2.84,41.70928,-71.14519,14871.92,SOUTHCOAST HOSPITAL GROUP, INC
2.83,42.12077,-72.60525,14733.78,BAYSTATE MEDICAL CENTER
2.55,42.72846,-71.16830,11427.91,HOLY FAMILY HOSPITAL
2.57,42.64529,-71.30052,11711.98,SAINTS  MEDICAL CENTER INC
2.64,42.43082,-71.37554,12498.09,EMERSON HOSPITAL
2.40,42.58660,-71.98678,9685.27,HEYWOOD HOSPITAL
2.60,42.17644,-70.95398,12047.77,SOUTH SHORE HOSPITAL
2.51,42.25232,-71.07515,10960.27,MILTON HOSPITAL INC
4.76,42.33600,-71.10704,37079.63,BRIGHAM AND WOMEN'S HOSPITAL
2.27,42.09864,-71.06607,8237.78,GOOD SAMARITAN MEDICAL CENTER
2.76,42.34951,-71.06331,13883.03,TUFTS MEDICAL CENTER
2.30,42.18869,-71.20197,8522.26,NORWOOD HOSPITAL
2.32,41.56412,-70.62200,8822.36,FALMOUTH HOSPITAL
2.60,42.76256,-71.04507,12036.64,MERRIMACK VALLEY HOSPITAL
2.60,42.28385,-71.41896,12060.35,METROWEST MEDICAL CENTER
2.60,42.82157,-85.98743,12087.96,SPECTRUM HEALTH ZEELAND COMMUNITY HOSPITAL
2.60,43.20588,-86.20839,12069.23,MERCY HEALTH PARTNERS, MERCY CAMPUS
2.59,42.63347,-83.30925,11920.96,DOCTORS' HOSPITAL OF MICHIGAN
3.18,42.45741,-83.20513,18750.66,PROVIDENCE HOSPITAL AND MEDICAL CENTERS
3.30,42.29077,-83.21504,20140.17,OAKWOOD HOSPITAL AND MEDICAL CENTER
2.66,41.93815,-84.98935,12750.09,COMMUNITY HEALTH CENTER OF BRANCH COUNTY
2.68,42.61425,-83.27602,12928.66,ST JOSEPH MERCY OAKLAND
2.58,43.17554,-85.26879,11795.26,SPECTRUM HEALTH UNITED MEMORIAL - UNITED CAMPUS
2.79,42.96881,-85.66649,14249.77,SPECTRUM HEALTH - BUTTERWORTH CAMPUS
2.67,42.64303,-85.30706,12835.29,PENNOCK HOSPITAL
3.45,43.58941,-83.86908,21872.84,MCLAREN BAY REGION
2.64,42.61490,-82.96060,12520.54,HENRY FORD MACOMB HOSPITAL
3.04,42.36762,-83.08461,17122.61,HENRY FORD HOSPITAL
2.56,43.22169,-86.24283,11581.07,MERCY HEALTH PARTNERS, HACKLEY CAMPUS
2.91,43.42857,-83.95556,15644.95,COVENANT MEDICAL CENTER, INC
2.73,42.77487,-86.11378,13575.69,HOLLAND COMMUNITY HOSPITAL
2.51,42.33111,-85.17817,10955.39,BRONSON BATTLE CREEK HOSPITAL
3.08,43.42612,-83.94185,17579.56,ST MARY'S OF MICHIGAN MEDICAL CENTER
2.67,43.59935,-84.76097,12824.22,CENTRAL MICHIGAN COMMUNITY HOSPITAL
3.43,42.25117,-84.39240,21648.35,ALLEGIANCE HEALTH
2.11,43.69399,-85.47533,6364.72,MECOSTA COUNTY MEDICAL CENTER
2.31,44.26333,-84.24625,8677.60,WEST BRANCH REGIONAL MEDICAL CENTER
2.48,41.79423,-85.40861,10611.76,STURGIS HOSPITAL
2.18,44.27548,-83.51170,7143.75,TAWAS ST JOSEPH HOSPITAL
3.49,45.74575,-87.10106,22412.25,ST FRANCIS HOSPITAL
2.58,43.46517,-85.95072,11833.64,SPECTRUM HEALTH GERBER MEMORIAL
2.23,47.14130,-88.58580,7773.11,PORTAGE HEALTH HOSPITAL
3.39,43.95934,-86.42921,21199.57,MEMORIAL MEDICAL CENTER OF WEST MICHIGAN
2.06,43.79961,-83.04527,5825.32,HURON MEDICAL CENTER
3.29,43.00546,-84.18145,20056.13,MEMORIAL HEALTHCARE
3.36,43.02135,-83.70308,20863.34,HURLEY MEDICAL CENTER
2.89,42.21065,-83.14861,15465.07,HENRY FORD WYANDOTTE HOSPITAL
3.19,42.70417,-84.55488,18921.06,MCLAREN - GREATER LANSING
2.74,43.05082,-86.22893,13706.42,NORTH OTTAWA COMMUNITY HOSPITAL
3.23,42.11695,-83.21365,19337.68,OAKWOOD SOUTHSHORE MEDICAL CENTER
3.00,42.89254,-83.63621,16703.29,GENESYS REGIONAL MEDICAL CENTER - HEALTH PARK
2.69,42.63849,-83.29062,13149.51,MCLAREN OAKLAND
2.32,43.17597,-84.84268,8851.52,CARSON CITY HOSPITAL
3.14,42.98625,-82.42802,18278.77,PORT HURON HOSPITAL
3.20,42.27302,-84.95775,18979.13,OAKLAWN HOSPITAL
2.55,46.43131,-84.28107,11467.37,CHIPPEWA COUNTY WAR MEMORIAL HOSPITAL
2.79,42.33215,-83.31195,14210.93,GARDEN CITY HOSPITAL
3.22,42.67850,-83.14771,19280.04,CRITTENTON HOSPITAL MEDICAL CENTER
2.65,42.31028,-84.01594,12582.42,CHELSEA COMMUNITY HOSPITAL
3.68,42.61826,-83.09239,24539.68,WILLIAM BEAUMONT HOSPITAL-TROY
3.54,42.35295,-83.05447,22958.64,DETROIT RECEIVING HOSPITAL & UNIV HEALTH CENTER
3.23,42.59290,-83.49920,19302.64,HURON VALLEY-SINAI HOSPITAL
3.06,42.53914,-83.40777,17353.98,HENRY FORD WEST BLOOMFIELD HOSPITAL
2.91,46.79380,-92.09573,15696.78,ESSENTIA HEALTH ST MARY'S MEDICAL CENTER
3.41,44.97210,-93.26240,21427.27,HENNEPIN COUNTY MEDICAL CENTER
2.67,44.56023,-92.57240,12887.70,FAIRVIEW RED WING HOSPITAL
3.32,45.57390,-94.16942,20404.76,ST CLOUD HOSPITAL
3.01,47.41117,-92.93183,16768.05,UNIVERSITY MEDICAL CENTER-MESABI/ MESABA CLINICS
2.63,44.03521,-91.62181,12403.73,WINONA HEALTH SERVICES
2.67,46.79634,-92.08793,12876.46,ST LUKES HOSPITAL
2.94,46.27712,-96.07244,15935.65,LAKE REGION HEALTHCARE CORPORATION
4.64,44.95248,-93.26196,35723.23,ABBOTT NORTHWESTERN HOSPITAL
3.46,44.74684,-92.87286,22062.58,REGINA MEDICAL CENTER
3.17,44.11113,-93.25076,18612.62,OWATONNA HOSPITAL
2.71,46.36166,-94.20573,13380.17,ESSENTIA HEALTH ST JOSEPH'S MEDICAL CENTER
3.00,45.19325,-93.87136,16675.23,BUFFALO HOSPITAL
3.32,44.88645,-93.32693,20454.91,FAIRVIEW SOUTHDALE HOSPITAL
2.56,47.53102,-92.55580,11535.20,VIRGINIA REGIONAL MEDICAL CENTER
3.17,44.77252,-93.50323,18705.78,ST FRANCIS REGIONAL MEDICAL CENTER
3.16,44.95570,-93.09429,18574.11,REGIONS HOSPITAL
3.81,45.18355,-93.36789,26105.94,MERCY HOSPITAL
4.21,45.10789,-93.25685,30687.88,UNITY HOSPITAL
3.21,45.55758,-93.58615,19109.50,FAIRVIEW NORTHLAND REGIONAL HOSPITAL
2.87,43.63765,-94.44962,15125.04,MAYO CLINIC HEALTH SYSTEM - FAIRMONT
3.36,44.74846,-93.27289,20836.70,FAIRVIEW RIDGES HOSPITAL
2.83,45.13294,-93.47922,14764.56,MAPLE GROVE HOSPITAL
2.65,34.80355,-88.20905,12629.32,TISHOMINGO HEALTH SERVICES INC
2.92,34.24336,-88.71753,15734.41,NORTH MISSISSIPPI MEDICAL CENTER
2.73,34.49648,-89.03326,13531.14,BAPTIST MEMORIAL HOSPITAL UNION COUNTY
2.59,33.89232,-88.98141,11876.07,TRACE REGIONAL HOSP AND SWING BED
2.89,33.54068,-89.26701,15354.56,WEBSTER GENERAL HOSPITAL/SWING BED
3.05,33.97458,-88.47761,17321.00,GILMORE MEMORIAL HOSPITAL
2.91,34.34899,-89.52062,15695.02,BAPTIST MEMORIAL HOSPITAL NORTH MS
2.36,30.92176,-88.59286,9222.11,GEORGE COUNTY HOSPITAL
2.84,34.65637,-88.56564,14792.19,BAPTIST MEMORIAL HOSPITAL BOONEVILLE
2.58,31.14529,-90.45945,11776.05,BEACHAM MEMORIAL HOSPITAL
2.87,33.47600,-88.82100,15176.35,OCH REGIONAL MEDICAL CENTER
2.48,31.57544,-90.45670,10712.48,KING'S DAUGHTERS MEDICAL CENTER-BROOKHAVEN
2.46,33.61860,-88.66204,10461.20,CLAY COUNTY MEDICAL CENTER
4.27,32.28805,-90.25566,31376.73,CENTRAL MISSISSIPPI MEDICAL CENTER
2.42,31.25564,-89.80644,9943.89,MARION GENERAL HOSPITAL
3.15,33.74750,-90.71908,18464.50,BOLIVAR MEDICAL CENTER
2.42,33.45723,-90.65012,10005.39,SOUTH SUNFLOWER COUNTY HOSPITAL
2.58,31.24000,-90.45000,11808.72,SOUTHWEST MS REGIONAL MEDICAL CENTER
2.88,33.51824,-90.19832,15325.42,GREENWOOD LEFLORE HOSPITAL
2.91,33.52568,-88.42742,15697.40,BAPTIST MEM HOSP/GOLDEN TRIANGLE INC
3.57,32.31643,-90.17922,23254.13,MISSISSIPPI BAPTIST MEDICAL CENTER
3.25,32.37280,-88.69954,19640.55,ANDERSON REGIONAL MEDICAL CENTER
2.70,30.52996,-89.68782,13150.32,HIGHLAND COMMUNITY  HOSPITAL
5.08,31.56044,-91.40317,40757.30,NATCHEZ COMMUNITY HOSPITAL/SWING BED
4.92,30.44411,-89.09321,38930.70,GARDEN PARK MEDICAL CENTER
3.32,30.31288,-89.35571,20414.41,HANCOCK MEDICAL CENTER
3.42,37.06032,-94.52747,21512.67,ST JOHN'S REGIONAL MEDICAL CENTER
3.12,36.23658,-90.04315,18055.33,TWIN RIVERS REGIONAL MEDICAL CENTER
3.68,37.95144,-91.75940,24632.62,PHELPS COUNTY REGIONAL MEDICAL CENTER
3.88,40.19296,-92.59085,26895.58,NORTHEAST REGIONAL MEDICAL CENTER
2.56,38.16498,-90.38082,11624.46,JEFFERSON REGIONAL MEDICAL CENTER
2.66,39.71116,-91.45071,12725.02,HANNIBAL REGIONAL HOSPITAL
5.06,39.00717,-94.55925,40612.40,RESEARCH MEDICAL CENTER
3.08,38.63524,-90.26508,17618.81,BARNES JEWISH HOSPITAL
4.23,38.24953,-94.34075,31009.09,BATES COUNTY MEMORIAL HOSPITAL
2.78,39.08401,-94.57591,14132.44,TRUMAN MEDICAL CENTER HOSPITAL HILL
2.72,39.17288,-91.87692,13421.68,AUDRAIN MEDICAL CENTER
2.76,39.73178,-94.23067,13903.58,CAMERON REGIONAL MEDICAL CENTER
2.69,37.68142,-92.63587,13052.36,ST JOHNS HOSPITAL-LEBANON
2.84,37.83050,-94.35973,14863.22,NEVADA REGIONAL MEDICAL CENTER
3.25,37.17999,-93.27409,19566.25,ST JOHN'S REGIONAL HEALTH CENTER
2.75,38.94903,-92.31563,13835.36,BOONE HOSPITAL CENTER
2.98,36.23683,-89.74020,16474.58,PEMISCOT MEMORIAL HOSPITAL
4.30,39.42385,-92.41354,31750.46,MOBERLY REGIONAL MEDICAL CENTER
2.68,38.50661,-90.38025,12954.29,ST ANTHONY'S MEDICAL CENTER
2.61,36.73801,-91.87553,12169.18,OZARKS MEDICAL CENTER
3.75,38.63268,-90.31089,25436.79,SSM ST MARYS HEALTH CENTER
3.10,36.64970,-93.22138,17835.63,SKAGGS REGIONAL MEDICAL CENTER
4.46,39.04749,-94.34105,33609.11,CENTERPOINT MEDICAL CENTER OF INDEPENDENCE, LLC
3.66,38.75097,-90.43255,24315.59,SSM DEPAUL HEALTH CENTER
3.96,38.62280,-90.24049,27778.32,ST LOUIS UNIVERSITY HOSPITAL
3.50,37.31072,-89.53990,22540.74,SOUTHEAST MISSOURI HOSPITAL
2.62,38.19579,-91.16917,12261.40,MISSOURI BAPTIST HOSPITAL SULLIVAN
3.50,37.79962,-90.44045,22519.64,MINERAL AREA REGIONAL MEDICAL CENTER
4.14,36.78510,-90.42779,29960.72,POPLAR BLUFF REGIONAL MEDICAL CENTER
3.25,37.05238,-94.52777,19594.70,FREEMAN HEALTH SYSTEM - FREEMAN WEST
4.69,39.04761,-94.59037,36305.51,ST LUKES HOSPITAL OF KANSAS CITY
3.26,38.95171,-92.33407,19717.06,UNIVERSITY OF MISSOURI HEALTH CARE
2.52,39.10290,-93.21343,11158.26,FITZGIBBON MEMORIAL HOSPITAL
2.62,38.05155,-93.68915,12311.92,SAC-OSAGE HOSPITAL
2.49,38.67655,-90.46573,10816.00,BARNES-JEWISH WEST COUNTY HOSPITAL
2.51,37.78031,-90.43967,11018.61,PARKLAND HEALTH CENTER
2.73,38.38829,-93.77115,13566.00,GOLDEN VALLEY MEMORIAL HOSPITAL
3.09,39.27591,-94.42572,17765.14,LIBERTY HOSPITAL
3.37,38.77576,-90.23906,21001.80,CHRISTIAN HOSPITAL NORTHEAST
3.46,38.12027,-92.68146,22042.97,LAKE REGIONAL HEALTH SYSTEM
4.60,38.90359,-94.33308,35232.62,LEE'S SUMMIT MEDICAL CENTER
2.88,38.79427,-90.58049,15277.36,BARNES-JEWISH ST PETERS HOSPITAL
2.87,37.60022,-93.42237,15123.24,CITIZENS MEMORIAL HOSPITAL
4.24,38.94062,-94.37842,31122.44,SAINT LUKE'S EAST LEE'S SUMMIT HOSPITAL
2.56,38.71535,-90.69847,11559.95,PROGRESS WEST HEALTHCARE CENTER
2.62,46.58297,-111.99684,12333.92,ST PETER'S HOSPITAL
3.11,46.00924,-112.54613,17995.05,ST JAMES HEALTHCARE
3.27,40.70646,-99.08136,19800.38,GOOD SAMARITAN HOSPITAL
3.47,41.25522,-95.97892,22162.18,THE NEBRASKA MEDICAL CENTER
3.36,40.80816,-96.62689,20841.65,SAINT ELIZABETH REGIONAL MEDICAL CENTER
3.07,40.92425,-98.37053,17472.47,ST FRANCIS MEDICAL CENTER
5.11,41.26509,-95.95494,41159.61,CREIGHTON UNIVERSITY MEDICAL CENTER - SAINT JOSEPH
2.82,40.59160,-98.38755,14576.27,MARY LANNING MEMORIAL HOSPITAL
3.47,41.25797,-96.04164,22168.58,THE NEBRASKA METHODIST HOSPITAL
3.43,41.88690,-103.66400,21623.90,REGIONAL WEST MEDICAL CENTER
2.81,41.12081,-100.77062,14467.97,GREAT PLAINS REGIONAL MEDICAL CENTER
3.48,41.45152,-96.49184,22219.81,FREMONT AREA MEDICAL CENTER
3.93,41.13585,-96.04011,27506.68,ALEGENT HEALTH MIDLANDS HOSPITAL
2.77,41.45328,-97.38382,13977.50,COLUMBUS COMMUNITY HOSPITAL
3.04,42.03257,-97.45100,17177.57,FAITH REGIONAL HEALTH SERVICES
2.38,40.73657,-96.59332,9466.81,NEBRASKA HEART HOSPITAL
3.45,41.23771,-96.18052,21849.60,ALEGENT HEALTH LAKESIDE HOSPITAL
6.25,36.13459,-115.13576,54405.06,SUNRISE HOSPITAL AND MEDICAL CENTER
5.58,36.19568,-115.12284,46599.78,NORTH VISTA HOSPITAL
3.61,39.47582,-118.76547,23777.09,BANNER CHURCHILL COMMUNITY HOSPITAL
3.92,40.82334,-115.73159,27408.14,NORTHEASTERN NEVADA REGIONAL HOSPITAL
3.42,39.53066,-119.82067,21606.13,SAINT MARY'S REGIONAL MEDICAL CENTER
4.97,36.03931,-114.98259,39550.65,SAINT ROSE DOMINICAN HOSPITAL - DE LIMA
3.90,39.20247,-119.78446,27158.70,CARSON TAHOE REGIONAL MEDICAL CENTER
6.06,36.16380,-115.16574,52157.06,VALLEY HOSPITAL MEDICAL CENTER
4.16,39.54241,-119.69736,30126.71,NORTHERN NEVADA MEDICAL CENTER
5.83,36.21599,-115.25095,49517.16,MOUNTAINVIEW HOSPITAL
6.47,36.16586,-115.32436,56988.20,SUMMERLIN HOSPITAL MEDICAL CENTER
4.91,36.00527,-115.11618,38806.91,SAINT ROSE DOMINICAN HOSPITAL - SIENA CAMPUS
3.76,39.43625,-119.75999,25543.21,RENOWN SOUTH MEADOWS MEDICAL CENTER
6.17,36.28588,-115.28772,53407.14,CENTENNIAL HILLS HOSPITAL MEDICAL CENTER
2.99,43.19846,-71.56230,16522.77,CONCORD HOSPITAL
3.37,43.67286,-72.27232,20988.33,MARY HITCHCOCK MEMORIAL HOSPITAL
3.12,43.52835,-71.46291,18079.87,LAKES REGION GENERAL HOSPITAL
2.97,42.75004,-71.48100,16339.37,ST JOSEPH HOSPITAL
2.75,43.00792,-71.46807,13740.48,ELLIOT HOSPITAL
3.16,43.21231,-70.87499,18510.04,WENTWORTH-DOUGLASS HOSPITAL
2.80,42.94925,-72.28978,14329.55,CHESHIRE MEDICAL CENTER
2.95,42.75623,-71.46059,16165.44,SOUTHERN NH MEDICAL CENTER
3.09,42.98369,-70.93511,17735.03,EXETER HOSPITAL INC
3.68,43.06469,-70.78916,24584.71,PORTSMOUTH REGIONAL HOSPITAL
6.36,40.88346,-74.05564,55659.38,HACKENSACK UNIVERSITY MEDICAL CENTER
7.36,40.71011,-74.21368,67313.93,NEWARK BETH ISRAEL MEDICAL CENTER
6.50,40.79576,-73.99575,57319.27,PALISADES MEDICAL CTR-NY PRESBYTERIAN HEALTHCARE S
3.33,40.53142,-74.86080,20492.38,HUNTERDON MEDICAL CENTER
4.48,40.88275,-74.01021,33873.84,HOLY NAME MEDICAL CENTER
4.72,40.35684,-74.66166,36594.06,UNIVERSITY MEDICAL CENTER AT PRINCETON
3.50,39.08752,-74.81657,22478.65,CAPE REGIONAL MEDICAL CENTER INC
4.64,40.98359,-74.10047,35694.56,VALLEY HOSPITAL
6.23,39.94152,-75.11680,54198.59,COOPER UNIVERSITY HOSPITAL
5.03,40.78883,-74.46620,40255.12,MORRISTOWN MEMORIAL HOSPITAL
7.89,40.73417,-74.04977,73354.33,CHRIST HOSPITAL
7.97,40.21634,-74.74143,74354.88,ST FRANCIS MEDICAL CENTER
5.98,39.78261,-74.91670,51217.04,VIRTUA WEST JERSEY HOSPITALS BERLIN
7.72,40.61288,-74.29092,71379.06,ROBERT WOOD JOHNSON UNIVERSITY HOSPITAL AT RAHWAY
12.00,40.66805,-74.11334,121079.53,BAYONNE HOSPITAL CENTER
5.49,39.44743,-75.05838,45576.11,SOUTH JERSEY HEALTHCARE REGIONAL MEDICAL CENTER
5.96,40.35309,-74.06484,51073.14,RIVERVIEW MEDICAL CENTER
6.79,40.51891,-74.28183,60662.89,RARITAN BAY MEDICAL CENTER
7.80,40.29209,-74.80327,72323.73,CAPITAL HEALTH MEDICAL CENTER - HOPEWELL
6.75,40.90400,-73.96847,60202.47,ENGLEWOOD HOSPITAL AND MEDICAL CENTER
5.18,40.89538,-74.46479,41970.53,SAINT CLARE'S HOSPITAL
3.93,40.71264,-74.35460,27495.56,OVERLOOK HOSPITAL
6.04,40.07832,-74.13009,51895.19,OCEAN MEDICAL CENTER
5.50,40.81058,-74.20459,45707.73,MOUNTAINSIDE HOSPITAL
5.99,40.04632,-74.88059,51327.22,LOURDES MEDICAL CENTER OF BURLINGTON COUNTY
6.51,39.35775,-74.43449,57435.22,ATLANTICARE REGIONAL MEDICAL CENTER - CITY DIV
6.20,40.76190,-74.30335,53859.52,SAINT BARNABAS MEDICAL CENTER
5.46,40.75402,-74.21335,45184.73,EAST ORANGE GENERAL HOSPITAL
6.23,40.07503,-74.21832,54179.55,KIMBALL MEDICAL CENTER
8.79,40.23629,-74.75256,83891.58,CAPITAL HEALTH SYSTEM-FULD CAMPUS
5.76,40.55784,-74.34970,48744.91,JFK MEDICAL CTR - ANTHONY M. YELENCSICS COMMUNITY
7.11,40.21575,-74.67273,64333.25,ROBERT WOOD JOHNSON UNIVERSITY HOSPITAL HAMILTON
9.07,40.78621,-74.07568,87139.40,MEADOWLANDS HOSPITAL MEDICAL CENTER
4.13,41.20714,-74.60348,29800.00,SAINT CLARE'S HOSPITAL/SUSSEX
2.86,35.65960,-105.94578,15039.73,ST VINCENT HOSPITAL
3.25,36.72387,-108.21749,19641.75,SAN JUAN REGIONAL MEDICAL CENTER
4.28,33.42340,-104.52748,31543.36,EASTERN NEW MEXICO MEDICAL CENTER
2.62,36.37076,-105.57950,12332.27,HOLY CROSS HOSPITAL A DIV OF TAOS HEALTH SYSTEMS
3.81,32.26331,-107.74805,26055.00,MIMBRES MEMORIAL HOSPITAL
3.68,34.41937,-103.23173,24565.83,PLAINS REGIONAL MEDICAL CENTER  CLOVIS
4.65,32.76065,-103.18088,35844.71,LEA REGIONAL MEDICAL CENTER
2.38,34.14937,-103.39063,9504.00,ROOSEVELT GENERAL HOSPITAL
3.53,32.32310,-106.72900,22786.32,MOUNTAIN VIEW REGIONAL MEDICAL CENTER
3.27,33.41689,-104.52107,19788.04,ROSWELL REGIONAL HOSPITAL
4.12,41.92720,-73.99535,29633.28,KINGSTON HOSPITAL
2.91,42.87482,-78.84942,15697.51,KALEIDA HEALTH
2.68,40.92963,-73.89840,12969.92,ST JOSEPH'S MEDICAL CENTER
2.36,42.09299,-75.93704,9321.42,OUR LADY OF LOURDES MEMORIAL HOSPITAL, INC
4.93,42.65345,-73.77543,39047.25,ALBANY MEDICAL CENTER HOSPITAL
2.79,40.70141,-73.81630,14198.32,JAMAICA HOSPITAL MEDICAL CENTER
4.05,41.69441,-73.93432,28911.51,VASSAR BROTHERS MEDICAL CENTER
4.32,40.79041,-73.95386,31992.80,MOUNT SINAI HOSPITAL
3.55,40.72548,-73.55287,23023.77,NASSAU UNIVERSITY MEDICAL CENTER
4.72,40.63588,-74.10556,36681.83,RICHMOND UNIVERSITY MEDICAL CENTER
2.56,43.06066,-77.10072,11641.51,NEWARK-WAYNE COMMUNITY HOSPITAL
2.47,43.22058,-77.94467,10590.42,LAKESIDE MEMORIAL HOSPITAL
2.99,43.09840,-75.27819,16533.49,FAXTON-ST LUKE'S HEALTHCARE
5.07,40.80556,-73.96131,40691.05,ST LUKE'S ROOSEVELT HOSPITAL
2.74,42.95425,-74.21527,13672.44,ST MARY'S HOSPITAL AT AMSTERDAM
2.13,43.22352,-78.39720,6538.89,MEDINA MEMORIAL HOSPITAL
4.18,40.74722,-73.82521,30357.02,NEW YORK HOSPITAL MEDICAL CENTER OF QUEENS
3.79,40.68983,-73.97794,25799.86,BROOKLYN HOSPITAL CENTER AT DOWNTOWN CAMPUS
3.54,42.65583,-73.80372,22977.83,ST PETER'S HOSPITAL
2.63,43.09378,-79.05038,12346.75,NIAGARA FALLS MEMORIAL MEDICAL CENTER
4.67,41.71846,-73.92710,36076.37,ST FRANCIS HOSPITAL
2.69,43.00584,-78.17670,13071.78,UNITED MEMORIAL MEDICAL CENTER
2.52,42.87616,-77.28907,11168.15,F F THOMPSON HOSPITAL
2.50,40.81770,-73.92401,10831.87,LINCOLN MEDICAL & MENTAL HEALTH CENTER
2.41,44.85685,-74.29199,9837.29,ALICE HYDE MEDICAL CENTER
2.39,42.45748,-75.05244,9616.00,AURELIA OSBORN FOX MEMORIAL HOSPITAL
3.16,40.91304,-73.84024,18533.11,MOUNT VERNON HOSPITAL
4.43,41.11039,-72.36128,33331.08,EASTERN LONG ISLAND HOSPITAL
2.97,42.10076,-76.82800,16330.97,ARNOT OGDEN MEDICAL CENTER
2.62,42.24595,-73.77855,12255.40,COLUMBIA MEMORIAL HOSPITAL
2.11,42.12242,-77.95056,6349.28,JONES MEMORIAL HOSPITAL
2.26,42.09049,-78.42780,8142.79,OLEAN GENERAL HOSPITAL
4.82,41.09642,-73.92501,37773.25,NYACK HOSPITAL
5.81,40.77686,-73.70212,49305.82,NORTH SHORE UNIVERSITY HOSPITAL
3.58,40.93376,-72.67383,23452.51,PECONIC BAY MEDICAL CENTER
3.20,42.09221,-76.79733,19020.77,ST JOSEPH'S HOSPITAL, INC
2.59,43.19244,-77.58590,11918.82,ROCHESTER GENERAL HOSPITAL
4.79,41.44138,-74.36821,37454.69,ORANGE REGIONAL MEDICAL CENTER
2.27,42.46420,-78.94334,8234.12,TLC HEALTH NETWORK
4.13,41.36763,-74.68150,29751.25,BON SECOURS COMMUNITY HOSPITAL
2.74,43.05571,-76.14981,13634.33,ST JOSEPH'S HOSPITAL HEALTH CENTER
5.64,40.78000,-72.97763,47290.78,BROOKHAVEN MEMORIAL HOSPITAL MEDICAL CENTER
2.28,42.31394,-77.66076,8289.67,ST JAMES MERCY HOSPITAL
3.25,42.81963,-73.91653,19551.76,ELLIS HOSPITAL
3.28,41.19677,-73.72572,19878.65,NORTHERN WESTCHESTER HOSPITAL
2.45,43.17738,-78.67123,10296.74,EASTERN NIAGARA HOSPITAL
2.36,43.13562,-77.60602,9234.09,HIGHLAND HOSPITAL
5.42,40.73265,-73.98162,44720.11,BETH ISRAEL MEDICAL CENTER
2.46,42.60884,-76.18764,10379.01,CORTLAND REGIONAL MEDICAL CENTER, INC
2.93,42.73354,-73.67249,15900.15,SAMARITAN HOSPITAL
4.61,40.80462,-73.67023,35323.43,ST FRANCIS HOSPITAL, ROSLYN
2.94,40.91276,-73.78720,15940.35,SOUND SHORE MEDICAL CENTER OF WESTSCHESTER
2.66,43.30652,-73.64663,12687.57,GLENS FALLS HOSPITAL
3.34,40.75543,-73.81532,20589.40,FLUSHING HOSPITAL MEDICAL CENTER
5.11,40.75332,-73.70899,41127.07,LONG ISLAND JEWISH MEDICAL CENTER
2.36,44.67677,-74.98237,9264.21,CANTON-POTSDAM HOSPITAL
3.98,40.65189,-73.63096,28006.49,SOUTH NASSAU COMMUNITIES HOSPITAL
4.23,40.65957,-73.93378,30980.91,KINGSBROOK JEWISH MEDICAL CENTER
3.67,40.96967,-73.88447,24430.80,ST JOHN'S RIVERSIDE HOSPITAL
2.75,43.79534,-75.49925,13795.38,LEWIS COUNTY GENERAL HOSPITAL
5.01,40.74335,-73.97408,39956.95,NYU HOSPITALS CENTER
3.02,43.22952,-75.44361,16945.79,ROME MEMORIAL HOSPITAL, INC
2.76,43.45491,-76.51645,13951.00,OSWEGO HOSPITAL
3.16,42.92531,-78.83111,18577.79,ERIE COUNTY MEDICAL CENTER
3.72,40.70419,-73.91754,25059.11,WYCKOFF HEIGHTS MEDICAL CENTER
3.27,43.08561,-73.79712,19791.38,SARATOGA HOSPITAL
2.48,44.93579,-74.90736,10617.84,MASSENA MEMORIAL HOSPITAL
3.98,40.59411,-73.65106,28067.81,LONG BEACH MEDICAL CENTER
2.49,43.19054,-77.70177,10721.97,UNITY HOSPITAL OF ROCHESTER
2.90,40.71730,-73.80353,15538.15,QUEENS HOSPITAL CENTER
3.56,42.74285,-73.67673,23142.79,SETON HEALTH SYSTEM-ST MARY'S CAMPUS
3.12,40.65533,-73.91221,18040.17,BROOKDALE HOSPITAL MEDICAL CENTER
7.34,41.08773,-73.80395,67024.50,WESTCHESTER MEDICAL CENTER
2.91,42.94136,-76.56474,15624.41,AUBURN COMMUNITY HOSPITAL
3.30,40.66762,-73.97850,20206.90,NEW YORK METHODIST HOSPITAL
2.67,42.08997,-79.23058,12806.27,WOMAN'S CHRISTIAN ASSOCIATION
3.85,40.81477,-73.94027,26602.86,HARLEM HOSPITAL CENTER
4.16,43.04269,-76.14043,30104.83,UNIVERSITY HOSPITAL S U N Y HEALTH SCIENCE CENTER
5.55,40.94779,-73.06033,46257.09,ST CHARLES HOSPITAL
2.71,42.81327,-75.54316,13284.18,COMMUNITY MEMORIAL HOSPITAL, INC
3.96,41.10880,-73.86355,27877.21,PHELPS MEMORIAL HOSPITAL ASSN
4.26,41.50307,-74.01517,31328.93,ST LUKE'S CORNWALL HOSPITAL
2.37,42.96043,-77.13637,9401.04,CLIFTON SPRINGS HOSPITAL AND CLINIC
2.26,42.68704,-74.48209,8120.67,COBLESKILL REGIONAL HOSPITAL
3.74,41.38421,-73.66323,25227.18,PUTNAM HOSPITAL CENTER
3.28,43.06952,-74.33001,19917.11,NATHAN LITTAUER HOSPITAL
2.62,42.84782,-78.81264,12314.98,MERCY HOSPITAL
4.95,40.69327,-73.29412,39303.04,GOOD SAMARITAN HOSPITAL MEDICAL CENTER
2.88,40.64666,-74.02049,15302.56,LUTHERAN MEDICAL CENTER
2.64,42.47286,-76.53849,12565.75,CAYUGA MEDICAL CENTER AT ITHACA
3.49,40.83778,-73.85417,22395.47,NEW YORK WESTCHESTER SQUARE MEDICAL CENTER
4.14,40.72593,-73.47844,29884.54,ST JOSEPH HOSPITAL
4.01,40.88512,-72.38030,28451.60,SOUTHAMPTON HOSPITAL
2.99,40.65508,-73.94521,16520.76,UNIVERSITY HOSPITAL OF BROOKLYN ( DOWNSTATE )
2.74,42.11422,-75.95851,13684.13,UNITED HEALTH SERVICES HOSPITALS, INC
3.88,40.59803,-73.75296,26853.10,ST JOHN'S EPISCOPAL HOSPITAL AT SOUTH SHORE
5.26,40.85738,-73.18681,42958.23,ST CATHERINE OF SIENA HOSPITAL
2.94,35.57658,-82.54922,15953.92,MEMORIAL MISSION HOSPITAL AND ASHEVILLE SURGERY CE
3.25,35.95000,-80.00000,19643.72,HIGH POINT REGIONAL HOSPITAL
2.87,34.75124,-79.46789,15202.02,SCOTLAND MEMORIAL HOSPITAL
2.76,36.07581,-80.29779,13877.74,FORSYTH MEMORIAL HOSPITAL
2.94,35.68172,-80.47072,15998.89,ROWAN REGIONAL MEDICAL CENTER
2.54,35.32080,-82.46812,11307.09,MARGARET R PARDEE MEMORIAL HOSPITAL
2.96,35.30288,-81.53571,16192.13,CLEVELAND REGIONAL MEDICAL CENTER
2.90,35.29053,-77.58307,15507.22,LENOIR MEMORIAL HOSPITAL
3.84,36.00850,-78.94006,26398.16,DUKE UNIVERSITY HOSPITAL
3.04,36.09904,-78.30111,17178.86,FRANKLIN REGIONAL MEDICAL CENTER
2.76,35.24106,-81.35660,13910.06,KINGS MOUNTAIN HOSPITAL INC
2.18,35.54918,-77.03985,7189.88,BEAUFORT COUNTY MEDICAL CENTER
3.28,35.79986,-80.87863,19977.94,IREDELL MEMORIAL HOSPITAL INC
3.23,35.60726,-77.40477,19360.63,PITT COUNTY MEMORIAL HOSPITAL
2.71,35.91058,-81.53512,13287.51,CALDWELL MEMORIAL HOSPITAL
3.18,34.76273,-77.38582,18772.98,ONSLOW MEMORIAL HOSPITAL
2.84,36.09062,-80.27161,14832.28,NORTH CAROLINA BAPTIST HOSPITAL
3.11,35.22196,-80.83287,17924.79,PRESBYTERIAN HOSPITAL
2.96,35.90529,-79.04963,16173.35,UNIVERSITY OF NORTH CAROLINA HOSPITAL
2.66,34.33747,-78.69425,12766.84,COLUMBUS REGIONAL HEALTHCARE SYSTEM
3.46,35.78523,-78.58836,22038.08,WAKEMED, RALEIGH CAMPUS
2.40,36.06347,-79.50208,9683.22,ALAMANCE REGIONAL MEDICAL CENTER
3.01,35.88264,-80.08199,16748.12,THOMASVILLE MEDICAL CENTER
2.45,35.66344,-82.02770,10352.00,THE MCDOWELL HOSPITAL
2.81,36.09251,-79.78855,14442.84,MOSES H CONE MEMORIAL HOSPITAL, THE
2.96,35.21029,-80.82084,16206.68,CAROLINAS MED CENTER-MERCY
2.84,36.28555,-76.99489,14830.78,ROANOKE CHOWAN HOSPITAL
4.18,34.90228,-79.71125,30421.07,SANDHILLS REGIONAL MEDICAL CENTER
3.20,36.32690,-76.22370,18987.48,ALBEMARLE HOSPITAL AUTHORITY
2.75,35.36457,-80.19450,13813.51,STANLY REGIONAL MEDICAL CENTER
2.53,34.96500,-77.96165,11189.00,DUPLIN GENERAL HOSPITAL
2.86,35.71177,-79.81489,15094.79,RANDOLPH HOSPITAL
3.21,35.71850,-77.94518,19097.87,WILSON MEDICAL CENTER
2.52,36.31070,-78.59083,11083.49,GRANVILLE MEDICAL CENTER
3.64,35.54775,-80.85563,24082.79,LAKE NORMAN REGIONAL MEDICAL CENTER
2.42,34.97382,-80.52250,9941.37,CAROLINAS MEDICAL CENTER-UNION
2.60,36.32959,-78.39916,12087.56,MARIA PARHAM MEDICAL CENTER
4.06,35.83976,-77.07310,28947.62,MARTIN GENERAL HOSPITAL
2.74,34.72615,-76.75452,13720.09,CARTERET GENERAL HOSPITAL
3.05,35.71664,-81.26661,17238.37,CATAWBA VALLEY MEDICAL CENTER
2.73,36.43295,-77.64729,13569.20,HALIFAX REGIONAL MEDICAL CENTER INC
2.89,36.04960,-78.90617,15361.14,DURHAM REGIONAL HOSPITAL
3.19,34.00906,-78.28992,18915.83,BRUNSWICK COMMUNITY HOSPITAL
2.96,36.40660,-78.98563,16281.92,PERSON MEMORIAL HOSPITAL
2.85,35.11432,-80.71971,15004.36,PRESBYTERIAN HOSPITAL MATTHEWS
2.71,35.40634,-80.86005,13297.98,PRESBYTERIAN HOSPITAL HUNTERSVILLE
2.79,35.52586,-82.94351,14234.93,MEDWEST HAYWOOD
2.56,46.80739,-100.77773,11620.86,ST ALEXIUS MEDICAL CENTER
2.48,48.23258,-101.28843,10693.37,TRINITY HOSPITALS
2.58,46.88496,-96.78609,11789.53,SANFORD MEDICAL CENTER FARGO
2.35,46.80798,-100.78229,9097.58,MEDCENTER ONE
2.69,47.91045,-97.06742,13047.20,ALTRU HOSPITAL
2.54,46.83250,-96.82805,11343.70,ESSENTIA HEALTH-FARGO
2.87,39.08582,-84.34886,15128.30,MERCY HOSPITAL ANDERSON
2.35,40.85871,-82.31023,9108.88,SAMARITAN HOSPITAL - PEOPLES HOSPITAL
3.17,39.13707,-84.50392,18657.88,UNIVERSITY HOSPITAL, INC
3.47,40.03064,-83.03440,22137.80,RIVERSIDE METHODIST HOSPITAL
3.10,38.75320,-82.97800,17859.22,SOUTHERN OHIO MEDICAL CENTER
2.96,40.73578,-84.08630,16168.90,LIMA MEMORIAL HEALTH SYSTEM
2.31,40.51393,-81.45644,8671.33,UNION HOSPITAL
2.70,39.32796,-82.11564,13263.86,O'BLENESS MEMORIAL HOSPITAL
3.26,39.20680,-84.38093,19665.91,JEWISH HOSPITAL, LLC
3.47,39.96098,-82.99077,22153.01,GRANT MEDICAL CENTER
4.20,41.01476,-81.58913,30628.66,SUMMA HEALTH SYSTEM BARBERTON HOSPITAL
3.10,41.44642,-82.70864,17804.87,FIRELANDS REGIONAL MEDICAL CENTER
3.35,39.70022,-83.92782,20721.74,GREENE MEMORIAL HOSPITAL
3.31,41.07747,-81.53042,20226.12,AKRON GENERAL MEDICAL CENTER
2.52,41.37576,-83.66556,11156.88,WOOD COUNTY HOSPITAL
2.42,40.54518,-84.37011,9934.66,GRAND LAKE HEALTH SYSTEM
2.09,40.82041,-81.93422,6144.15,WOOSTER COMMUNITY HOSPITAL
3.41,41.49640,-81.67376,21478.56,ST VINCENT CHARITY MEDICAL CENTER
2.81,40.39967,-82.44822,14484.29,KNOX COMMUNITY HOSPITAL
2.73,41.38265,-81.73127,13589.06,PARMA COMMUNITY GENERAL HOSPITAL
2.65,40.08892,-84.63511,12666.00,WAYNE HOSPITAL
2.62,39.51256,-84.74034,12297.86,MCCULLOUGH-HYDE MEMORIAL HOSPITAL
3.75,41.61788,-83.61632,25373.06,UNIVERSITY OF TOLEDO MEDICAL CENTER
4.30,39.74547,-84.18523,31731.13,MIAMI VALLEY HOSPITAL
4.40,39.78778,-84.23493,32920.62,GOOD SAMARITAN HOSPITAL
2.88,38.84439,-82.23902,15289.74,HOLZER MEDICAL CENTER
3.08,39.31257,-84.51774,17671.49,MERCY HOSPITAL FAIRFIELD
2.68,40.48074,-84.63943,12957.55,MERCER COUNTY JOINT TOWNSHIP COMMUNITY HOSPITAL
2.86,41.22570,-82.60491,15079.88,FISHER-TITUS HOSPITAL
2.51,40.81219,-81.39625,11008.65,MERCY MEDICAL CENTER
2.46,39.71750,-82.57772,10379.02,FAIRFIELD MEDICAL CENTER
3.68,41.58130,-81.48979,24532.75,UHHS RICHMOND HEIGHTS HOSPITAL
3.23,41.17554,-81.24915,19307.80,ROBINSON MEMORIAL HOSPITAL
2.84,40.09873,-80.72072,14852.62,EAST OHIO REGIONAL HOSPITAL
4.12,41.63639,-83.48640,29736.27,MERCY ST CHARLES HOSPITAL
3.16,41.59825,-81.54884,18507.47,EUCLID HOSPITAL
4.36,39.99445,-83.01872,32496.17,OHIO STATE UNIVERSITY HOSPITALS
3.02,41.55725,-83.68141,16870.66,ST LUKE'S HOSPITAL
2.76,40.22953,-83.36773,13906.58,MEMORIAL HOSPITAL OF UNION COUNTY
2.49,41.01785,-83.65165,10790.39,BLANCHARD VALLEY HOSPITAL
2.46,40.62149,-80.58651,10429.11,EAST LIVERPOOL CITY HOSPITAL
3.54,41.66317,-81.24696,22965.68,LAKE HEALTH
3.09,41.52522,-81.58267,17752.36,HURON HOSPITAL
2.64,41.28550,-82.88405,12542.61,BELLEVUE HOSPITAL
3.97,41.66810,-83.54275,27922.45,MERCY ST VINCENT MEDICAL CENTER
3.59,41.39496,-81.53484,23483.26,UHHS BEDFORD MEDICAL CENTER
2.79,40.75264,-82.52803,14234.23,MEDCENTRAL HEALTH SYSTEM
2.91,41.43653,-81.94451,15677.21,ST JOHN MEDICAL CENTER
2.93,41.88034,-80.79553,15834.29,ASHTABULA COUNTY MEDICAL CENTER
3.73,41.42112,-81.59808,25109.53,MARYMOUNT HOSPITAL
2.90,41.36649,-82.09708,15577.63,EMH REGIONAL MEDICAL CENTER
2.91,39.43061,-81.46454,15685.24,MARIETTA MEMORIAL HOSPITAL
2.68,40.56515,-81.92046,12937.64,POMERENE HOSPITAL
3.37,40.80656,-81.51633,21009.36,AFFINITY MEDICAL CENTER
3.51,41.37028,-81.83189,22571.11,SOUTHWEST GENERAL HEALTH CENTER
2.87,41.33913,-83.13441,15132.38,MEMORIAL HOSPITAL
3.18,41.43688,-82.23761,18821.87,MERCY REGIONAL MEDICAL CENTER
4.55,41.50248,-81.62110,34609.36,CLEVELAND CLINIC
2.53,40.90093,-80.83181,11218.28,SALEM COMMUNITY HOSPITAL
2.37,40.36841,-83.75706,9423.81,MARY RUTAN HOSPITAL
2.57,40.04115,-81.57789,11756.14,SOUTHEASTERN OHIO REGIONAL MEDICAL CENTER
3.11,40.30562,-83.08915,17982.37,GRADY MEMORIAL HOSPITAL
3.62,41.48479,-81.79649,23871.03,LAKEWOOD HOSPITAL
3.21,41.52013,-81.43291,19168.27,HILLCREST HOSPITAL
4.07,41.62027,-83.48331,29099.42,BAY PARK COMMUNITY HOSPITAL
4.52,41.69195,-83.62455,34321.60,MERCY ST ANNE HOSPITAL
3.29,40.99498,-80.66192,20024.22,ST ELIZABETH BOARDMAN HEALTH CENTER
3.08,40.09970,-83.16551,17650.63,DUBLIN METHODIST HOSPITAL
3.13,39.35830,-84.36785,18214.26,WEST CHESTER MEDICAL CENTER
2.89,36.87520,-94.87633,15374.34,INTEGRIS BAPTIST REG HEALTH CENTER
3.07,36.72564,-97.06859,17539.69,PONCA CITY MEDICAL CENTER
4.52,34.00655,-96.39398,34264.77,MEDICAL CENTER OF SOUTHEASTERN OKLAHOMA
2.83,36.75199,-95.94089,14700.34,JANE PHILLIPS MEDICAL CENTER
3.26,35.41174,-99.42511,19665.27,GREAT PLAINS REGIONAL MEDICAL CENTER
2.57,34.77442,-96.63477,11649.24,VALLEY VIEW REGIONAL HOSPITAL
2.77,34.63509,-99.31700,14046.72,JACKSON COUNTY MEMORIAL HOSPITAL
3.20,35.75351,-95.40612,19018.08,MUSKOGEE REGIONAL MEDICAL CENTER
4.02,36.39385,-97.87094,28487.20,ST MARY'S REGIONAL MEDICAL CENTER
3.34,35.52531,-97.58461,20669.70,DEACONESS HOSPITAL
2.18,34.69149,-99.91488,7184.91,HARMON MEMORIAL HOSPITAL
3.11,35.47800,-97.52352,17954.82,ST ANTHONY HOSPITAL
3.48,36.32303,-95.60538,22302.89,CLAREMORE REGIONAL HOSPITAL
2.73,35.04453,-94.61214,13523.26,EASTERN OKLAHOMA MEDICAL CENTER
3.16,34.18908,-97.14128,18551.16,MERCY MEMORIAL HEALTH CENTER
2.52,33.88091,-94.81273,11068.82,MCCURTAIN MEMORIAL HOSPITAL
2.34,35.61041,-95.95322,9038.23,OKMULGEE MEMORIAL HOSPITAL
2.55,36.65318,-95.15577,11498.42,CRAIG GENERAL HOSPITAL
3.74,36.14675,-95.99969,25273.90,OKLAHOMA STATE UNIVERSITY MEDICAL CENTER
2.53,35.91530,-94.94996,11276.13,TAHLEQUAH CITY HOSPITAL
4.39,35.46721,-97.39370,32755.49,MIDWEST REGIONAL MEDICAL CENTER
3.93,34.59434,-98.46105,27507.48,SOUTHWESTERN MEDICAL CENTER
2.97,35.97828,-96.75746,16344.94,CUSHING REGIONAL HOSPITAL
2.52,35.30692,-99.63242,11084.59,SAYRE MEMORIAL HOSPITAL, INC
2.51,36.58133,-94.75864,11045.09,INTEGRIS GROVE HOSPITAL
2.78,36.13393,-95.96718,14187.12,ST JOHN MEDICAL CENTER, INC
2.52,34.76678,-97.18839,11177.13,PAULS VALLEY GENERAL HOSPITAL
2.04,35.02883,-97.36581,5609.72,PURCELL MUNICIPAL HOSPITAL
2.21,35.91253,-94.94924,7554.46,W W HASTINGS INDIAN HOSPITAL
3.96,36.03590,-95.86511,27851.54,SOUTHCREST HOSPITAL
3.07,35.60901,-97.59429,17461.10,OKLAHOMA HEART HOSPITAL
3.15,36.30441,-95.85276,18393.57,BAILEY MEDICAL CENTER, L L C
3.29,35.78090,-95.35819,20096.00,MUSKOGEE COMMUNITY HOSPITAL
2.83,45.58783,-121.16575,14762.50,MID-COLUMBIA MEDICAL CENTER
3.03,42.42112,-123.34326,17082.24,THREE RIVERS COMMUNITY HOSPITAL
3.16,45.54248,-122.66972,18497.53,LEGACY EMANUEL MEDICAL CENTER
3.19,44.60322,-123.25312,18890.93,GOOD SAMARITAN REGIONAL MEDICAL CENTER
3.51,45.53028,-122.69692,22629.70,LEGACY GOOD SAMARITAN MEDICAL CENTER
3.27,42.31769,-122.83333,19858.05,ROGUE VALLEY MEDICAL CENTER
3.55,45.51993,-122.97759,23024.63,TUALITY COMMUNITY HOSPITAL
2.85,44.63225,-123.11580,14948.91,SAMARITAN ALBANY GENERAL HOSPITAL
3.69,45.51716,-122.40750,24714.43,LEGACY MOUNT HOOD MEDICAL CENTER
2.75,45.00468,-122.79055,13804.55,SILVERTON HOSPITAL
2.68,45.31017,-122.93437,12951.39,PROVIDENCE NEWBERG MEDICAL CENTER
2.37,45.35635,-122.58647,9360.85,PROVIDENCE WILLAMETTE FALLS MEDICAL CENTER
2.90,44.28804,-121.16952,15497.53,ST CHARLES MEDICAL CENTER - REDMOND
3.05,44.06773,-121.26817,17261.70,ST CHARLES MEDICAL CENTER - BEND
3.18,44.93267,-123.03418,18734.85,SALEM HOSPITAL
3.09,45.51288,-122.55630,17773.10,ADVENTIST MEDICAL CENTER
2.90,45.52677,-122.61469,15539.97,PROVIDENCE PORTLAND MEDICAL CENTER
3.52,45.19897,-123.16482,22761.68,WILLAMETTE VALLEY MEDICAL CENTER
3.07,42.34086,-122.86108,17516.31,PROVIDENCE MEDFORD MEDICAL CENTER
2.27,45.43061,-122.56202,8273.06,KAISER SUNNYSIDE MEDICAL CENTER
3.39,41.40075,-75.64594,21212.83,COMMUNITY MEDICAL CENTER
4.81,40.96789,-76.60506,37686.95,GEISINGER MEDICAL CENTER
2.22,40.86987,-80.27559,7594.67,ELLWOOD CITY HOSPITAL
4.57,42.11102,-80.07912,34890.98,SAINT VINCENT HEALTH CENTER
2.34,40.97877,-76.88593,9025.55,EVANGELICAL COMMUNITY HOSPITAL
2.44,41.01409,-80.35398,10250.11,JAMESON MEMORIAL HOSPITAL
6.03,40.07880,-75.21107,51851.49,CHESTNUT HILL HOSPITAL
3.37,40.43609,-79.98537,20994.04,UPMC MERCY
2.71,40.69101,-76.18682,13288.16,SCHUYLKILL MEDICAL CENTER - EAST NORWEGIAN STREET
5.05,40.43850,-75.34895,40517.88,ST LUKE'S QUAKERTOWN HOSPITAL
2.58,40.71251,-80.32136,11850.41,HERITAGE VALLEY BEAVER
2.64,40.54345,-80.17760,12559.58,HERITAGE VALLEY SEWICKLEY
2.85,40.00729,-79.07854,14902.14,SOMERSET HOSPITAL
2.26,39.90180,-79.73854,8104.14,UNIONTOWN HOSPITAL
2.66,40.18302,-80.24767,12700.99,WASHINGTON HOSPITAL, THE
2.79,41.74508,-77.30043,14198.32,SOLDIERS AND SAILORS MEMORIAL HOSPITAL
3.01,41.24548,-77.01438,16777.58,WILLIAMSPORT REGIONAL MEDICAL CENTER
2.62,40.61795,-77.56734,12295.42,LEWISTOWN HOSPITAL
3.68,40.45705,-80.00363,24628.61,ALLEGHENY GENERAL HOSPITAL
2.44,41.03301,-78.44915,10210.33,CLEARFIELD HOSPITAL
4.03,40.36358,-75.32621,28673.71,GRAND VIEW HOSPITAL
5.06,42.13338,-80.08703,40549.04,UPMC HAMOT
6.14,40.10226,-74.86338,53130.91,LOWER BUCKS HOSPITAL
4.19,41.13189,-77.47022,30506.45,LOCK HAVEN HOSPITAL
2.94,40.52204,-78.39824,16006.75,ALTOONA REGIONAL HEALTH SYSTEM
2.42,41.11492,-78.77515,9971.17,DUBOIS REGIONAL MEDICAL CENTER
2.58,41.36116,-79.70065,11769.80,UPMC NORTHWEST
2.27,41.19016,-79.39934,8215.36,CLARION HOSPITAL
2.68,41.57235,-75.49676,13021.33,MARIAN COMMUNITY HOSPITAL
3.48,40.04740,-76.30540,22254.23,LANCASTER GENERAL HOSPITAL
3.62,40.48928,-79.89596,23890.07,UPMC ST MARGARET
2.92,41.67196,-78.81707,15772.58,KANE COMMUNITY HOSPITAL
5.48,40.12453,-75.33533,45451.34,MONTGOMERY HOSPITAL
6.25,39.95045,-75.19259,54371.49,HOSPITAL OF UNIV OF PENNSYLVANIA
2.83,40.24198,-78.83828,14668.61,WINDBER HOSPITAL
3.00,41.64205,-80.14579,16703.27,MEADVILLE MEDICAL CENTER
5.52,40.07160,-74.98341,45965.55,ARIA HEALTH
4.95,40.13916,-75.31510,39348.89,MERCY SUBURBAN HOSPITAL
3.56,41.41107,-75.65091,23158.02,MOSES TAYLOR HOSPITAL
2.20,41.63317,-79.67924,7376.68,TITUSVILLE HOSPITAL
4.84,40.24397,-75.61364,38000.69,POTTSTOWN MEMORIAL MEDICAL CENTER
2.47,41.57647,-75.26049,10553.95,WAYNE MEMORIAL HOSPITAL
4.10,40.60000,-75.47000,29413.45,LEHIGH VALLEY HOSPITAL
3.40,39.75368,-77.57415,21375.91,WAYNESBORO HOSPITAL
2.99,40.30103,-79.55505,16605.90,EXCELA HEALTH WESTMORELAND REGIONAL HOSPITAL
2.89,41.83752,-79.14728,15357.37,WARREN GENERAL HOSPITAL
3.13,39.93492,-77.64744,18233.62,CHAMBERSBURG HOSPITAL
5.63,40.04475,-75.50425,47144.39,MAIN LINE HOSPITAL PAOLI
5.55,39.92871,-75.26873,46269.40,MERCY FITZGERALD HOSPITAL
2.99,40.47275,-80.09074,16619.61,OHIO VALLEY GENERAL HOSPITAL
5.12,40.68708,-75.24272,41250.84,EASTON HOSPITAL
2.40,40.81645,-79.52199,9731.39,ACMH HOSPITAL
2.43,40.60755,-79.15657,10096.46,INDIANA REGIONAL MEDICAL CENTER
5.71,39.94969,-75.15712,48081.76,THOMAS JEFFERSON UNIVERSITY HOSPITAL
3.05,41.41133,-80.37169,17231.42,UPMC HORIZON
3.72,39.97024,-75.60259,25050.04,CHESTER COUNTY HOSPITAL
10.03,39.85598,-75.36791,98219.36,CROZER CHESTER MEDICAL CENTER
3.66,40.82134,-75.91392,24324.42,ST LUKE'S MINERS MEMORIAL HOSPITAL
2.54,40.83130,-75.72794,11381.49,GNADEN HUETTEN MEMORIAL HOSPITAL
2.81,42.07400,-80.09368,14501.40,MILLCREEK COMMUNITY HOSPITAL
2.24,40.96128,-78.99974,7843.11,PUNXSUTAWNEY AREA HOSPITAL
3.53,40.99225,-75.17466,22787.03,POCONO MEDICAL CENTER
2.54,40.14526,-79.54992,11326.21,EXCELA HEALTH FRICK HOSPITAL
5.06,39.82191,-75.88683,40561.36,JENNERSVILLE REGIONAL HOSPITAL
3.57,40.18739,-76.18224,23346.25,EPHRATA COMMUNITY HOSPITAL
2.66,40.37782,-80.06589,12736.06,ST CLAIR MEMORIAL HOSPITAL
5.84,40.12077,-75.11818,49606.85,ABINGTON MEMORIAL HOSPITAL
2.56,39.80858,-76.98306,11577.04,HANOVER HOSPITAL
4.28,40.20064,-74.92952,31559.08,ST MARY MEDICAL CENTER
2.58,40.31802,-79.93494,11864.27,JEFFERSON REGIONAL MEDICAL CENTER
2.67,41.15784,-80.08867,12889.71,GROVE CITY MEDICAL CENTER
2.92,40.42897,-79.74808,15780.16,WESTERN PENNSYLVANIA HOSP FORBES REGIONAL CAMPUS
3.28,40.81936,-77.84273,19927.43,MOUNT NITTANY MEDICAL CENTER
3.66,41.25855,-75.81041,24296.20,GEISINGER WYOMING VALLEY MEDICAL CENTER
9.07,39.95658,-75.16249,87108.21,HAHNEMANN UNIVERSITY HOSPITAL
3.01,40.76999,-76.32970,16751.70,SAINT CATHERINE MEDICAL CENTER FOUNTAIN SPRINGS
3.20,41.86943,-71.37561,19015.64,MEMORIAL HOSPITAL OF RHODE ISLAND
3.15,41.85574,-71.45945,18370.85,ST JOSEPH HEALTH SERVICES OF RI
3.77,41.81254,-71.40760,25637.84,RHODE ISLAND HOSPITAL
3.51,42.00497,-71.49561,22591.82,LANDMARK MEDICAL CENTER,  INC
3.28,41.85172,-71.39826,19879.38,MIRIAM HOSPITAL
3.53,34.96733,-81.94021,22818.89,SPARTANBURG REGIONAL MEDICAL CENTER
3.14,34.69403,-82.98884,18314.13,OCONEE MEDICAL CENTER
2.81,33.25644,-81.36260,14516.21,BARNWELL COUNTY HOSPITAL
4.06,34.02839,-81.03539,28973.10,PALMETTO HEALTH RICHLAND
3.11,34.92040,-82.24388,17961.26,GREER MEMORIAL HOSPITAL
5.01,34.71787,-80.78844,39945.84,SPRINGS MEMORIAL HOSPITAL
3.58,35.08901,-81.63335,23393.34,UPSTATE CAROLINA MEDICAL CENTER
3.30,34.24654,-80.60702,20178.47,KERSHAW HEALTH
3.34,33.78555,-79.00178,20652.57,CONWAY MEDICAL CENTER
3.55,34.19543,-79.76256,23107.67,MCLEOD REGIONAL MEDICAL CENTER-PEE DEE
3.01,34.28829,-81.60568,16818.00,NEWBERRY COUNTY MEMORIAL HOSPITAL
3.19,34.18661,-79.32541,18848.88,MARION REGIONAL HOSPITAL
2.31,33.30746,-81.02818,8640.42,BAMBERG COUNTY MEMORIAL HOSPITAL
3.42,34.05671,-78.89903,21523.80,LORIS COMMUNITY HOSPITAL
3.57,33.62185,-80.74922,23247.64,TRMC OF ORANGEBURG & CALHOUN
3.20,33.69516,-80.21091,18993.25,CLARENDON MEMORIAL HOSPITAL
3.62,34.17571,-82.15791,23867.86,SELF REGIONAL HEALTHCARE
2.64,32.85044,-81.07927,12456.73,HAMPTON REGIONAL MEDICAL CENTER
3.52,34.81904,-82.41308,22700.61,GREENVILLE MEMORIAL HOSPITAL
4.15,32.97605,-80.07302,30018.90,TRIDENT MEDICAL CENTER
3.44,32.22325,-80.71444,21797.85,HILTON HEAD REGIONAL MEDICAL CENTER
3.69,33.70704,-78.89487,24740.48,GRAND STRAND REG MED CENTER
4.87,34.00754,-81.03270,38338.87,PALMETTO HEALTH BAPTIST
4.08,32.78211,-79.95018,29209.32,ROPER HOSPITAL
2.89,33.59553,-79.02412,15391.69,WACCAMAW COMMUNITY HOSPITAL
3.16,34.86182,-82.21649,18491.79,VILLAGE HOSPITAL
2.54,44.91113,-97.12063,11381.83,PRAIRIE LAKES HOSPITAL
3.05,42.87249,-97.40741,17284.20,AVERA SACRED HEART HOSPITAL
3.06,43.71370,-98.00748,17430.74,AVERA QUEEN OF PEACE
2.84,45.46141,-98.47929,14812.02,AVERA ST LUKES
2.90,44.35976,-100.33441,15483.54,ST MARYS HOSPITAL
3.39,43.53460,-96.71136,21210.81,AVERA MCKENNAN HOSPITAL & UNIVERSITY HEALTH CENTER
3.45,43.53562,-96.74305,21905.58,SANFORD USD MEDICAL CENTER
2.49,35.63906,-88.83207,10729.87,JACKSON-MADISON COUNTY GENERAL HOSPITAL
3.83,36.24440,-86.75204,26309.66,SKYLINE MEDICAL CENTER
2.25,35.46872,-86.08400,8033.73,UNITED REGIONAL MEDICAL CENTER
3.05,35.93917,-85.01865,17304.27,CUMBERLAND MEDICAL CENTER
2.48,35.32520,-87.75640,10689.42,WAYNE MEDICAL CENTER
3.01,36.58587,-82.25703,16824.27,WELLMONT BRISTOL REGIONAL MEDICAL CENTER
2.61,36.02285,-88.41204,12117.76,BAPTIST MEMORIAL HOSPITAL HUNTINGDON
2.76,36.55401,-82.55483,13928.25,WELLMONT HOLSTON VALLEY MEDICAL CENTER
2.63,36.17561,-82.79033,12429.94,LAUGHLIN MEMORIAL HOSPITAL, INC
2.71,36.39954,-83.01347,13271.53,WELLMONT HAWKINS COUNTY MEMORIAL HOSPITAL
2.85,36.38895,-84.11183,14992.97,TENNOVA HEALTHCARE-LAFOLLETT MEDICAL CENTER
2.79,35.98589,-84.28055,14195.88,METHODIST MEDICAL CENTER OF OAK RIDGE
3.78,36.58199,-87.27050,25726.00,GATEWAY MEDICAL CENTER
3.63,34.50579,-92.96678,24050.75,HORIZON MEDICAL CENTER
3.27,35.12837,-89.86202,19875.71,BAPTIST MEMORIAL HOSPITAL
2.90,35.86074,-86.42434,15516.62,MIDDLE TENNESSEE MEDICAL CENTER INC
3.07,36.10641,-83.51924,17509.17,TENNOVA HEALTHCARE-JEFFERSON MEMORIAL HOSPITAL
2.51,36.44050,-83.59480,11020.05,CLAIBORNE COUNTY HOSPITAL
2.90,35.17733,-86.09081,15535.46,SOUTHERN TENNESSEE MEDICAL CENTER
2.59,36.17121,-85.50938,11912.52,COOKEVILLE REGIONAL MEDICAL CENTER
3.72,36.33465,-88.86858,24985.74,VOLUNTEER COMMUNITY HOSPITAL
3.53,36.30767,-82.38497,22848.04,JOHNSON CITY MEDICAL CENTER
2.79,36.47927,-86.88632,14214.79,NORTHCREST MEDICAL CENTER
2.84,35.44041,-84.60773,14872.85,ATHENS REGIONAL MEDICAL CENTER
2.97,35.85418,-83.53731,16333.86,LECONTE MEDICAL CENTER
2.93,36.12859,-86.84559,15906.89,ST THOMAS HOSPITAL
2.79,36.43222,-84.94250,14284.61,JAMESTOWN REGIONAL MEDICAL CENTER
2.92,35.05068,-85.28823,15799.51,ERLANGER MEDICAL CENTER
2.26,35.81553,-88.89535,8072.46,HUMBOLDT GENERAL HOSPITAL INC
3.18,35.99233,-83.92697,18805.52,TENNOVA HEALTHCARE
3.16,35.95747,-83.93660,18548.99,FORT SANDERS REGIONAL MEDICAL CENTER
2.68,35.53586,-89.67821,12968.38,BAPTIST MEMORIAL HOSPITAL TIPTON
2.82,36.29611,-88.31178,14583.58,HENRY COUNTY MEDICAL CENTER
3.05,36.15388,-86.80249,17252.75,BAPTIST HOSPITAL
2.09,36.54552,-85.50530,6145.07,CUMBERLAND RIVER HOSPITAL
2.24,35.96130,-85.82936,7883.91,STONES RIVER HOSPITAL AND DEKALB COMMUNITY HOSP
3.77,35.14261,-90.03138,25563.15,REGIONAL MEDICAL CENTER AT MEMPHIS
2.87,35.96514,-83.18170,15159.62,TENNOVA HEALTHCARE-NEWPORT MEDICAL CENTER
3.90,35.03467,-85.26735,27132.89,PARKRIDGE MEDICAL CENTER
2.84,35.91765,-84.10080,14830.59,PARKWEST MEDICAL CENTER
2.38,35.61042,-89.24323,9453.52,HAYWOOD PARK COMMUNITY HOSPITAL
2.99,35.24230,-87.33474,16616.51,CROCKETT HOSPITAL
2.97,36.55057,-82.51465,16378.42,INDIAN PATH MEDICAL CENTER
3.82,36.13864,-88.49119,26190.12,MCKENZIE REGIONAL HOSPITAL
5.11,35.09925,-89.86301,41207.83,ST FRANCIS HOSPITAL
3.63,35.17731,-84.86873,24023.14,SKYRIDGE MEDICAL CENTER
2.78,36.26377,-85.94855,14157.72,RIVERVIEW REGIONAL MEDICAL CENTER NORTH
3.07,36.38340,-85.32302,17461.51,LIVINGSTON REGIONAL HOSPITAL
3.76,35.68445,-88.85461,25497.21,REGIONAL HOSPITAL OF JACKSON
3.73,36.22069,-86.32731,25143.38,UNIVERSITY MEDICAL CENTER
3.83,36.32443,-86.62304,26292.60,HENDERSONVILLE MEDICAL CENTER
3.32,35.97510,-86.56688,20416.59,STONECREST MEDICAL CENTER
5.65,35.20713,-89.80059,47375.29,SAINT FRANCIS BARTLETT MEDICAL CENTER
5.56,31.77031,-106.50085,46382.78,PROVIDENCE MEMORIAL HOSPITAL
3.22,30.04413,-99.15217,19195.08,PETERSON REGIONAL MEDICAL CENTER
3.71,33.90296,-98.50035,24935.44,UNITED REGIONAL HEALTH CARE SYSTEM
3.79,30.65598,-96.34672,25842.11,ST JOSEPH REGIONAL HEALTH CENTER
4.10,32.81043,-96.83699,29446.79,PARKLAND HEALTH AND HOSPITAL SYSTEM
3.28,29.31233,-94.77317,19898.96,UNIVERSITY OF TEXAS MEDICAL BRANCH GAL
3.23,32.78994,-96.78044,19340.55,BAYLOR UNIVERSITY MEDICAL CENTER
3.47,28.81269,-96.97780,22081.60,CITIZENS MEDICAL CENTER
4.79,27.53249,-99.47808,37492.53,LAREDO MEDICAL CENTER
4.19,26.17446,-97.67014,30468.74,VHS HARLINGEN HOSPITAL COMPANY LLC
4.71,29.74802,-95.36609,36574.33,ST JOSEPH MEDICAL CENTER
3.68,32.50219,-94.73025,24585.41,GOOD SHEPHERD MEDICAL CENTER
4.41,32.72621,-97.32659,33001.00,JPS HEALTH NETWORK
6.24,33.57524,-101.89272,54288.55,COVENANT MEDICAL CENTER
3.27,31.51444,-97.19927,19841.83,PROVIDENCE HEALTH CENTER
4.43,32.81224,-96.83795,33222.72,UT SOUTHWESTERN UNIVERSITY HOSPITAL
3.86,32.76017,-96.82437,26666.80,METHODIST DALLAS MEDICAL CENTER
2.96,31.77777,-97.58876,16170.80,GOODALL WITCHER HOSPITAL
3.07,31.07837,-97.36403,17520.61,SCOTT & WHITE MEMORIAL HOSPITAL
2.62,32.45385,-100.39827,12256.24,ROLLING PLAINS MEMORIAL HOSPITAL
4.20,29.43360,-98.49265,30660.17,BAPTIST MEDICAL CENTER
4.01,32.74944,-97.11630,28394.26,TEXAS HEALTH ARLINGTON MEMORIAL HOSPITAL
4.30,29.71431,-95.39680,31736.35,MEMORIAL HERMANN TEXAS MEDICAL CENTER
2.38,32.68850,-100.91703,9533.12,COGDELL MEMORIAL HOSPITAL
3.52,32.83520,-96.96101,22695.14,BAYLOR MEDICAL CENTER AT IRVING
2.75,33.17573,-94.97180,13761.19,TITUS REGIONAL MEDICAL CENTER
3.88,28.41591,-97.73190,26946.07,CHRISTUS SPOHN HOSPITAL BEEVILLE
4.65,32.82932,-97.21399,35789.96,NORTH HILLS HOSPITAL
2.94,33.64346,-97.16215,16039.08,NORTH TEXAS MEDICAL CENTER
5.08,29.66575,-95.18131,40778.79,BAYSHORE MEDICAL CENTER
3.07,29.65646,-95.20253,17539.58,PAMPA REGIONAL MEDICAL CENTER
3.18,29.56876,-97.94776,18747.89,GUADALUPE REGIONAL MEDICAL CENTER
5.61,31.76998,-106.49897,46976.94,LAS PALMAS MEDICAL CENTER
2.91,29.15020,-98.16280,15651.42,CONNALLY MEMORIAL MEDICAL CENTER
5.96,26.26353,-98.18455,50966.52,SOUTH TEXAS HEALTH SYSTEM
4.90,29.93889,-93.92212,38668.41,RENAISSANCE HOSPITAL GROVES
4.36,30.27438,-97.73395,32408.43,UNIVERSITY MEDICAL CENTER AT BRACKENRIDGE
5.18,29.42561,-98.48946,41987.53,NIX HEALTH CARE SYSTEM
3.24,31.99616,-102.09950,19449.98,MIDLAND MEMORIAL HOSPITAL
3.85,32.73780,-97.33899,26523.30,TEXAS HEALTH HARRIS METHODIST FORT WORTH
4.92,28.80765,-96.99896,38957.59,DETAR HOSPITAL NAVARRO
3.21,31.11326,-97.80076,19144.00,METROPLEX HOSPITAL
3.14,29.37402,-100.89265,18304.63,VAL VERDE REGIONAL MEDICAL CENTER
4.93,27.49018,-97.85078,39098.48,CHRISTUS SPOHN HOSPITAL KLEBERG
3.71,26.19665,-98.31409,24871.45,MISSION REGIONAL MEDICAL CENTER
3.44,29.81230,-95.43010,21801.18,MEMORIAL HERMANN HOSPITAL SYSTEM
3.61,30.14556,-96.39944,23736.31,TRINITY MEDICAL CENTER
4.61,29.70719,-95.40048,35304.53,ST LUKES EPISCOPAL HOSPITAL
5.44,31.96072,-95.27098,44969.93,EAST TEXAS MEDICAL CENTER JACKSONVILLE
3.71,35.19934,-101.92186,24913.22,NORTHWEST TEXAS HOSPITAL
3.28,38.31987,-95.25120,19962.78,GULF COAST MEDICAL CENTER
3.30,35.86424,-101.97147,20208.55,MOORE COUNTY HOSPITAL DISTRICT
5.25,30.28473,-95.46714,42788.61,CONROE REGIONAL MEDICAL CENTER
3.41,35.19533,-101.91907,21451.04,BAPTIST ST ANTHONYS HEALTH SYSTEM-BAPTIST CAMPUS
2.61,31.89737,-98.60366,12171.87,COMANCHE COUNTY MEDICAL CENTER
2.50,29.95168,-96.26107,10843.79,BELLVILLE GENERAL HOSPITAL
3.99,33.21990,-97.59383,28193.07,WISE REGIONAL HEALTH SYSTEM
3.48,29.85271,-97.94841,22251.26,CENTRAL TEXAS MEDICAL CENTER
3.14,29.68674,-95.38652,18272.02,HARRIS COUNTY HOSPITAL DISTRICT
3.40,32.59083,-96.31474,21324.03,TEXAS HEALTH PRESBYTERIAN HOSPITAL KAUFMAN
3.43,33.71085,-96.58493,21617.79,TEXOMA MEDICAL CENTER
3.81,29.57653,-95.77057,26085.35,OAKBEND MEDICAL CENTER
5.07,31.42009,-100.47013,40691.80,SAN ANGELO COMMUNITY MEDICAL CENTER
3.53,30.69934,-95.55927,22813.79,HUNTSVILLE MEMORIAL HOSPITAL
2.91,31.30717,-96.89390,15655.85,FALLS COMMUNITY HOSPITAL AND CLINIC
3.36,33.12242,-96.12404,20826.60,HUNT REGIONAL MEDICAL CENTER
2.39,34.49146,-100.19496,9602.53,CHILDRESS REGIONAL MEDICAL CENTER
2.47,29.69466,-96.54099,10490.15,COLUMBUS COMMUNITY HOSPITAL
3.19,32.39611,-96.86404,18872.94,BAYLOR MEDICAL CENTER AT WAXAHACHIE
4.46,32.91527,-96.86934,33584.85,DALLAS MEDICAL CENTER
4.58,29.50795,-98.57224,34998.94,METHODIST HOSPITAL
5.06,32.17167,-95.84417,40559.10,EAST TEXAS MEDICAL CENTER ATHENS
2.27,29.69329,-96.78466,8206.74,COLORADO FAYETTE MEDICAL CENTER
3.67,32.08509,-96.50376,24502.34,NAVARRO REGIONAL HOSPITAL
2.89,32.24079,-97.74829,15423.65,GLEN ROSE MEDICAL CENTER
2.37,30.77530,-94.42687,9342.65,TYLER COUNTY HOSPITAL
3.90,32.16134,-94.79542,27156.12,ETMC HENDERSON
4.45,31.32794,-94.75614,33521.86,WOODLAND HEIGHTS MEDICAL CENTER
3.24,33.56197,-97.83528,19438.18,BOWIE MEMORIAL HOSPITAL
4.19,29.93570,-93.98900,30497.71,THE MEDICAL CENTER OF SOUTHEAST TEXAS
5.01,29.39378,-94.98682,39985.17,MAINLAND MEDICAL CENTER
5.11,32.40574,-99.76486,41207.17,ABILENE REGIONAL MEDICAL CENTER
3.39,32.93228,-97.09436,21240.66,BAYLOR REGIONAL MEDICAL CENTER AT GRAPEVINE
2.64,32.79966,-98.14533,12567.09,PALO PINTO GENERAL HOSPITAL
3.17,31.46574,-100.43466,18653.10,SHANNON MEDICAL CENTER
3.77,31.32376,-95.43900,25568.96,EAST TEXAS MEDICAL CENTER CROCKETT
2.54,29.11258,-97.28295,11342.76,CUERO COMMUNITY HOSPITAL
2.64,30.26290,-98.88017,12567.84,HILL COUNTRY MEMORIAL HOSPITAL INC
2.72,27.91542,-97.16169,13413.74,CARE REGIONAL MEDICAL CENTER
3.45,29.78143,-95.54541,21871.94,MEMORIAL HERMANN MEMORIAL CITY MEDICAL CENTER
4.60,33.17345,-97.11382,35245.61,DENTON REGIONAL MEDICAL CENTER
5.09,30.01994,-95.44379,40920.51,HOUSTON NORTHWEST MEDICAL CENTER
2.35,33.77667,-97.73155,9139.93,NOCONA GENERAL HOSPITAL
4.93,29.72913,-95.59429,39027.50,WEST HOUSTON MEDICAL CENTER
5.65,33.02168,-96.76621,47474.24,MEDICAL CENTER OF PLANO
3.99,32.23859,-101.49810,28148.77,SCENIC MOUNTAIN MEDICAL CENTER
4.02,31.65212,-94.65488,28502.54,NACOGDOCHES MEDICAL CENTER
4.80,31.72461,-96.16962,37517.30,EAST TEXAS MEDICAL CENTER - FAIRFIELD
4.47,31.85052,-102.36474,33770.78,ODESSA REGIONAL HOSPITAL
5.97,25.97780,-97.51442,51190.20,VALLEY REGIONAL MEDICAL CENTER
4.41,33.04634,-97.00473,33092.04,MEDICAL CENTER OF LEWISVILLE
3.89,30.08682,-95.62403,27063.39,TOMBALL REGIONAL MEDICAL CENTER
5.48,32.73563,-97.34483,45431.07,PLAZA MEDICAL CENTER OF FORT WORTH
4.22,32.67614,-97.32079,30850.44,HUGULEY HEALTH SYSTEM
3.36,32.70698,-96.27851,20911.36,RENAISSANCE HOSPITAL TERRELL
3.56,29.99677,-95.27641,23227.30,MEMORIAL HERMANN NORTHEAST
3.26,33.58838,-101.89214,19757.44,UNIVERSITY MEDICAL CENTER
2.47,29.21767,-96.28851,10588.46,EL CAMPO MEMORIAL HOSPITAL
4.10,29.35295,-98.54601,29410.54,SOUTHWEST GENERAL HOSPITAL
3.92,32.53312,-94.73022,27348.67,LONGVIEW REGIONAL MEDICAL CENTER
3.39,29.54946,-95.08660,21190.39,CHRISTUS ST JOHN HOSPITAL
4.27,30.22723,-97.77447,31431.97,ST DAVID'S SOUTH AUSTIN MEDICAL CENTER
5.60,29.92772,-95.59016,46837.85,CYPRESS FAIRBANKS MEDICAL CENTER
3.55,32.64448,-96.87635,23047.11,METHODIST CHARLTON MEDICAL CENTER
3.96,33.02769,-96.88471,27766.21,BAYLOR MEDICAL CENTER AT CARROLLTON
3.79,32.65818,-97.42078,25873.68,TEXAS HEALTH HARRIS METHODIST HOSPITAL SOUTHWEST F
4.75,27.69288,-97.34476,36958.68,CORPUS CHRISTI MEDICAL CENTER,THE
3.77,29.87147,-95.34242,25586.54,ST ANTHONY'S HOSPITAL
3.93,30.41163,-97.70649,27512.39,NORTH AUSTIN MEDICAL CENTER
4.71,29.58896,-95.63112,36534.80,METHODIST SUGAR LAND HOSPITAL
3.81,32.30684,-96.64115,26056.94,ENNIS REGIONAL MEDICAL CENTER
4.69,29.96603,-95.55127,36246.97,METHODIST WILLOWBROOK HOSPITAL
3.13,29.78747,-95.78578,18195.61,MEMORIAL HERMANN KATY HOSPITAL
2.60,32.78814,-96.78083,12087.32,BAYLOR HEART AND VASCULAR HOSPITAL
4.15,30.20579,-95.45830,30051.37,ST LUKE'S THE WOODLANDS HOSPITAL
4.26,30.40505,-97.74357,31280.60,SETON  NORTHWEST HOSPITAL
4.32,31.73448,-106.30034,31944.31,EAST EL PASO PHYSICIANS MEDICAL CENTER, LLC
6.21,33.11427,-96.77061,53881.77,CENTENNIAL MEDICAL CENTER
3.60,33.01358,-96.78823,23641.12,BAYLOR REGIONAL MEDICAL CENTER AT PLANO
2.97,40.24999,-111.66524,16381.91,UTAH VALLEY REGIONAL MEDICAL CENTER
3.15,40.77848,-111.88062,18447.38,LDS HOSPITAL
2.54,37.65268,-113.08129,11406.27,VALLEY VIEW MEDICAL CENTER
3.23,40.04365,-111.71457,19300.06,MOUNTAIN VIEW HOSPITAL
2.95,40.56454,-112.29609,16136.85,MOUNTAIN WEST MEDICAL CENTER
2.83,41.75744,-111.82113,14729.92,LOGAN REGIONAL HOSPITAL
2.75,37.09986,-113.55271,13815.25,DIXIE REGIONAL MEDICAL CENTER
2.93,40.38031,-111.76708,15917.94,AMERICAN FORK HOSPITAL
2.92,41.09098,-111.99557,15790.08,DAVIS HOSPITAL AND MEDICAL CENTER
3.29,40.58979,-111.97499,20107.03,JORDAN VALLEY MEDICAL CENTER
3.29,40.31210,-111.71152,20086.86,TIMPANOGOS REGIONAL HOSPITAL
2.81,44.47966,-73.19412,14509.74,FLETCHER ALLEN HOSPITAL OF VERMONT
2.99,43.59828,-72.95512,16545.93,RUTLAND REGIONAL MEDICAL CENTER
3.19,36.89897,-82.07851,18945.20,RUSSELL COUNTY MEDICAL CENTER
2.81,38.40552,-78.85730,14456.56,ROCKINGHAM MEMORIAL HOSPITAL
2.57,39.19345,-78.19599,11699.96,WINCHESTER MEDICAL CENTER INC
3.24,36.86268,-76.30355,19475.98,SENTARA NORFOLK GENERAL HOSPITAL
3.98,38.02573,-78.51526,28018.62,UNIVERSITY OF VIRGINIA MEDICAL CENTER
2.73,36.89933,-76.28157,13566.38,BON SECOURS - DEPAUL MEDICAL CENTER
2.92,36.83716,-76.34786,15750.81,BON SECOURS MARYVIEW MEDICAL CENTER
2.27,38.09436,-78.98659,8190.50,AUGUSTA HEALTH
2.50,37.41368,-79.16870,10842.43,CENTRA  HEALTH, INC
3.25,38.71322,-77.80895,19548.92,THE FAUQUIER HOSPITAL, INC
2.95,37.25129,-79.94125,16083.42,CARILION ROANOKE MEMORIAL CENTER
2.59,36.94315,-82.62092,11930.69,MOUNTAIN VIEW REGIONAL MEDICAL CENTER
3.90,37.54330,-77.42932,27121.76,MEDICAL COLLEGE OF VIRGINIA HOSPITALS
3.11,37.47512,-75.86264,17941.76,RIVERSIDE SHORE MEMORIAL HOSPITAL
3.41,38.82218,-77.10533,21415.93,INOVA ALEXANDRIA HOSPITAL
2.90,37.14463,-76.51197,15502.68,MARY IMMACULATE HOSPITAL
2.97,37.09020,-80.50370,16341.79,CARILION NEW RIVER VALLEY MEDICAL CENTER
2.92,39.07405,-77.47754,15787.45,INOVA LOUDOUN HOSPITAL
3.17,36.77378,-76.57856,18660.26,SENTARA OBICI HOSPITAL
2.97,36.85098,-76.18989,16351.98,SENTARA LEIGH HOSPITAL
2.77,37.06523,-76.48417,14006.24,RIVERSIDE REGIONAL MEDICAL CENTER
3.17,37.09990,-81.79024,18609.43,CLINCH VALLEY MEDICAL CENTER
3.19,38.85764,-77.22772,18935.04,INOVA FAIRFAX HOSPITAL
2.97,37.33700,-76.74046,16385.90,SENTARA WILLIAMSBURG REGIONAL MEDICAL CENTER
4.69,37.18253,-77.35957,36309.96,SOUTHSIDE REGIONAL MEDICAL CENTER
3.35,37.62931,-77.38804,20768.37,BON SECOURS - MEMORIAL REGIONAL MEDICAL
2.39,38.02176,-78.44530,9627.72,MARTHA JEFFERSON HOSPITAL
3.28,36.69555,-79.86374,19930.15,MEMORIAL HOSPITAL OF MARTINSVILLE & HENRY COUNTY
2.68,36.99444,-79.88970,12956.70,CARILION FRANKLIN MEMORIAL HOSPITAL
2.61,37.30288,-78.40196,12131.64,SOUTHSIDE COMMUNITY HOSPITAL, INC
4.03,36.69095,-76.93626,28658.07,SOUTHAMPTON MEMORIAL HOSPITAL
2.84,37.05580,-76.39048,14852.53,SENTARA CAREPLEX HOSPITAL
3.31,37.54014,-77.40666,20302.18,BON SECOURS - RICHMOND COMMUNITY HOSPITAL
2.95,38.88483,-77.37995,16148.47,INOVA FAIR OAKS HOSPITAL
2.84,36.95477,-81.09687,14839.41,WYTHE COUNTY COMMUNITY HOSPITAL
3.13,38.63463,-77.28361,18169.51,SENTARA POTOMAC HOSPITAL
2.30,37.12397,-81.48904,8602.74,CARILION TAZEWELL COMMUNITY HOSPITAL
3.02,36.77664,-76.09682,16959.13,SENTARA PRINCESS ANNE HOSPITAL
3.16,38.74009,-77.07732,18488.26,INOVA MOUNT VERNON HOSPITAL
2.96,37.79106,-79.88263,16191.25,LEWISGALE HOSPITAL ALLEGHANY
2.89,37.29071,-82.06423,15396.00,BUCHANAN GENERAL HOSPITAL
3.03,37.46807,-77.66143,17076.82,BON SECOURS - ST FRANCIS MEDICAL CENTER
3.86,47.71468,-122.33762,26612.41,NORTHWEST HOSPITAL
2.48,48.50066,-122.61584,10671.47,ISLAND HOSPITAL
3.36,47.33947,-122.26677,20901.08,AUBURN REGIONAL MEDICAL CENTER
3.82,46.71265,-122.98504,26158.80,PROVIDENCE CENTRALIA HOSPITAL
3.06,46.37074,-120.31663,17329.43,TOPPENISH COMMUNITY HOSPITAL
3.82,47.58295,-122.62506,26242.59,HARRISON MEDICAL CENTER
3.13,46.13039,-122.94110,18245.14,PEACHEALTH ST JOHN MEDICAL CENTER
3.55,45.62460,-122.58145,23052.23,PEACEHEALTH SOUTHWEST MEDICAL CENTER
3.42,47.64936,-117.41194,21613.61,PROVIDENCE SACRED HEART MEDICAL CENTER
3.18,46.28132,-119.28218,18812.30,KADLEC REGIONAL MEDICAL CENTER
2.59,48.18880,-122.11854,11950.11,CASCADE VALLEY HOSPITAL
3.14,47.60351,-122.32305,18368.92,HARBORVIEW MEDICAL CENTER
2.38,48.11504,-123.41519,9539.25,OLYMPIC MEDICAL CENTER
3.10,47.70969,-117.40722,17879.56,PROVIDENCE HOLY FAMILY HOSPITAL
4.20,47.17742,-122.28943,30642.44,MULTICARE GOOD SAMARITAN HOSPITAL
3.28,47.44243,-122.21392,19924.97,VALLEY MEDICAL CENTER
3.80,47.25980,-122.45243,26004.57,TACOMA GENERAL ALLENMORE HOSPITAL
3.61,47.04174,-122.95125,23790.11,CAPITAL MEDICAL CENTER
4.15,47.29252,-122.32729,30032.88,ST FRANCIS COMMUNITY HOSPITAL
3.85,47.36373,-122.61353,26591.56,ST ANTHONY HOSPITAL
3.02,39.65498,-79.95814,16913.55,WEST VIRGINIA UNIVERSITY HOSPITALS
2.46,37.77324,-80.46826,10399.09,GREENBRIER VALLEY MEDICAL CENTER
2.36,39.32836,-80.23964,9239.36,UNITED HOSPITAL CENTER
2.55,38.43236,-82.40067,11426.68,ST MARY'S MEDICAL CENTER
2.85,38.86891,-82.12349,14911.28,PLEASANT VALLEY HOSPITAL
2.37,39.94672,-80.75423,9382.16,REYNOLDS MEMORIAL HOSPITAL
3.22,38.34739,-81.62600,19209.05,CHARLESTON AREA MEDICAL CENTER
2.48,40.39520,-80.52796,10598.46,WEIRTON MEDICAL CENTER
2.65,39.66383,-79.94681,12658.31,MONONGALIA COUNTY GENERAL HOSPITAL
2.46,38.92594,-79.84673,10456.15,DAVIS MEMORIAL HOSPITAL
2.46,38.35361,-81.63222,10456.86,ST FRANCIS HOSPITAL
2.35,39.27800,-81.55171,9176.46,ST JOSEPHS HEALTHCARE SYSTEM
2.40,39.04775,-80.49240,9720.89,STONEWALL JACKSON MEM HOSP
2.79,40.05876,-80.72237,14276.71,OHIO VALLEY MEDICAL CENTER
2.66,39.48229,-80.16519,12774.00,FAIRMONT GENERAL HOSPITAL
3.26,37.84674,-81.99565,19692.74,LOGAN REGIONAL MEDICAL CENTER
2.47,38.99107,-80.23682,10567.45,ST JOSEPH HOSPITAL
2.70,39.27035,-81.56026,13156.62,CAMDEN CLARK MEDICAL CENTER
2.50,37.78754,-81.20183,10931.34,RALEIGH GENERAL HOSPITAL
2.69,37.67824,-82.27207,13062.62,WILLIAMSON MEMORIAL HOSPITAL
2.40,38.29255,-80.82930,9773.65,SUMMERSVILLE REGIONAL MEDICAL CENTER
2.94,44.52660,-89.56580,15994.57,MINISTRY ST MICHAELS HOSPITAL OF STEVENS POINT
2.62,44.24830,-88.40268,12231.56,ST ELIZABETH HSPTL
2.66,44.95162,-91.35969,12796.50,ST JOSEPHS HSPTL
3.14,45.63932,-89.37481,18279.26,MINISTRY ST MARYS HOSPITAL
2.97,42.60783,-89.63494,16328.89,THE MONROE CLINIC
2.60,44.38171,-89.82976,12072.04,RIVERVIEW HSPTL ASSOC
2.76,44.12383,-87.62011,13864.38,AURORA MED CTR MANITOWOC CTY
2.73,43.77292,-87.71108,13548.56,AURORA SHEBOYGAN MEM MED CTR
3.39,43.31772,-88.36193,21166.35,AURORA MED CENTER-WASHINGTON COUNTY
2.97,43.53915,-89.46262,16282.50,DIVINE SAVIOR HLTHCARE
2.33,44.18700,-88.45431,8935.20,THEDA CLARK MED CTR
2.47,44.01282,-88.60296,10510.44,MERCY MED CTR OF OSHKOSH
2.62,44.50233,-88.01140,12285.20,BELLIN MEMORIAL HSPTL
3.49,43.06195,-87.87861,22409.23,COLUMBIA ST MARYS HSPTL  MILW (COL & MILW CAMPUS)
3.41,43.48057,-89.73142,21452.90,ST CLARE HSPTL HLTH SVCS
3.04,42.67269,-88.28138,17132.98,AURORA MEMORIAL HSPTL BURLINGTON
3.09,42.68685,-89.03244,17691.25,MERCY HLTH SYS CORP
3.09,44.81192,-91.51352,17687.90,MAYO CLINIC HEALTH SYSTEM EAU CLAIRE HOSPITAL
3.33,42.93133,-88.82794,20474.29,FORT HEALTHCARE
3.20,43.77733,-88.42866,19013.60,ST AGNES HSPTL
2.87,45.89438,-89.70190,15232.62,HOWARD YOUNG MED CTR
2.84,43.28300,-89.72072,14830.53,SAUK PRAIRIE MEM HSPTL
2.74,42.73444,-87.82788,13641.52,WHEATON FRANCISCAN HEALTHCARE- ALL SAINTS
2.71,44.53265,-88.06664,13332.77,ST MARYS HSPTL MED CTR
3.23,43.07633,-89.43133,19413.39,UNIVERSITY OF WI  HOSPITALS & CLINICS AUTHORITY
3.78,42.54868,-89.00822,25777.56,BELOIT MEM HSPTL
3.35,42.66123,-88.49611,20707.80,AURORA LAKELAND MED CTR
3.12,43.78322,-90.07678,18096.55,MILE BLUFF MEDICAL CENTER, INC
3.06,43.07393,-87.97612,17429.60,WHEATON FRANCISCAN, INC- ST JOSEPH
3.68,42.98958,-87.95079,24540.41,AURORA ST LUKES MEDICAL CENTER
2.35,44.27860,-88.39550,9128.00,APPLETON MED CTR
3.62,43.00120,-88.02675,23881.10,AURORA WEST ALLIS MEDICAL CENTER
