size,lat,lon,price,name
3.53,34.46784,-93.06667,43721.56,ST JOSEPHS MERCY HEALTH CENTER INC
3.26,36.34295,-92.39442,37968.45,BAXTER REGIONAL MEDICAL CENTER
3.66,35.37445,-94.41868,46365.93,SPARKS REGIONAL MEDICAL CENTER
5.96,34.48600,-93.03521,95353.86,NATIONAL PARK MEDICAL CENTER
3.53,34.74866,-92.35422,43620.15,BAPTIST HEALTH MEDICAL CENTER-LITTLE ROCK
3.51,35.76927,-91.63408,43181.32,WHITE RIVER MEDICAL CENTER
3.17,34.73868,-92.39307,36024.39,ARKANSAS HEART HOSPITAL
4.45,40.78366,-124.14246,63224.67,ST JOSEPH HOSPITAL
5.94,38.57053,-121.45216,94883.26,MERCY GENERAL HOSPITAL
6.00,35.38736,-119.01690,96088.00,BAKERSFIELD MEMORIAL HOSPITAL
7.39,37.79100,-122.43125,125851.21,CALIFORNIA PACIFIC MEDICAL CTR-PACIFIC CAMPUS HOSP
6.69,37.95337,-122.33672,110891.27,DOCTORS MEDICAL CENTER-SAN PABLO
6.46,37.96987,-121.28873,106064.45,ST JOSEPHS MED CENTER OF STOCKTON
4.67,36.83532,-119.76562,67964.07,SAINT AGNES MEDICAL CENTER
4.91,34.10130,-117.63651,73068.50,SAN ANTONIO COMMUNITY HOSPITAL
4.76,38.57155,-121.46874,69881.54,SUTTER GENERAL HOSPITAL
5.50,38.44369,-122.70138,85563.37,SANTA ROSA MEMORIAL HOSPITAL
7.15,32.61972,-117.02278,120613.42,SHARP CHULA VISTA MEDICAL CENTER
6.47,35.27882,-120.65047,106122.55,FRENCH HOSPITAL MEDICAL CENTER
7.22,34.15601,-118.32834,122176.63,PROVIDENCE SAINT JOSEPH MEDICAL CTR
5.46,40.58654,-122.39168,84732.00,MERCY MEDICAL CENTER REDDING
5.57,34.03009,-118.47833,87009.05,SAINT JOHN'S HEALTH CENTER
5.36,34.50107,-117.17285,82634.78,ST MARY MEDICAL CENTER
4.91,38.76514,-121.24979,72964.00,SUTTER ROSEVILLE MEDICAL CENTER
4.82,34.05076,-117.26395,71177.28,LOMA LINDA UNIVERSITY MEDICAL CENTER
7.40,37.94748,-122.53677,125908.43,MARIN GENERAL HOSPITAL
5.80,32.89810,-117.24217,91994.34,SCRIPPS GREEN HOSPITAL
5.12,34.13364,-118.15275,77391.59,HUNTINGTON MEMORIAL HOSPITAL
7.20,37.43436,-122.18013,121638.31,STANFORD HOSPITAL
6.82,37.76421,-122.45716,113599.20,UCSF MEDICAL CENTER
4.28,35.38338,-119.01969,59583.61,SAN JOAQUIN COMMUNITY HOSPITAL
12.00,37.66540,-120.99743,223805.29,DOCTORS MEDICAL CENTER
6.50,34.20285,-118.62962,106846.71,WEST HILLS HOSPITAL & MEDICAL CENTER
6.54,34.20777,-118.88305,107600.04,LOS ROBLES HOSPITAL & MEDICAL CENTER
7.33,33.80441,-118.06665,124411.18,LOS ALAMITOS MEDICAL CENTER
6.44,33.71466,-117.93322,105617.73,FOUNTAIN VALLEY REGIONAL HOSPITAL & MEDICAL CENTER
5.16,33.60883,-117.70881,78262.21,SADDLEBACK MEMORIAL MEDICAL CENTER
9.88,34.07664,-118.37955,178794.12,CEDARS-SINAI MEDICAL CENTER
4.65,35.38506,-119.03992,67560.09,BAKERSFIELD HEART HOSPITAL
3.61,36.85992,-119.78858,45251.28,FRESNO HEART AND SURGICAL HOSPITAL
5.40,32.77629,-117.05730,83350.11,ALVARADO HOSPITAL MEDICAL CENTER
6.90,34.17067,-118.53200,115396.38,PROVIDENCE TARZANA MEDICAL CENTER
4.37,40.57315,-105.05741,61494.42,POUDRE VALLEY HOSPITAL
5.65,39.71712,-105.12874,88783.15,CENTURA HEALTH-ST ANTHONY HOSPITAL
4.04,40.41320,-105.05139,54515.75,MCKEE MEDICAL CENTER
4.23,38.86559,-104.82182,58520.84,CENTURA HEALTH-PENROSE ST FRANCIS HEALTH SERVICES
5.79,39.65399,-104.98116,91767.58,SWEDISH MEDICAL CENTER
3.32,41.77507,-72.69941,39274.41,ST FRANCIS HOSPITAL & MEDICAL CENTER
5.33,41.55959,-73.05941,81887.52,WATERBURY HOSPITAL
5.49,41.05562,-73.55390,85366.25,STAMFORD HOSPITAL
3.76,41.33722,-72.10380,48569.36,LAWRENCE & MEMORIAL HOSPITAL
4.75,41.18881,-73.16645,69574.00,BRIDGEPORT HOSPITAL
3.55,41.55241,-73.03554,44170.36,SAINT MARYS HOSPITAL
3.40,41.75412,-72.67927,40770.38,HARTFORD HOSPITAL
3.50,41.20049,-73.20281,42934.60,ST VINCENT'S MEDICAL CENTER
3.58,41.40474,-73.44739,44772.92,DANBURY HOSPITAL
4.04,39.74954,-75.56662,54385.40,ST FRANCIS HOSPITAL
3.51,39.15135,-75.52309,43245.83,BAYHEALTH - KENT GENERAL HOSPITAL
3.55,38.77159,-75.14210,43980.18,BEEBE MEDICAL CENTER
4.44,38.90106,-77.05079,62966.79,GEORGE WASHINGTON UNIV HOSPITAL
4.24,38.92944,-77.01473,58750.88,WASHINGTON HOSPITAL CENTER
4.15,30.34913,-81.66391,56886.23,SHANDS JACKSONVILLE MEDICAL CENTER
5.21,26.50479,-80.06979,79414.81,BETHESDA MEMORIAL HOSPITAL
4.55,28.52517,-81.37729,65368.69,ORLANDO HEALTH
6.57,25.68309,-80.34038,108253.32,BAPTIST HOSPITAL OF MIAMI INC
7.14,25.78846,-80.21644,120459.30,UNIVERSITY OF MIAMI HOSPITAL
3.19,29.20117,-81.05828,36464.12,HALIFAX HEALTH MEDICAL CENTER
4.27,26.15053,-81.79919,59339.78,NAPLES COMMUNITY HOSPITAL
4.90,25.79143,-80.21250,72843.25,JACKSON MEMORIAL HOSPITAL
4.63,28.83363,-82.33561,66986.08,CITRUS MEMORIAL HOSPITAL
3.76,30.47650,-87.21219,48632.56,SACRED HEART HOSPITAL
4.05,30.15963,-85.64818,54708.72,BAY MEDICAL CENTER
6.15,25.86166,-80.21398,99275.41,NORTH SHORE MEDICAL CENTER
5.59,25.81317,-80.13996,87473.47,MOUNT SINAI MEDICAL CENTER
4.33,26.01867,-80.17981,60746.54,MEMORIAL REGIONAL HOSPITAL
3.91,30.30835,-81.68919,51761.47,ST VINCENT'S MEDICAL CENTER
5.73,27.19837,-80.24306,90492.48,MARTIN MEMORIAL MEDICAL CENTER
5.30,28.26092,-82.18802,81237.29,FLORIDA HOSPITAL ZEPHYRHILLS
4.11,26.94042,-82.04094,56066.29,CHARLOTTE REGIONAL MEDICAL CENTER
4.51,29.17594,-82.13898,64512.43,MUNROE REGIONAL MEDICAL CENTER
3.76,29.24333,-81.10760,48588.00,FLORIDA HOSPITAL MEMORIAL MEDICAL CENTER
4.53,27.09043,-82.44499,64920.83,VENICE REGIONAL MEDICAL CENTER
7.80,28.53906,-82.44193,134458.58,BROOKSVILLE REGIONAL HOSPITAL
6.13,26.18711,-80.11941,98974.91,HOLY CROSS HOSPITAL INC
6.37,26.59805,-80.09271,103965.43,JFK MEDICAL CENTER
3.77,28.80659,-81.86906,48840.00,LEESBURG REGIONAL MEDICAL CENTER
4.28,30.31525,-81.66398,59543.91,BAPTIST MEDICAL CENTER
4.12,30.43066,-87.23191,56286.32,BAPTIST HOSPITAL
3.22,27.65832,-80.39307,37013.56,INDIAN RIVER MEDICAL CENTER
4.15,29.64155,-82.34844,56789.29,SHANDS HOSPITAL AT THE UNIVERSITY OF FLORIDA
3.72,30.26389,-81.44283,47598.75,MAYO CLINIC
4.17,28.06172,-81.95304,57268.63,LAKELAND REGIONAL MEDICAL CENTER
4.83,28.81611,-81.28351,71240.34,CENTRAL FLORIDA REGIONAL HOSPITAL
5.89,26.26259,-80.20292,93761.03,NORTHWEST MEDICAL CENTER
4.40,27.48213,-82.62126,62158.57,BLAKE MEDICAL CENTER
5.77,26.12354,-80.25951,91190.52,WESTSIDE REGIONAL MEDICAL CENTER
5.46,27.93259,-82.28759,84708.22,BRANDON REGIONAL HOSPITAL
5.91,27.43392,-80.34350,94184.97,LAWNWOOD REGIONAL MEDICAL CENTER & HEART INSTITUTE
6.28,26.43709,-80.12728,102228.74,DELRAY MEDICAL CENTER
6.67,28.53585,-82.53404,110515.33,OAK HILL HOSPITAL
4.51,28.03957,-82.70875,64514.36,MEASE COUNTRYSIDE HOSPITAL
5.77,26.21388,-81.73257,91251.89,PHYSICIANS REGIONAL MEDICAL CENTER - PINE RIDGE
4.69,27.38993,-82.43343,68346.44,LAKEWOOD RANCH MEDICAL CENTER
3.29,31.22516,-82.34898,38514.29,SATILLA REGIONAL MEDICAL CENTER
3.81,31.59023,-84.15756,49701.80,PHOEBE PUTNEY MEMORIAL HOSPITAL
3.34,33.79230,-84.32107,39584.62,EMORY UNIVERSITY HOSPITAL
3.41,33.47096,-81.98176,41080.03,UNIVERSITY HOSPITAL
4.14,34.30335,-83.81737,56554.69,NORTHEAST GEORGIA MEDICAL CENTER, INC
3.97,33.96770,-84.55011,52992.12,WELLSTAR KENNESTONE HOSPITAL
3.19,31.98515,-81.15475,36376.72,ST JOSEPH'S HOSPITAL - SAVANNAH
3.87,34.26000,-85.17000,50975.52,FLOYD MEDICAL CENTER
3.53,32.61642,-83.63065,43719.32,HOUSTON MEDICAL CENTER
3.72,33.96117,-83.39832,47706.30,ATHENS REGIONAL MEDICAL CENTER
3.13,33.76810,-84.38616,35139.54,EMORY UNIVERSITY HOSPITAL MIDTOWN
3.41,33.90877,-84.35180,41141.06,SAINT JOSEPH'S HOSPITAL OF ATLANTA, INC
3.66,31.47069,-83.50473,46398.52,TIFT REGIONAL MEDICAL CENTER
3.74,32.83041,-83.63476,48072.90,MEDICAL CENTER OF CENTRAL GEORGIA
3.57,30.86250,-83.28630,44529.31,SOUTH GEORGIA MEDICAL CENTER
3.60,33.85638,-84.60446,45158.74,WELLSTAR COBB HOSPITAL
4.05,32.84705,-83.61823,54774.94,COLISEUM MEDICAL CENTER
3.83,33.57843,-84.38897,49925.83,SOUTHERN REGIONAL MEDICAL CENTER
4.12,33.51144,-84.22200,56144.82,HENRY MEDICAL CENTER, INC
3.98,34.06670,-84.17643,53219.15,EMORY JOHNS CREEK HOSPITAL
3.79,21.30780,-157.85505,49204.72,THE QUEENS MEDICAL CENTER
3.07,43.61218,-116.19234,33946.91,ST LUKES REGIONAL MEDICAL CENTER
3.88,43.46987,-111.99208,50999.26,EASTERN IDAHO REGIONAL MEDICAL CENTER
4.37,42.06550,-87.68428,61458.12,EVANSTON HOSPITAL
3.65,40.75318,-89.59321,46244.73,PROCTOR HOSPITAL
4.78,39.93563,-91.39833,70335.35,BLESSING HOSPITAL
3.95,41.86011,-87.69571,52646.32,MT SINAI HOSPITAL MEDICAL CENTER
3.11,38.32292,-88.91026,34660.33,GOOD SAMARITAN REGIONAL HLTH CENTER
4.88,41.89141,-87.77618,72378.18,WEST SUBURBAN MEDICAL CENTER
4.71,42.05624,-87.74012,68777.91,SKOKIE HOSPITAL
3.66,39.80726,-89.64496,46358.24,ST JOHNS HOSPITAL
3.72,41.66900,-87.81414,47616.29,PALOS COMMUNITY HOSPITAL
4.64,40.70200,-89.59222,67213.11,SAINT FRANCIS MEDICAL CENTER
6.20,41.78829,-87.60485,100443.87,THE UNIVERSITY OF CHICAGO MEDICAL CENTER
3.79,41.36897,-88.42537,49231.18,MORRIS HOSPITAL & HEALTHCARE CENTERS
4.16,40.11739,-88.22714,57018.09,PROVENA COVENANT MEDICAL CENTER- URBANA
3.90,42.31832,-88.27920,51462.44,CENTEGRA HEALTH SYSTEM - MC HENRY HOSPITAL
4.74,41.80555,-87.92059,69350.06,HINSDALE HOSPITAL
2.33,41.87381,-87.67421,18043.47,JOHN H STROGER JR HOSPITAL
9.48,38.70148,-90.14382,170190.57,GATEWAY REGIONAL MEDICAL CENTER
4.76,41.86927,-87.67052,69856.27,UNIVERSITY OF ILLINOIS HOSPITAL
3.71,41.84639,-87.62345,47519.85,MERCY HOSPITAL AND MEDICAL CENTER
3.39,37.72790,-89.22058,40566.71,MEMORIAL HOSPITAL OF CARBONDALE
3.38,39.82659,-88.93119,40476.78,ST MARYS HOSPITAL
5.03,41.72094,-87.69220,75559.96,LITTLE COMPANY OF MARY HOSPITAL
4.10,41.12572,-87.88526,55797.92,RIVERSIDE MEDICAL CENTER
3.14,38.51081,-89.99014,35331.91,ST ELIZABETH HOSPITAL
4.60,41.86362,-87.93567,66352.33,ELMHURST MEMORIAL HOSPITAL
4.82,42.27447,-87.95764,71010.19,ADVOCATE CONDELL MEDICAL CENTER
4.16,41.72031,-87.73249,56971.37,ADVOCATE CHRIST HOSPITAL & MEDICAL CENTER
4.66,41.88566,-88.34311,67580.25,DELNOR COMMUNITY HOSPITAL
4.51,42.03837,-87.84820,64394.36,ADVOCATE LUTHERAN GENERAL HOSPITAL
4.90,42.26584,-89.07428,72713.45,SWEDISH AMERICAN HOSPITAL
4.37,42.26634,-89.00900,61454.28,SAINT ANTHONY MEDICAL CENTER
3.98,41.56720,-87.69566,53182.00,ADVOCATE SOUTH SUBURBAN HOSPITAL
3.39,41.49581,-90.41871,40631.38,GENESIS MEDICAL CENTER ILLINI CAMPUS
2.95,41.48200,-90.57158,31377.39,TRINITY ROCK ISLAND
4.32,41.81791,-88.00907,60486.36,ADVOCATE GOOD SAMARITAN HOSPITAL
4.06,41.61055,-86.72511,54981.35,INDIANA UNIVERSITY HEALTH LA PORTE HOSPITAL
3.14,41.63466,-87.44901,35331.82,ST CATHERINE HOSPITAL INC
3.49,41.70639,-86.89936,42760.28,FRANCISCAN ST ANTHONY HEALTH - MICHIGAN CITY
3.50,41.70568,-85.93404,42978.56,ELKHART GENERAL HOSPITAL
3.54,41.51266,-87.26125,43914.29,ST MARY MEDICAL CENTER INC
4.54,41.46729,-87.05130,65034.38,PORTER VALPARAISO HOSPITAL
3.97,39.79009,-86.16260,52978.22,INDIANA UNIVERSITY HEALTH
3.75,40.04526,-86.02297,48223.77,RIVERVIEW HOSPITAL
4.50,39.78704,-86.07673,64261.33,COMMUNITY HOSPITAL EAST
3.72,37.98293,-87.57072,47644.70,DEACONESS HOSPITAL INC
3.93,39.91001,-86.19660,52242.79,ST VINCENT HOSPITAL & HEALTH SERVICES
4.20,40.19679,-85.41573,57941.32,INDIANA UNIVERSITY HEALTH BALL MEMORIAL HOSPITAL
4.06,37.96320,-87.50292,55007.47,ST MARY'S MEDICAL CENTER OF EVANSVILLE INC
3.63,40.07620,-86.47506,45713.00,WITHAM HEALTH SERVICES
3.51,39.21585,-85.89683,43261.24,COLUMBUS REGIONAL HOSPITAL
2.69,38.39499,-86.94089,25845.10,MEMORIAL HOSPITAL AND HEALTH CARE CENTER
3.66,39.94017,-86.15975,46509.11,ST VINCENT HEART CENTER OF INDIANA LLC
3.62,39.90201,-86.04478,45646.98,INDIANA HEART HOSPITAL THE
3.51,39.95930,-86.16016,43235.31,INDIANA UNIVERSITY HEALTH NORTH HOSPITAL
4.04,39.64935,-86.07960,54423.26,FRANCISCAN ST FRANCIS HEALTH - INDIANAPOLIS
4.29,40.40296,-86.80885,59782.48,INDIANA UNIVERSITY HEALTH ARNETT HOSPITAL
3.50,37.97481,-87.44457,43093.46,THE HEART HOSPITAL AT DEACONESS GATEWAY LLC
3.88,38.33336,-85.75165,50987.90,KENTUCKIANA MEDICAL CENTER LLC
3.05,42.49388,-94.18926,33520.20,TRINITY REGIONAL MEDICAL CENTER
3.28,41.66411,-91.52841,38275.61,MERCY HOSPITAL
3.15,41.54190,-90.55691,35512.52,GENESIS MEDICAL CENTER-DAVENPORT
3.77,41.66092,-91.54800,48741.81,UNIVERSITY OF IOWA HOSPITAL & CLINICS
3.84,43.15063,-93.21718,50128.71,MERCY MEDICAL CENTER-NORTH IOWA
3.98,41.97864,-91.65507,53281.93,MERCY MEDICAL CENTER - CEDAR RAPIDS
3.39,41.59886,-93.62344,40679.21,MERCY MEDICAL CENTER-DES MOINES
3.89,38.87847,-99.29923,51270.88,HAYS MEDICAL CENTER
4.37,39.05660,-95.69599,61466.95,ST FRANCIS HEALTH CENTER INC
3.32,38.85279,-94.82413,39086.81,OLATHE MEDICAL CENTER
5.45,37.69556,-97.29785,84378.33,WESLEY MEDICAL CENTER
3.91,38.97848,-95.24771,51677.89,LAWRENCE MEMORIAL HOSPITAL
4.50,39.12677,-94.78643,64351.73,PROVIDENCE MEDICAL CENTER
4.55,38.90355,-94.66966,65376.36,SAINT LUKE'S SOUTH HOSPITAL
2.84,37.73142,-97.26078,29041.56,GALICHIA HEART HOSPITAL LLC
3.20,38.47021,-82.63498,36625.10,KING'S DAUGHTERS' MEDICAL CENTER
3.68,37.11784,-84.10910,46867.57,SAINT JOSEPH HOSPITAL LONDON
3.01,37.01079,-85.90342,32632.82,T J SAMSON COMMUNITY HOSPITAL
4.09,38.18397,-83.43268,55561.92,ST CLAIRE REGIONAL MEDICAL CENTER
3.69,37.27729,-83.22802,47101.42,HAZARD ARH REGIONAL MEDICAL CENTER
3.52,39.06704,-84.49946,43343.41,ST ELIZABETH MEDICAL CENTER NORTH
4.33,37.47264,-82.52605,60564.57,PIKEVILLE MEDICAL CENTER
3.28,37.33959,-87.48988,38373.69,REGIONAL MEDICAL CENTER OF HOPKINS COUNTY
3.50,38.01849,-84.51236,43095.35,CENTRAL BAPTIST HOSPITAL
3.95,37.08724,-84.61828,52485.17,LAKE CUMBERLAND REGIONAL HOSPITAL
4.06,30.20227,-92.01906,54866.96,LAFAYETTE GENERAL MEDICAL CENTER
3.46,29.59851,-90.71397,42115.43,TERREBONNE GENERAL MEDICAL CENTER
4.09,31.28258,-92.46060,55637.10,CHRISTUS ST FRANCES CABRINI HOSPITAL
5.02,31.31451,-92.44997,75334.67,RAPIDES REGIONAL MEDICAL CENTER
3.40,32.48393,-93.77884,40838.78,WILLIS KNIGHTON MEDICAL CENTER
4.33,30.01438,-90.18155,60760.18,EAST JEFFERSON GENERAL HOSPITAL
3.34,30.17316,-92.02697,39583.68,HEART HOSPITAL OF LAFAYETTE
3.42,43.65325,-70.27533,41372.28,MAINE MEDICAL CENTER
3.23,44.10107,-70.21432,37303.11,CENTRAL MAINE MEDICAL CENTER
2.40,39.62183,-77.68219,19591.50,MERITUS MEDICAL CENTER
2.36,39.28817,-76.62438,18682.88,UNIVERSITY OF MARYLAND MEDICAL CENTER
2.59,39.42366,-77.41386,23715.45,FREDERICK MEMORIAL HOSPITAL
2.13,39.38813,-76.61068,13800.94,SAINT JOSEPH MEDICAL CENTER
2.37,39.29688,-76.59242,19006.00,JOHNS HOPKINS HOSPITAL, THE
2.31,39.27352,-76.67219,17734.52,SAINT AGNES HOSPITAL
2.27,39.35262,-76.66196,16892.02,SINAI HOSPITAL OF BALTIMORE
2.00,38.36248,-75.59799,11095.79,PENINSULA REGIONAL MEDICAL CENTER
2.41,38.99014,-76.53398,19711.13,ANNE ARUNDEL MEDICAL CENTER
2.15,39.32930,-76.61432,14356.12,UNION MEMORIAL HOSPITAL
2.33,39.13732,-76.62228,18198.85,BALTIMORE WASHINGTON  MEDICAL CENTER
2.55,38.74827,-76.87590,22783.48,SOUTHERN MARYLAND HOSPITAL CENTER
2.34,39.09796,-77.19799,18288.94,SHADY GROVE ADVENTIST HOSPITAL
3.40,42.37441,-71.13378,40874.77,MOUNT AUBURN HOSPITAL
4.06,42.70912,-71.14877,54970.38,LAWRENCE GENERAL HOSPITAL
4.20,42.51078,-70.90712,57873.30,NORTH SHORE MEDICAL CENTER
3.22,42.34896,-71.14768,37010.11,ST ELIZABETH'S MEDICAL CENTER
3.77,42.03597,-71.09792,48750.11,SIGNATURE HEALTHCARE BROCKTON HOSPITAL
3.48,42.64636,-71.34118,42614.35,LOWELL GENERAL HOSPITAL
4.70,42.36227,-71.06941,68627.61,MASSACHUSETTS GENERAL HOSPITAL
3.00,41.70928,-71.14519,32446.65,SOUTHCOAST HOSPITAL GROUP, INC
2.85,42.12077,-72.60525,29270.71,BAYSTATE MEDICAL CENTER
3.90,42.72846,-71.16830,51599.73,HOLY FAMILY HOSPITAL
2.91,42.17644,-70.95398,30519.18,SOUTH SHORE HOSPITAL
4.74,42.33600,-71.10704,69449.63,BRIGHAM AND WOMEN'S HOSPITAL
3.50,42.34951,-71.06331,42929.95,TUFTS MEDICAL CENTER
3.67,42.18869,-71.20197,46529.64,NORWOOD HOSPITAL
2.98,43.20588,-86.20839,31881.26,MERCY HEALTH PARTNERS, MERCY CAMPUS
3.06,42.45741,-83.20513,33538.55,PROVIDENCE HOSPITAL AND MEDICAL CENTERS
3.02,42.29077,-83.21504,32706.95,OAKWOOD HOSPITAL AND MEDICAL CENTER
3.23,42.61425,-83.27602,37273.14,ST JOSEPH MERCY OAKLAND
3.04,42.96881,-85.66649,33304.57,SPECTRUM HEALTH - BUTTERWORTH CAMPUS
3.34,43.58941,-83.86908,39542.16,MCLAREN BAY REGION
3.24,42.61490,-82.96060,37550.86,HENRY FORD MACOMB HOSPITAL
2.91,42.36762,-83.08461,30443.28,HENRY FORD HOSPITAL
3.46,43.42857,-83.95556,42116.33,COVENANT MEDICAL CENTER, INC
4.04,43.42612,-83.94185,54563.32,ST MARY'S OF MICHIGAN MEDICAL CENTER
3.19,42.25117,-84.39240,36494.61,ALLEGIANCE HEALTH
3.36,42.70417,-84.55488,40044.44,MCLAREN - GREATER LANSING
3.48,42.89254,-83.63621,42528.30,GENESYS REGIONAL MEDICAL CENTER - HEALTH PARK
2.91,42.98625,-82.42802,30384.83,PORT HURON HOSPITAL
3.51,42.67850,-83.14771,43317.68,CRITTENTON HOSPITAL MEDICAL CENTER
3.65,42.61826,-83.09239,46190.91,WILLIAM BEAUMONT HOSPITAL-TROY
3.54,46.79380,-92.09573,43753.96,ESSENTIA HEALTH ST MARY'S MEDICAL CENTER
3.29,45.57390,-94.16942,38618.43,ST CLOUD HOSPITAL
3.77,46.79634,-92.08793,48798.00,ST LUKES HOSPITAL
3.75,44.95248,-93.26196,48365.76,ABBOTT NORTHWESTERN HOSPITAL
3.63,44.88645,-93.32693,45858.79,FAIRVIEW SOUTHDALE HOSPITAL
3.71,44.95570,-93.09429,47502.75,REGIONS HOSPITAL
3.70,45.18355,-93.36789,47221.82,MERCY HOSPITAL
3.11,34.24336,-88.71753,34688.93,NORTH MISSISSIPPI MEDICAL CENTER
3.09,31.24000,-90.45000,34363.94,SOUTHWEST MS REGIONAL MEDICAL CENTER
3.86,33.52568,-88.42742,50758.45,BAPTIST MEM HOSP/GOLDEN TRIANGLE INC
3.51,32.31643,-90.17922,43259.96,MISSISSIPPI BAPTIST MEDICAL CENTER
3.47,32.37280,-88.69954,42289.71,ANDERSON REGIONAL MEDICAL CENTER
4.03,37.06032,-94.52747,54204.80,ST JOHN'S REGIONAL MEDICAL CENTER
3.16,38.16498,-90.38082,35810.87,JEFFERSON REGIONAL MEDICAL CENTER
3.59,39.71116,-91.45071,44816.39,HANNIBAL REGIONAL HOSPITAL
5.39,39.00717,-94.55925,83141.93,RESEARCH MEDICAL CENTER
3.69,38.63524,-90.26508,46993.49,BARNES JEWISH HOSPITAL
2.99,39.08401,-94.57591,32076.25,TRUMAN MEDICAL CENTER HOSPITAL HILL
3.89,37.17999,-93.27409,51202.58,ST JOHN'S REGIONAL HEALTH CENTER
3.09,38.94903,-92.31563,34185.45,BOONE HOSPITAL CENTER
3.31,38.50661,-90.38025,38860.23,ST ANTHONY'S MEDICAL CENTER
3.48,36.64970,-93.22138,42605.48,SKAGGS REGIONAL MEDICAL CENTER
4.82,39.04749,-94.34105,71097.75,CENTERPOINT MEDICAL CENTER OF INDEPENDENCE, LLC
4.00,38.75097,-90.43255,53610.02,SSM DEPAUL HEALTH CENTER
5.01,38.62280,-90.24049,75141.85,ST LOUIS UNIVERSITY HOSPITAL
4.51,37.31072,-89.53990,64446.83,SOUTHEAST MISSOURI HOSPITAL
6.35,36.78510,-90.42779,103554.42,POPLAR BLUFF REGIONAL MEDICAL CENTER
3.12,37.05238,-94.52777,34874.14,FREEMAN HEALTH SYSTEM - FREEMAN WEST
4.86,39.04761,-94.59037,71892.97,ST LUKES HOSPITAL OF KANSAS CITY
3.47,38.77576,-90.23906,42297.26,CHRISTIAN HOSPITAL NORTHEAST
3.83,38.12027,-92.68146,49969.54,LAKE REGIONAL HEALTH SYSTEM
3.30,37.60022,-93.42237,38648.33,CITIZENS MEMORIAL HOSPITAL
4.63,38.94062,-94.37842,67034.03,SAINT LUKE'S EAST LEE'S SUMMIT HOSPITAL
3.38,40.70646,-99.08136,40456.90,GOOD SAMARITAN HOSPITAL
4.34,41.25522,-95.97892,60963.21,THE NEBRASKA MEDICAL CENTER
3.39,40.92425,-98.37053,40599.08,ST FRANCIS MEDICAL CENTER
9.39,41.26509,-95.95494,168332.19,CREIGHTON UNIVERSITY MEDICAL CENTER - SAINT JOSEPH
2.65,40.73657,-96.59332,24936.18,NEBRASKA HEART HOSPITAL
6.41,36.13459,-115.13576,104985.08,SUNRISE HOSPITAL AND MEDICAL CENTER
4.16,39.53066,-119.82067,57097.65,SAINT MARY'S REGIONAL MEDICAL CENTER
4.68,39.20247,-119.78446,68004.12,CARSON TAHOE REGIONAL MEDICAL CENTER
6.58,36.16380,-115.16574,108450.46,VALLEY HOSPITAL MEDICAL CENTER
6.36,36.21599,-115.25095,103768.26,MOUNTAINVIEW HOSPITAL
5.73,36.16586,-115.32436,90541.48,SUMMERLIN HOSPITAL MEDICAL CENTER
5.96,36.00527,-115.11618,95402.11,SAINT ROSE DOMINICAN HOSPITAL - SIENA CAMPUS
3.89,43.19846,-71.56230,51403.90,CONCORD HOSPITAL
3.60,43.67286,-72.27232,45050.13,MARY HITCHCOCK MEMORIAL HOSPITAL
3.99,43.06469,-70.78916,53516.55,PORTSMOUTH REGIONAL HOSPITAL
4.33,40.88346,-74.05564,60597.35,HACKENSACK UNIVERSITY MEDICAL CENTER
4.42,40.71011,-74.21368,62579.29,NEWARK BETH ISRAEL MEDICAL CENTER
3.71,40.88275,-74.01021,47415.16,HOLY NAME MEDICAL CENTER
4.86,40.98359,-74.10047,71889.66,VALLEY HOSPITAL
5.98,39.94152,-75.11680,95731.37,COOPER UNIVERSITY HOSPITAL
4.48,40.78883,-74.46620,63781.52,MORRISTOWN MEMORIAL HOSPITAL
6.97,40.21634,-74.74143,116773.71,ST FRANCIS MEDICAL CENTER
6.36,39.78261,-74.91670,103894.06,VIRTUA WEST JERSEY HOSPITALS BERLIN
5.84,40.35309,-74.06484,92767.08,RIVERVIEW MEDICAL CENTER
7.37,40.29209,-74.80327,125247.36,CAPITAL HEALTH MEDICAL CENTER - HOPEWELL
4.72,40.90400,-73.96847,68881.54,ENGLEWOOD HOSPITAL AND MEDICAL CENTER
4.72,40.71264,-74.35460,68973.58,OVERLOOK HOSPITAL
6.23,40.07832,-74.13009,101103.93,OCEAN MEDICAL CENTER
7.08,39.35775,-74.43449,119050.19,ATLANTICARE REGIONAL MEDICAL CENTER - CITY DIV
5.62,40.76190,-74.30335,88030.58,SAINT BARNABAS MEDICAL CENTER
3.33,36.72387,-108.21749,39305.41,SAN JUAN REGIONAL MEDICAL CENTER
3.90,32.32310,-106.72900,51515.94,MOUNTAIN VIEW REGIONAL MEDICAL CENTER
2.55,42.87482,-78.84942,22884.03,KALEIDA HEALTH
4.06,42.65345,-73.77543,54997.23,ALBANY MEDICAL CENTER HOSPITAL
4.20,41.69441,-73.93432,57839.58,VASSAR BROTHERS MEDICAL CENTER
3.22,40.79041,-73.95386,37151.49,MOUNT SINAI HOSPITAL
3.56,40.80556,-73.96131,44361.53,ST LUKE'S ROOSEVELT HOSPITAL
3.87,42.65583,-73.80372,50961.45,ST PETER'S HOSPITAL
2.79,42.10076,-76.82800,27887.64,ARNOT OGDEN MEDICAL CENTER
3.90,40.77686,-73.70212,51512.47,NORTH SHORE UNIVERSITY HOSPITAL
2.82,43.19244,-77.58590,28631.70,ROCHESTER GENERAL HOSPITAL
4.78,41.44138,-74.36821,70222.56,ORANGE REGIONAL MEDICAL CENTER
2.83,43.05571,-76.14981,28733.71,ST JOSEPH'S HOSPITAL HEALTH CENTER
3.63,42.81963,-73.91653,45749.68,ELLIS HOSPITAL
3.63,40.73265,-73.98162,45700.81,BETH ISRAEL MEDICAL CENTER
4.49,40.80462,-73.67023,64072.76,ST FRANCIS HOSPITAL, ROSLYN
3.90,40.75332,-73.70899,51412.21,LONG ISLAND JEWISH MEDICAL CENTER
3.94,40.65189,-73.63096,52348.89,SOUTH NASSAU COMMUNITIES HOSPITAL
4.31,40.74335,-73.97408,60176.00,NYU HOSPITALS CENTER
4.66,41.08773,-73.80395,67769.51,WESTCHESTER MEDICAL CENTER
2.81,40.66762,-73.97850,28414.76,NEW YORK METHODIST HOSPITAL
2.82,43.04269,-76.14043,28508.85,UNIVERSITY HOSPITAL S U N Y HEALTH SCIENCE CENTER
4.23,41.50307,-74.01517,58448.58,ST LUKE'S CORNWALL HOSPITAL
3.65,42.84782,-78.81264,46118.00,MERCY HOSPITAL
4.62,40.69327,-73.29412,66820.95,GOOD SAMARITAN HOSPITAL MEDICAL CENTER
3.84,40.64666,-74.02049,50194.79,LUTHERAN MEDICAL CENTER
3.24,42.47286,-76.53849,37495.68,CAYUGA MEDICAL CENTER AT ITHACA
2.54,40.65508,-73.94521,22578.00,UNIVERSITY HOSPITAL OF BROOKLYN ( DOWNSTATE )
3.06,42.11422,-75.95851,33745.00,UNITED HEALTH SERVICES HOSPITALS, INC
4.13,35.57658,-82.54922,56309.27,MEMORIAL MISSION HOSPITAL AND ASHEVILLE SURGERY CE
3.26,35.95000,-80.00000,37901.65,HIGH POINT REGIONAL HOSPITAL
3.14,36.07581,-80.29779,35445.96,FORSYTH MEMORIAL HOSPITAL
3.78,35.68172,-80.47072,48954.53,ROWAN REGIONAL MEDICAL CENTER
4.35,36.00850,-78.94006,61141.12,DUKE UNIVERSITY HOSPITAL
4.44,35.79986,-80.87863,63005.87,IREDELL MEMORIAL HOSPITAL INC
3.89,35.60726,-77.40477,51229.68,PITT COUNTY MEMORIAL HOSPITAL
3.18,36.09062,-80.27161,36208.82,NORTH CAROLINA BAPTIST HOSPITAL
3.96,35.22196,-80.83287,52753.63,PRESBYTERIAN HOSPITAL
3.05,35.90529,-79.04963,33510.38,UNIVERSITY OF NORTH CAROLINA HOSPITAL
4.32,35.78523,-78.58836,60527.36,WAKEMED, RALEIGH CAMPUS
3.08,36.09251,-79.78855,34079.40,MOSES H CONE MEMORIAL HOSPITAL, THE
3.76,35.21029,-80.82084,48535.95,CAROLINAS MED CENTER-MERCY
4.31,36.04960,-78.90617,60176.12,DURHAM REGIONAL HOSPITAL
3.28,46.88496,-96.78609,38311.85,SANFORD MEDICAL CENTER FARGO
3.31,47.91045,-97.06742,38857.07,ALTRU HOSPITAL
3.88,39.08582,-84.34886,51023.79,MERCY HOSPITAL ANDERSON
4.10,39.13707,-84.50392,55819.35,UNIVERSITY HOSPITAL, INC
3.52,40.03064,-83.03440,43458.66,RIVERSIDE METHODIST HOSPITAL
3.82,38.75320,-82.97800,49703.50,SOUTHERN OHIO MEDICAL CENTER
3.38,40.73578,-84.08630,40482.44,LIMA MEMORIAL HEALTH SYSTEM
3.22,39.20680,-84.38093,36999.22,JEWISH HOSPITAL, LLC
3.60,39.96098,-82.99077,45049.79,GRANT MEDICAL CENTER
3.69,41.44642,-82.70864,47005.32,FIRELANDS REGIONAL MEDICAL CENTER
3.83,41.07747,-81.53042,50008.41,AKRON GENERAL MEDICAL CENTER
3.32,41.38265,-81.73127,39238.78,PARMA COMMUNITY GENERAL HOSPITAL
3.23,41.61788,-83.61632,37314.14,UNIVERSITY OF TOLEDO MEDICAL CENTER
5.35,39.74547,-84.18523,82339.78,MIAMI VALLEY HOSPITAL
5.50,39.78778,-84.23493,85601.06,GOOD SAMARITAN HOSPITAL
3.41,39.31257,-84.51774,41135.06,MERCY HOSPITAL FAIRFIELD
2.58,40.81219,-81.39625,23373.10,MERCY MEDICAL CENTER
3.70,39.71750,-82.57772,47248.31,FAIRFIELD MEDICAL CENTER
4.33,39.99445,-83.01872,60732.16,OHIO STATE UNIVERSITY HOSPITALS
3.03,41.55725,-83.68141,32982.56,ST LUKE'S HOSPITAL
3.64,41.01785,-83.65165,46082.56,BLANCHARD VALLEY HOSPITAL
3.80,41.66317,-81.24696,49313.41,LAKE HEALTH
5.04,41.66810,-83.54275,75775.35,MERCY ST VINCENT MEDICAL CENTER
3.39,41.43653,-81.94451,40648.05,ST JOHN MEDICAL CENTER
2.85,41.36649,-82.09708,29187.42,EMH REGIONAL MEDICAL CENTER
4.66,40.80656,-81.51633,67574.73,AFFINITY MEDICAL CENTER
3.77,41.37028,-81.83189,48693.93,SOUTHWEST GENERAL HEALTH CENTER
3.64,41.43688,-82.23761,45880.81,MERCY REGIONAL MEDICAL CENTER
4.26,41.50248,-81.62110,59225.76,CLEVELAND CLINIC
3.72,41.52013,-81.43291,47692.22,HILLCREST HOSPITAL
4.96,35.52531,-97.58461,74089.58,DEACONESS HOSPITAL
3.55,35.47800,-97.52352,43969.00,ST ANTHONY HOSPITAL
5.21,34.18908,-97.14128,79410.55,MERCY MEMORIAL HEALTH CENTER
6.53,35.46721,-97.39370,107408.70,MIDWEST REGIONAL MEDICAL CENTER
3.35,36.13393,-95.96718,39801.02,ST JOHN MEDICAL CENTER, INC
5.16,36.03590,-95.86511,78303.57,SOUTHCREST HOSPITAL
3.80,35.60901,-97.59429,49440.12,OKLAHOMA HEART HOSPITAL
3.50,42.31769,-122.83333,42960.17,ROGUE VALLEY MEDICAL CENTER
4.07,44.06773,-121.26817,55217.19,ST CHARLES MEDICAL CENTER - BEND
3.39,44.93267,-123.03418,40719.35,SALEM HOSPITAL
3.33,45.51288,-122.55630,39417.08,ADVENTIST MEDICAL CENTER
3.02,41.40075,-75.64594,32799.30,COMMUNITY MEDICAL CENTER
4.64,40.96789,-76.60506,67217.56,GEISINGER MEDICAL CENTER
5.33,42.11102,-80.07912,81977.91,SAINT VINCENT HEALTH CENTER
3.56,40.43609,-79.98537,44243.00,UPMC MERCY
2.90,40.71251,-80.32136,30323.16,HERITAGE VALLEY BEAVER
2.31,39.90180,-79.73854,17685.17,UNIONTOWN HOSPITAL
2.86,40.18302,-80.24767,29287.19,WASHINGTON HOSPITAL, THE
3.37,41.24548,-77.01438,40139.04,WILLIAMSPORT REGIONAL MEDICAL CENTER
3.78,40.45705,-80.00363,48960.00,ALLEGHENY GENERAL HOSPITAL
5.39,42.13338,-80.08703,83118.44,UPMC HAMOT
3.07,40.52204,-78.39824,33802.48,ALTOONA REGIONAL HEALTH SYSTEM
2.87,41.11492,-78.77515,29605.22,DUBOIS REGIONAL MEDICAL CENTER
3.69,40.04740,-76.30540,47084.86,LANCASTER GENERAL HOSPITAL
6.26,40.12453,-75.33533,101776.53,MONTGOMERY HOSPITAL
5.89,39.95045,-75.19259,93924.26,HOSPITAL OF UNIV OF PENNSYLVANIA
4.68,40.07160,-74.98341,68180.61,ARIA HEALTH
4.79,40.60000,-75.47000,70353.80,LEHIGH VALLEY HOSPITAL
3.34,40.30103,-79.55505,39640.65,EXCELA HEALTH WESTMORELAND REGIONAL HOSPITAL
3.30,39.93492,-77.64744,38678.00,CHAMBERSBURG HOSPITAL
5.34,40.04475,-75.50425,82161.75,MAIN LINE HOSPITAL PAOLI
7.39,40.68708,-75.24272,125763.62,EASTON HOSPITAL
5.16,39.94969,-75.15712,78408.20,THOMAS JEFFERSON UNIVERSITY HOSPITAL
8.32,39.85598,-75.36791,145617.10,CROZER CHESTER MEDICAL CENTER
4.03,40.99225,-75.17466,54312.70,POCONO MEDICAL CENTER
3.48,40.37782,-80.06589,42607.22,ST CLAIR MEMORIAL HOSPITAL
5.74,40.12077,-75.11818,90642.04,ABINGTON MEMORIAL HOSPITAL
4.34,40.20064,-74.92952,60833.36,ST MARY MEDICAL CENTER
3.10,40.31802,-79.93494,34546.24,JEFFERSON REGIONAL MEDICAL CENTER
5.18,41.25855,-75.81041,78735.39,GEISINGER WYOMING VALLEY MEDICAL CENTER
5.16,41.81254,-71.40760,78321.80,RHODE ISLAND HOSPITAL
4.79,42.00497,-71.49561,70431.36,LANDMARK MEDICAL CENTER,  INC
5.12,41.85172,-71.39826,77395.92,MIRIAM HOSPITAL
3.56,34.96733,-81.94021,44382.74,SPARTANBURG REGIONAL MEDICAL CENTER
4.45,34.02839,-81.03539,63216.08,PALMETTO HEALTH RICHLAND
4.74,34.19543,-79.76256,69378.42,MCLEOD REGIONAL MEDICAL CENTER-PEE DEE
4.08,34.81904,-82.41308,55392.56,GREENVILLE MEMORIAL HOSPITAL
5.83,32.97605,-80.07302,92566.38,TRIDENT MEDICAL CENTER
5.29,33.70704,-78.89487,81081.03,GRAND STRAND REG MED CENTER
4.11,32.78211,-79.95018,56056.70,ROPER HOSPITAL
3.37,45.46141,-98.47929,40331.16,AVERA ST LUKES
3.18,43.53562,-96.74305,36112.05,SANFORD USD MEDICAL CENTER
2.84,35.63906,-88.83207,28888.97,JACKSON-MADISON COUNTY GENERAL HOSPITAL
3.58,36.58587,-82.25703,44602.67,WELLMONT BRISTOL REGIONAL MEDICAL CENTER
3.44,36.55401,-82.55483,41822.76,WELLMONT HOLSTON VALLEY MEDICAL CENTER
3.17,35.98589,-84.28055,35951.17,METHODIST MEDICAL CENTER OF OAK RIDGE
4.09,35.12837,-89.86202,55473.13,BAPTIST MEMORIAL HOSPITAL
3.09,36.17121,-85.50938,34315.05,COOKEVILLE REGIONAL MEDICAL CENTER
5.10,36.30767,-82.38497,76982.59,JOHNSON CITY MEDICAL CENTER
3.36,36.12859,-86.84559,40053.04,ST THOMAS HOSPITAL
3.24,35.05068,-85.28823,37560.31,ERLANGER MEDICAL CENTER
3.78,35.99233,-83.92697,48948.33,TENNOVA HEALTHCARE
3.11,35.95747,-83.93660,34642.06,FORT SANDERS REGIONAL MEDICAL CENTER
5.19,35.03467,-85.26735,78887.42,PARKRIDGE MEDICAL CENTER
3.14,35.91765,-84.10080,35368.53,PARKWEST MEDICAL CENTER
5.84,35.09925,-89.86301,92844.12,ST FRANCIS HOSPITAL
7.29,35.68445,-88.85461,123552.94,REGIONAL HOSPITAL OF JACKSON
4.51,30.65598,-96.34672,64449.72,ST JOSEPH REGIONAL HEALTH CENTER
3.60,29.31233,-94.77317,45141.73,UNIVERSITY OF TEXAS MEDICAL BRANCH GAL
4.61,32.50219,-94.73025,66711.52,GOOD SHEPHERD MEDICAL CENTER
6.06,33.57524,-101.89272,97400.26,COVENANT MEDICAL CENTER
3.68,31.07837,-97.36403,46780.75,SCOTT & WHITE MEMORIAL HOSPITAL
5.01,29.43360,-98.49265,75157.09,BAPTIST MEDICAL CENTER
6.61,26.26353,-98.18455,109119.95,SOUTH TEXAS HEALTH SYSTEM
3.39,31.99616,-102.09950,40712.00,MIDLAND MEMORIAL HOSPITAL
3.61,32.73780,-97.33899,45326.99,TEXAS HEALTH HARRIS METHODIST FORT WORTH
5.84,28.80765,-96.99896,92700.67,DETAR HOSPITAL NAVARRO
3.44,29.81230,-95.43010,41689.13,MEMORIAL HERMANN HOSPITAL SYSTEM
4.58,29.70719,-95.40048,66066.32,ST LUKES EPISCOPAL HOSPITAL
3.37,35.19934,-101.92186,40341.81,NORTHWEST TEXAS HOSPITAL
5.27,30.28473,-95.46714,80670.19,CONROE REGIONAL MEDICAL CENTER
3.34,35.19533,-101.91907,39663.57,BAPTIST ST ANTHONYS HEALTH SYSTEM-BAPTIST CAMPUS
4.13,33.21990,-97.59383,56378.73,WISE REGIONAL HEALTH SYSTEM
3.94,33.71085,-96.58493,52410.96,TEXOMA MEDICAL CENTER
5.72,31.42009,-100.47013,90187.36,SAN ANGELO COMMUNITY MEDICAL CENTER
4.47,29.50795,-98.57224,63531.07,METHODIST HOSPITAL
6.43,31.32794,-94.75614,105384.83,WOODLAND HEIGHTS MEDICAL CENTER
5.87,32.40574,-99.76486,93493.62,ABILENE REGIONAL MEDICAL CENTER
3.50,31.46574,-100.43466,43007.27,SHANNON MEDICAL CENTER
5.10,30.01994,-95.44379,77065.33,HOUSTON NORTHWEST MEDICAL CENTER
5.59,33.02168,-96.76621,87438.75,MEDICAL CENTER OF PLANO
3.75,30.08682,-95.62403,48312.17,TOMBALL REGIONAL MEDICAL CENTER
6.05,32.73563,-97.34483,97184.30,PLAZA MEDICAL CENTER OF FORT WORTH
4.30,30.22723,-97.77447,60090.71,ST DAVID'S SOUTH AUSTIN MEDICAL CENTER
5.69,27.69288,-97.34476,89499.93,CORPUS CHRISTI MEDICAL CENTER,THE
5.82,30.41163,-97.70649,92279.91,NORTH AUSTIN MEDICAL CENTER
3.59,32.78814,-96.78083,44839.95,BAYLOR HEART AND VASCULAR HOSPITAL
2.92,37.09986,-113.55271,30571.58,DIXIE REGIONAL MEDICAL CENTER
3.16,44.47966,-73.19412,35789.20,FLETCHER ALLEN HOSPITAL OF VERMONT
3.05,38.40552,-78.85730,33363.34,ROCKINGHAM MEMORIAL HOSPITAL
3.43,39.19345,-78.19599,41428.74,WINCHESTER MEDICAL CENTER INC
3.67,36.86268,-76.30355,46658.67,SENTARA NORFOLK GENERAL HOSPITAL
4.10,38.02573,-78.51526,55777.13,UNIVERSITY OF VIRGINIA MEDICAL CENTER
3.77,36.89933,-76.28157,48736.75,BON SECOURS - DEPAUL MEDICAL CENTER
4.17,38.09436,-78.98659,57283.68,AUGUSTA HEALTH
3.15,37.41368,-79.16870,35544.71,CENTRA  HEALTH, INC
4.02,37.25129,-79.94125,53963.82,CARILION ROANOKE MEMORIAL CENTER
4.56,37.54330,-77.42932,65625.07,MEDICAL COLLEGE OF VIRGINIA HOSPITALS
3.40,39.07405,-77.47754,40769.23,INOVA LOUDOUN HOSPITAL
3.46,37.06523,-76.48417,42229.36,RIVERSIDE REGIONAL MEDICAL CENTER
3.09,38.85764,-77.22772,34307.51,INOVA FAIRFAX HOSPITAL
3.94,37.33700,-76.74046,52288.71,SENTARA WILLIAMSBURG REGIONAL MEDICAL CENTER
5.92,37.18253,-77.35957,94510.53,SOUTHSIDE REGIONAL MEDICAL CENTER
4.93,37.62931,-77.38804,73417.68,BON SECOURS - MEMORIAL REGIONAL MEDICAL
3.07,38.02176,-78.44530,33867.09,MARTHA JEFFERSON HOSPITAL
3.62,36.69555,-79.86374,45495.42,MEMORIAL HOSPITAL OF MARTINSVILLE & HENRY COUNTY
4.74,37.46807,-77.66143,69349.57,BON SECOURS - ST FRANCIS MEDICAL CENTER
4.70,47.58295,-122.62506,68581.00,HARRISON MEDICAL CENTER
4.23,45.62460,-122.58145,58565.64,PEACEHEALTH SOUTHWEST MEDICAL CENTER
3.97,47.64936,-117.41194,52972.10,PROVIDENCE SACRED HEART MEDICAL CENTER
3.52,46.28132,-119.28218,43427.36,KADLEC REGIONAL MEDICAL CENTER
4.86,47.44243,-122.21392,71938.86,VALLEY MEDICAL CENTER
4.56,47.25980,-122.45243,65541.57,TACOMA GENERAL ALLENMORE HOSPITAL
3.27,38.43236,-82.40067,38027.15,ST MARY'S MEDICAL CENTER
3.52,38.34739,-81.62600,43488.58,CHARLESTON AREA MEDICAL CENTER
3.06,39.27800,-81.55171,33674.27,ST JOSEPHS HEALTHCARE SYSTEM
3.13,39.27035,-81.56026,35158.13,CAMDEN CLARK MEDICAL CENTER
3.37,37.78754,-81.20183,40158.42,RALEIGH GENERAL HOSPITAL
3.11,44.50233,-88.01140,34722.14,BELLIN MEMORIAL HSPTL
4.61,42.68685,-89.03244,66551.57,MERCY HLTH SYS CORP
3.61,44.81192,-91.51352,45316.73,MAYO CLINIC HEALTH SYSTEM EAU CLAIRE HOSPITAL
3.36,44.53265,-88.06664,40091.12,ST MARYS HSPTL MED CTR
3.68,43.07633,-89.43133,46780.50,UNIVERSITY OF WI  HOSPITALS & CLINICS AUTHORITY
3.69,43.07393,-87.97612,47047.00,WHEATON FRANCISCAN, INC- ST JOSEPH
4.75,42.98958,-87.95079,69621.14,AURORA ST LUKES MEDICAL CENTER
3.70,43.04008,-88.02523,47244.50,FROEDTERT MEM LUTHERAN HSPTL
2.96,44.89045,-89.58006,31502.92,ST CLARE'S HOSPITAL OF WESTON INC
3.81,42.84802,-106.30851,49498.63,WYOMING MEDICAL CENTER
4.01,33.01573,-96.79031,53756.00,THE HEART HOSPITAL BAYLOR PLANO
3.77,33.59616,-86.66750,48754.64,ST VINCENT'S EAST
4.76,33.25607,-86.81035,69717.70,SHELBY BAPTIST MEDICAL CENTER
3.03,32.63806,-85.40413,32961.19,EAST ALABAMA MEDICAL CENTER AND SNF
4.02,33.50619,-86.80210,54038.68,UNIVERSITY OF ALABAMA HOSPITAL
8.32,34.00941,-85.97078,145513.67,GADSDEN REGIONAL MEDICAL CENTER
6.99,34.00426,-86.00339,117334.24,RIVERVIEW REGIONAL MEDICAL CENTER
3.32,33.20521,-87.52546,39180.41,D C H REGIONAL MEDICAL CENTER
5.32,33.49854,-86.84633,81675.10,BAPTIST MEDICAL CENTER-PRINCETON
4.51,32.43020,-87.05515,64567.89,VAUGHAN REG MED CENTER PARKWAY CAMPUS
5.81,33.46420,-86.77409,92171.29,BROOKWOOD MEDICAL CENTER
5.09,33.46514,-112.05797,76924.81,BANNER GOOD SAMARITAN MEDICAL CENTER
3.85,32.25294,-110.88135,50446.07,TUCSON MEDICAL CENTER
4.76,34.56017,-112.48217,69830.08,YAVAPAI REGIONAL MEDICAL CENTER
5.01,33.29750,-111.87461,75109.96,CHANDLER REGIONAL MEDICAL CENTER
4.84,33.60432,-112.28378,71456.20,BANNER BOSWELL MEDICAL CENTER
4.00,33.39097,-111.87638,53545.90,BANNER DESERT MEDICAL CENTER
4.00,33.60949,-112.18129,53554.07,BANNER THUNDERBIRD MEDICAL CENTER
4.66,33.65965,-112.37283,67643.37,BANNER DEL E WEBB MEDICAL CENTER
4.95,33.41128,-111.68579,73932.56,BANNER HEART HOSPITAL
3.25,36.10940,-94.16036,37700.26,WASHINGTON REGIONAL MED CTR AT NORTH HILLS
4.02,34.75031,-92.33897,54106.10,ST VINCENT INFIRMARY MEDICAL CENTER
3.47,36.31007,-94.18471,42368.85,MERCY MEDICAL CENTER
3.67,35.25046,-91.70056,46535.43,WHITE COUNTY MEDICAL CENTER
