size_charge,size_pay,lat,lon,charge,pay,name
10.36,2.33,36.18082,-94.13644,108523.55,12471.28,NW ARKANSAS HOSPITALS, LLC
4.94,2.14,34.46784,-93.06667,43721.56,10200.56,ST JOSEPHS MERCY HEALTH CENTER INC
4.46,2.08,36.34295,-92.39442,37968.45,9463.32,BAXTER REGIONAL MEDICAL CENTER
4.07,2.11,35.08546,-92.45774,33319.92,9791.23,CONWAY REGIONAL MEDICAL CENTER
5.16,2.18,35.37445,-94.41868,46365.93,10639.50,SPARKS REGIONAL MEDICAL CENTER
5.23,2.08,35.35395,-94.35262,47165.27,9451.55,ST EDWARD MERCY MEDICAL CENTER
9.26,2.20,34.48600,-93.03521,95353.86,10849.90,NATIONAL PARK MEDICAL CENTER
4.94,2.14,34.74866,-92.35422,43620.15,10202.52,BAPTIST HEALTH MEDICAL CENTER-LITTLE ROCK
4.90,2.24,35.76927,-91.63408,43181.32,11334.17,WHITE RIVER MEDICAL CENTER
4.30,2.07,34.73868,-92.39307,36024.39,9393.08,ARKANSAS HEART HOSPITAL
6.57,2.47,40.78366,-124.14246,63224.67,14163.00,ST JOSEPH HOSPITAL
9.72,2.43,37.59283,-122.38249,100832.85,13689.00,PENINSULA MEDICAL CENTER
9.22,2.78,38.57053,-121.45216,94883.26,17824.94,MERCY GENERAL HOSPITAL
7.80,2.49,33.97659,-117.38184,77872.92,14414.00,RIVERSIDE COMMUNITY HOSPITAL
5.10,2.82,32.75426,-117.16592,45564.64,18324.25,UNIVERSITY OF CALIFORNIA SAN DIEGO MEDICAL CENTER
12.34,2.38,32.77495,-117.01467,132234.64,13075.09,GROSSMONT HOSPITAL
9.32,2.43,35.38736,-119.01690,96088.00,13614.41,BAKERSFIELD MEMORIAL HOSPITAL
10.54,2.31,39.74221,-121.85000,110690.33,12245.27,ENLOE MEDICAL CENTER
10.19,2.78,37.82206,-122.26275,106505.05,17878.05,ALTA BATES SUMMIT MEDICAL CENTER
11.81,2.79,37.79100,-122.43125,125851.21,17919.32,CALIFORNIA PACIFIC MEDICAL CTR-PACIFIC CAMPUS HOSP
7.45,2.75,36.73000,-119.78000,73731.84,17530.36,COMMUNITY REGIONAL MEDICAL CENTER
8.32,2.57,32.75143,-117.16083,84047.80,15333.84,SCRIPPS MERCY HOSPITAL
10.56,2.70,37.95337,-122.33672,110891.27,16889.73,DOCTORS MEDICAL CENTER-SAN PABLO
7.86,2.59,34.21674,-119.15631,78604.26,15575.51,ST JOHNS REGIONAL MEDICAL CENTER
10.16,2.55,37.96987,-121.28873,106064.45,15080.10,ST JOSEPHS MED CENTER OF STOCKTON
6.97,2.37,36.83532,-119.76562,67964.07,12885.97,SAINT AGNES MEDICAL CENTER
7.40,2.39,34.10130,-117.63651,73068.50,13223.36,SAN ANTONIO COMMUNITY HOSPITAL
7.13,2.58,38.57155,-121.46874,69881.54,15449.85,SUTTER GENERAL HOSPITAL
7.53,2.34,33.12535,-117.07336,74611.71,12552.00,PALOMAR MEDICAL CENTER
6.94,2.50,34.13495,-117.27603,67603.67,14517.18,ST BERNARDINE MEDICAL CENTER
7.98,2.70,36.57886,-121.91316,80042.75,16838.50,COMMUNITY HOSPITAL OF THE MONTEREY PENINSULA
8.44,2.57,38.44369,-122.70138,85563.37,15351.05,SANTA ROSA MEMORIAL HOSPITAL
11.37,2.47,32.61972,-117.02278,120613.42,14137.25,SHARP CHULA VISTA MEDICAL CENTER
14.16,2.67,34.07709,-117.75063,154012.33,16521.50,POMONA VALLEY HOSPITAL MEDICAL CENTER
10.16,2.28,35.27882,-120.65047,106122.55,11906.60,FRENCH HOSPITAL MEDICAL CENTER
11.50,2.41,34.15601,-118.32834,122176.63,13431.00,PROVIDENCE SAINT JOSEPH MEDICAL CTR
6.97,2.42,34.13973,-118.03534,67988.70,13596.09,METHODIST HOSPITAL OF SOUTHERN CA
9.77,2.70,34.14987,-118.23117,101503.84,16911.21,GLENDALE ADVENTIST MEDICAL CENTER
9.37,2.71,36.98999,-121.98357,96642.00,16950.93,DOMINICAN HOSPITAL
8.37,2.51,40.58654,-122.39168,84732.00,14658.00,MERCY MEDICAL CENTER REDDING
8.56,2.29,34.03009,-118.47833,87009.05,11965.30,SAINT JOHN'S HEALTH CENTER
8.20,2.52,34.50107,-117.17285,82634.78,14711.35,ST MARY MEDICAL CENTER
7.39,2.61,38.76514,-121.24979,72964.00,15800.38,SUTTER ROSEVILLE MEDICAL CENTER
7.24,2.84,34.05076,-117.26395,71177.28,18561.83,LOMA LINDA UNIVERSITY MEDICAL CENTER
10.95,2.89,33.78798,-117.89026,115508.07,19110.79,UNIVERSITY OF CALIFORNIA IRVINE MED CENTER
11.82,2.71,37.94748,-122.53677,125908.43,17000.39,MARIN GENERAL HOSPITAL
10.15,2.34,34.27459,-119.25812,105991.65,12615.43,COMMUNITY MEMORIAL HOSPITAL SAN BUENAVENTURA
6.25,2.38,34.42951,-119.72333,59295.75,13034.94,SANTA BARBARA COTTAGE HOSPITAL
8.98,2.38,32.89810,-117.24217,91994.34,13063.58,SCRIPPS GREEN HOSPITAL
7.76,2.43,34.13364,-118.15275,77391.59,13627.93,HUNTINGTON MEMORIAL HOSPITAL
11.46,3.09,37.43436,-122.18013,121638.31,21495.31,STANFORD HOSPITAL
10.79,3.20,37.76421,-122.45716,113599.20,22852.40,UCSF MEDICAL CENTER
6.27,2.44,35.38338,-119.01969,59583.61,13730.83,SAN JOAQUIN COMMUNITY HOSPITAL
20.00,2.58,37.66540,-120.99743,223805.29,15502.36,DOCTORS MEDICAL CENTER
10.22,2.69,34.20285,-118.62962,106846.71,16827.05,WEST HILLS HOSPITAL & MEDICAL CENTER
14.52,2.52,37.98396,-122.03464,158207.35,14773.00,JOHN MUIR MEDICAL CENTER - CONCORD CAMPUS
11.93,2.58,38.66956,-121.31378,127292.31,15396.38,MERCY SAN JUAN MEDICAL CENTER
10.28,2.49,34.20777,-118.88305,107600.04,14318.62,LOS ROBLES HOSPITAL & MEDICAL CENTER
11.69,2.26,33.80441,-118.06665,124411.18,11572.55,LOS ALAMITOS MEDICAL CENTER
11.96,2.65,37.66867,-120.97339,127607.00,16316.00,MEMORIAL  MEDICAL CENTER
9.30,2.33,33.56100,-117.66530,95816.03,12463.41,MISSION HOSPITAL REGIONAL MED CENTER
10.12,2.66,33.71466,-117.93322,105617.73,16433.00,FOUNTAIN VALLEY REGIONAL HOSPITAL & MEDICAL CENTER
10.32,2.30,33.76335,-116.40628,107991.80,12070.33,EISENHOWER MEDICAL CENTER
7.83,2.29,33.60883,-117.70881,78262.21,12026.74,SADDLEBACK MEMORIAL MEDICAL CENTER
16.24,3.05,34.07664,-118.37955,178794.12,21104.06,CEDARS-SINAI MEDICAL CENTER
6.94,2.27,35.38506,-119.03992,67560.09,11711.38,BAKERSFIELD HEART HOSPITAL
5.07,2.27,36.85992,-119.78858,45251.28,11709.31,FRESNO HEART AND SURGICAL HOSPITAL
8.26,2.35,32.77629,-117.05730,83350.11,12750.78,ALVARADO HOSPITAL MEDICAL CENTER
10.94,2.34,34.17067,-118.53200,115396.38,12554.62,PROVIDENCE TARZANA MEDICAL CENTER
6.74,2.26,40.41481,-104.70890,65229.44,11683.00,NORTH COLORADO MEDICAL CENTER
4.14,2.22,38.48040,-107.86857,34072.92,11095.00,MONTROSE MEMORIAL HOSPITAL
8.33,2.28,39.76893,-105.09006,84172.50,11878.50,EXEMPLA LUTHERAN MEDICAL CENTER
6.43,2.18,40.57315,-105.05741,61494.42,10620.83,POUDRE VALLEY HOSPITAL
8.71,2.22,39.71712,-105.12874,88783.15,11110.15,CENTURA HEALTH-ST ANTHONY HOSPITAL
5.10,2.30,38.83903,-104.80024,45629.35,12159.39,MEMORIAL HOSPITAL CENTRAL
5.09,2.30,39.09046,-108.56190,45493.55,12106.20,ST MARYS HOSPITAL AND MEDICAL CENTER
5.85,2.47,40.41320,-105.05139,54515.75,14151.50,MCKEE MEDICAL CENTER
6.18,2.15,38.86559,-104.82182,58520.84,10300.64,CENTURA HEALTH-PENROSE ST FRANCIS HEALTH SERVICES
8.96,2.21,39.65399,-104.98116,91767.58,10987.32,SWEDISH MEDICAL CENTER
7.21,2.22,39.68859,-104.83205,70878.25,11134.83,MEDICAL CENTER OF AURORA, THE
5.97,2.38,40.45184,-105.19608,55973.18,13041.26,MEDICAL CENTER OF THE ROCKIES
4.34,2.50,41.30978,-72.93806,36546.58,14517.18,HOSPITAL OF ST RAPHAEL
4.57,2.51,41.77507,-72.69941,39274.41,14620.75,ST FRANCIS HOSPITAL & MEDICAL CENTER
8.13,2.45,41.55959,-73.05941,81887.52,13916.04,WATERBURY HOSPITAL
8.43,2.51,41.05562,-73.55390,85366.25,14577.50,STAMFORD HOSPITAL
5.35,2.32,41.33722,-72.10380,48569.36,12395.09,LAWRENCE & MEMORIAL HOSPITAL
7.11,2.66,41.18881,-73.16645,69574.00,16455.54,BRIDGEPORT HOSPITAL
4.98,2.51,41.55241,-73.03554,44170.36,14620.14,SAINT MARYS HOSPITAL
6.21,2.80,41.30400,-72.93502,58907.90,18026.70,YALE-NEW HAVEN HOSPITAL
4.70,2.59,41.75412,-72.67927,40770.38,15603.93,HARTFORD HOSPITAL
4.88,2.43,41.20049,-73.20281,42934.60,13686.57,ST VINCENT'S MEDICAL CENTER
5.03,2.46,41.40474,-73.44739,44772.92,14067.68,DANBURY HOSPITAL
5.48,2.55,39.69005,-75.68408,50125.10,15119.00,CHRISTIANA CARE HEALTH SERVICES, INC.
5.84,2.33,39.74954,-75.56662,54385.40,12459.80,ST FRANCIS HOSPITAL
4.90,2.33,39.15135,-75.52309,43245.83,12462.79,BAYHEALTH - KENT GENERAL HOSPITAL
4.97,2.18,38.77159,-75.14210,43980.18,10704.36,BEEBE MEDICAL CENTER
6.55,2.60,38.90106,-77.05079,62966.79,15695.79,GEORGE WASHINGTON UNIV HOSPITAL
6.20,2.52,38.92944,-77.01473,58750.88,14775.99,WASHINGTON HOSPITAL CENTER
6.04,2.50,30.34913,-81.66391,56886.23,14525.46,SHANDS JACKSONVILLE MEDICAL CENTER
7.93,2.26,26.50479,-80.06979,79414.81,11637.06,BETHESDA MEMORIAL HOSPITAL
6.75,2.30,28.52517,-81.37729,65368.69,12085.67,ORLANDO HEALTH
6.37,2.27,28.57345,-81.36990,60761.37,11751.92,FLORIDA HOSPITAL
10.34,2.42,25.68309,-80.34038,108253.32,13521.73,BAPTIST HOSPITAL OF MIAMI INC
11.36,2.46,25.78846,-80.21644,120459.30,13958.40,UNIVERSITY OF MIAMI HOSPITAL
5.15,2.21,26.62849,-81.87423,46160.80,11007.76,LEE MEMORIAL HOSPITAL
4.34,2.35,29.20117,-81.05828,36464.12,12702.28,HALIFAX HEALTH MEDICAL CENTER
6.25,2.14,26.15053,-81.79919,59339.78,10231.61,NAPLES COMMUNITY HOSPITAL
6.30,2.12,28.08771,-80.61362,59999.07,9998.43,HOLMES REGIONAL MEDICAL CENTER
7.38,2.92,25.79143,-80.21250,72843.25,19513.75,JACKSON MEMORIAL HOSPITAL
6.89,2.07,28.83363,-82.33561,66986.08,9321.00,CITRUS MEMORIAL HOSPITAL
5.35,2.22,30.47650,-87.21219,48632.56,11150.19,SACRED HEART HOSPITAL
5.86,2.12,30.15963,-85.64818,54708.72,10000.92,BAY MEDICAL CENTER
9.59,2.40,25.86166,-80.21398,99275.41,13300.77,NORTH SHORE MEDICAL CENTER
7.20,2.20,28.54917,-81.52746,70706.33,10943.92,HEALTH CENTRAL
8.60,2.43,25.81317,-80.13996,87473.47,13615.35,MOUNT SINAI MEDICAL CENTER
6.96,2.24,27.49789,-82.56220,67797.70,11424.88,MANATEE MEMORIAL HOSPITAL
6.37,2.45,26.01867,-80.17981,60746.54,13953.54,MEMORIAL REGIONAL HOSPITAL
5.62,2.13,30.30835,-81.68919,51761.47,10097.59,ST VINCENT'S MEDICAL CENTER
8.85,2.24,27.19837,-80.24306,90492.48,11359.45,MARTIN MEMORIAL MEDICAL CENTER
8.08,2.10,28.26092,-82.18802,81237.29,9697.00,FLORIDA HOSPITAL ZEPHYRHILLS
5.98,2.08,26.94042,-82.04094,56066.29,9518.80,CHARLOTTE REGIONAL MEDICAL CENTER
6.85,2.18,28.02768,-81.72466,66532.50,10624.89,WINTER HAVEN HOSPITAL
7.33,2.15,28.82358,-81.71133,72275.91,10361.97,FLORIDA HOSPITAL WATERMAN
6.68,2.12,29.17594,-82.13898,64512.43,9921.96,MUNROE REGIONAL MEDICAL CENTER
5.35,2.10,29.24333,-81.10760,48588.00,9755.16,FLORIDA HOSPITAL MEMORIAL MEDICAL CENTER
6.72,2.09,27.09043,-82.44499,64920.83,9595.83,VENICE REGIONAL MEDICAL CENTER
12.53,2.31,28.53906,-82.44193,134458.58,12235.74,BROOKSVILLE REGIONAL HOSPITAL
9.56,2.16,26.18711,-80.11941,98974.91,10399.47,HOLY CROSS HOSPITAL INC
8.52,2.43,27.98242,-82.49025,86500.55,13648.14,ST JOSEPH'S HOSPITAL
9.98,2.23,26.59805,-80.09271,103965.43,11268.05,JFK MEDICAL CENTER
5.37,2.11,28.80659,-81.86906,48840.00,9828.04,LEESBURG REGIONAL MEDICAL CENTER
5.71,2.14,27.31827,-82.53140,52888.04,10197.46,SARASOTA MEMORIAL HOSPITAL
6.27,2.23,30.31525,-81.66398,59543.91,11279.30,BAPTIST MEDICAL CENTER
5.95,2.24,29.86371,-81.31749,55734.88,11337.00,FLAGLER HOSPITAL
5.99,2.14,30.43066,-87.23191,56286.32,10204.80,BAPTIST HOSPITAL
4.38,2.36,27.65832,-80.39307,37013.56,12858.94,INDIAN RIVER MEDICAL CENTER
6.56,2.18,27.50001,-81.43962,63009.36,10723.11,FLORIDA HOSPITAL HEARTLAND MEDICAL CENTER
10.07,2.22,28.29946,-81.41021,104992.27,11190.00,OSCEOLA REGIONAL MEDICAL CENTER
6.04,2.62,29.64155,-82.34844,56789.29,15928.95,SHANDS HOSPITAL AT THE UNIVERSITY OF FLORIDA
6.34,2.13,27.95192,-82.80379,60424.56,10039.94,MORTON PLANT HOSPITAL
9.76,2.42,27.93740,-82.45927,101352.67,13588.13,TAMPA GENERAL HOSPITAL
11.77,2.48,25.96994,-80.14533,125319.14,14218.71,AVENTURA HOSPITAL AND MEDICAL CENTER
7.20,2.21,30.45726,-84.26175,70652.55,11085.75,TALLAHASSEE MEMORIAL HEALTHCARE
5.27,2.31,30.26389,-81.44283,47598.75,12178.40,MAYO CLINIC
6.08,2.16,28.06172,-81.95304,57268.63,10456.70,LAKELAND REGIONAL MEDICAL CENTER
7.24,2.18,28.81611,-81.28351,71240.34,10716.62,CENTRAL FLORIDA REGIONAL HOSPITAL
7.66,2.16,26.35875,-80.10203,76263.92,10380.98,BOCA RATON REGIONAL HOSPITAL
7.77,2.12,28.07111,-82.42342,77474.64,9960.00,FLORIDA HOSPITAL TAMPA
8.89,2.19,26.83035,-80.08655,90976.28,10771.71,PALM BEACH GARDENS MEDICAL CENTER
9.45,2.15,30.28793,-81.60103,97614.79,10263.93,MEMORIAL HOSPITAL JACKSONVILLE
7.62,2.50,25.88563,-80.32635,75772.83,14534.00,PALMETTO GENERAL HOSPITAL
9.13,2.19,26.26259,-80.20292,93761.03,10827.03,NORTHWEST MEDICAL CENTER
11.48,2.15,28.19342,-82.46987,121891.31,10349.85,MEDICAL CENTER OF TRINITY
9.25,2.13,29.66085,-82.41172,95178.61,10114.97,NORTH FLORIDA REGIONAL MEDICAL CENTER
9.31,2.08,29.17550,-82.13680,95909.35,9524.00,OCALA REGIONAL MEDICAL CENTER
6.49,2.12,27.48213,-82.62126,62158.57,9921.22,BLAKE MEDICAL CENTER
5.12,2.16,26.52735,-81.83337,45840.81,10416.75,GULF COAST MEDICAL CENTER LEE MEM HEALTH SYSTEM
10.22,2.13,30.16550,-81.73775,106874.33,10117.29,ORANGE PARK MEDICAL CENTER
8.91,2.15,26.12354,-80.25951,91190.52,10290.67,WESTSIDE REGIONAL MEDICAL CENTER
8.31,2.14,26.98884,-82.09877,83928.43,10223.78,FAWCETT MEMORIAL HOSPITAL
9.64,2.39,27.82545,-82.70122,99952.32,13174.84,NORTHSIDE HOSPITAL
8.37,2.19,27.93259,-82.28759,84708.22,10798.00,BRANDON REGIONAL HOSPITAL
9.16,2.41,27.43392,-80.34350,94184.97,13383.86,LAWNWOOD REGIONAL MEDICAL CENTER & HEART INSTITUTE
8.62,2.26,30.47616,-84.23140,87642.79,11569.69,CAPITAL REGIONAL MEDICAL CENTER
9.84,2.14,26.43709,-80.12728,102228.74,10141.00,DELRAY MEDICAL CENTER
10.53,2.07,28.53585,-82.53404,110515.33,9331.22,OAK HILL HOSPITAL
6.68,2.07,28.03957,-82.70875,64514.36,9341.84,MEASE COUNTRYSIDE HOSPITAL
8.92,2.19,26.21388,-81.73257,91251.89,10730.58,PHYSICIANS REGIONAL MEDICAL CENTER - PINE RIDGE
5.92,2.11,28.94952,-81.95843,55386.81,9848.21,VILLAGES REGIONAL HOSPITAL, THE
7.00,2.08,27.38993,-82.43343,68346.44,9480.11,LAKEWOOD RANCH MEDICAL CENTER
4.51,2.13,31.22516,-82.34898,38514.29,10031.79,SATILLA REGIONAL MEDICAL CENTER
7.47,2.13,34.17863,-84.13992,73909.31,10106.34,NORTHSIDE HOSPITAL FORSYTH
5.44,2.39,31.59023,-84.15756,49701.80,13189.27,PHOEBE PUTNEY MEMORIAL HOSPITAL
4.60,2.38,33.79230,-84.32107,39584.62,13001.83,EMORY UNIVERSITY HOSPITAL
5.00,2.43,33.56970,-85.07276,44366.26,13626.84,TANNER MEDICAL CENTER - CARROLLTON
4.72,2.20,33.47096,-81.98176,41080.03,10925.09,UNIVERSITY HOSPITAL
6.02,2.27,34.30335,-83.81737,56554.69,11722.62,NORTHEAST GEORGIA MEDICAL CENTER, INC
5.72,2.21,33.96770,-84.55011,52992.12,10975.98,WELLSTAR KENNESTONE HOSPITAL
4.95,2.33,32.03185,-81.09158,43843.19,12443.09,MEMORIAL HEALTH UNIV MED CEN, INC
5.48,2.27,30.82614,-83.97393,50160.81,11721.25,JOHN D ARCHBOLD MEMORIAL HOSPITAL
4.33,2.08,31.98515,-81.15475,36376.72,9414.33,ST JOSEPH'S HOSPITAL - SAVANNAH
5.55,2.33,34.26000,-85.17000,50975.52,12465.67,FLOYD MEDICAL CENTER
4.94,2.17,32.61642,-83.63065,43719.32,10563.89,HOUSTON MEDICAL CENTER
5.28,2.24,33.96117,-83.39832,47706.30,11424.60,ATHENS REGIONAL MEDICAL CENTER
4.23,2.34,33.76810,-84.38616,35139.54,12525.67,EMORY UNIVERSITY HOSPITAL MIDTOWN
4.73,2.10,33.90877,-84.35180,41141.06,9762.60,SAINT JOSEPH'S HOSPITAL OF ATLANTA, INC
5.53,2.12,33.81003,-84.39568,50791.65,9984.24,PIEDMONT HOSPITAL
4.55,2.24,33.96351,-84.01769,39016.83,11430.78,GWINNETT MEDICAL CENTER
5.17,2.17,31.47069,-83.50473,46398.52,10533.94,TIFT REGIONAL MEDICAL CENTER
5.31,2.31,32.83041,-83.63476,48072.90,12271.61,MEDICAL CENTER OF CENTRAL GEORGIA
5.01,2.17,30.86250,-83.28630,44529.31,10493.88,SOUTH GEORGIA MEDICAL CENTER
5.07,2.09,32.50679,-84.95933,45209.33,9614.67,ST FRANCIS HOSPITAL, INC
5.06,2.26,33.85638,-84.60446,45158.74,11636.09,WELLSTAR COBB HOSPITAL
5.87,2.19,32.84705,-83.61823,54774.94,10785.75,COLISEUM MEDICAL CENTER
5.46,2.29,33.57843,-84.38897,49925.83,12002.89,SOUTHERN REGIONAL MEDICAL CENTER
5.70,2.19,34.25704,-85.16467,52805.87,10774.33,REDMOND REGIONAL MEDICAL CENTER
5.98,2.20,33.51144,-84.22200,56144.82,10912.18,HENRY MEDICAL CENTER, INC
5.74,2.18,34.06670,-84.17643,53219.15,10724.08,EMORY JOHNS CREEK HOSPITAL
5.40,2.72,21.30780,-157.85505,49204.72,17182.06,THE QUEENS MEDICAL CENTER
4.13,2.22,43.61218,-116.19234,33946.91,11205.43,ST LUKES REGIONAL MEDICAL CENTER
3.91,2.19,43.61359,-116.25484,31371.54,10841.29,ST ALPHONSUS REGIONAL MEDICAL CENTER
5.55,2.21,43.46987,-111.99208,50999.26,10979.26,EASTERN IDAHO REGIONAL MEDICAL CENTER
5.12,2.21,47.69645,-116.79476,45788.12,10968.19,KOOTENAI MEDICAL CENTER
7.17,2.19,41.52896,-88.13550,70365.74,10735.16,PROVENA ST JOSEPH MEDICAL CENTER
12.19,3.66,41.91082,-87.84451,130391.27,28369.18,LOYOLA GOTTLIEB MEMORIAL HOSPITAL
6.43,2.50,42.06550,-87.68428,61458.12,14465.35,EVANSTON HOSPITAL
6.20,2.20,41.84429,-89.48014,58802.54,10881.15,KATHERINE SHAW BETHEA HOSPITAL
5.15,2.08,40.75318,-89.59321,46244.73,9464.45,PROCTOR HOSPITAL
7.17,2.42,39.93563,-91.39833,70335.35,13584.86,BLESSING HOSPITAL
5.69,2.99,41.86011,-87.69571,52646.32,20331.82,MT SINAI HOSPITAL MEDICAL CENTER
4.19,2.12,38.32292,-88.91026,34660.33,9894.00,GOOD SAMARITAN REGIONAL HLTH CENTER
7.34,2.51,41.89141,-87.77618,72378.18,14655.55,WEST SUBURBAN MEDICAL CENTER
7.04,2.49,42.05624,-87.74012,68777.91,14335.83,SKOKIE HOSPITAL
5.16,2.30,39.80726,-89.64496,46358.24,12096.07,ST JOHNS HOSPITAL
5.27,2.20,41.66900,-87.81414,47616.29,10874.67,PALOS COMMUNITY HOSPITAL
7.31,2.38,41.79660,-87.88627,72034.00,13041.95,ADVENTIST LA GRANGE MEMORIAL HOSPITAL
6.91,2.40,40.70200,-89.59222,67213.11,13299.40,SAINT FRANCIS MEDICAL CENTER
8.13,2.49,42.02578,-87.68371,81847.64,14430.36,RHC ST FRANCIS HOSPITAL
9.69,2.76,41.78829,-87.60485,100443.87,17598.33,THE UNIVERSITY OF CHICAGO MEDICAL CENTER
6.53,2.35,40.11696,-88.21506,62685.50,12671.88,CARLE FOUNDATION HOSPITAL
5.40,2.14,41.36897,-88.42537,49231.18,10249.18,MORRIS HOSPITAL & HEALTHCARE CENTERS
6.06,2.22,40.11739,-88.22714,57018.09,11131.23,PROVENA COVENANT MEDICAL CENTER- URBANA
5.59,2.15,42.31832,-88.27920,51462.44,10265.00,CENTEGRA HEALTH SYSTEM - MC HENRY HOSPITAL
8.54,2.33,41.98743,-87.81440,86756.38,12512.03,RESURRECTION MEDICAL CENTER
8.81,3.05,41.87497,-87.66927,89988.94,21049.50,RUSH UNIVERSITY MEDICAL CENTER
7.09,2.73,41.80555,-87.92059,69350.06,17278.89,HINSDALE HOSPITAL
2.80,2.95,41.87381,-87.67421,18043.47,19826.27,JOHN H STROGER JR HOSPITAL
15.52,2.53,38.70148,-90.14382,170190.57,14855.25,GATEWAY REGIONAL MEDICAL CENTER
5.19,2.20,39.86644,-88.96090,46698.30,10951.32,DECATUR MEMORIAL HOSPITAL
5.19,2.24,39.80893,-89.65530,46646.76,11359.59,MEMORIAL MEDICAL CENTER
7.13,3.10,41.86927,-87.67052,69856.27,21714.36,UNIVERSITY OF ILLINOIS HOSPITAL
5.26,3.01,41.84639,-87.62345,47519.85,20558.23,MERCY HOSPITAL AND MEDICAL CENTER
7.17,3.35,40.48254,-88.95519,70364.80,24650.67,ST JOSEPH MEDICAL CENTER
4.68,2.18,37.72790,-89.22058,40566.71,10629.38,MEMORIAL HOSPITAL OF CARBONDALE
4.67,2.22,39.82659,-88.93119,40476.78,11153.11,ST MARYS HOSPITAL
5.63,2.35,41.52283,-87.71111,51873.91,12663.18,FRANCISCAN ST JAMES HEALTH
7.61,2.30,41.72094,-87.69220,75559.96,12082.19,LITTLE COMPANY OF MARY HOSPITAL
6.95,2.98,41.93641,-87.65295,67698.91,20268.45,ADVOCATE ILLINOIS MASONIC MEDICAL CENTER
5.95,2.28,41.12572,-87.88526,55797.92,11856.42,RIVERSIDE MEDICAL CENTER
4.24,2.14,38.51081,-89.99014,35331.91,10137.00,ST ELIZABETH HOSPITAL
5.15,2.27,41.60726,-87.66060,46154.14,11700.81,INGALLS MEMORIAL HOSPITAL
6.84,2.15,41.86362,-87.93567,66352.33,10294.67,ELMHURST MEMORIAL HOSPITAL
7.23,2.22,42.27447,-87.95764,71010.19,11157.33,ADVOCATE CONDELL MEDICAL CENTER
6.05,2.47,41.72031,-87.73249,56971.37,14170.89,ADVOCATE CHRIST HOSPITAL & MEDICAL CENTER
6.69,2.48,40.70065,-89.59505,64562.71,14291.35,METHODIST MEDICAL CENTER OF ILLINOIS
6.94,2.16,41.88566,-88.34311,67580.25,10466.15,DELNOR COMMUNITY HOSPITAL
5.19,2.50,41.54446,-87.98379,46611.23,14437.31,SILVER CROSS HOSPITAL  AND MEDICAL CENTERS
6.67,2.59,42.03837,-87.84820,64394.36,15593.03,ADVOCATE LUTHERAN GENERAL HOSPITAL
7.37,2.28,42.26584,-89.07428,72713.45,11817.06,SWEDISH AMERICAN HOSPITAL
7.03,2.39,41.76076,-88.15016,68621.03,13163.50,EDWARD HOSPITAL
6.43,2.12,42.26634,-89.00900,61454.28,9919.72,SAINT ANTHONY MEDICAL CENTER
8.00,2.54,41.87269,-88.15684,80224.35,14926.94,CENTRAL DUPAGE HOSPITAL
5.73,2.43,41.56720,-87.69566,53182.00,13620.78,ADVOCATE SOUTH SUBURBAN HOSPITAL
7.18,2.17,42.06732,-87.99368,70497.95,10541.31,NORTHWEST COMMUNITY HOSPITAL
6.39,2.34,42.00413,-88.01745,61018.80,12522.44,ALEXIAN BROTHERS MEDICAL CENTER
4.69,2.23,41.49581,-90.41871,40631.38,11222.12,GENESIS MEDICAL CENTER ILLINI CAMPUS
3.91,2.18,41.48200,-90.57158,31377.39,10649.48,TRINITY ROCK ISLAND
7.34,2.56,41.89477,-87.62131,72380.30,15228.22,NORTHWESTERN MEMORIAL HOSPITAL
6.35,2.20,41.81791,-88.00907,60486.36,10857.82,ADVOCATE GOOD SAMARITAN HOSPITAL
5.34,2.19,42.05260,-88.14173,48466.67,10835.83,ST ALEXIUS MEDICAL CENTER
5.40,2.16,42.19586,-88.17286,49213.73,10377.00,ADVOCATE GOOD SHEPHERD HOSPITAL
5.64,2.30,41.59920,-87.35764,52030.83,12142.08,METHODIST HOSPITALS INC
5.66,2.42,41.61514,-87.52413,52266.42,13489.42,FRANCISCAN ST MARGARET HEALTH - HAMMOND
5.88,2.44,41.61055,-86.72511,54981.35,13767.90,INDIANA UNIVERSITY HEALTH LA PORTE HOSPITAL
4.24,2.44,41.63466,-87.44901,35331.82,13826.45,ST CATHERINE HOSPITAL INC
4.35,2.15,38.28244,-85.74923,36599.74,10285.46,CLARK MEMORIAL HOSPITAL
5.24,2.24,41.70877,-86.17026,47321.14,11371.29,SAINT JOSEPH REGIONAL MEDICAL CENTER
4.86,2.16,41.70639,-86.89936,42760.28,10464.72,FRANCISCAN ST ANTHONY HEALTH - MICHIGAN CITY
6.27,2.16,41.03874,-85.24876,59536.14,10477.07,LUTHERAN HOSPITAL OF INDIANA
4.88,2.68,41.70568,-85.93404,42978.56,16681.17,ELKHART GENERAL HOSPITAL
5.86,2.27,41.04659,-85.10906,54674.35,11781.65,PARKVIEW REGIONAL MEDICAL CENTER
3.84,2.19,39.48518,-87.40893,30518.36,10773.48,UNION HOSPITAL INC
4.96,2.18,41.51266,-87.26125,43914.29,10664.29,ST MARY MEDICAL CENTER INC
6.73,2.17,41.46729,-87.05130,65034.38,10569.00,PORTER VALPARAISO HOSPITAL
4.32,2.10,38.30195,-85.83409,36295.12,9668.00,FLOYD MEMORIAL HOSPITAL AND HEALTH SERVICES
7.19,2.16,39.41951,-87.40898,70619.31,10416.00,TERRE HAUTE REGIONAL HOSPITAL
3.95,2.36,39.86405,-84.88413,31791.11,12846.89,REID HOSPITAL & HEALTH CARE SERVICES
5.75,2.33,39.16006,-86.54038,53389.14,12485.53,INDIANA UNIVERSITY HEALTH BLOOMINGTON HOSPITAL
5.72,2.56,39.79009,-86.16260,52978.22,15212.86,INDIANA UNIVERSITY HEALTH
5.34,2.30,41.68479,-86.25217,48423.33,12075.04,MEMORIAL HOSPITAL OF SOUTH BEND
5.32,2.13,40.04526,-86.02297,48223.77,10043.00,RIVERVIEW HOSPITAL
6.66,2.30,39.78704,-86.07673,64261.33,12049.07,COMMUNITY HOSPITAL EAST
5.27,2.11,37.98293,-87.57072,47644.70,9825.55,DEACONESS HOSPITAL INC
5.66,2.30,39.91001,-86.19660,52242.79,12050.98,ST VINCENT HOSPITAL & HEALTH SERVICES
6.13,2.24,40.19679,-85.41573,57941.32,11445.00,INDIANA UNIVERSITY HEALTH BALL MEMORIAL HOSPITAL
6.28,2.34,41.49222,-87.52429,59737.00,12527.53,FRANCISCAN ST MARGARET HEALTH - DYER
5.89,2.13,37.96320,-87.50292,55007.47,10048.72,ST MARY'S MEDICAL CENTER OF EVANSVILLE INC
5.11,2.49,40.07620,-86.47506,45713.00,14399.17,WITHAM HEALTH SERVICES
5.98,2.22,40.39424,-86.83516,56087.72,11123.12,FRANCISCAN ST ELIZABETH HEALTH - LAFAYETTE EAST
4.91,2.19,39.21585,-85.89683,43261.24,10821.71,COLUMBUS REGIONAL HOSPITAL
3.88,2.20,40.12998,-85.69436,31027.00,10963.67,COMMUNITY HOSPITAL OF ANDERSON AND MADISON COUNTY
3.45,2.08,38.39499,-86.94089,25845.10,9503.24,MEMORIAL HOSPITAL AND HEALTH CARE CENTER
4.06,2.21,41.55065,-87.50619,33165.33,11038.79,COMMUNITY HOSPITAL
5.35,2.17,41.39576,-87.36689,48536.78,10606.59,FRANCISCAN ST ANTHONY HEALTH - CROWN POINT
5.85,2.23,39.63776,-86.13260,54618.74,11266.60,COMMUNITY HOSPITAL SOUTH
5.18,2.10,39.94017,-86.15975,46509.11,9696.59,ST VINCENT HEART CENTER OF INDIANA LLC
5.10,2.11,39.90201,-86.04478,45646.98,9787.93,INDIANA HEART HOSPITAL THE
4.90,2.14,39.95930,-86.16016,43235.31,10209.62,INDIANA UNIVERSITY HEALTH NORTH HOSPITAL
5.84,2.24,39.64935,-86.07960,54423.26,11443.70,FRANCISCAN ST FRANCIS HEALTH - INDIANAPOLIS
6.29,2.15,40.40296,-86.80885,59782.48,10252.86,INDIANA UNIVERSITY HEALTH ARNETT HOSPITAL
4.89,2.10,37.97481,-87.44457,43093.46,9686.46,THE HEART HOSPITAL AT DEACONESS GATEWAY LLC
5.55,2.06,38.33336,-85.75165,50987.90,9258.50,KENTUCKIANA MEDICAL CENTER LLC
4.09,2.15,42.49388,-94.18926,33520.20,10351.67,TRINITY REGIONAL MEDICAL CENTER
4.49,2.09,41.66411,-91.52841,38275.61,9630.75,MERCY HOSPITAL
5.44,2.12,42.03321,-93.61164,49642.95,9927.00,MARY GREELEY MEDICAL CENTER
4.26,2.14,41.54190,-90.55691,35512.52,10157.39,GENESIS MEDICAL CENTER-DAVENPORT
4.64,2.14,40.81009,-91.17356,40118.93,10198.27,GREAT RIVER MEDICAL CENTER
5.36,2.55,41.66092,-91.54800,48741.81,15086.00,UNIVERSITY OF IOWA HOSPITAL & CLINICS
5.48,2.19,43.15063,-93.21718,50128.71,10740.14,MERCY MEDICAL CENTER-NORTH IOWA
4.48,2.05,42.49227,-90.67404,38235.78,9069.55,MERCY MEDICAL CENTER-DUBUQUE
5.74,2.06,41.97864,-91.65507,53281.93,9252.87,MERCY MEDICAL CENTER - CEDAR RAPIDS
6.06,2.28,41.58955,-93.63248,57129.74,11884.52,IOWA METHODIST MEDICAL CENTER
4.69,2.24,41.59886,-93.62344,40679.21,11427.38,MERCY MEDICAL CENTER-DES MOINES
3.72,2.13,42.52665,-92.33957,29079.29,10035.41,ALLEN MEMORIAL HOSPITAL
5.57,2.33,38.87847,-99.29923,51270.88,12412.00,HAYS MEDICAL CENTER
6.43,2.41,39.05660,-95.69599,61466.95,13405.30,ST FRANCIS HEALTH CENTER INC
7.35,2.44,39.05583,-94.60912,72485.58,13765.00,UNIVERSITY OF KANSAS HOSPITAL
4.56,2.10,38.85279,-94.82413,39086.81,9728.15,OLATHE MEDICAL CENTER
6.96,2.23,39.05128,-95.69572,67796.02,11315.38,STORMONT-VAIL HEALTHCARE
8.88,2.23,38.99549,-94.69061,90827.09,11229.87,SHAWNEE MISSION MEDICAL CENTER
6.64,2.24,37.70405,-97.31386,63986.69,11338.75,VIA CHRISTI HOSPITALS WICHITA INC
8.34,2.32,37.69556,-97.29785,84378.33,12382.70,WESLEY MEDICAL CENTER
5.61,2.16,38.97848,-95.24771,51677.89,10388.00,LAWRENCE MEMORIAL HOSPITAL
6.67,2.22,39.12677,-94.78643,64351.73,11182.45,PROVIDENCE MEDICAL CENTER
6.75,2.33,38.90355,-94.66966,65376.36,12483.45,SAINT LUKE'S SOUTH HOSPITAL
4.24,2.05,37.74995,-97.22652,35313.00,9167.00,KANSAS HEART HOSPITAL
3.72,2.05,37.73142,-97.26078,29041.56,9167.00,GALICHIA HEART HOSPITAL LLC
4.03,2.11,37.72341,-97.14628,32752.21,9885.73,KANSAS MEDICAL CENTER LLC
4.35,2.19,38.47021,-82.63498,36625.10,10812.62,KING'S DAUGHTERS' MEDICAL CENTER
3.50,2.10,38.03140,-84.52194,26407.05,9670.58,SAINT JOSEPH HOSPITAL
5.21,2.22,37.11784,-84.10910,46867.57,11123.86,SAINT JOSEPH HOSPITAL LONDON
4.54,2.24,36.99641,-86.43006,38858.45,11416.30,THE MEDICAL CENTER AT BOWLING GREEN
4.02,2.21,37.01079,-85.90342,32632.82,11007.06,T J SAMSON COMMUNITY HOSPITAL
5.93,2.30,38.18397,-83.43268,55561.92,12116.92,ST CLAIRE REGIONAL MEDICAL CENTER
5.23,2.24,37.27729,-83.22802,47101.42,11424.58,HAZARD ARH REGIONAL MEDICAL CENTER
4.91,2.20,39.06704,-84.49946,43343.41,10854.72,ST ELIZABETH MEDICAL CENTER NORTH
5.44,2.26,38.24927,-85.75081,49687.92,11669.42,JEWISH HOSPITAL & ST MARY'S HEALTHCARE
6.35,2.32,37.47264,-82.52605,60564.57,12358.81,PIKEVILLE MEDICAL CENTER
5.28,2.29,37.64378,-84.77272,47762.36,12012.14,EPHRAIM MCDOWELL REGIONAL MEDICAL CENTER
4.66,2.54,38.03282,-84.50674,40317.92,15027.96,UNIVERSITY OF KENTUCKY HOSPITAL
6.36,2.30,38.24806,-85.75125,60674.94,12102.32,NORTON HOSPITALS, INC
4.50,2.17,37.33959,-87.48988,38373.69,10519.46,REGIONAL MEDICAL CENTER OF HOPKINS COUNTY
5.32,2.09,37.06431,-88.67523,48222.75,9563.36,LOURDES HOSPITAL
4.89,2.23,38.01849,-84.51236,43095.35,11307.42,CENTRAL BAPTIST HOSPITAL
4.44,2.09,37.07404,-88.62685,37749.30,9586.41,WESTERN BAPTIST HOSPITAL
3.81,2.06,38.23898,-85.63941,30181.11,9183.50,BAPTIST HOSPITAL EAST
5.68,2.22,37.08724,-84.61828,52485.17,11194.00,LAKE CUMBERLAND REGIONAL HOSPITAL
3.25,2.21,37.99944,-84.43941,23444.27,11050.33,SAINT JOSEPH EAST
5.88,2.29,30.20227,-92.01906,54866.96,12021.44,LAFAYETTE GENERAL MEDICAL CENTER
6.25,2.64,29.77956,-90.80568,59384.29,16149.50,THIBODAUX REGIONAL MEDICAL CENTER
4.81,2.13,29.59851,-90.71397,42115.43,10091.36,TERREBONNE GENERAL MEDICAL CENTER
5.94,2.13,31.28258,-92.46060,55637.10,10074.81,CHRISTUS ST FRANCES CABRINI HOSPITAL
7.59,2.22,31.31451,-92.44997,75334.67,11123.67,RAPIDES REGIONAL MEDICAL CENTER
6.34,2.37,30.01875,-90.19452,60449.91,12962.27,OCHSNER FOUNDATION HOSPITAL
6.95,2.48,32.49443,-93.75011,67770.09,14246.91,CHRISTUS SCHUMPERT HEALTH SYSTEM
6.97,2.10,29.98815,-91.78471,67999.15,9715.54,IBERIA GENERAL HOSPITAL AND MEDICAL CENTER
5.05,2.17,30.15052,-92.03698,44989.07,10541.64,OUR LADY OF LOURDES REGIONAL MEDICAL CENTER, INC
4.70,2.19,32.48393,-93.77884,40838.78,10781.89,WILLIS KNIGHTON MEDICAL CENTER
6.32,2.18,32.49997,-92.11359,60133.21,10681.00,ST FRANCIS MEDICAL CENTER
6.37,2.12,30.01438,-90.18155,60760.18,9970.00,EAST JEFFERSON GENERAL HOSPITAL
8.24,2.16,32.51315,-92.15713,83175.63,10386.26,GLENWOOD REGIONAL MEDICAL CENTER
9.94,2.20,30.47547,-90.10091,103529.36,10917.45,LAKEVIEW REGIONAL MEDICAL CENTER
8.55,2.38,30.19775,-92.07724,86913.83,13011.79,THE REGIONAL MEDICAL CENTER OF ACADIANA
4.60,2.04,30.17316,-92.02697,39583.68,8947.91,HEART HOSPITAL OF LAFAYETTE
4.75,2.37,43.65325,-70.27533,41372.28,12979.09,MAINE MEDICAL CENTER
4.41,2.28,44.10107,-70.21432,37303.11,11818.40,CENTRAL MAINE MEDICAL CENTER
3.88,2.34,44.80988,-68.74929,31051.99,12560.17,EASTERN MAINE MEDICAL CENTER
2.93,2.83,39.62183,-77.68219,19591.50,18416.12,MERITUS MEDICAL CENTER
2.85,2.77,39.28817,-76.62438,18682.88,17717.56,UNIVERSITY OF MARYLAND MEDICAL CENTER
3.27,3.15,39.42366,-77.41386,23715.45,22292.45,FREDERICK MEMORIAL HOSPITAL
2.44,2.37,39.38813,-76.61068,13800.94,12973.02,SAINT JOSEPH MEDICAL CENTER
2.88,2.78,39.29688,-76.59242,19006.00,17865.67,JOHNS HOPKINS HOSPITAL, THE
2.77,2.68,39.27352,-76.67219,17734.52,16606.88,SAINT AGNES HOSPITAL
2.70,2.62,39.35262,-76.66196,16892.02,15897.53,SINAI HOSPITAL OF BALTIMORE
2.24,2.19,38.98482,-77.00139,11424.64,10793.97,WASHINGTON ADVENTIST HOSPITAL
2.22,2.16,38.36248,-75.59799,11095.79,10466.02,PENINSULA REGIONAL MEDICAL CENTER
2.53,2.46,38.99743,-77.11048,14875.13,14072.63,SUBURBAN HOSPITAL
2.94,2.85,38.99014,-76.53398,19711.13,18677.07,ANNE ARUNDEL MEDICAL CENTER
2.49,2.43,39.32930,-76.61432,14356.12,13624.95,UNION MEMORIAL HOSPITAL
2.84,2.74,39.64928,-78.73206,18524.68,17413.18,WESTERN MARYLAND REGIONAL MEDICAL CENTER
2.81,2.72,39.13732,-76.62228,18198.85,17106.85,BALTIMORE WASHINGTON  MEDICAL CENTER
3.19,3.08,38.74827,-76.87590,22783.48,21416.52,SOUTHERN MARYLAND HOSPITAL CENTER
2.82,2.73,39.09796,-77.19799,18288.94,17304.56,SHADY GROVE ADVENTIST HOSPITAL
4.71,2.49,42.37441,-71.13378,40874.77,14416.15,MOUNT AUBURN HOSPITAL
5.88,2.49,42.70912,-71.14877,54970.38,14339.00,LAWRENCE GENERAL HOSPITAL
4.76,2.57,41.65298,-70.27484,41512.44,15310.64,CAPE COD HOSPITAL
4.82,2.99,42.35843,-71.05977,42207.82,20347.25,BOSTON MEDICAL CENTER CORPORATION
6.13,2.38,42.51078,-70.90712,57873.30,13080.95,NORTH SHORE MEDICAL CENTER
4.38,2.73,42.34896,-71.14768,37010.11,17286.53,ST ELIZABETH'S MEDICAL CENTER
5.36,2.46,42.03597,-71.09792,48750.11,13981.32,SIGNATURE HEALTHCARE BROCKTON HOSPITAL
4.85,2.46,42.64636,-71.34118,42614.35,14013.65,LOWELL GENERAL HOSPITAL
7.03,2.70,42.36227,-71.06941,68627.61,16858.90,MASSACHUSETTS GENERAL HOSPITAL
4.00,2.43,41.70928,-71.14519,32446.65,13710.54,SOUTHCOAST HOSPITAL GROUP, INC
3.74,2.62,42.12077,-72.60525,29270.71,15888.53,BAYSTATE MEDICAL CENTER
5.60,2.41,42.72846,-71.16830,51599.73,13363.45,HOLY FAMILY HOSPITAL
3.72,2.81,42.33719,-71.10939,29046.15,18204.18,BETH ISRAEL DEACONESS MEDICAL CENTER
3.84,2.52,42.17644,-70.95398,30519.18,14694.36,SOUTH SHORE HOSPITAL
7.09,2.84,42.33600,-71.10704,69449.63,18508.49,BRIGHAM AND WOMEN'S HOSPITAL
4.88,2.88,42.34951,-71.06331,42929.95,19015.45,TUFTS MEDICAL CENTER
5.18,2.25,42.18869,-71.20197,46529.64,11459.57,NORWOOD HOSPITAL
6.55,2.80,42.27720,-71.75922,62896.24,18136.27,UMASS MEMORIAL MEDICAL CENTER INC
3.46,2.44,42.48585,-71.20686,25975.12,13732.64,LAHEY CLINIC HOSPITAL
4.52,2.45,42.26633,-71.79760,38665.42,13886.47,ST VINCENT HOSPITAL
3.95,2.25,43.20588,-86.20839,31881.26,11500.11,MERCY HEALTH PARTNERS, MERCY CAMPUS
5.13,2.40,42.28551,-85.58042,45904.18,13274.55,BRONSON METHODIST HOSPITAL
4.09,2.36,42.45741,-83.20513,33538.55,12880.36,PROVIDENCE HOSPITAL AND MEDICAL CENTERS
4.02,2.34,42.29077,-83.21504,32706.95,12625.48,OAKWOOD HOSPITAL AND MEDICAL CENTER
3.76,2.37,42.08955,-86.47781,29570.11,12884.09,LAKELAND HOSPITAL, ST JOSEPH
4.68,2.58,42.41911,-83.18228,40608.18,15465.76,SINAI-GRACE HOSPITAL
4.40,2.39,42.61425,-83.27602,37273.14,13126.18,ST JOSEPH MERCY OAKLAND
4.07,2.40,42.96881,-85.66649,33304.57,13301.62,SPECTRUM HEALTH - BUTTERWORTH CAMPUS
4.59,2.13,43.58941,-83.86908,39542.16,10126.95,MCLAREN BAY REGION
6.25,2.78,42.28388,-83.72960,59403.55,17885.73,UNIVERSITY OF MICHIGAN HEALTH SYSTEM
4.43,2.23,42.61490,-82.96060,37550.86,11238.14,HENRY FORD MACOMB HOSPITAL
3.83,2.58,42.36762,-83.08461,30443.28,15451.59,HENRY FORD HOSPITAL
3.99,2.34,46.54758,-87.39560,32282.05,12639.45,MARQUETTE GENERAL HOSPITAL
4.81,2.25,43.42857,-83.95556,42116.33,11457.80,COVENANT MEDICAL CENTER, INC
5.85,2.23,43.42612,-83.94185,54563.32,11224.32,ST MARY'S OF MICHIGAN MEDICAL CENTER
4.34,2.17,42.25117,-84.39240,36494.61,10548.91,ALLEGIANCE HEALTH
4.10,2.33,44.76156,-85.64143,33593.02,12505.59,MUNSON MEDICAL CENTER
4.46,2.76,42.35230,-83.05676,37948.42,17563.86,HARPER UNIVERSITY HOSPITAL
4.17,2.27,45.37209,-84.97065,34510.71,11735.79,NORTHERN MICHIGAN REGIONAL HOSPITAL
5.04,2.30,42.30489,-85.56152,44853.95,12100.98,BORGESS MEDICAL CENTER
4.71,2.38,42.51418,-83.19259,40961.60,13118.57,WILLIAM BEAUMONT HOSPITAL
7.00,2.38,43.01399,-83.73250,68361.96,13051.79,MCLAREN FLINT
5.69,2.30,42.26181,-83.66003,52609.86,12048.12,ST JOSEPH MERCY HOSPITAL
4.92,2.44,42.41975,-82.91442,43421.02,13807.25,ST JOHN HOSPITAL AND MEDICAL CENTER
4.64,2.29,42.70417,-84.55488,40044.44,11980.60,MCLAREN - GREATER LANSING
4.66,2.26,42.50514,-83.00422,40292.91,11620.25,ST JOHN MACOMB-OAKLAND HOSPITAL-MACOMB CENTER
4.84,2.41,42.89254,-83.63621,42528.30,13427.65,GENESYS REGIONAL MEDICAL CENTER - HEALTH PARK
3.83,2.17,42.98625,-82.42802,30384.83,10534.21,PORT HURON HOSPITAL
4.06,2.28,43.63618,-84.26187,33147.00,11816.45,MIDMICHIGAN MEDICAL CENTER-MIDLAND
4.50,2.26,42.58900,-82.89799,38407.51,11624.23,MOUNT CLEMENS REGIONAL MEDICAL CENTER
5.15,2.44,42.73767,-84.51698,46208.24,13764.94,EDWARD W SPARROW HOSPITAL
4.91,2.18,42.67850,-83.14771,43317.68,10666.92,CRITTENTON HOSPITAL MEDICAL CENTER
5.15,2.24,42.61826,-83.09239,46190.91,11436.37,WILLIAM BEAUMONT HOSPITAL-TROY
5.57,2.27,45.01403,-93.32177,51187.29,11719.54,NORTH MEMORIAL MEDICAL CENTER
4.95,2.28,46.79380,-92.09573,43753.96,11840.47,ESSENTIA HEALTH ST MARY'S MEDICAL CENTER
4.05,2.57,44.02052,-92.48292,33087.25,15382.06,MAYO CLINIC - SAINT MARYS HOSPITAL
4.52,2.45,45.57390,-94.16942,38618.43,13910.91,ST CLOUD HOSPITAL
6.20,2.26,44.94214,-93.10858,58738.77,11626.97,UNITED HOSPITAL
5.37,2.27,46.79634,-92.08793,48798.00,11712.00,ST LUKES HOSPITAL
3.81,2.22,44.93031,-93.36276,30140.00,11128.07,PARK NICOLLET METHODIST HOSPITAL
5.33,2.29,44.95248,-93.26196,48365.76,12009.63,ABBOTT NORTHWESTERN HOSPITAL
5.74,2.42,44.94898,-93.10016,53239.85,13586.51,ST JOSEPH'S HOSPITAL
5.12,2.26,44.88645,-93.32693,45858.79,11592.97,FAIRVIEW SOUTHDALE HOSPITAL
4.20,2.26,44.16396,-94.00412,34789.00,11621.85,MAYO CLINIC HEALTH SYSTEM - MANKATO
5.26,2.51,44.95570,-93.09429,47502.75,14636.31,REGIONS HOSPITAL
5.24,2.67,45.18355,-93.36789,47221.82,16481.71,MERCY HOSPITAL
4.98,2.73,32.33069,-90.17030,44112.05,17277.40,UNIVERSITY OF MISSISSIPPI MED CENTER
4.19,2.18,34.24336,-88.71753,34688.93,10681.51,NORTH MISSISSIPPI MEDICAL CENTER
8.97,2.21,30.36674,-89.11535,91827.74,11079.72,MEMORIAL HOSPITAL AT GULFPORT
7.42,2.27,32.35265,-90.87788,73325.50,11729.33,RIVER REGION HEALTH SYSTEM
6.57,2.18,30.37516,-88.53226,63229.84,10626.14,SINGING RIVER HOSPITAL
3.96,2.13,32.33616,-90.15652,31995.33,10044.08,ST DOMINIC-JACKSON MEMORIAL HOSPITAL
4.32,2.22,31.31872,-89.32955,36308.28,11197.32,FORREST GENERAL HOSPITAL
5.14,2.27,33.41099,-91.03479,46022.57,11785.00,DELTA REGIONAL MEDICAL CENTER
4.16,2.21,31.24000,-90.45000,34363.94,11036.00,SOUTHWEST MS REGIONAL MEDICAL CENTER
5.53,2.18,33.52568,-88.42742,50758.45,10609.00,BAPTIST MEM HOSP/GOLDEN TRIANGLE INC
4.90,2.08,32.31643,-90.17922,43259.96,9416.04,MISSISSIPPI BAPTIST MEDICAL CENTER
4.82,2.12,32.37280,-88.69954,42289.71,9989.57,ANDERSON REGIONAL MEDICAL CENTER
5.82,2.13,37.06032,-94.52747,54204.80,10083.20,ST JOHN'S REGIONAL MEDICAL CENTER
5.98,2.21,38.78060,-90.48379,56084.79,10990.29,SSM ST JOSEPH HEALTH CENTER
4.66,2.38,39.77393,-94.77089,40285.64,13018.00,HEARTLAND REGIONAL MEDICAL CENTER
5.97,2.20,38.64281,-90.44448,55961.84,10851.94,MERCY HOSPITAL ST LOUIS
4.28,2.10,38.16498,-90.38082,35810.87,9746.49,JEFFERSON REGIONAL MEDICAL CENTER
5.04,2.26,39.71116,-91.45071,44816.39,11612.33,HANNIBAL REGIONAL HOSPITAL
8.24,2.40,39.00717,-94.55925,83141.93,13343.33,RESEARCH MEDICAL CENTER
5.22,2.58,38.63524,-90.26508,46993.49,15418.59,BARNES JEWISH HOSPITAL
5.88,2.18,37.14560,-93.28037,54872.55,10619.18,COX MEDICAL CENTER
4.97,2.27,38.56571,-92.18204,44010.40,11737.07,CAPITAL REGION MEDICAL CENTER
3.97,2.78,39.08401,-94.57591,32076.25,17845.25,TRUMAN MEDICAL CENTER HOSPITAL HILL
5.57,2.35,37.17999,-93.27409,51202.58,12722.54,ST JOHN'S REGIONAL HEALTH CENTER
4.15,2.05,38.94903,-92.31563,34185.45,9080.63,BOONE HOSPITAL CENTER
4.54,2.07,38.50661,-90.38025,38860.23,9306.62,ST ANTHONY'S MEDICAL CENTER
4.80,2.08,38.52738,-90.47501,41990.81,9515.67,SSM ST CLARE HEALTH CENTER
4.60,2.09,38.93592,-94.60376,39559.47,9615.89,ST JOSEPH MEDICAL CENTER
4.85,2.19,36.64970,-93.22138,42605.48,10834.93,SKAGGS REGIONAL MEDICAL CENTER
7.23,2.28,39.04749,-94.34105,71097.75,11815.58,CENTERPOINT MEDICAL CENTER OF INDEPENDENCE, LLC
5.34,2.11,39.14957,-94.55148,48519.68,9785.68,NORTH KANSAS CITY HOSPITAL
5.77,2.20,38.75097,-90.43255,53610.02,10872.32,SSM DEPAUL HEALTH CENTER
7.57,2.58,38.62280,-90.24049,75141.85,15407.38,ST LOUIS UNIVERSITY HOSPITAL
4.28,2.07,38.63702,-90.44699,35730.32,9331.20,MISSOURI BAPTIST MEDICAL CENTER
6.68,2.17,37.31072,-89.53990,64446.83,10574.22,SOUTHEAST MISSOURI HOSPITAL
9.95,2.37,36.78510,-90.42779,103554.42,12887.29,POPLAR BLUFF REGIONAL MEDICAL CENTER
4.20,2.18,37.05238,-94.52777,34874.14,10702.43,FREEMAN HEALTH SYSTEM - FREEMAN WEST
7.30,2.40,39.04761,-94.59037,71892.97,13276.86,ST LUKES HOSPITAL OF KANSAS CITY
5.70,2.15,38.58103,-90.45144,52798.64,10253.91,DES PERES HOSPITAL
3.96,2.10,38.65123,-90.50301,31963.13,9768.96,ST LUKES HOSPITAL
4.82,2.19,38.77576,-90.23906,42297.26,10830.43,CHRISTIAN HOSPITAL NORTHEAST
7.21,2.57,37.30401,-89.57190,70844.64,15364.64,ST FRANCIS MEDICAL CENTER
5.47,2.32,38.12027,-92.68146,49969.54,12328.46,LAKE REGIONAL HEALTH SYSTEM
4.52,2.25,37.60022,-93.42237,38648.33,11520.08,CITIZENS MEMORIAL HOSPITAL
6.89,2.13,38.94062,-94.37842,67034.03,10071.41,SAINT LUKE'S EAST LEE'S SUMMIT HOSPITAL
5.35,2.21,45.78958,-108.51283,48552.93,11064.02,BILLINGS CLINIC HOSPITAL
4.37,2.31,47.49139,-111.26255,36845.67,12246.52,BENEFIS HOSPITALS INC
4.33,2.22,46.87545,-114.00033,36357.39,11195.72,ST PATRICK HOSPITAL
5.02,2.18,48.21465,-114.32386,44618.95,10701.45,KALISPELL REGIONAL MEDICAL CENTER
3.20,2.12,45.66969,-111.01991,22818.42,9902.00,BOZEMAN DEACONESS HOSPITAL
4.96,2.46,40.78318,-96.63709,43965.23,14048.23,BRYANLGH MEDICAL CENTER
4.67,2.39,40.70646,-99.08136,40456.90,13147.96,GOOD SAMARITAN HOSPITAL
6.39,2.38,41.25522,-95.97892,60963.21,13079.67,THE NEBRASKA MEDICAL CENTER
4.68,2.64,40.92425,-98.37053,40599.08,16129.92,ST FRANCIS MEDICAL CENTER
15.36,2.61,41.26509,-95.95494,168332.19,15768.05,CREIGHTON UNIVERSITY MEDICAL CENTER - SAINT JOSEPH
6.68,2.27,41.23897,-96.03162,64528.00,11753.06,ALEGENT HEALTH BERGAN MERCY MEDICAL CENTER
6.39,2.28,41.32182,-96.02133,61002.67,11872.58,ALEGENT HEALTH IMMANUEL MEDICAL CENTER
3.37,2.16,40.73657,-96.59332,24936.18,10486.88,NEBRASKA HEART HOSPITAL
6.88,2.38,39.52637,-119.79456,66831.52,13081.22,RENOWN REGIONAL MEDICAL CENTER
10.07,2.43,36.13459,-115.13576,104985.08,13610.80,SUNRISE HOSPITAL AND MEDICAL CENTER
6.06,2.16,39.53066,-119.82067,57097.65,10457.60,SAINT MARY'S REGIONAL MEDICAL CENTER
6.97,2.41,39.20247,-119.78446,68004.12,13377.62,CARSON TAHOE REGIONAL MEDICAL CENTER
10.36,2.49,36.16380,-115.16574,108450.46,14397.00,VALLEY HOSPITAL MEDICAL CENTER
7.85,2.20,36.11363,-115.12573,78495.92,10874.17,DESERT SPRINGS HOSPITAL
9.96,2.31,36.21599,-115.25095,103768.26,12218.94,MOUNTAINVIEW HOSPITAL
8.86,2.29,36.16586,-115.32436,90541.48,11943.76,SUMMERLIN HOSPITAL MEDICAL CENTER
9.26,2.53,36.00527,-115.11618,95402.11,14902.37,SAINT ROSE DOMINICAN HOSPITAL - SIENA CAMPUS
9.52,2.30,36.09056,-115.24058,98485.58,12126.00,SPRING VALLEY HOSPITAL MEDICAL CENTER
5.59,2.25,43.19846,-71.56230,51403.90,11529.81,CONCORD HOSPITAL
5.05,2.63,43.67286,-72.27232,45050.13,16048.03,MARY HITCHCOCK MEMORIAL HOSPITAL
5.76,2.17,43.06469,-70.78916,53516.55,10602.90,PORTSMOUTH REGIONAL HOSPITAL
5.22,2.17,42.99121,-71.47426,46980.09,10607.00,CATHOLIC MEDICAL CENTER
6.35,2.45,40.88346,-74.05564,60597.35,13923.00,HACKENSACK UNIVERSITY MEDICAL CENTER
6.52,2.79,40.71011,-74.21368,62579.29,17982.53,NEWARK BETH ISRAEL MEDICAL CENTER
5.25,2.33,40.88275,-74.01021,47415.16,12480.32,HOLY NAME MEDICAL CENTER
7.30,2.32,40.98359,-74.10047,71889.66,12380.66,VALLEY HOSPITAL
9.29,2.62,39.94152,-75.11680,95731.37,15882.43,COOPER UNIVERSITY HOSPITAL
6.62,2.43,40.78883,-74.46620,63781.52,13615.74,MORRISTOWN MEMORIAL HOSPITAL
9.08,2.63,40.90215,-74.16634,93240.47,16029.00,ST JOSEPH'S REGIONAL MEDICAL CENTER
11.05,2.46,40.21634,-74.74143,116773.71,14004.25,ST FRANCIS MEDICAL CENTER
9.97,2.24,39.78261,-74.91670,103894.06,11377.94,VIRTUA WEST JERSEY HOSPITALS BERLIN
8.13,2.38,39.92695,-75.09537,81888.65,13029.24,OUR LADY OF LOURDES MEDICAL CENTER
7.07,2.45,39.97776,-74.58456,69186.45,13943.60,DEBORAH HEART AND LUNG CENTER
9.04,2.19,40.35309,-74.06484,92767.08,10764.33,RIVERVIEW MEDICAL CENTER
8.17,2.54,40.49581,-74.44980,82274.09,14938.25,ROBERT WOOD JOHNSON UNIVERSITY HOSPITAL
8.50,2.19,39.96484,-74.21708,86309.79,10765.50,COMMUNITY MEDICAL CENTER
11.76,2.38,40.29209,-74.80327,125247.36,13092.18,CAPITAL HEALTH MEDICAL CENTER - HOPEWELL
7.05,2.43,40.90400,-73.96847,68881.54,13691.04,ENGLEWOOD HOSPITAL AND MEDICAL CENTER
7.05,2.42,40.71264,-74.35460,68973.58,13597.67,OVERLOOK HOSPITAL
9.74,2.19,40.07832,-74.13009,101103.93,10759.60,OCEAN MEDICAL CENTER
11.24,2.35,39.35775,-74.43449,119050.19,12736.26,ATLANTICARE REGIONAL MEDICAL CENTER - CITY DIV
7.16,2.37,40.21065,-74.03566,70279.62,12908.32,JERSEY SHORE UNIVERSITY MEDICAL CENTER
10.63,2.82,40.71663,-74.05013,111761.80,18352.57,LIBERTYHEALTH-JERSEY CITY MEDICAL CENTER CAMPUS
8.65,2.52,40.76190,-74.30335,88030.58,14763.75,SAINT BARNABAS MEDICAL CENTER
8.38,2.60,40.74323,-74.17431,84803.43,15660.05,SAINT MICHAEL'S MEDICAL CENTER, INC
4.57,2.41,36.72387,-108.21749,39305.41,13439.71,SAN JUAN REGIONAL MEDICAL CENTER
5.14,2.53,32.29186,-106.73470,46026.50,14882.20,MEMORIAL MEDICAL CENTER INC
5.32,2.34,35.08102,-106.63392,48187.89,12600.39,PRESBYTERIAN HOSPITAL
6.74,2.10,35.08729,-106.63687,65156.07,9658.00,HEART HOSPITAL OF NEW MEXICO
5.60,2.17,32.32310,-106.72900,51515.94,10503.11,MOUNTAIN VIEW REGIONAL MEDICAL CENTER
3.20,2.44,42.87482,-78.84942,22884.03,13747.12,KALEIDA HEALTH
5.89,2.46,42.65345,-73.77543,54997.23,14029.92,ALBANY MEDICAL CENTER HOSPITAL
6.12,2.33,41.69441,-73.93432,57839.58,12405.45,VASSAR BROTHERS MEDICAL CENTER
4.39,2.90,40.79041,-73.95386,37151.49,19229.62,MOUNT SINAI HOSPITAL
4.38,2.46,40.72567,-73.24189,36985.08,14032.15,SOUTHSIDE HOSPITAL
8.09,2.32,40.87946,-73.41621,81327.08,12313.42,HUNTINGTON HOSPITAL
5.00,2.84,40.80556,-73.96131,44361.53,18582.00,ST LUKE'S ROOSEVELT HOSPITAL
5.55,2.15,42.65583,-73.80372,50961.45,10275.73,ST PETER'S HOSPITAL
4.94,3.05,40.87987,-73.87996,43715.76,21130.47,MONTEFIORE MEDICAL CENTER
3.62,2.34,42.10076,-76.82800,27887.64,12555.67,ARNOT OGDEN MEDICAL CENTER
5.57,2.92,40.76487,-73.95398,51264.76,19558.25,NEW YORK-PRESBYTERIAN HOSPITAL
5.59,2.70,40.77686,-73.70212,51512.47,16925.11,NORTH SHORE UNIVERSITY HOSPITAL
5.27,2.64,40.77362,-73.96093,47615.27,16177.56,LENOX HILL HOSPITAL
3.68,2.24,43.19244,-77.58590,28631.70,11367.74,ROCHESTER GENERAL HOSPITAL
7.16,2.39,41.44138,-74.36821,70222.56,13171.78,ORANGE REGIONAL MEDICAL CENTER
2.91,3.19,40.74465,-73.88620,19439.46,22690.31,ELMHURST HOSPITAL CENTER
3.94,2.60,42.69590,-74.92278,31729.21,15699.58,MARY IMOGENE BASSETT HOSPITAL
3.69,2.28,43.05571,-76.14981,28733.71,11923.74,ST JOSEPH'S HOSPITAL HEALTH CENTER
5.11,2.18,42.81963,-73.91653,45749.68,10694.79,ELLIS HOSPITAL
9.10,2.61,41.11299,-74.13732,93406.04,15773.41,GOOD SAMARITAN HOSPITAL OF SUFFERN
5.81,2.66,40.58440,-74.08507,54037.00,16391.89,STATEN ISLAND UNIVERSITY HOSPITAL
5.86,2.60,40.74083,-73.64306,54740.85,15733.87,WINTHROP-UNIVERSITY HOSPITAL
5.11,2.91,40.73265,-73.98162,45700.81,19342.93,BETH ISRAEL MEDICAL CENTER
6.65,2.36,40.80462,-73.67023,64072.76,12811.38,ST FRANCIS HOSPITAL, ROSLYN
7.88,3.18,40.63937,-73.99851,78856.19,22611.49,MAIMONIDES MEDICAL CENTER
5.59,2.92,40.75332,-73.70899,51412.21,19505.67,LONG ISLAND JEWISH MEDICAL CENTER
5.66,2.50,40.65189,-73.63096,52348.89,14515.71,SOUTH NASSAU COMMUNITIES HOSPITAL
4.67,2.38,43.04139,-76.13803,40393.24,13104.41,CROUSE HOSPITAL
6.32,2.65,40.74335,-73.97408,60176.00,16252.74,NYU HOSPITALS CENTER
6.95,2.90,41.08773,-73.80395,67769.51,19224.51,WESTCHESTER MEDICAL CENTER
3.66,2.80,40.66762,-73.97850,28414.76,18121.75,NEW YORK METHODIST HOSPITAL
3.67,2.55,43.04269,-76.14043,28508.85,15099.62,UNIVERSITY HOSPITAL S U N Y HEALTH SCIENCE CENTER
4.00,2.16,43.08176,-75.26587,32400.89,10379.39,ST ELIZABETH MEDICAL CENTER
5.00,2.51,44.70022,-73.47100,44446.88,14658.17,CHAMPLAIN VALLEY PHYSICIANS HOSPITAL MEDICAL CTR
6.17,2.40,41.50307,-74.01517,58448.58,13278.53,ST LUKE'S CORNWALL HOSPITAL
5.14,2.20,42.84782,-78.81264,46118.00,10901.83,MERCY HOSPITAL
3.53,2.49,43.12266,-77.62360,26771.95,14372.46,STRONG MEMORIAL HOSPITAL
6.87,2.40,40.69327,-73.29412,66820.95,13284.14,GOOD SAMARITAN HOSPITAL MEDICAL CENTER
6.34,2.31,41.02614,-73.76978,60365.08,12164.50,WHITE PLAINS HOSPITAL CENTER
5.48,3.03,40.64666,-74.02049,50194.79,20889.95,LUTHERAN MEDICAL CENTER
4.42,2.28,42.47286,-76.53849,37495.68,11904.32,CAYUGA MEDICAL CENTER AT ITHACA
3.18,3.05,40.65508,-73.94521,22578.00,21070.26,UNIVERSITY HOSPITAL OF BROOKLYN ( DOWNSTATE )
5.52,2.75,40.90922,-73.11520,50591.21,17469.52,UNIVERSITY HOSPITAL ( STONY BROOK )
4.11,2.25,42.11422,-75.95851,33745.00,11556.67,UNITED HEALTH SERVICES HOSPITALS, INC
4.53,2.24,35.43754,-80.60147,38739.16,11383.04,CAROLINAS MEDICAL CENTER-NORTHEAST
6.00,2.28,35.57658,-82.54922,56309.27,11849.79,MEMORIAL MISSION HOSPITAL AND ASHEVILLE SURGERY CE
4.46,2.19,35.95000,-80.00000,37901.65,10778.91,HIGH POINT REGIONAL HOSPITAL
4.25,2.25,36.07581,-80.29779,35445.96,11463.36,FORSYTH MEMORIAL HOSPITAL
5.38,2.16,35.68172,-80.47072,48954.53,10477.32,ROWAN REGIONAL MEDICAL CENTER
7.48,2.32,35.03156,-78.93205,74044.40,12375.89,CAPE FEAR VALLEY MEDICAL CENTER
6.40,2.66,36.00850,-78.94006,61141.12,16468.14,DUKE UNIVERSITY HOSPITAL
6.26,2.27,35.27341,-81.13688,59465.55,11765.64,GASTON MEMORIAL HOSPITAL
6.56,2.18,35.79986,-80.87863,63005.87,10658.70,IREDELL MEMORIAL HOSPITAL INC
5.57,2.48,35.60726,-77.40477,51229.68,14204.05,PITT COUNTY MEMORIAL HOSPITAL
4.32,2.56,36.09062,-80.27161,36208.82,15267.95,NORTH CAROLINA BAPTIST HOSPITAL
7.18,2.37,34.63723,-79.01213,70461.11,12970.17,SOUTHEASTERN REGIONAL MEDICAL CENTER
5.70,2.25,35.22196,-80.83287,52753.63,11482.07,PRESBYTERIAN HOSPITAL
4.09,2.72,35.90529,-79.04963,33510.38,17086.12,UNIVERSITY OF NORTH CAROLINA HOSPITAL
6.35,2.32,35.78523,-78.58836,60527.36,12373.96,WAKEMED, RALEIGH CAMPUS
4.14,2.24,36.09251,-79.78855,34079.40,11439.91,MOSES H CONE MEMORIAL HOSPITAL, THE
5.35,2.23,35.21029,-80.82084,48535.95,11321.40,CAROLINAS MED CENTER-MERCY
5.09,2.51,35.20397,-80.83908,45432.10,14634.98,CAROLINAS MEDICAL CENTER/BEHAV HEALTH
6.01,2.15,35.81801,-78.70283,56490.56,10328.29,REX HOSPITAL
5.54,2.20,35.20554,-79.45645,50895.35,10948.78,FIRSTHEALTH MOORE REGIONAL HOSPITAL
8.06,2.19,35.73751,-81.33702,80994.28,10828.34,FRYE REGIONAL MEDICAL CENTER
4.58,2.31,35.11420,-77.06568,39424.81,12169.73,CAROLINA EAST MEDICAL CENTER
4.98,2.34,34.23786,-77.94764,44185.91,12522.93,NEW HANOVER REGIONAL MEDICAL CENTER
6.32,2.25,36.04960,-78.90617,60176.12,11482.29,DURHAM REGIONAL HOSPITAL
4.49,2.23,46.88496,-96.78609,38311.85,11238.15,SANFORD MEDICAL CENTER FARGO
4.54,2.27,47.91045,-97.06742,38857.07,11693.24,ALTRU HOSPITAL
5.55,2.43,39.08582,-84.34886,51023.79,13694.74,MERCY HOSPITAL ANDERSON
5.96,2.69,39.13707,-84.50392,55819.35,16809.59,UNIVERSITY HOSPITAL, INC
4.92,2.23,40.03064,-83.03440,43458.66,11323.30,RIVERSIDE METHODIST HOSPITAL
5.44,2.35,38.75320,-82.97800,49703.50,12693.62,SOUTHERN OHIO MEDICAL CENTER
4.67,2.19,40.73578,-84.08630,40482.44,10763.04,LIMA MEMORIAL HEALTH SYSTEM
4.87,2.20,40.57098,-83.12972,42882.73,10878.07,MARION GENERAL HOSPITAL
4.38,2.50,39.20680,-84.38093,36999.22,14510.33,JEWISH HOSPITAL, LLC
5.05,2.43,39.96098,-82.99077,45049.79,13610.29,GRANT MEDICAL CENTER
6.89,2.27,41.08161,-81.50007,66960.07,11730.23,SUMMA HEALTH SYSTEMS HOSPITALS
5.22,2.14,41.44642,-82.70864,47005.32,10136.26,FIRELANDS REGIONAL MEDICAL CENTER
5.47,2.27,41.07747,-81.53042,50008.41,11732.35,AKRON GENERAL MEDICAL CENTER
4.96,2.24,39.95805,-83.02191,43975.97,11418.68,MOUNT CARMEL HEALTH
5.05,2.33,39.97510,-82.01812,44970.97,12405.71,GENESIS HEALTHCARE SYSTEM
4.57,2.07,41.38265,-81.73127,39238.78,9338.62,PARMA COMMUNITY GENERAL HOSPITAL
4.41,2.42,41.61788,-83.61632,37314.14,13576.55,UNIVERSITY OF TOLEDO MEDICAL CENTER
8.17,2.29,39.74547,-84.18523,82339.78,11958.83,MIAMI VALLEY HOSPITAL
8.44,2.22,39.78778,-84.23493,85601.06,11164.06,GOOD SAMARITAN HOSPITAL
4.73,2.12,39.31257,-84.51774,41135.06,9932.30,MERCY HOSPITAL FAIRFIELD
5.83,2.17,41.11441,-80.65565,54293.39,10575.71,ST ELIZABETH HEALTH CENTER
6.85,2.14,40.74115,-84.11804,66527.69,10221.46,ST RITA'S MEDICAL CENTER
8.06,2.32,41.67775,-83.59589,80990.28,12328.23,TOLEDO HOSPITAL THE
3.24,2.20,40.81219,-81.39625,23373.10,10854.22,MERCY MEDICAL CENTER
5.24,2.18,39.71750,-82.57772,47248.31,10715.05,FAIRFIELD MEDICAL CENTER
6.83,2.14,39.49896,-84.31496,66268.12,10152.00,ATRIUM MEDICAL CENTER
5.90,2.21,41.45013,-81.82397,55118.85,11035.00,FAIRVIEW HOSPITAL
6.13,2.26,39.69724,-84.19232,57881.80,11603.53,KETTERING MEDICAL CENTER
3.74,2.17,40.79609,-81.40360,29365.31,10582.94,AULTMAN HOSPITAL
6.37,2.49,39.99445,-83.01872,60732.16,14366.37,OHIO STATE UNIVERSITY HOSPITALS
4.56,2.30,39.92755,-83.81573,39144.15,12123.62,SPRINGFIELD REGIONAL MEDICAL CENTER
4.05,2.10,41.55725,-83.68141,32982.56,9714.59,ST LUKE'S HOSPITAL
5.14,2.22,41.01785,-83.65165,46082.56,11156.39,BLANCHARD VALLEY HOSPITAL
5.41,2.07,41.66317,-81.24696,49313.41,9331.83,LAKE HEALTH
7.62,2.49,41.66810,-83.54275,75775.35,14320.86,MERCY ST VINCENT MEDICAL CENTER
4.69,2.16,41.43653,-81.94451,40648.05,10477.25,ST JOHN MEDICAL CENTER
5.28,2.34,39.13975,-84.52173,47699.73,12565.12,GOOD SAMARITAN HOSPITAL
5.25,2.34,41.13385,-80.65678,47406.75,12552.33,NORTHSIDE MEDICAL CENTER
3.73,2.10,41.36649,-82.09708,29187.42,9745.62,EMH REGIONAL MEDICAL CENTER
6.94,2.13,40.80656,-81.51633,67574.73,10057.09,AFFINITY MEDICAL CENTER
5.36,2.09,41.37028,-81.83189,48693.93,9563.93,SOUTHWEST GENERAL HEALTH CENTER
5.13,2.26,39.39463,-82.96979,45978.29,11657.24,ADENA REGIONAL MEDICAL CENTER
4.64,2.23,39.12105,-84.51059,40073.78,11216.52,CHRIST HOSPITAL
5.12,2.14,41.43688,-82.23761,45880.81,10229.38,MERCY REGIONAL MEDICAL CENTER
4.91,2.18,39.25076,-84.34341,43353.00,10677.39,BETHESDA NORTH HOSPITAL
6.24,2.34,41.50248,-81.62110,59225.76,12562.24,CLEVELAND CLINIC
4.85,2.41,40.04876,-82.45029,42579.54,13421.15,LICKING MEMORIAL HOSPITAL
5.28,2.11,41.52013,-81.43291,47692.22,9817.58,HILLCREST HOSPITAL
5.59,2.75,36.14687,-95.96841,51461.06,17458.02,HILLCREST MEDICAL CENTER
6.14,2.11,35.22999,-97.44074,58067.05,9875.81,NORMAN REGIONAL HEALTH SYSTEM
8.49,2.31,35.52960,-97.57496,86151.85,12188.02,INTEGRIS BAPTIST MEDICAL CENTER
7.48,2.13,35.52531,-97.58461,74089.58,10108.68,DEACONESS HOSPITAL
4.96,2.39,35.47800,-97.52352,43969.00,13230.23,ST ANTHONY HOSPITAL
7.93,2.53,34.18908,-97.14128,79410.55,14866.09,MERCY MEMORIAL HEALTH CENTER
4.85,2.13,34.60992,-98.43419,42623.82,10080.76,COMANCHE COUNTY MEMORIAL HOSPITAL
4.68,2.23,36.06135,-95.95154,40520.73,11213.11,SAINT FRANCIS HOSPITAL, INC
10.13,3.17,35.48138,-97.49624,105759.25,22453.42,O U MEDICAL CENTER
10.27,2.16,35.46721,-97.39370,107408.70,10413.05,MIDWEST REGIONAL MEDICAL CENTER
8.37,2.23,35.42168,-97.53306,84743.92,11285.58,INTEGRIS SOUTHWEST MEDICAL CENTER
4.62,2.15,36.13393,-95.96718,39801.02,10294.72,ST JOHN MEDICAL CENTER, INC
7.83,2.17,36.03590,-95.86511,78303.57,10562.46,SOUTHCREST HOSPITAL
5.42,2.14,35.60901,-97.59429,49440.12,10248.93,OKLAHOMA HEART HOSPITAL
5.39,2.03,35.38969,-97.42688,49047.92,8871.12,OKLAHOMA HEART HOSPITAL SOUTH
4.65,2.36,45.50973,-122.77368,40204.12,12796.44,PROVIDENCE ST VINCENT MEDICAL CENTER
5.26,2.72,45.49956,-122.68802,47503.88,17070.35,OHSU HOSPITAL AND CLINICS
4.88,2.35,42.31769,-122.83333,42960.17,12759.62,ROGUE VALLEY MEDICAL CENTER
5.90,2.24,44.06773,-121.26817,55217.19,11397.00,ST CHARLES MEDICAL CENTER - BEND
4.79,2.42,42.25296,-121.78512,41881.16,13586.44,SKY LAKES MEDICAL CENTER
4.69,2.40,44.93267,-123.03418,40719.35,13306.13,SALEM HOSPITAL
4.58,2.28,45.51288,-122.55630,39417.08,11885.38,ADVENTIST MEDICAL CENTER
3.46,2.42,44.08146,-123.02694,26027.92,13596.42,SACRED HEART MEDICAL CENTER - RIVERBEND
4.03,2.16,41.40075,-75.64594,32799.30,10481.00,COMMUNITY MEDICAL CENTER
3.97,2.08,40.25296,-76.92151,32066.78,9464.28,HOLY SPIRIT HOSPITAL
6.91,2.58,40.96789,-76.60506,67217.56,15503.79,GEISINGER MEDICAL CENTER
8.14,2.22,42.11102,-80.07912,81977.91,11119.65,SAINT VINCENT HEALTH CENTER
4.99,2.42,40.43609,-79.98537,44243.00,13592.80,UPMC MERCY
3.82,2.12,40.71251,-80.32136,30323.16,9983.16,HERITAGE VALLEY BEAVER
2.77,2.17,39.90180,-79.73854,17685.17,10521.92,UNIONTOWN HOSPITAL
3.74,2.24,40.18302,-80.24767,29287.19,11360.30,WASHINGTON HOSPITAL, THE
5.86,2.43,40.33271,-75.95020,54727.26,13691.13,READING HOSPITAL MEDICAL CENTER
4.64,2.17,41.24548,-77.01438,40139.04,10525.33,WILLIAMSPORT REGIONAL MEDICAL CENTER
4.80,2.41,39.94604,-76.71884,42024.17,13423.62,YORK HOSPITAL
7.17,2.25,40.60811,-75.39260,70294.37,11500.89,ST LUKE'S HOSPITAL BETHLEHEM
5.38,2.34,40.45705,-80.00363,48960.00,12586.00,ALLEGHENY GENERAL HOSPITAL
8.24,2.30,42.13338,-80.08703,83118.44,12137.09,UPMC HAMOT
4.26,2.16,40.32799,-76.44588,35565.80,10458.26,GOOD SAMARITAN HOSPITAL
4.26,2.44,40.25661,-76.87572,35596.97,13814.27,PINNACLE HEALTH HOSPITALS
4.11,2.14,40.52204,-78.39824,33802.48,10214.43,ALTOONA REGIONAL HEALTH SYSTEM
19.76,2.58,40.00955,-75.78622,220942.55,15464.00,BRANDYWINE HOSPITAL
3.68,2.22,41.98012,-76.52072,28562.97,11121.82,ROBERT PACKER HOSPITAL
3.76,2.20,41.11492,-78.77515,29605.22,10919.96,DUBOIS REGIONAL MEDICAL CENTER
5.76,2.34,40.37587,-75.97750,53526.42,12592.75,ST JOSEPH MEDICAL CENTER
13.08,2.23,40.11139,-75.09250,141061.08,11317.15,HOLY REDEEMER HOSPITAL AND MEDICAL CENTER
5.22,2.19,40.04740,-76.30540,47084.86,10735.88,LANCASTER GENERAL HOSPITAL
6.10,2.06,40.57319,-80.01455,57559.96,9237.22,UPMC PASSAVANT
9.80,2.38,40.12453,-75.33533,101776.53,13106.80,MONTGOMERY HOSPITAL
4.25,2.20,40.32674,-78.92197,35448.83,10872.37,CONEMAUGH VALLEY MEMORIAL HOSPITAL
9.14,2.72,39.95045,-75.19259,93924.26,17098.89,HOSPITAL OF UNIV OF PENNSYLVANIA
6.99,2.46,40.07160,-74.98341,68180.61,13995.52,ARIA HEALTH
7.17,2.38,40.60000,-75.47000,70353.80,13062.76,LEHIGH VALLEY HOSPITAL
5.77,2.16,41.25860,-75.86729,53584.98,10457.35,WILKES-BARRE GENERAL HOSPITAL
4.60,2.13,40.30103,-79.55505,39640.65,10035.71,EXCELA HEALTH WESTMORELAND REGIONAL HOSPITAL
4.52,2.17,39.93492,-77.64744,38678.00,10575.24,CHAMBERSBURG HOSPITAL
8.16,2.16,40.04475,-75.50425,82161.75,10420.62,MAIN LINE HOSPITAL PAOLI
11.80,2.47,40.68708,-75.24272,125763.62,14186.75,EASTON HOSPITAL
8.33,2.43,40.44190,-79.96044,84220.60,13643.47,UPMC PRESBYTERIAN SHADYSIDE
6.46,2.12,40.86656,-79.88351,61857.28,9930.61,BUTLER MEMORIAL HOSPITAL
7.84,2.69,39.94969,-75.15712,78408.20,16783.96,THOMAS JEFFERSON UNIVERSITY HOSPITAL
13.46,2.38,39.85598,-75.36791,145617.10,13032.95,CROZER CHESTER MEDICAL CENTER
7.90,2.42,39.98905,-75.27707,79071.80,13589.60,MAIN LINE HOSPITAL LANKENAU
5.83,2.34,40.99225,-75.17466,54312.70,12612.00,POCONO MEDICAL CENTER
5.59,2.18,40.30531,-75.14763,51493.65,10642.74,DOYLESTOWN HOSPITAL
4.54,2.15,41.23235,-80.49626,38942.07,10341.33,SHARON REGIONAL HEALTH SYSTEM
8.97,2.46,39.95825,-75.19909,91855.64,13980.75,PENN PRESBYTERIAN MEDICAL CENTER
10.30,2.57,39.94560,-75.15561,107841.21,15284.88,PENNSYLVANIA HOSP OF THE UNIV OF PA HEALTH SYS
4.85,2.04,40.37782,-80.06589,42607.22,9048.78,ST CLAIR MEMORIAL HOSPITAL
8.87,2.38,40.12077,-75.11818,90642.04,13107.13,ABINGTON MEMORIAL HOSPITAL
5.58,2.12,41.41276,-75.65399,51351.47,9917.47,REGIONAL HOSPITAL OF SCRANTON
4.70,2.79,40.26468,-76.67582,40834.83,17984.08,MILTON S HERSHEY MEDICAL CENTER
6.37,2.21,40.20064,-74.92952,60833.36,10993.06,ST MARY MEDICAL CENTER
7.72,2.31,40.64463,-75.40842,76924.82,12257.00,LEHIGH VALLEY HOSPITAL - MUHLENBERG
4.18,2.08,40.31802,-79.93494,34546.24,9445.95,JEFFERSON REGIONAL MEDICAL CENTER
7.87,2.24,41.25855,-75.81041,78735.39,11422.61,GEISINGER WYOMING VALLEY MEDICAL CENTER
7.84,2.63,41.81254,-71.40760,78321.80,16073.13,RHODE ISLAND HOSPITAL
7.18,2.40,42.00497,-71.49561,70431.36,13265.50,LANDMARK MEDICAL CENTER,  INC
7.76,2.59,41.85172,-71.39826,77395.92,15587.00,MIRIAM HOSPITAL
4.69,2.63,32.78272,-79.94543,40645.76,16049.40,MUSC MEDICAL CENTER
5.00,2.34,34.96733,-81.94021,44382.74,12610.18,SPARTANBURG REGIONAL MEDICAL CENTER
6.57,2.64,34.02839,-81.03539,63216.08,16211.85,PALMETTO HEALTH RICHLAND
5.78,2.38,33.37683,-79.29450,53722.38,13020.56,GEORGETOWN MEMORIAL HOSPITAL
8.43,2.14,34.83965,-82.42147,85428.94,10222.81,ST FRANCIS-DOWNTOWN
5.50,2.06,34.01469,-81.01343,50357.48,9213.48,SISTERS OF CHARITY PROVIDENCE HOSPITALS
8.30,2.29,34.51119,-82.64683,83867.04,11981.02,ANMED HEALTH
7.09,2.29,34.19543,-79.76256,69378.42,12025.58,MCLEOD REGIONAL MEDICAL CENTER-PEE DEE
5.92,2.40,34.81904,-82.41308,55392.56,13320.18,GREENVILLE MEMORIAL HOSPITAL
9.03,2.19,32.97605,-80.07302,92566.38,10767.00,TRIDENT MEDICAL CENTER
8.07,2.11,33.70704,-78.89487,81081.03,9830.00,GRAND STRAND REG MED CENTER
5.97,2.12,32.78211,-79.95018,56056.70,9931.85,ROPER HOSPITAL
8.41,2.15,34.19543,-79.76256,85231.80,10297.00,CAROLINAS HOSPITAL SYSTEM
4.66,2.34,45.46141,-98.47929,40331.16,12631.65,AVERA ST LUKES
4.31,2.22,43.53562,-96.74305,36112.05,11137.45,SANFORD USD MEDICAL CENTER
5.22,2.52,44.05563,-103.22633,47081.41,14780.79,RAPID CITY REGIONAL HOSPITAL
4.28,2.16,43.49092,-96.78037,35740.24,10376.61,AVERA HEART HOSPITAL OF SOUTH DAKOTA LLC
3.70,2.26,35.63906,-88.83207,28888.97,11602.21,JACKSON-MADISON COUNTY GENERAL HOSPITAL
4.49,2.03,35.75588,-83.95808,38282.45,8896.00,BLOUNT MEMORIAL HOSPITAL
5.02,2.16,36.58587,-82.25703,44602.67,10470.33,WELLMONT BRISTOL REGIONAL MEDICAL CENTER
4.97,2.29,35.93985,-83.94326,44010.20,11956.77,UNIVERSITY OF TN MEMORIAL HOSPITAL
4.78,2.11,36.55401,-82.55483,41822.76,9811.89,WELLMONT HOLSTON VALLEY MEDICAL CENTER
4.12,2.10,36.21370,-83.29406,33885.81,9771.00,MORRISTOWN HAMBLEN HOSPITAL ASSOCIATION
4.29,2.16,35.98589,-84.28055,35951.17,10378.17,METHODIST MEDICAL CENTER OF OAK RIDGE
4.83,2.54,36.14316,-86.80048,42352.07,14921.86,VANDERBILT UNIVERSITY HOSPITAL
5.93,2.18,35.12837,-89.86202,55473.13,10638.80,BAPTIST MEMORIAL HOSPITAL
7.81,2.33,35.13640,-90.01928,77976.05,12497.81,METHODIST HEALTHCARE MEMPHIS HOSPITALS
4.16,2.24,36.17121,-85.50938,34315.05,11331.27,COOKEVILLE REGIONAL MEDICAL CENTER
7.72,2.20,36.30767,-82.38497,76982.59,10858.65,JOHNSON CITY MEDICAL CENTER
4.87,2.22,35.60668,-87.06635,42851.75,11087.25,MAURY REGIONAL HOSPITAL
4.64,2.11,36.12859,-86.84559,40053.04,9799.26,ST THOMAS HOSPITAL
4.81,2.07,35.04157,-85.26037,42132.14,9385.13,MEMORIAL HEALTHCARE SYSTEM, INC
4.43,2.35,35.05068,-85.28823,37560.31,12653.25,ERLANGER MEDICAL CENTER
5.38,2.19,35.99233,-83.92697,48948.33,10814.10,TENNOVA HEALTHCARE
4.18,2.11,35.95747,-83.93660,34642.06,9776.25,FORT SANDERS REGIONAL MEDICAL CENTER
7.88,2.28,35.03467,-85.26735,78887.42,11907.45,PARKRIDGE MEDICAL CENTER
7.66,2.43,36.15310,-86.80910,76262.44,13649.19,CENTENNIAL MEDICAL CENTER
4.25,2.08,35.91765,-84.10080,35368.53,9519.31,PARKWEST MEDICAL CENTER
9.05,2.23,35.09925,-89.86301,92844.12,11259.50,ST FRANCIS HOSPITAL
11.62,2.20,35.68445,-88.85461,123552.94,10854.25,REGIONAL HOSPITAL OF JACKSON
6.68,2.20,30.65598,-96.34672,64449.72,10906.44,ST JOSEPH REGIONAL HEALTH CENTER
5.06,3.21,29.31233,-94.77317,45141.73,23017.20,UNIVERSITY OF TEXAS MEDICAL BRANCH GAL
7.15,2.11,30.08729,-94.13292,70064.08,9791.17,CHRISTUS HOSPITAL
6.87,2.15,32.50219,-94.73025,66711.52,10355.90,GOOD SHEPHERD MEDICAL CENTER
9.43,2.14,33.57524,-101.89272,97400.26,10229.87,COVENANT MEDICAL CENTER
6.87,2.22,27.77751,-97.39515,66710.18,11117.41,CHRISTUS SPOHN HOSPITAL CORPUS CHRISTI
5.20,2.58,31.07837,-97.36403,46780.75,15448.79,SCOTT & WHITE MEMORIAL HOSPITAL
8.65,2.13,30.30491,-97.74540,88042.00,10045.32,SETON MEDICAL CENTER AUSTIN
7.57,2.31,29.43360,-98.49265,75157.09,12280.71,BAPTIST MEDICAL CENTER
10.18,2.12,32.33824,-95.29122,106322.63,9975.82,EAST TEXAS MEDICAL CENTER
6.87,2.16,32.34280,-95.29201,66802.53,10449.98,MOTHER FRANCES HOSPITAL
10.41,2.48,26.26353,-98.18455,109119.95,14286.86,SOUTH TEXAS HEALTH SYSTEM
6.33,2.50,31.84507,-102.37373,60294.95,14438.15,MEDICAL CENTER HOSPITAL
4.69,2.31,31.99616,-102.09950,40712.00,12231.58,MIDLAND MEMORIAL HOSPITAL
5.08,2.24,32.73780,-97.33899,45326.99,11387.61,TEXAS HEALTH HARRIS METHODIST FORT WORTH
9.04,2.17,28.80765,-96.99896,92700.67,10505.30,DETAR HOSPITAL NAVARRO
4.77,2.31,29.81230,-95.43010,41689.13,12171.39,MEMORIAL HERMANN HOSPITAL SYSTEM
6.81,2.35,29.70719,-95.40048,66066.32,12736.59,ST LUKES EPISCOPAL HOSPITAL
6.47,2.19,33.42875,-94.04725,61966.86,10835.27,WADLEY REGIONAL MEDICAL CENTER
4.66,2.28,35.19934,-101.92186,40341.81,11904.93,NORTHWEST TEXAS HOSPITAL
11.29,2.12,31.33632,-94.74205,119644.25,9945.19,MEMORIAL HEALTH SYSTEM OF EAST TEXAS- LUFKIN
8.03,2.31,30.28473,-95.46714,80670.19,12272.27,CONROE REGIONAL MEDICAL CENTER
6.84,2.46,32.47171,-99.73315,66425.64,14011.55,HENDRICK MEDICAL CENTER
4.60,2.09,35.19533,-101.91907,39663.57,9630.39,BAPTIST ST ANTHONYS HEALTH SYSTEM-BAPTIST CAMPUS
7.48,2.59,29.42825,-98.49859,74000.79,15582.79,CHRISTUS SANTA ROSA HOSPITAL
6.00,2.13,33.21990,-97.59383,56378.73,10039.18,WISE REGIONAL HEALTH SYSTEM
9.46,2.24,30.58113,-96.29051,97708.09,11369.91,COLLEGE STATION MEDICAL CENTER
5.67,2.27,33.71085,-96.58493,52410.96,11736.84,TEXOMA MEDICAL CENTER
8.83,2.17,31.42009,-100.47013,90187.36,10563.55,SAN ANGELO COMMUNITY MEDICAL CENTER
7.60,2.29,29.71020,-95.39956,75502.50,12027.57,METHODIST HOSPITAL,THE
6.60,2.26,29.50795,-98.57224,63531.07,11676.18,METHODIST HOSPITAL
7.11,2.39,30.28957,-97.72584,69624.16,13231.04,ST DAVIDS MEDICAL CENTER
5.49,2.27,32.88076,-96.76226,50275.14,11769.24,TEXAS HEALTH PRESBYTERIAN HOSPITAL  DALLAS
10.10,2.13,31.32794,-94.75614,105384.83,10032.89,WOODLAND HEIGHTS MEDICAL CENTER
9.10,2.15,32.40574,-99.76486,93493.62,10255.95,ABILENE REGIONAL MEDICAL CENTER
4.88,2.12,31.46574,-100.43466,43007.27,9989.00,SHANNON MEDICAL CENTER
7.56,2.30,32.43227,-97.80315,75006.71,12118.38,LAKE GRANBURY MEDICAL CENTER
7.73,2.25,30.01994,-95.44379,77065.33,11538.40,HOUSTON NORTHWEST MEDICAL CENTER
10.14,2.24,32.91132,-96.77424,105838.14,11440.41,MEDICAL CITY DALLAS HOSPITAL
8.60,2.16,33.02168,-96.76621,87438.75,10436.00,MEDICAL CENTER OF PLANO
5.33,2.17,30.08682,-95.62403,48312.17,10603.54,TOMBALL REGIONAL MEDICAL CENTER
9.41,2.26,32.73563,-97.34483,97184.30,11581.55,PLAZA MEDICAL CENTER OF FORT WORTH
6.31,2.22,30.22723,-97.77447,60090.71,11127.36,ST DAVID'S SOUTH AUSTIN MEDICAL CENTER
7.55,2.34,30.51034,-97.71486,74948.14,12636.38,ROUND ROCK MEDICAL CENTER
7.16,2.19,33.21746,-97.16488,70193.77,10800.38,TEXAS HEALTH PRESBYTERIAN HOSPITAL DENTON
8.77,2.73,27.69288,-97.34476,89499.93,17253.57,CORPUS CHRISTI MEDICAL CENTER,THE
6.86,2.16,33.46323,-94.07490,66601.08,10423.27,CHRISTUS ST MICHAEL HEALTH SYSTEM
9.00,2.27,30.41163,-97.70649,92279.91,11745.91,NORTH AUSTIN MEDICAL CENTER
5.04,2.18,32.78814,-96.78083,44839.95,10617.74,BAYLOR HEART AND VASCULAR HOSPITAL
6.09,2.56,26.25286,-98.20590,57387.20,15263.07,DOCTORS HOSPITAL AT RENAISSANCE
4.69,2.06,33.60310,-101.91587,40648.03,9219.00,LUBBOCK HEART HOSPITAL LP
5.64,2.07,29.49011,-98.54746,52104.73,9318.00,TEXSAN HEART HOSPITAL
3.84,2.18,41.22300,-111.97383,30526.76,10696.65,MCKAY DEE HOSPITAL CENTER
4.24,2.29,40.65922,-111.89189,35307.95,12001.34,INTERMOUNTAIN MEDICAL CENTER
3.84,2.23,37.09986,-113.55271,30571.58,11323.33,DIXIE REGIONAL MEDICAL CENTER
6.03,2.18,40.68610,-111.85735,56689.62,10632.15,ST MARKS HOSPITAL
4.28,2.61,44.47966,-73.19412,35789.20,15842.43,FLETCHER ALLEN HOSPITAL OF VERMONT
4.08,2.24,38.40552,-78.85730,33363.34,11425.34,ROCKINGHAM MEMORIAL HOSPITAL
4.75,2.34,39.19345,-78.19599,41428.74,12599.65,WINCHESTER MEDICAL CENTER INC
5.19,2.34,36.86268,-76.30355,46658.67,12612.62,SENTARA NORFOLK GENERAL HOSPITAL
5.95,2.69,38.02573,-78.51526,55777.13,16826.48,UNIVERSITY OF VIRGINIA MEDICAL CENTER
5.36,2.18,36.89933,-76.28157,48736.75,10664.42,BON SECOURS - DEPAUL MEDICAL CENTER
6.08,2.31,38.09436,-78.98659,57283.68,12189.16,AUGUSTA HEALTH
4.26,2.29,37.41368,-79.16870,35544.71,12005.44,CENTRA  HEALTH, INC
6.62,2.37,38.31158,-77.48061,63715.33,12908.95,MARY WASHINGTON HOSPITAL, INC
5.80,2.33,37.25129,-79.94125,53963.82,12483.27,CARILION ROANOKE MEMORIAL CENTER
6.77,2.83,37.54330,-77.42932,65625.07,18461.22,MEDICAL COLLEGE OF VIRGINIA HOSPITALS
4.70,2.19,39.07405,-77.47754,40769.23,10819.62,INOVA LOUDOUN HOSPITAL
8.19,2.16,37.26336,-80.03166,82520.74,10442.34,LEWISGALE MEDICAL CENTER
4.82,2.32,37.06523,-76.48417,42229.36,12395.84,RIVERSIDE REGIONAL MEDICAL CENTER
5.56,3.03,36.86449,-76.02844,51120.07,20887.29,SENTARA VIRGINIA BEACH GENERAL HOSPITAL
6.97,2.27,37.58440,-77.51252,68016.60,11801.73,BON SECOURS - ST MARYS HOSPITAL OF RICHMOND
4.16,2.41,38.85764,-77.22772,34307.51,13385.27,INOVA FAIRFAX HOSPITAL
5.66,2.09,37.33700,-76.74046,52288.71,9604.21,SENTARA WILLIAMSBURG REGIONAL MEDICAL CENTER
9.19,2.20,37.18253,-77.35957,94510.53,10876.67,SOUTHSIDE REGIONAL MEDICAL CENTER
7.43,2.16,37.62931,-77.38804,73417.68,10377.24,BON SECOURS - MEMORIAL REGIONAL MEDICAL
4.12,2.08,38.02176,-78.44530,33867.09,9432.49,MARTHA JEFFERSON HOSPITAL
5.09,2.11,36.69555,-79.86374,45495.42,9817.67,MEMORIAL HOSPITAL OF MARTINSVILLE & HENRY COUNTY
10.73,2.16,37.51021,-77.59525,112921.57,10383.82,CJW MEDICAL CENTER
8.67,2.19,37.60459,-77.53929,88253.24,10760.72,HENRICO DOCTORS' HOSPITAL
4.34,2.11,36.74610,-76.24609,36493.35,9855.41,CHESAPEAKE REGIONAL MEDICAL CENTER
7.09,2.37,37.46807,-77.66143,69349.57,12967.00,BON SECOURS - ST FRANCIS MEDICAL CENTER
5.16,2.31,48.41789,-122.32370,46348.00,12214.77,SKAGIT VALLEY HOSPITAL
6.67,2.30,48.00091,-122.20600,64389.35,12102.41,PROVIDENCE REGIONAL MEDICAL CENTER EVERETT
7.96,2.38,47.05286,-122.84707,79807.78,13002.07,PROVIDENCE ST PETER HOSPITAL
7.75,2.36,47.60648,-122.31106,77250.77,12850.13,SWEDISH MEDICAL CENTER/CHERRY HILL
3.87,2.30,48.77371,-122.47344,30885.84,12123.91,ST JOSEPH MEDICAL CENTER
7.02,2.26,47.58295,-122.62506,68581.00,11598.73,HARRISON MEDICAL CENTER
5.36,2.35,47.65191,-117.42329,48743.86,12723.00,DEACONESS HOSPITAL
6.18,2.37,45.62460,-122.58145,58565.64,12895.82,PEACEHEALTH SOUTHWEST MEDICAL CENTER
5.01,8.35,47.61943,-122.18605,44499.00,84499.26,OVERLAKE HOSPITAL MEDICAL CENTER
5.72,2.45,47.64936,-117.41194,52972.10,13903.16,PROVIDENCE SACRED HEART MEDICAL CENTER
4.92,2.40,46.28132,-119.28218,43427.36,13305.55,KADLEC REGIONAL MEDICAL CENTER
7.30,2.41,47.44243,-122.21392,71938.86,13458.21,VALLEY MEDICAL CENTER
7.35,2.33,47.24670,-122.44841,72447.41,12463.06,ST JOSEPH MEDICAL CENTER
5.65,2.31,47.71603,-122.17867,52143.77,12238.69,EVERGREEN HOSPITAL MEDICAL CENTER
6.77,2.75,47.25980,-122.45243,65541.57,17525.14,TACOMA GENERAL ALLENMORE HOSPITAL
4.47,2.17,38.43236,-82.40067,38027.15,10607.37,ST MARY'S MEDICAL CENTER
4.92,2.24,38.34739,-81.62600,43488.58,11441.81,CHARLESTON AREA MEDICAL CENTER
4.19,2.08,38.35553,-81.72560,34735.43,9477.14,THOMAS MEMORIAL HOSPITAL
4.10,2.00,39.27800,-81.55171,33674.27,8515.36,ST JOSEPHS HEALTHCARE SYSTEM
3.74,2.16,40.05809,-80.68471,29373.82,10451.09,WHEELING HOSPITAL
4.23,2.09,39.27035,-81.56026,35158.13,9558.07,CAMDEN CLARK MEDICAL CENTER
4.65,2.12,37.78754,-81.20183,40158.42,9956.50,RALEIGH GENERAL HOSPITAL
6.22,2.70,43.01152,-88.24308,59034.00,16879.85,WAUKESHA MEMORIAL HOSPITAL
5.31,2.32,44.79461,-91.51111,48157.90,12343.26,SACRED HEART HSPTL
4.03,2.19,44.96738,-89.66994,32765.13,10833.60,ASPIRUS WAUSAU HOSPITAL
4.95,2.46,44.67759,-90.17818,43792.89,13998.14,MINISTRY SAINT JOSEPH'S HOSPITAL
4.19,2.12,44.50233,-88.01140,34722.14,9944.36,BELLIN MEMORIAL HSPTL
6.85,2.23,42.68685,-89.03244,66551.57,11261.29,MERCY HLTH SYS CORP
5.08,2.12,44.81192,-91.51352,45316.73,9947.81,MAYO CLINIC HEALTH SYSTEM EAU CLAIRE HOSPITAL
5.15,2.98,44.50173,-88.01254,46235.25,20192.08,ST VINCENT HSPTL
4.68,2.30,42.98566,-87.93565,40586.08,12096.25,WHEATON FRANCISCAN HEALTHCARE- ST FRANCIS
4.78,2.37,43.05867,-89.40269,41763.17,12983.40,ST MARY'S HOSPITAL
3.96,2.26,43.79515,-91.24798,31980.37,11608.63,GUNDERSEN LUTH MED CTR
5.99,2.54,43.06432,-89.40100,56187.69,15021.00,MERITER HSPTL
4.64,2.21,44.53265,-88.06664,40091.12,11015.94,ST MARYS HSPTL MED CTR
5.20,2.62,43.07633,-89.43133,46780.50,15890.67,UNIVERSITY OF WI  HOSPITALS & CLINICS AUTHORITY
4.73,2.19,43.16402,-88.13829,41140.40,10788.47,COMMUNITY MEM HSPTL
5.22,2.50,43.07393,-87.97612,47047.00,14520.80,WHEATON FRANCISCAN, INC- ST JOSEPH
7.11,2.36,42.98958,-87.95079,69621.14,12850.16,AURORA ST LUKES MEDICAL CENTER
5.24,2.68,43.04008,-88.02523,47244.50,16675.81,FROEDTERT MEM LUTHERAN HSPTL
4.61,2.59,44.47472,-87.94018,39720.93,15590.00,AURORA BAYCARE MED CTR
3.92,2.22,44.89045,-89.58006,31502.92,11099.00,ST CLARE'S HOSPITAL OF WESTON INC
5.43,2.60,42.84802,-106.30851,49498.63,15681.53,WYOMING MEDICAL CENTER
5.78,2.18,33.01573,-96.79031,53756.00,10620.15,THE HEART HOSPITAL BAYLOR PLANO
5.13,2.09,30.56344,-97.68455,45933.20,9580.00,SCOTT & WHITE HOSPITAL-ROUND ROCK
5.95,2.11,31.21673,-85.36307,55815.12,9887.69,SOUTHEAST ALABAMA MEDICAL CENTER
5.86,2.08,34.80175,-87.67514,54674.29,9444.71,ELIZA COFFEE MEMORIAL HOSPITAL
5.36,2.15,33.59616,-86.66750,48754.64,10341.79,ST VINCENT'S EAST
7.12,2.11,33.25607,-86.81035,69717.70,9854.82,SHELBY BAPTIST MEDICAL CENTER
5.20,2.28,32.32785,-86.27750,46764.70,11901.50,BAPTIST MEDICAL CENTER SOUTH
5.14,2.12,32.36656,-86.28572,46112.95,9960.21,JACKSON HOSPITAL & CLINIC INC
4.04,2.13,32.63806,-85.40413,32961.19,10120.90,EAST ALABAMA MEDICAL CENTER AND SNF
5.81,2.35,33.50619,-86.80210,54038.68,12728.92,UNIVERSITY OF ALABAMA HOSPITAL
4.90,2.16,34.72007,-86.58108,43171.27,10472.32,HUNTSVILLE HOSPITAL
13.45,2.09,34.00941,-85.97078,145513.67,9561.08,GADSDEN REGIONAL MEDICAL CENTER
11.10,2.07,34.00426,-86.00339,117334.24,9388.13,RIVERVIEW REGIONAL MEDICAL CENTER
9.38,2.07,31.23767,-85.45625,96811.08,9326.46,FLOWERS HOSPITAL
3.81,2.05,33.50734,-86.78958,30170.05,9056.22,ST VINCENT'S BIRMINGHAM
4.74,2.05,30.68199,-88.19897,41316.47,9156.71,PROVIDENCE HOSPITAL
4.56,2.17,33.20521,-87.52546,39180.41,10549.64,D C H REGIONAL MEDICAL CENTER
4.83,2.01,30.51916,-87.88842,42373.71,8649.53,THOMAS HOSPITAL
8.12,2.17,33.49854,-86.84633,81675.10,10548.13,BAPTIST MEDICAL CENTER-PRINCETON
7.39,2.13,33.51420,-86.74859,72954.00,10027.98,TRINITY MEDICAL CENTER
4.54,2.12,30.69697,-88.08081,38903.79,9985.88,MOBILE INFIRMARY
6.69,2.32,32.43020,-87.05515,64567.89,12284.74,VAUGHAN REG MED CENTER PARKWAY CAMPUS
8.99,2.04,33.46420,-86.77409,92171.29,9040.00,BROOKWOOD MEDICAL CENTER
7.72,2.56,33.46514,-112.05797,76924.81,15181.50,BANNER GOOD SAMARITAN MEDICAL CENTER
5.51,2.30,32.25294,-110.88135,50446.07,12088.07,TUCSON MEDICAL CENTER
7.83,2.62,34.73471,-112.03149,78192.55,15901.00,VERDE VALLEY MEDICAL CENTER
5.74,2.23,32.22734,-111.00065,53300.00,11221.09,CARONDELET ST  MARYS HOSPITAL
5.78,2.16,32.22685,-110.85520,53719.23,10444.31,CARONDELET ST JOSEPHS HOSPITAL
7.13,2.63,34.56017,-112.48217,69830.08,16007.31,YAVAPAI REGIONAL MEDICAL CENTER
6.44,2.31,32.68274,-114.63506,61594.29,12191.43,YUMA REGIONAL MEDICAL CENTER
6.42,2.39,33.52511,-112.10189,61338.57,13169.43,PHOENIX BAPTIST HOSPITAL
7.57,2.26,33.29750,-111.87461,75109.96,11567.00,CHANDLER REGIONAL MEDICAL CENTER
7.26,2.15,33.60432,-112.28378,71456.20,10275.40,BANNER BOSWELL MEDICAL CENTER
5.76,2.35,33.39097,-111.87638,53545.90,12685.83,BANNER DESERT MEDICAL CENTER
7.65,2.17,32.32103,-111.01102,76125.25,10519.81,NORTHWEST MEDICAL CENTER
5.77,2.54,33.60949,-112.18129,53554.07,14966.14,BANNER THUNDERBIRD MEDICAL CENTER
6.94,2.17,33.65965,-112.37283,67643.37,10565.58,BANNER DEL E WEBB MEDICAL CENTER
5.23,2.10,32.29456,-110.97041,47103.57,9681.00,CARONDELET HEART AND VASCULAR INSTITUTE
6.20,2.72,33.65947,-111.95626,58695.55,17097.15,MAYO CLINIC HOSPITAL
7.47,2.20,33.41128,-111.68579,73932.56,10892.58,BANNER HEART HOSPITAL
6.99,2.10,32.42929,-110.94843,68158.23,9692.92,ORO VALLEY HOSPITAL
9.69,2.91,33.39128,-111.61125,100479.18,19395.18,MOUNTAIN VISTA MEDICAL CENTER, LP
4.44,2.13,36.10940,-94.16036,37700.26,10077.77,WASHINGTON REGIONAL MED CTR AT NORTH HILLS
5.81,2.17,34.75031,-92.33897,54106.10,10521.29,ST VINCENT INFIRMARY MEDICAL CENTER
4.83,2.14,36.31007,-94.18471,42368.85,10233.85,MERCY MEDICAL CENTER
5.18,2.29,35.25046,-91.70056,46535.43,11943.86,WHITE COUNTY MEDICAL CENTER
3.92,2.44,34.74866,-92.35422,31439.92,13738.50,UAMS MEDICAL CENTER
