size_charge,size_pay,lat,lon,charge,pay,Air,BloodInf,UrinaryInf,Falls,Mismatch,Objects,Sores,Sugar,name
15.01,2.51,36.18082,-94.13644,108523.55,12471.28,0.0,0.327,0.245,0.818,0.0,0.0,0.164,0.0,NW ARKANSAS HOSPITALS LLC
6.58,2.22,34.46784,-93.06667,43721.56,10200.56,0.0,0.343,0.942,0.171,0.0,0.0,0.171,0.0,ST JOSEPHS MERCY HEALTH CENTER INC
5.83,2.12,36.34295,-92.39442,37968.45,9463.32,0.0,0.0,0.484,0.194,0.0,0.097,0.194,0.0,BAXTER REGIONAL MEDICAL CENTER
5.23,2.17,35.08546,-92.45774,33319.92,9791.23,0.0,0.62,1.24,0.155,0.0,0.0,0.0,0.0,CONWAY REGIONAL MEDICAL CENTER
6.92,2.28,35.37445,-94.41868,46365.93,10639.50,0.0,0.277,1.248,0.486,0.0,0.0,0.139,0.069,SPARKS REGIONAL MEDICAL CENTER
7.03,2.12,35.35395,-94.35262,47165.27,9451.55,0.0,0.604,0.302,0.906,0.0,0.0,0.101,0.0,ST EDWARD MERCY MEDICAL CENTER
13.29,2.30,34.48600,-93.03521,95353.86,10849.90,0.0,0.423,0.846,0.423,0.212,0.0,0.212,0.0,NATIONAL PARK MEDICAL CENTER
6.57,2.22,34.74866,-92.35422,43620.15,10202.52,0.0,0.656,0.656,0.231,0.0,0.039,0.347,0.077,BAPTIST HEALTH MEDICAL CENTER-LITTLE ROCK
6.51,2.37,35.76927,-91.63408,43181.32,11334.17,0.0,0.87,0.497,0.249,0.0,0.0,0.373,0.0,WHITE RIVER MEDICAL CENTER
5.58,2.11,34.73868,-92.39307,36024.39,9393.08,0.0,0.101,0.101,0.101,0.0,0.0,0.0,0.0,ARKANSAS HEART HOSPITAL
9.12,2.73,40.78366,-124.14246,63224.67,14163.00,0.0,0.179,0.716,0.0,0.0,0.179,0.179,0.0,ST JOSEPH HOSPITAL
14.01,2.67,37.59283,-122.38249,100832.85,13689.00,0.0,0.495,0.619,1.114,0.0,0.0,0.0,0.0,PENINSULA MEDICAL CENTER
13.23,3.21,38.57053,-121.45216,94883.26,17824.94,0.0,0.499,0.666,0.416,0.0,0.0,0.166,0.083,MERCY GENERAL HOSPITAL
11.02,2.77,33.97659,-117.38184,77872.92,14414.00,0.0,0.54,0.432,0.324,0.0,0.0,0.0,0.216,RIVERSIDE COMMUNITY HOSPITAL
6.82,3.28,32.75426,-117.16592,45564.64,18324.25,0.0,0.475,0.158,0.079,0.0,0.238,0.0,0.0,UNIVERSITY OF CALIFORNIA SAN DIEGO MEDICAL CENTER
18.09,2.59,32.77495,-117.01467,132234.64,13075.09,0.0,0.131,0.327,0.523,0.0,0.065,0.0,0.0,GROSSMONT HOSPITAL
13.39,2.66,35.38736,-119.01690,96088.00,13614.41,0.0,0.381,0.507,0.0,0.0,0.0,0.0,0.0,BAKERSFIELD MEMORIAL HOSPITAL
15.29,2.49,39.74221,-121.85000,110690.33,12245.27,0.0,0.144,0.433,0.0,0.0,0.072,0.072,0.0,ENLOE MEDICAL CENTER
14.74,3.22,37.82206,-122.26275,106505.05,17878.05,0.0,0.897,0.489,0.489,0.0,0.0,0.163,0.0,ALTA BATES SUMMIT MEDICAL CENTER
17.26,3.22,37.79100,-122.43125,125851.21,17919.32,0.0,0.689,0.536,0.842,0.0,0.0,0.153,0.0,CALIFORNIA PACIFIC MEDICAL CTR-PACIFIC CAMPUS HOSP
10.48,3.17,36.73000,-119.78000,73731.84,17530.36,0.0,0.42,0.18,0.12,0.0,0.0,0.48,0.0,COMMUNITY REGIONAL MEDICAL CENTER
11.82,2.89,32.75143,-117.16083,84047.80,15333.84,0.052,0.105,0.472,0.21,0.0,0.0,0.052,0.0,SCRIPPS MERCY HOSPITAL
15.31,3.09,37.95337,-122.33672,110891.27,16889.73,0.0,0.0,0.203,1.829,0.0,0.0,0.406,0.203,DOCTORS MEDICAL CENTER-SAN PABLO
11.12,2.92,34.21674,-119.15631,78604.26,15575.51,0.0,0.601,0.601,0.241,0.0,0.12,0.0,0.0,ST JOHNS REGIONAL MEDICAL CENTER
14.69,2.85,37.96987,-121.28873,106064.45,15080.10,0.0,0.222,0.296,0.518,0.0,0.148,0.0,0.0,ST JOSEPHS MED CENTER OF STOCKTON
9.73,2.57,36.83532,-119.76562,67964.07,12885.97,0.0,0.275,0.826,0.138,0.0,0.0,0.184,0.0,SAINT AGNES MEDICAL CENTER
10.40,2.61,34.10130,-117.63651,73068.50,13223.36,0.0,0.539,0.673,0.135,0.0,0.0,0.135,0.0,SAN ANTONIO COMMUNITY HOSPITAL
9.98,2.90,38.57155,-121.46874,69881.54,15449.85,0.0,0.129,0.579,0.643,0.0,0.0,0.0,0.0,SUTTER GENERAL HOSPITAL
10.60,2.52,33.12535,-117.07336,74611.71,12552.00,0.0,0.56,0.56,0.224,0.0,0.0,0.224,0.112,PALOMAR MEDICAL CENTER
9.68,2.78,34.13495,-117.27603,67603.67,14517.18,0.0,0.42,0.42,0.0,0.0,0.14,0.14,0.0,ST BERNARDINE MEDICAL CENTER
11.30,3.08,36.57886,-121.91316,80042.75,16838.50,0.0,0.488,0.781,0.098,0.0,0.098,0.098,0.0,COMMUNITY HOSPITAL OF THE MONTEREY PENINSULA
12.02,2.89,38.44369,-122.70138,85563.37,15351.05,0.0,0.0,0.389,0.389,0.0,0.0,0.0,0.0,SANTA ROSA MEMORIAL HOSPITAL
16.58,2.73,32.61972,-117.02278,120613.42,14137.25,0.0,0.355,1.421,0.355,0.0,0.0,0.0,0.0,SHARP CHULA VISTA MEDICAL CENTER
20.92,3.04,34.07709,-117.75063,154012.33,16521.50,0.0,0.211,0.211,0.106,0.0,0.106,0.0,0.0,POMONA VALLEY HOSPITAL MEDICAL CENTER
14.69,2.44,35.27882,-120.65047,106122.55,11906.60,0.0,0.0,0.467,0.467,0.0,0.0,0.0,0.0,FRENCH HOSPITAL MEDICAL CENTER
16.78,2.64,34.15601,-118.32834,122176.63,13431.00,0.0,0.58,0.248,0.166,0.0,0.0,0.0,0.0,PROVIDENCE SAINT JOSEPH MEDICAL CTR
9.73,2.66,34.13973,-118.03534,67988.70,13596.09,0.0,0.262,1.397,0.175,0.0,0.087,0.087,0.087,METHODIST HOSPITAL OF SOUTHERN CA
14.09,3.09,34.14987,-118.23117,101503.84,16911.21,0.0,0.23,1.075,0.0,0.0,0.0,0.154,0.0,GLENDALE ADVENTIST MEDICAL CENTER
13.46,3.10,36.98999,-121.98357,96642.00,16950.93,0.0,0.241,0.723,0.844,0.0,0.0,0.121,0.0,DOMINICAN HOSPITAL
11.91,2.80,40.58654,-122.39168,84732.00,14658.00,0.0,0.238,0.713,0.079,0.0,0.0,0.079,0.0,MERCY MEDICAL CENTER REDDING
12.21,2.45,34.03009,-118.47833,87009.05,11965.30,0.0,0.165,0.248,0.0,0.0,0.0,0.165,0.0,SAINT JOHN'S HEALTH CENTER
11.64,2.81,34.50107,-117.17285,82634.78,14711.35,0.0,0.245,0.368,0.0,0.0,0.0,0.0,0.0,ST MARY MEDICAL CENTER
10.38,2.95,38.76514,-121.24979,72964.00,15800.38,0.0,0.208,0.415,0.83,0.0,0.0,0.0,0.0,SUTTER ROSEVILLE MEDICAL CENTER
10.15,3.31,34.05076,-117.26395,71177.28,18561.83,0.0,1.539,0.513,0.366,0.0,0.0,0.147,0.147,LOMA LINDA UNIVERSITY MEDICAL CENTER
15.92,3.38,33.78798,-117.89026,115508.07,19110.79,0.0,0.652,0.261,0.522,0.0,0.0,0.13,0.391,UNIVERSITY OF CALIFORNIA IRVINE MED CENTER
17.27,3.10,37.94748,-122.53677,125908.43,17000.39,0.0,0.759,0.379,0.379,0.0,0.126,0.0,0.0,MARIN GENERAL HOSPITAL
14.68,2.53,34.27459,-119.25812,105991.65,12615.43,0.0,0.114,0.114,0.114,0.0,0.114,0.341,0.114,COMMUNITY MEMORIAL HOSPITAL SAN BUENAVENTURA
8.60,2.59,34.42951,-119.72333,59295.75,13034.94,0.0,0.0,0.239,0.159,0.0,0.0,0.08,0.08,SANTA BARBARA COTTAGE HOSPITAL
12.86,2.59,32.89810,-117.24217,91994.34,13063.58,0.0,0.528,0.352,0.616,0.0,0.0,0.0,0.0,SCRIPPS GREEN HOSPITAL
10.96,2.66,34.13364,-118.15275,77391.59,13627.93,0.0,0.171,0.514,0.171,0.0,0.0,0.057,0.057,HUNTINGTON MEMORIAL HOSPITAL
16.71,3.69,37.43436,-122.18013,121638.31,21495.31,0.0,0.28,0.449,0.337,0.0,0.0,0.112,0.112,STANFORD HOSPITAL
15.67,3.86,37.76421,-122.45716,113599.20,22852.40,0.0,0.738,0.492,0.492,0.0,0.123,0.123,0.0,UCSF MEDICAL CENTER
8.64,2.68,35.38338,-119.01969,59583.61,13730.83,0.0,0.606,0.242,0.0,0.0,0.0,0.0,0.0,SAN JOAQUIN COMMUNITY HOSPITAL
30.00,2.91,37.66540,-120.99743,223805.29,15502.36,0.0,0.232,0.928,0.464,0.0,0.0,0.116,0.0,DOCTORS MEDICAL CENTER
14.79,3.08,34.20285,-118.62962,106846.71,16827.05,0.0,0.0,0.581,0.726,0.0,0.145,0.29,0.0,WEST HILLS HOSPITAL & MEDICAL CENTER
21.47,2.81,37.98396,-122.03464,158207.35,14773.00,0.0,0.512,0.256,0.64,0.0,0.0,0.0,0.0,JOHN MUIR MEDICAL CENTER - CONCORD CAMPUS
17.45,2.89,38.66956,-121.31378,127292.31,15396.38,0.0,0.085,0.34,0.17,0.0,0.0,0.17,0.085,MERCY SAN JUAN MEDICAL CENTER
14.89,2.75,34.20777,-118.88305,107600.04,14318.62,0.0,0.543,0.633,0.543,0.0,0.181,0.0,0.09,LOS ROBLES HOSPITAL & MEDICAL CENTER
17.07,2.40,33.80441,-118.06665,124411.18,11572.55,0.0,0.563,0.563,1.314,0.0,0.188,0.188,0.0,LOS ALAMITOS MEDICAL CENTER
17.49,3.01,37.66867,-120.97339,127607.00,16316.00,0.0,0.667,0.167,0.25,0.0,0.0,0.0,0.0,MEMORIAL  MEDICAL CENTER
13.35,2.51,33.56100,-117.66530,95816.03,12463.41,0.0,0.311,0.466,0.233,0.0,0.078,0.233,0.0,MISSION HOSPITAL REGIONAL MED CENTER
14.63,3.03,33.71466,-117.93322,105617.73,16433.00,0.0,0.882,0.196,0.0,0.0,0.0,0.0,0.0,FOUNTAIN VALLEY REGIONAL HOSPITAL & MEDICAL CENTER
14.94,2.46,33.76335,-116.40628,107991.80,12070.33,0.0,0.344,0.589,0.393,0.0,0.049,0.0,0.049,EISENHOWER MEDICAL CENTER
11.07,2.46,33.60883,-117.70881,78262.21,12026.74,0.0,0.0,0.267,0.534,0.0,0.0,0.067,0.067,SADDLEBACK MEMORIAL MEDICAL CENTER
24.15,3.64,34.07664,-118.37955,178794.12,21104.06,0.0,0.348,0.294,0.268,0.0,0.107,0.241,0.0,CEDARS-SINAI MEDICAL CENTER
9.68,2.42,35.38506,-119.03992,67560.09,11711.38,0.0,0.0,0.213,0.0,0.0,0.0,0.0,0.0,BAKERSFIELD HEART HOSPITAL
6.78,2.42,36.85992,-119.78858,45251.28,11709.31,0.0,0.402,0.402,0.402,0.0,0.805,0.0,0.0,FRESNO HEART AND SURGICAL HOSPITAL
11.73,2.55,32.77629,-117.05730,83350.11,12750.78,0.0,0.667,0.133,0.0,0.0,0.0,0.133,0.0,ALVARADO HOSPITAL MEDICAL CENTER
15.90,2.53,34.17067,-118.53200,115396.38,12554.62,0.0,1.031,0.344,0.258,0.0,0.0,0.172,0.086,PROVIDENCE TARZANA MEDICAL CENTER
9.38,2.41,40.41481,-104.70890,65229.44,11683.00,0.0,0.0,0.603,0.345,0.0,0.0,0.172,0.0,NORTH COLORADO MEDICAL CENTER
5.32,2.34,38.48040,-107.86857,34072.92,11095.00,0.0,0.0,0.8,0.4,0.0,0.0,0.0,0.0,MONTROSE MEMORIAL HOSPITAL
11.84,2.44,39.76893,-105.09006,84172.50,11878.50,0.109,0.437,0.219,0.328,0.0,0.109,0.0,0.109,EXEMPLA LUTHERAN MEDICAL CENTER
8.89,2.27,40.57315,-105.05741,61494.42,10620.83,0.0,0.181,0.543,0.362,0.0,0.0,0.0,0.091,POUDRE VALLEY HOSPITAL
12.44,2.34,39.71712,-105.12874,88783.15,11110.15,0.0,0.256,0.384,0.639,0.0,0.0,0.0,0.128,CENTURA HEALTH-ST ANTHONY HOSPITAL
6.83,2.47,38.83903,-104.80024,45629.35,12159.39,0.0,0.363,0.544,0.06,0.0,0.0,0.0,0.181,MEMORIAL HOSPITAL CENTRAL
6.81,2.47,39.09046,-108.56190,45493.55,12106.20,0.0,0.976,0.759,1.193,0.0,0.0,0.217,0.108,ST MARYS HOSPITAL AND MEDICAL CENTER
7.98,2.73,40.41320,-105.05139,54515.75,14151.50,0.0,0.0,0.0,0.252,0.0,0.0,0.0,0.0,MCKEE MEDICAL CENTER
8.50,2.23,38.86559,-104.82182,58520.84,10300.64,0.0,0.655,0.298,0.119,0.0,0.0,0.238,0.0,CENTURA HEALTH-PENROSE ST FRANCIS HEALTH SERVICES
12.83,2.32,39.65399,-104.98116,91767.58,10987.32,0.0,1.376,0.994,0.688,0.0,0.076,0.0,0.306,SWEDISH MEDICAL CENTER
10.11,2.34,39.68859,-104.83205,70878.25,11134.83,0.0,0.92,1.022,0.409,0.0,0.0,0.102,0.0,MEDICAL CENTER OF AURORA THE
8.17,2.59,40.45184,-105.19608,55973.18,13041.26,0.0,0.342,0.342,0.513,0.0,0.0,0.0,0.0,MEDICAL CENTER OF THE ROCKIES
5.65,2.78,41.30978,-72.93806,36546.58,14517.18,0.0,0.344,0.516,0.602,0.0,0.0,0.086,0.043,HOSPITAL OF ST RAPHAEL
6.00,2.79,41.77507,-72.69941,39274.41,14620.75,0.0,0.714,0.672,0.462,0.0,0.0,0.126,0.084,ST FRANCIS HOSPITAL & MEDICAL CENTER
11.54,2.70,41.55959,-73.05941,81887.52,13916.04,0.0,0.629,0.45,0.09,0.0,0.09,0.09,0.0,WATERBURY HOSPITAL
12.00,2.79,41.05562,-73.55390,85366.25,14577.50,0.0,1.067,0.534,0.32,0.0,0.0,0.854,0.107,STAMFORD HOSPITAL
7.21,2.50,41.33722,-72.10380,48569.36,12395.09,0.0,0.401,0.321,0.08,0.0,0.08,0.0,0.0,LAWRENCE & MEMORIAL HOSPITAL
9.94,3.03,41.18881,-73.16645,69574.00,16455.54,0.0,0.711,0.622,0.622,0.0,0.0,0.622,0.089,BRIDGEPORT HOSPITAL
6.64,2.79,41.55241,-73.03554,44170.36,14620.14,0.0,0.294,0.783,0.098,0.0,0.098,0.196,0.0,SAINT MARYS HOSPITAL
8.55,3.24,41.30400,-72.93502,58907.90,18026.70,0.0,0.865,0.587,0.68,0.0,0.124,0.062,0.34,YALE-NEW HAVEN HOSPITAL
6.19,2.92,41.75412,-72.67927,40770.38,15603.93,0.0,0.402,0.511,0.548,0.0,0.073,0.073,0.11,HARTFORD HOSPITAL
6.48,2.67,41.20049,-73.20281,42934.60,13686.57,0.0,0.375,0.25,0.437,0.0,0.0,0.0,0.0,ST VINCENT'S MEDICAL CENTER
6.72,2.72,41.40474,-73.44739,44772.92,14067.68,0.0,0.0,0.517,0.46,0.0,0.0,0.057,0.23,DANBURY HOSPITAL
7.41,2.86,39.69005,-75.68408,50125.10,15119.00,0.0,0.513,0.424,0.379,0.0,0.0,0.067,0.089,CHRISTIANA CARE HEALTH SERVICES INC.
7.97,2.51,39.74954,-75.56662,54385.40,12459.80,0.0,0.364,0.91,0.0,0.0,0.0,0.0,0.0,ST FRANCIS HOSPITAL
6.52,2.51,39.15135,-75.52309,43245.83,12462.79,0.0,0.258,0.773,0.193,0.0,0.0,0.064,0.129,BAYHEALTH - KENT GENERAL HOSPITAL
6.61,2.28,38.77159,-75.14210,43980.18,10704.36,0.0,0.0,0.098,0.195,0.0,0.0,0.0,0.0,BEEBE MEDICAL CENTER
9.08,2.93,38.90106,-77.05079,62966.79,15695.79,0.0,0.445,1.112,0.778,0.0,0.445,0.0,0.111,GEORGE WASHINGTON UNIV HOSPITAL
8.53,2.81,38.92944,-77.01473,58750.88,14775.99,0.0,0.761,0.217,0.362,0.0,0.0,0.145,0.109,WASHINGTON HOSPITAL CENTER
8.29,2.78,30.34913,-81.66391,56886.23,14525.46,0.0,0.31,0.31,0.186,0.0,0.0,0.124,0.186,SHANDS JACKSONVILLE MEDICAL CENTER
11.22,2.41,26.50479,-80.06979,79414.81,11637.06,0.0,0.508,0.799,0.29,0.0,0.073,0.29,0.0,BETHESDA MEMORIAL HOSPITAL
9.39,2.46,28.52517,-81.37729,65368.69,12085.67,0.0,0.826,0.486,0.219,0.0,0.049,0.097,0.024,ORLANDO HEALTH
8.79,2.42,28.57345,-81.36990,60761.37,11751.92,0.0,0.317,0.317,0.136,0.0,0.0,0.011,0.023,FLORIDA HOSPITAL
14.97,2.65,25.68309,-80.34038,108253.32,13521.73,0.0,0.316,0.443,0.19,0.0,0.0,0.19,0.063,BAPTIST HOSPITAL OF MIAMI INC
16.56,2.71,25.78846,-80.21644,120459.30,13958.40,0.0,0.929,0.547,0.109,0.0,0.0,1.093,0.055,UNIVERSITY OF MIAMI HOSPITAL
6.90,2.32,26.62849,-81.87423,46160.80,11007.76,0.0,0.511,0.746,1.021,0.0,0.0,0.157,0.039,LEE MEMORIAL HOSPITAL
5.63,2.54,29.20117,-81.05828,36464.12,12702.28,0.0,0.425,0.729,0.121,0.0,0.0,0.0,0.0,HALIFAX HEALTH MEDICAL CENTER
8.61,2.22,26.15053,-81.79919,59339.78,10231.61,0.0,0.303,0.539,0.101,0.0,0.0,0.135,0.034,NAPLES COMMUNITY HOSPITAL
8.70,2.19,28.08771,-80.61362,59999.07,9998.43,0.0,0.475,0.647,0.216,0.0,0.043,0.043,0.0,HOLMES REGIONAL MEDICAL CENTER
10.37,3.43,25.79143,-80.21250,72843.25,19513.75,0.047,0.837,0.186,0.186,0.0,0.047,0.326,0.0,JACKSON MEMORIAL HOSPITAL
9.60,2.10,28.83363,-82.33561,66986.08,9321.00,0.0,0.415,0.415,2.24,0.0,0.0,0.249,0.083,CITRUS MEMORIAL HOSPITAL
7.22,2.34,30.47650,-87.21219,48632.56,11150.19,0.058,0.231,0.231,0.81,0.0,0.173,0.058,0.116,SACRED HEART HOSPITAL
8.01,2.19,30.15963,-85.64818,54708.72,10000.92,0.0,0.3,0.72,0.0,0.0,0.06,0.0,0.0,BAY MEDICAL CENTER
13.80,2.62,25.86166,-80.21398,99275.41,13300.77,0.0,0.15,0.225,0.0,0.0,0.0,0.075,0.0,NORTH SHORE MEDICAL CENTER
10.09,2.32,28.54917,-81.52746,70706.33,10943.92,0.0,0.307,0.461,0.154,0.0,0.0,0.0,0.154,HEALTH CENTRAL
12.27,2.66,25.81317,-80.13996,87473.47,13615.35,0.0,0.313,0.813,0.313,0.0,0.063,0.125,0.063,MOUNT SINAI MEDICAL CENTER
9.71,2.38,27.49789,-82.56220,67797.70,11424.88,0.0,0.271,0.542,0.542,0.0,0.09,0.181,0.0,MANATEE MEMORIAL HOSPITAL
8.79,2.71,26.01867,-80.17981,60746.54,13953.54,0.0,0.273,0.436,0.164,0.0,0.0,0.055,0.109,MEMORIAL REGIONAL HOSPITAL
7.62,2.21,30.30835,-81.68919,51761.47,10097.59,0.0,0.139,0.173,0.104,0.0,0.0,0.069,0.035,ST VINCENT'S MEDICAL CENTER
12.66,2.37,27.19837,-80.24306,90492.48,11359.45,0.0,0.448,0.384,0.128,0.0,0.064,0.0,0.0,MARTIN MEMORIAL MEDICAL CENTER
11.46,2.15,28.26092,-82.18802,81237.29,9697.00,0.0,0.131,0.262,0.262,0.0,0.131,0.262,0.0,FLORIDA HOSPITAL ZEPHYRHILLS
8.18,2.13,26.94042,-82.04094,56066.29,9518.80,0.0,0.199,0.099,0.397,0.0,0.0,0.0,0.099,CHARLOTTE REGIONAL MEDICAL CENTER
9.55,2.27,28.02768,-81.72466,66532.50,10624.89,0.0,0.4,0.799,0.32,0.0,0.0,0.719,0.0,WINTER HAVEN HOSPITAL
10.29,2.24,28.82358,-81.71133,72275.91,10361.97,0.0,0.137,0.825,0.069,0.0,0.0,0.069,0.0,FLORIDA HOSPITAL WATERMAN
9.28,2.18,29.17594,-82.13898,64512.43,9921.96,0.0,0.135,0.628,0.359,0.0,0.0,0.09,0.135,MUNROE REGIONAL MEDICAL CENTER
7.21,2.16,29.24333,-81.10760,48588.00,9755.16,0.0,0.378,0.472,0.189,0.0,0.094,0.0,0.0,FLORIDA HOSPITAL MEMORIAL MEDICAL CENTER
9.34,2.14,27.09043,-82.44499,64920.83,9595.83,0.0,0.41,0.614,0.205,0.0,0.0,0.0,0.0,VENICE REGIONAL MEDICAL CENTER
18.38,2.48,28.53906,-82.44193,134458.58,12235.74,0.0,0.525,0.393,0.0,0.0,0.0,0.262,0.0,BROOKSVILLE REGIONAL HOSPITAL
13.76,2.25,26.18711,-80.11941,98974.91,10399.47,0.0,0.328,0.46,1.182,0.0,0.0,0.131,0.066,HOLY CROSS HOSPITAL INC
12.14,2.67,27.98242,-82.49025,86500.55,13648.14,0.0,0.48,0.384,0.144,0.0,0.0,0.096,0.192,ST JOSEPH'S HOSPITAL
14.41,2.36,26.59805,-80.09271,103965.43,11268.05,0.0,0.454,0.578,0.165,0.0,0.041,0.041,0.0,JFK MEDICAL CENTER
7.24,2.17,28.80659,-81.86906,48840.00,9828.04,0.0,0.322,0.643,0.214,0.0,0.054,0.0,0.0,LEESBURG REGIONAL MEDICAL CENTER
7.77,2.22,27.31827,-82.53140,52888.04,10197.46,0.045,0.27,0.36,1.622,0.0,0.045,0.045,0.09,SARASOTA MEMORIAL HOSPITAL
8.64,2.36,30.31525,-81.66398,59543.91,11279.30,0.0,0.377,0.519,1.131,0.0,0.047,0.047,0.047,BAPTIST MEDICAL CENTER
8.14,2.37,29.86371,-81.31749,55734.88,11337.00,0.0,0.591,0.739,0.074,0.0,0.0,0.0,0.0,FLAGLER HOSPITAL
8.21,2.22,30.43066,-87.23191,56286.32,10204.80,0.0,0.201,0.502,0.1,0.0,0.0,0.1,0.0,BAPTIST HOSPITAL
5.71,2.56,27.65832,-80.39307,37013.56,12858.94,0.0,0.068,0.204,0.136,0.0,0.068,0.0,0.0,INDIAN RIVER MEDICAL CENTER
9.09,2.29,27.50001,-81.43962,63009.36,10723.11,0.0,0.568,0.812,0.487,0.0,0.081,0.0,0.0,FLORIDA HOSPITAL HEARTLAND MEDICAL CENTER
14.55,2.35,28.29946,-81.41021,104992.27,11190.00,0.0,1.196,0.498,0.299,0.0,0.1,0.0,0.0,OSCEOLA REGIONAL MEDICAL CENTER
8.28,2.96,29.64155,-82.34844,56789.29,15928.95,0.0,0.99,0.344,0.689,0.0,0.0,0.172,0.172,SHANDS HOSPITAL AT THE UNIVERSITY OF FLORIDA
8.75,2.20,27.95192,-82.80379,60424.56,10039.94,0.052,0.209,0.731,0.992,0.0,0.0,0.0,0.0,MORTON PLANT HOSPITAL
14.07,2.66,27.93740,-82.45927,101352.67,13588.13,0.0,0.722,0.587,0.045,0.0,0.0,0.0,0.181,TAMPA GENERAL HOSPITAL
17.19,2.74,25.96994,-80.14533,125319.14,14218.71,0.0,0.351,0.984,0.141,0.0,0.0,0.351,0.0,AVENTURA HOSPITAL AND MEDICAL CENTER
10.08,2.33,30.45726,-84.26175,70652.55,11085.75,0.0,0.228,0.609,1.37,0.0,0.0,0.076,0.076,TALLAHASSEE MEMORIAL HEALTHCARE
7.08,2.48,30.26389,-81.44283,47598.75,12178.40,0.0,0.504,0.144,0.216,0.0,0.0,0.072,0.144,MAYO CLINIC
8.34,2.25,28.06172,-81.95304,57268.63,10456.70,0.0,1.08,0.68,0.52,0.0,0.0,0.12,0.04,LAKELAND REGIONAL MEDICAL CENTER
10.16,2.29,28.81611,-81.28351,71240.34,10716.62,0.141,1.129,0.282,0.423,0.0,0.0,0.141,0.0,CENTRAL FLORIDA REGIONAL HOSPITAL
10.81,2.24,26.35875,-80.10203,76263.92,10380.98,0.0,0.324,0.486,0.648,0.0,0.054,0.324,0.108,BOCA RATON REGIONAL HOSPITAL
10.97,2.19,28.07111,-82.42342,77474.64,9960.00,0.0,0.307,0.461,0.307,0.0,0.077,0.0,0.0,FLORIDA HOSPITAL TAMPA
12.72,2.29,26.83035,-80.08655,90976.28,10771.71,0.0,0.494,0.494,0.593,0.0,0.0,0.099,0.099,PALM BEACH GARDENS MEDICAL CENTER
13.59,2.23,30.28793,-81.60103,97614.79,10263.93,0.0,0.449,0.337,0.281,0.0,0.112,0.449,0.056,MEMORIAL HOSPITAL JACKSONVILLE
10.75,2.78,25.88563,-80.32635,75772.83,14534.00,0.0,0.477,0.341,0.0,0.0,0.0,0.136,0.0,PALMETTO GENERAL HOSPITAL
13.09,2.30,26.26259,-80.20292,93761.03,10827.03,0.0,0.203,0.507,0.101,0.0,0.101,0.101,0.101,NORTHWEST MEDICAL CENTER
16.75,2.24,28.19342,-82.46987,121891.31,10349.85,0.0,0.312,0.623,0.208,0.0,0.0,0.0,0.0,MEDICAL CENTER OF TRINITY
13.27,2.21,29.66085,-82.41172,95178.61,10114.97,0.0,0.656,0.615,0.983,0.0,0.082,0.164,0.0,NORTH FLORIDA REGIONAL MEDICAL CENTER
13.37,2.13,29.17550,-82.13680,95909.35,9524.00,0.0,0.338,0.745,0.474,0.0,0.0,0.203,0.135,OCALA REGIONAL MEDICAL CENTER
8.98,2.18,27.48213,-82.62126,62158.57,9921.22,0.0,0.073,1.028,0.0,0.0,0.0,0.22,0.0,BLAKE MEDICAL CENTER
6.85,2.25,26.52735,-81.83337,45840.81,10416.75,0.0,0.418,0.731,0.209,0.0,0.0,0.052,0.052,GULF COAST MEDICAL CENTER LEE MEM HEALTH SYSTEM
14.79,2.21,30.16550,-81.73775,106874.33,10117.29,0.0,0.578,0.413,0.165,0.0,0.0,0.0,0.165,ORANGE PARK MEDICAL CENTER
12.75,2.23,26.12354,-80.25951,91190.52,10290.67,0.0,0.441,0.617,0.176,0.0,0.088,0.088,0.0,WESTSIDE REGIONAL MEDICAL CENTER
11.81,2.22,26.98884,-82.09877,83928.43,10223.78,0.0,0.333,0.333,0.416,0.0,0.0,0.0,0.0,FAWCETT MEMORIAL HOSPITAL
13.89,2.61,27.82545,-82.70122,99952.32,13174.84,0.0,0.941,0.523,0.105,0.0,0.0,0.0,0.314,NORTHSIDE HOSPITAL
11.91,2.30,27.93259,-82.28759,84708.22,10798.00,0.0,0.598,0.684,0.085,0.0,0.0,0.085,0.0,BRANDON REGIONAL HOSPITAL
13.14,2.63,27.43392,-80.34350,94184.97,13383.86,0.0,0.563,0.563,0.188,0.0,0.094,0.0,0.282,LAWNWOOD REGIONAL MEDICAL CENTER & HEART INSTITUTE
12.29,2.40,30.47616,-84.23140,87642.79,11569.69,0.0,0.695,0.463,0.116,0.0,0.116,0.0,0.0,CAPITAL REGIONAL MEDICAL CENTER
14.19,2.21,26.43709,-80.12728,102228.74,10141.00,0.0,0.373,0.479,0.053,0.0,0.0,0.053,0.0,DELRAY MEDICAL CENTER
15.27,2.11,28.53585,-82.53404,110515.33,9331.22,0.0,0.467,1.089,0.0,0.0,0.078,0.0,0.0,OAK HILL HOSPITAL
9.28,2.11,28.03957,-82.70875,64514.36,9341.84,0.0,0.083,0.667,0.833,0.0,0.0,0.083,0.0,MEASE COUNTRYSIDE HOSPITAL
12.76,2.29,26.21388,-81.73257,91251.89,10730.58,0.0,0.122,0.733,0.122,0.0,0.0,0.0,0.0,PHYSICIANS REGIONAL MEDICAL CENTER - PINE RIDGE
8.10,2.17,28.94952,-81.95843,55386.81,9848.21,0.0,0.386,0.258,0.0,0.0,0.0,0.064,0.0,VILLAGES REGIONAL HOSPITAL THE
9.78,2.13,27.38993,-82.43343,68346.44,9480.11,0.0,0.0,0.623,0.0,0.0,0.0,0.0,0.0,LAKEWOOD RANCH MEDICAL CENTER
5.90,2.20,31.22516,-82.34898,38514.29,10031.79,0.0,0.0,0.535,0.0,0.0,0.0,0.0,0.0,SATILLA REGIONAL MEDICAL CENTER
10.50,2.21,34.17863,-84.13992,73909.31,10106.34,0.0,0.696,0.974,0.139,0.0,0.0,0.0,0.139,NORTHSIDE HOSPITAL FORSYTH
7.36,2.61,31.59023,-84.15756,49701.80,13189.27,0.177,0.177,0.795,0.0,0.0,0.177,0.088,0.0,PHOEBE PUTNEY MEMORIAL HOSPITAL
6.04,2.58,33.79230,-84.32107,39584.62,13001.83,0.0,2.246,0.299,1.098,0.0,0.1,0.299,0.2,EMORY UNIVERSITY HOSPITAL
6.66,2.66,33.56970,-85.07276,44366.26,13626.84,0.0,0.172,0.343,0.0,0.0,0.172,0.0,0.0,TANNER MEDICAL CENTER - CARROLLTON
6.24,2.31,33.47096,-81.98176,41080.03,10925.09,0.0,0.792,0.396,5.205,0.0,0.0,0.339,0.113,UNIVERSITY HOSPITAL
8.25,2.42,34.30335,-83.81737,56554.69,11722.62,0.0,0.15,0.4,0.65,0.0,0.05,0.0,0.1,NORTHEAST GEORGIA MEDICAL CENTER INC
7.78,2.32,33.96770,-84.55011,52992.12,10975.98,0.0,0.818,0.696,0.368,0.0,0.0,0.082,0.0,WELLSTAR KENNESTONE HOSPITAL
6.59,2.51,32.03185,-81.09158,43843.19,12443.09,0.0,0.179,0.359,0.299,0.0,0.06,0.179,0.0,MEMORIAL HEALTH UNIV MED CEN INC
7.42,2.42,30.82614,-83.97393,50160.81,11721.25,0.0,0.134,0.403,0.134,0.0,0.0,0.134,0.0,JOHN D ARCHBOLD MEMORIAL HOSPITAL
5.62,2.12,31.98515,-81.15475,36376.72,9414.33,0.0,0.375,0.844,0.0,0.0,0.0,0.094,0.0,ST JOSEPH'S HOSPITAL - SAVANNAH
7.52,2.51,34.26000,-85.17000,50975.52,12465.67,0.0,0.109,1.091,0.218,0.0,0.0,0.0,0.109,FLOYD MEDICAL CENTER
6.58,2.27,32.61642,-83.63065,43719.32,10563.89,0.0,0.863,0.384,0.767,0.0,0.0,0.0,0.0,HOUSTON MEDICAL CENTER
7.10,2.38,33.96117,-83.39832,47706.30,11424.60,0.0,0.276,0.276,0.414,0.0,0.138,0.0,0.0,ATHENS REGIONAL MEDICAL CENTER
5.46,2.52,33.76810,-84.38616,35139.54,12525.67,0.0,1.358,0.647,0.453,0.0,0.065,0.129,0.065,EMORY UNIVERSITY HOSPITAL MIDTOWN
6.24,2.16,33.90877,-84.35180,41141.06,9762.60,0.0,0.348,0.557,0.696,0.0,0.07,0.0,0.07,SAINT JOSEPH'S HOSPITAL OF ATLANTA INC
7.50,2.19,33.81003,-84.39568,50791.65,9984.24,0.0,0.146,0.438,0.049,0.0,0.049,0.049,0.049,PIEDMONT HOSPITAL
5.97,2.38,33.96351,-84.01769,39016.83,11430.78,0.0,0.159,0.239,0.0,0.0,0.0,0.0,0.0,GWINNETT MEDICAL CENTER
6.93,2.26,31.47069,-83.50473,46398.52,10533.94,0.0,0.0,0.751,0.0,0.0,0.0,0.501,0.0,TIFT REGIONAL MEDICAL CENTER
7.14,2.49,32.83041,-83.63476,48072.90,12271.61,0.0,0.371,0.619,0.165,0.0,0.041,0.165,0.082,MEDICAL CENTER OF CENTRAL GEORGIA
6.68,2.26,30.86250,-83.28630,44529.31,10493.88,0.0,0.41,0.41,0.513,0.0,0.0,0.103,0.0,SOUTH GEORGIA MEDICAL CENTER
6.77,2.14,32.50679,-84.95933,45209.33,9614.67,0.0,0.229,0.915,0.153,0.0,0.0,0.0,0.153,ST FRANCIS HOSPITAL INC
6.77,2.41,33.85638,-84.60446,45158.74,11636.09,0.0,0.718,0.319,0.558,0.0,0.0,0.239,0.08,WELLSTAR COBB HOSPITAL
8.02,2.30,32.84705,-83.61823,54774.94,10785.75,0.0,0.817,0.584,0.35,0.0,0.0,0.234,0.0,COLISEUM MEDICAL CENTER
7.39,2.45,33.57843,-84.38897,49925.83,12002.89,0.0,0.51,0.255,0.255,0.0,0.0,0.0,0.0,SOUTHERN REGIONAL MEDICAL CENTER
7.76,2.29,34.25704,-85.16467,52805.87,10774.33,0.0,0.0,0.501,0.167,0.0,0.0,0.0,0.0,REDMOND REGIONAL MEDICAL CENTER
8.19,2.31,33.51144,-84.22200,56144.82,10912.18,0.0,0.124,0.249,0.0,0.0,0.0,0.0,0.0,HENRY MEDICAL CENTER INC
7.81,2.29,34.06670,-84.17643,53219.15,10724.08,0.0,0.397,0.397,0.397,0.0,0.0,0.0,0.0,EMORY JOHNS CREEK HOSPITAL
7.29,3.13,21.30780,-157.85505,49204.72,17182.06,0.0,0.369,0.442,0.811,0.0,0.0,0.074,0.0,THE QUEENS MEDICAL CENTER
5.31,2.35,43.61218,-116.19234,33946.91,11205.43,0.068,0.342,0.342,0.342,0.0,0.0,0.068,0.0,ST LUKES REGIONAL MEDICAL CENTER
4.97,2.30,43.61359,-116.25484,31371.54,10841.29,0.0,0.085,0.683,0.256,0.0,0.0,0.0,0.0,ST ALPHONSUS REGIONAL MEDICAL CENTER
7.53,2.32,43.46987,-111.99208,50999.26,10979.26,0.0,0.338,0.676,0.169,0.0,0.0,0.0,0.169,EASTERN IDAHO REGIONAL MEDICAL CENTER
6.85,2.32,47.69645,-116.79476,45788.12,10968.19,0.0,0.246,1.229,0.738,0.0,0.0,0.0,0.0,KOOTENAI MEDICAL CENTER
10.04,2.29,41.52896,-88.13550,70365.74,10735.16,0.0,0.0,0.289,2.213,0.0,0.0,0.192,0.0,PROVENA ST JOSEPH MEDICAL CENTER
17.85,4.58,41.91082,-87.84451,130391.27,28369.18,0.0,0.569,0.711,0.0,0.0,0.0,0.0,0.0,LOYOLA GOTTLIEB MEMORIAL HOSPITAL
8.89,2.77,42.06550,-87.68428,61458.12,14465.35,0.0,0.131,0.557,0.164,0.0,0.033,0.066,0.033,EVANSTON HOSPITAL
8.54,2.31,41.84429,-89.48014,58802.54,10881.15,0.0,0.0,0.519,0.0,0.0,0.0,0.0,0.26,KATHERINE SHAW BETHEA HOSPITAL
6.91,2.12,40.75318,-89.59321,46244.73,9464.45,0.0,0.0,0.368,0.368,0.0,0.0,0.0,0.184,PROCTOR HOSPITAL
10.04,2.66,39.93563,-91.39833,70335.35,13584.86,0.0,0.164,0.164,0.082,0.0,0.082,0.409,0.164,BLESSING HOSPITAL
7.74,3.54,41.86011,-87.69571,52646.32,20331.82,0.0,0.0,0.179,0.359,0.0,0.179,0.718,0.0,MT SINAI HOSPITAL MEDICAL CENTER
5.40,2.18,38.32292,-88.91026,34660.33,9894.00,0.0,0.137,0.274,0.411,0.0,0.0,0.0,0.0,GOOD SAMARITAN REGIONAL HLTH CENTER
10.31,2.80,41.89141,-87.77618,72378.18,14655.55,0.0,0.164,0.492,0.164,0.0,0.0,0.164,0.0,WEST SUBURBAN MEDICAL CENTER
9.84,2.76,42.05624,-87.74012,68777.91,14335.83,0.0,0.207,0.311,0.104,0.0,0.0,0.104,0.0,SKOKIE HOSPITAL
6.92,2.47,39.80726,-89.64496,46358.24,12096.07,0.0,0.318,0.572,0.254,0.0,0.0,0.127,0.127,ST JOHNS HOSPITAL
7.09,2.31,41.66900,-87.81414,47616.29,10874.67,0.0,0.0,0.181,0.136,0.0,0.045,0.091,0.0,PALOS COMMUNITY HOSPITAL
10.26,2.59,41.79660,-87.88627,72034.00,13041.95,0.0,0.092,0.832,0.554,0.092,0.0,0.0,0.0,ADVENTIST LA GRANGE MEMORIAL HOSPITAL
9.63,2.62,40.70200,-89.59222,67213.11,13299.40,0.0,0.311,0.489,0.533,0.0,0.0,0.133,0.089,SAINT FRANCIS MEDICAL CENTER
11.54,2.77,42.02578,-87.68371,81847.64,14430.36,0.0,0.378,0.378,0.0,0.0,0.126,0.0,0.0,RHC ST FRANCIS HOSPITAL
13.96,3.18,41.78829,-87.60485,100443.87,17598.33,0.0,1.208,0.226,0.453,0.0,0.0,0.0,0.528,THE UNIVERSITY OF CHICAGO MEDICAL CENTER
9.05,2.54,40.11696,-88.21506,62685.50,12671.88,0.0,0.374,0.524,0.824,0.0,0.0,0.225,0.0,CARLE FOUNDATION HOSPITAL
7.30,2.23,41.36897,-88.42537,49231.18,10249.18,0.0,0.0,0.224,0.0,0.0,0.0,0.0,0.224,MORRIS HOSPITAL & HEALTHCARE CENTERS
8.31,2.34,40.11739,-88.22714,57018.09,11131.23,0.0,0.0,0.877,0.146,0.0,0.0,0.438,0.146,PROVENA COVENANT MEDICAL CENTER- URBANA
7.59,2.23,42.31832,-88.27920,51462.44,10265.00,0.0,0.205,0.307,0.102,0.0,0.0,0.0,0.0,CENTEGRA HEALTH SYSTEM - MC HENRY HOSPITAL
12.18,2.52,41.98743,-87.81440,86756.38,12512.03,0.0,0.446,1.211,0.382,0.0,0.0,0.0,0.064,RESURRECTION MEDICAL CENTER
12.60,3.63,41.87497,-87.66927,89988.94,21049.50,0.0,0.884,0.416,0.988,0.0,0.156,0.104,0.156,RUSH UNIVERSITY MEDICAL CENTER
9.91,3.14,41.80555,-87.92059,69350.06,17278.89,0.0,0.507,0.304,0.304,0.0,0.101,0.0,0.0,HINSDALE HOSPITAL
3.24,3.47,41.87381,-87.67421,18043.47,19826.27,0.0,1.269,0.423,0.211,0.0,0.0,0.211,0.423,JOHN H STROGER JR HOSPITAL
23.03,2.82,38.70148,-90.14382,170190.57,14855.25,0.0,0.428,0.856,0.0,0.0,0.0,0.0,0.0,GATEWAY REGIONAL MEDICAL CENTER
6.97,2.32,39.86644,-88.96090,46698.30,10951.32,0.0,0.161,1.048,0.161,0.0,0.0,0.081,0.081,DECATUR MEMORIAL HOSPITAL
6.96,2.37,39.80893,-89.65530,46646.76,11359.59,0.0,0.643,0.683,0.121,0.0,0.0,0.08,0.08,MEMORIAL MEDICAL CENTER
9.98,3.72,41.86927,-87.67052,69856.27,21714.36,0.0,1.673,0.257,0.0,0.0,0.0,0.129,0.0,UNIVERSITY OF ILLINOIS HOSPITAL
7.07,3.57,41.84639,-87.62345,47519.85,20558.23,0.0,0.442,0.442,0.53,0.0,0.088,0.088,0.088,MERCY HOSPITAL AND MEDICAL CENTER
10.04,4.10,40.48254,-88.95519,70364.80,24650.67,0.0,0.201,0.201,0.0,0.0,0.0,0.0,0.0,ST JOSEPH MEDICAL CENTER
6.17,2.27,37.72790,-89.22058,40566.71,10629.38,0.0,0.504,0.504,0.0,0.0,0.126,0.126,0.0,MEMORIAL HOSPITAL OF CARBONDALE
6.16,2.34,39.82659,-88.93119,40476.78,11153.11,0.0,0.327,0.982,0.0,0.0,0.0,0.327,0.0,ST MARYS HOSPITAL
7.64,2.54,41.52283,-87.71111,51873.91,12663.18,0.0,0.0,0.196,0.147,0.0,0.0,0.049,0.049,FRANCISCAN ST JAMES HEALTH
10.72,2.46,41.72094,-87.69220,75559.96,12082.19,0.0,0.218,0.436,0.291,0.0,0.0,0.073,0.145,LITTLE COMPANY OF MARY HOSPITAL
9.70,3.53,41.93641,-87.65295,67698.91,20268.45,0.0,0.399,0.199,0.0,0.0,0.1,0.0,0.0,ADVOCATE ILLINOIS MASONIC MEDICAL CENTER
8.15,2.43,41.12572,-87.88526,55797.92,11856.42,0.0,0.186,0.931,1.117,0.0,0.0,0.0,0.0,RIVERSIDE MEDICAL CENTER
5.49,2.21,38.51081,-89.99014,35331.91,10137.00,0.0,0.211,0.949,0.527,0.0,0.0,0.105,0.0,ST ELIZABETH HOSPITAL
6.90,2.41,41.60726,-87.66060,46154.14,11700.81,0.0,0.279,0.21,0.279,0.0,0.07,0.07,0.0,INGALLS MEMORIAL HOSPITAL
9.52,2.23,41.86362,-87.93567,66352.33,10294.67,0.0,0.449,0.299,0.973,0.0,0.0,0.0,0.0,ELMHURST MEMORIAL HOSPITAL
10.13,2.34,42.27447,-87.95764,71010.19,11157.33,0.0,0.279,0.488,0.209,0.0,0.0,0.0,0.07,ADVOCATE CONDELL MEDICAL CENTER
8.30,2.74,41.72031,-87.73249,56971.37,14170.89,0.0,0.172,0.138,0.034,0.0,0.069,0.241,0.034,ADVOCATE CHRIST HOSPITAL & MEDICAL CENTER
9.29,2.75,40.70065,-89.59505,64562.71,14291.35,0.0,0.178,0.446,0.0,0.0,0.0,0.0,0.089,METHODIST MEDICAL CENTER OF ILLINOIS
9.68,2.25,41.88566,-88.34311,67580.25,10466.15,0.0,0.132,0.397,0.397,0.0,0.0,0.0,0.0,DELNOR COMMUNITY HOSPITAL
6.95,2.77,41.54446,-87.98379,46611.23,14437.31,0.0,0.513,0.22,0.439,0.0,0.0,0.0,0.073,SILVER CROSS HOSPITAL  AND MEDICAL CENTERS
9.27,2.92,42.03837,-87.84820,64394.36,15593.03,0.0,0.181,0.135,0.045,0.0,0.0,0.0,0.045,ADVOCATE LUTHERAN GENERAL HOSPITAL
10.35,2.43,42.26584,-89.07428,72713.45,11817.06,0.0,0.156,0.857,0.312,0.0,0.0,0.312,0.0,SWEDISH AMERICAN HOSPITAL
9.82,2.60,41.76076,-88.15016,68621.03,13163.50,0.0,0.393,0.131,0.524,0.0,0.066,0.0,0.0,EDWARD HOSPITAL
8.89,2.18,42.26634,-89.00900,61454.28,9919.72,0.0,0.311,0.414,0.311,0.0,0.104,0.104,0.104,SAINT ANTHONY MEDICAL CENTER
11.33,2.83,41.87269,-88.15684,80224.35,14926.94,0.0,0.067,0.599,0.399,0.0,0.0,0.067,0.067,CENTRAL DUPAGE HOSPITAL
7.81,2.66,41.56720,-87.69566,53182.00,13620.78,0.0,0.588,0.098,0.196,0.0,0.0,0.0,0.0,ADVOCATE SOUTH SUBURBAN HOSPITAL
10.06,2.26,42.06732,-87.99368,70497.95,10541.31,0.0,0.249,0.87,0.207,0.0,0.0,0.041,0.0,NORTHWEST COMMUNITY HOSPITAL
8.83,2.52,42.00413,-88.01745,61018.80,12522.44,0.0,0.056,0.726,0.223,0.0,0.0,0.0,0.0,ALEXIAN BROTHERS MEDICAL CENTER
6.18,2.35,41.49581,-90.41871,40631.38,11222.12,0.0,0.0,0.475,0.0,0.0,0.0,0.0,0.0,GENESIS MEDICAL CENTER ILLINI CAMPUS
4.97,2.28,41.48200,-90.57158,31377.39,10649.48,0.0,0.145,0.867,0.145,0.0,0.072,0.145,0.0,TRINITY ROCK ISLAND
10.31,2.87,41.89477,-87.62131,72380.30,15228.22,0.0,0.382,0.243,0.208,0.0,0.0,0.243,0.035,NORTHWESTERN MEMORIAL HOSPITAL
8.76,2.30,41.81791,-88.00907,60486.36,10857.82,0.0,0.125,0.25,0.063,0.0,0.0,0.0,0.0,ADVOCATE GOOD SAMARITAN HOSPITAL
7.20,2.30,42.05260,-88.14173,48466.67,10835.83,0.0,0.232,0.232,0.0,0.0,0.077,0.0,0.0,ST ALEXIUS MEDICAL CENTER
7.29,2.24,42.19586,-88.17286,49213.73,10377.00,0.0,0.501,0.201,0.301,0.0,0.0,0.0,0.0,ADVOCATE GOOD SHEPHERD HOSPITAL
7.66,2.47,41.59920,-87.35764,52030.83,12142.08,0.0,0.576,0.384,0.0,0.0,0.064,0.192,0.0,METHODIST HOSPITALS INC
7.69,2.65,41.61514,-87.52413,52266.42,13489.42,0.0,0.732,0.209,0.105,0.0,0.0,0.0,0.0,FRANCISCAN ST MARGARET HEALTH - HAMMOND
8.04,2.68,41.61055,-86.72511,54981.35,13767.90,0.0,0.0,0.777,0.0,0.0,0.0,0.0,0.0,INDIANA UNIVERSITY HEALTH LA PORTE HOSPITAL
5.49,2.69,41.63466,-87.44901,35331.82,13826.45,0.0,0.171,0.686,0.171,0.0,0.0,0.0,0.0,ST CATHERINE HOSPITAL INC
5.65,2.23,38.28244,-85.74923,36599.74,10285.46,0.0,0.0,0.695,0.261,0.0,0.0,0.0,0.0,CLARK MEMORIAL HOSPITAL
7.05,2.37,41.70877,-86.17026,47321.14,11371.29,0.0,0.0,0.439,0.146,0.0,0.0,0.0,0.0,SAINT JOSEPH REGIONAL MEDICAL CENTER
6.45,2.25,41.70639,-86.89936,42760.28,10464.72,0.0,0.156,0.0,0.311,0.0,0.0,0.156,0.156,FRANCISCAN ST ANTHONY HEALTH - MICHIGAN CITY
8.64,2.26,41.03874,-85.24876,59536.14,10477.07,0.0,0.481,0.962,0.361,0.0,0.0,0.12,0.0,LUTHERAN HOSPITAL OF INDIANA
6.48,3.06,41.70568,-85.93404,42978.56,16681.17,0.0,0.0,0.791,0.099,0.099,0.0,0.297,0.099,ELKHART GENERAL HOSPITAL
8.00,2.42,41.04659,-85.10906,54674.35,11781.65,0.0,0.131,0.524,1.114,0.0,0.0,0.131,0.066,PARKVIEW REGIONAL MEDICAL CENTER
4.86,2.29,39.48518,-87.40893,30518.36,10773.48,0.0,0.182,0.728,0.182,0.0,0.0,0.061,0.061,UNION HOSPITAL INC
6.60,2.28,41.51266,-87.26125,43914.29,10664.29,0.0,0.19,0.476,0.381,0.0,0.0,0.0,0.0,ST MARY MEDICAL CENTER INC
9.35,2.27,41.46729,-87.05130,65034.38,10569.00,0.0,0.342,0.684,0.342,0.0,0.0,0.0,0.0,PORTER VALPARAISO HOSPITAL
5.61,2.15,38.30195,-85.83409,36295.12,9668.00,0.0,0.077,0.154,0.309,0.0,0.0,0.0,0.0,FLOYD MEMORIAL HOSPITAL AND HEALTH SERVICES
10.08,2.25,39.41951,-87.40898,70619.31,10416.00,0.0,0.0,0.563,0.0,0.0,0.0,0.0,0.0,TERRE HAUTE REGIONAL HOSPITAL
5.03,2.56,39.86405,-84.88413,31791.11,12846.89,0.0,0.354,0.707,0.0,0.0,0.0,0.088,0.088,REID HOSPITAL & HEALTH CARE SERVICES
7.84,2.52,39.16006,-86.54038,53389.14,12485.53,0.0,0.287,0.382,0.955,0.0,0.096,0.096,0.0,INDIANA UNIVERSITY HEALTH BLOOMINGTON HOSPITAL
7.78,2.87,39.79009,-86.16260,52978.22,15212.86,0.028,0.369,0.454,0.17,0.0,0.0,0.057,0.057,INDIANA UNIVERSITY HEALTH
7.19,2.46,41.68479,-86.25217,48423.33,12075.04,0.0,0.0,1.135,1.059,0.0,0.076,0.151,0.0,MEMORIAL HOSPITAL OF SOUTH BEND
7.16,2.20,40.04526,-86.02297,48223.77,10043.00,0.0,0.0,1.487,0.0,0.0,0.0,0.0,0.0,RIVERVIEW HOSPITAL
9.25,2.46,39.78704,-86.07673,64261.33,12049.07,0.0,0.299,0.1,0.299,0.0,0.0,0.0,0.0,COMMUNITY HOSPITAL EAST
7.09,2.17,37.98293,-87.57072,47644.70,9825.55,0.0,0.472,0.515,0.215,0.0,0.086,0.0,0.0,DEACONESS HOSPITAL INC
7.69,2.46,39.91001,-86.19660,52242.79,12050.98,0.0,0.773,0.258,0.472,0.0,0.086,0.043,0.086,ST VINCENT HOSPITAL & HEALTH SERVICES
8.43,2.38,40.19679,-85.41573,57941.32,11445.00,0.0,0.066,0.66,0.264,0.0,0.0,0.132,0.066,INDIANA UNIVERSITY HEALTH BALL MEMORIAL HOSPITAL
8.66,2.52,41.49222,-87.52429,59737.00,12527.53,0.0,0.765,0.306,0.0,0.0,0.0,0.0,0.0,FRANCISCAN ST MARGARET HEALTH - DYER
8.05,2.20,37.96320,-87.50292,55007.47,10048.72,0.0,0.262,0.589,0.327,0.0,0.0,0.131,0.0,ST MARY'S MEDICAL CENTER OF EVANSVILLE INC
6.84,2.77,40.07620,-86.47506,45713.00,14399.17,0.0,0.503,1.006,0.0,0.0,0.0,0.0,0.0,WITHAM HEALTH SERVICES
8.19,2.34,40.39424,-86.83516,56087.72,11123.12,0.0,0.361,0.181,0.181,0.0,0.0,0.0,0.0,FRANCISCAN ST ELIZABETH HEALTH - LAFAYETTE EAST
6.52,2.30,39.21585,-85.89683,43261.24,10821.71,0.0,0.0,0.652,0.13,0.0,0.0,0.0,0.13,COLUMBUS REGIONAL HOSPITAL
4.93,2.32,40.12998,-85.69436,31027.00,10963.67,0.0,0.159,0.637,0.0,0.0,0.0,0.0,0.0,COMMUNITY HOSPITAL OF ANDERSON AND MADISON COUNTY
4.25,2.13,38.39499,-86.94089,25845.10,9503.24,0.0,0.0,0.692,0.519,0.0,0.0,0.0,0.0,MEMORIAL HOSPITAL AND HEALTH CARE CENTER
5.21,2.33,41.55065,-87.50619,33165.33,11038.79,0.0,0.554,0.604,0.252,0.0,0.0,0.0,0.0,COMMUNITY HOSPITAL
7.21,2.27,41.39576,-87.36689,48536.78,10606.59,0.0,0.0,0.849,0.189,0.0,0.0,0.0,0.0,FRANCISCAN ST ANTHONY HEALTH - CROWN POINT
8.00,2.36,39.63776,-86.13260,54618.74,11266.60,0.0,0.0,0.922,0.0,0.0,0.154,0.0,0.154,COMMUNITY HOSPITAL SOUTH
6.94,2.15,39.94017,-86.15975,46509.11,9696.59,0.0,0.165,0.165,0.661,0.0,0.0,0.0,0.0,ST VINCENT HEART CENTER OF INDIANA LLC
6.83,2.17,39.90201,-86.04478,45646.98,9787.93,0.0,0.0,0.24,0.0,0.0,0.0,0.24,0.0,INDIANA HEART HOSPITAL THE
6.52,2.22,39.95930,-86.16016,43235.31,10209.62,0.0,0.804,0.536,0.268,0.0,0.0,0.0,0.0,INDIANA UNIVERSITY HEALTH NORTH HOSPITAL
7.97,2.38,39.64935,-86.07960,54423.26,11443.70,0.0,0.0,0.13,0.261,0.0,0.0,0.0,0.13,FRANCISCAN ST FRANCIS HEALTH - INDIANAPOLIS
8.67,2.23,40.40296,-86.80885,59782.48,10252.86,0.0,0.14,0.279,0.14,0.0,0.0,0.0,0.0,INDIANA UNIVERSITY HEALTH ARNETT HOSPITAL
6.50,2.15,37.97481,-87.44457,43093.46,9686.46,0.0,0.0,1.163,0.582,0.0,0.0,0.0,0.0,THE HEART HOSPITAL AT DEACONESS GATEWAY LLC
7.52,2.10,38.33336,-85.75165,50987.90,9258.50,0.0,0.606,0.0,0.0,0.0,0.0,0.0,0.0,KENTUCKIANA MEDICAL CENTER LLC
5.25,2.24,42.49388,-94.18926,33520.20,10351.67,0.0,0.0,0.359,0.359,0.0,0.0,0.0,0.0,TRINITY REGIONAL MEDICAL CENTER
5.87,2.15,41.66411,-91.52841,38275.61,9630.75,0.0,0.133,0.665,0.798,0.0,0.133,0.0,0.0,MERCY HOSPITAL
7.35,2.18,42.03321,-93.61164,49642.95,9927.00,0.0,0.0,0.135,0.541,0.0,0.0,0.0,0.0,MARY GREELEY MEDICAL CENTER
5.51,2.21,41.54190,-90.55691,35512.52,10157.39,0.0,0.118,0.296,0.059,0.0,0.059,0.118,0.059,GENESIS MEDICAL CENTER-DAVENPORT
6.11,2.22,40.81009,-91.17356,40118.93,10198.27,0.0,0.798,1.117,0.0,0.0,0.16,0.0,0.0,GREAT RIVER MEDICAL CENTER
7.23,2.85,41.66092,-91.54800,48741.81,15086.00,0.0,0.58,1.159,0.58,0.0,0.064,0.386,0.064,UNIVERSITY OF IOWA HOSPITAL & CLINICS
7.41,2.29,43.15063,-93.21718,50128.71,10740.14,0.0,0.076,0.076,0.534,0.0,0.0,0.0,0.0,MERCY MEDICAL CENTER-NORTH IOWA
5.87,2.07,42.49227,-90.67404,38235.78,9069.55,0.0,0.261,0.651,0.0,0.0,0.0,0.0,0.13,MERCY MEDICAL CENTER-DUBUQUE
7.82,2.10,41.97864,-91.65507,53281.93,9252.87,0.0,0.226,0.113,0.0,0.0,0.113,0.0,0.0,MERCY MEDICAL CENTER - CEDAR RAPIDS
8.32,2.44,41.58955,-93.63248,57129.74,11884.52,0.0,0.502,0.669,1.339,0.0,0.112,0.223,0.335,IOWA METHODIST MEDICAL CENTER
6.18,2.38,41.59886,-93.62344,40679.21,11427.38,0.0,0.201,0.402,0.08,0.0,0.0,0.12,0.0,MERCY MEDICAL CENTER-DES MOINES
4.67,2.20,42.52665,-92.33957,29079.29,10035.41,0.0,0.165,0.165,0.0,0.0,0.082,0.0,0.0,ALLEN MEMORIAL HOSPITAL
7.56,2.51,38.87847,-99.29923,51270.88,12412.00,0.0,0.0,0.712,0.712,0.0,0.178,0.534,0.0,HAYS MEDICAL CENTER
8.89,2.64,39.05660,-95.69599,61466.95,13405.30,0.0,0.42,0.631,3.258,0.0,0.0,0.21,0.21,ST FRANCIS HEALTH CENTER INC
10.32,2.68,39.05583,-94.60912,72485.58,13765.00,0.0,0.627,0.57,0.0,0.0,0.057,0.114,0.114,UNIVERSITY OF KANSAS HOSPITAL
5.98,2.16,38.85279,-94.82413,39086.81,9728.15,0.0,0.942,0.824,0.353,0.0,0.0,0.353,0.0,OLATHE MEDICAL CENTER
9.71,2.36,39.05128,-95.69572,67796.02,11315.38,0.0,0.061,0.427,0.549,0.0,0.0,0.122,0.0,STORMONT-VAIL HEALTHCARE
12.71,2.35,38.99549,-94.69061,90827.09,11229.87,0.0,0.563,0.844,0.141,0.0,0.07,0.141,0.07,SHAWNEE MISSION MEDICAL CENTER
9.21,2.37,37.70405,-97.31386,63986.69,11338.75,0.0,0.213,0.39,0.567,0.0,0.0,0.213,0.0,VIA CHRISTI HOSPITALS WICHITA INC
11.87,2.50,37.69556,-97.29785,84378.33,12382.70,0.0,0.076,0.841,1.605,0.0,0.076,0.382,0.0,WESLEY MEDICAL CENTER
7.61,2.24,38.97848,-95.24771,51677.89,10388.00,0.0,0.207,0.83,0.415,0.0,0.0,0.0,0.207,LAWRENCE MEMORIAL HOSPITAL
9.26,2.35,39.12677,-94.78643,64351.73,11182.45,0.0,1.045,1.045,0.597,0.0,0.0,0.149,0.0,PROVIDENCE MEDICAL CENTER
9.40,2.52,38.90355,-94.66966,65376.36,12483.45,0.0,0.0,0.471,0.0,0.0,0.0,0.0,0.0,SAINT LUKE'S SOUTH HOSPITAL
5.49,2.08,37.74995,-97.22652,35313.00,9167.00,0.0,0.365,0.0,1.095,0.0,0.0,0.0,0.0,KANSAS HEART HOSPITAL
4.67,2.08,37.73142,-97.26078,29041.56,9167.00,0,0,0,0,0,0,0,0,GALICHIA HEART HOSPITAL LLC
5.15,2.18,37.72341,-97.14628,32752.21,9885.73,0.0,0.32,0.32,0.0,0.0,0.641,0.0,0.0,KANSAS MEDICAL CENTER LLC
5.66,2.30,38.47021,-82.63498,36625.10,10812.62,0.0,0.092,0.826,0.092,0.0,0.0,0.138,0.138,KING'S DAUGHTERS' MEDICAL CENTER
4.33,2.15,38.03140,-84.52194,26407.05,9670.58,0.0,0.051,0.66,0.61,0.0,0.0,0.254,0.0,SAINT JOSEPH HOSPITAL
6.99,2.34,37.11784,-84.10910,46867.57,11123.86,0.0,0.0,0.451,0.0,0.0,0.0,0.15,0.15,SAINT JOSEPH HOSPITAL LONDON
5.95,2.38,36.99641,-86.43006,38858.45,11416.30,0.0,0.412,1.029,0.412,0.0,0.0,0.48,0.069,THE MEDICAL CENTER AT BOWLING GREEN
5.14,2.32,37.01079,-85.90342,32632.82,11007.06,0.0,0.0,0.356,0.0,0.0,0.0,0.0,0.178,T J SAMSON COMMUNITY HOSPITAL
8.12,2.47,38.18397,-83.43268,55561.92,12116.92,0.0,0.0,0.0,0.0,0.0,0.0,0.0,0.248,ST CLAIRE REGIONAL MEDICAL CENTER
7.02,2.38,37.27729,-83.22802,47101.42,11424.58,0.0,0.198,0.495,0.0,0.0,0.0,0.0,0.0,HAZARD ARH REGIONAL MEDICAL CENTER
6.53,2.30,39.06704,-84.49946,43343.41,10854.72,0.042,0.085,0.254,0.042,0.0,0.0,0.042,0.042,ST ELIZABETH MEDICAL CENTER NORTH
7.35,2.41,38.24927,-85.75081,49687.92,11669.42,0.0,0.506,0.476,0.149,0.0,0.06,0.06,0.03,JEWISH HOSPITAL & ST MARY'S HEALTHCARE
8.77,2.50,37.47264,-82.52605,60564.57,12358.81,0.0,0.71,0.304,0.0,0.0,0.0,0.0,0.0,PIKEVILLE MEDICAL CENTER
7.10,2.45,37.64378,-84.77272,47762.36,12012.14,0.0,0.0,1.158,0.386,0.0,0.0,0.0,0.129,EPHRAIM MCDOWELL REGIONAL MEDICAL CENTER
6.14,2.85,38.03282,-84.50674,40317.92,15027.96,0.0,0.676,1.07,0.282,0.0,0.0,0.282,0.0,UNIVERSITY OF KENTUCKY HOSPITAL
8.78,2.47,38.24806,-85.75125,60674.94,12102.32,0.0,0.605,0.706,0.176,0.025,0.025,0.202,0.05,NORTON HOSPITALS INC
5.88,2.26,37.33959,-87.48988,38373.69,10519.46,0.0,0.0,0.271,0.0,0.0,0.0,0.0,0.136,REGIONAL MEDICAL CENTER OF HOPKINS COUNTY
7.16,2.14,37.06431,-88.67523,48222.75,9563.36,0.0,0.466,1.025,0.373,0.0,0.093,0.093,0.093,LOURDES HOSPITAL
6.50,2.36,38.01849,-84.51236,43095.35,11307.42,0.0,0.283,0.848,2.191,0.0,0.0,0.0,0.0,CENTRAL BAPTIST HOSPITAL
5.80,2.14,37.07404,-88.62685,37749.30,9586.41,0.0,0.131,0.588,0.261,0.0,0.0,0.0,0.0,WESTERN BAPTIST HOSPITAL
4.82,2.09,38.23898,-85.63941,30181.11,9183.50,0.0,0.615,0.73,0.192,0.0,0.038,0.038,0.0,BAPTIST HOSPITAL EAST
7.72,2.35,37.08724,-84.61828,52485.17,11194.00,0.0,0.191,1.147,0.0,0.0,0.0,0.86,0.573,LAKE CUMBERLAND REGIONAL HOSPITAL
3.94,2.33,37.99944,-84.43941,23444.27,11050.33,0.0,0.0,0.566,0.189,0.0,0.0,0.189,0.0,SAINT JOSEPH EAST
8.03,2.46,30.20227,-92.01906,54866.96,12021.44,0.091,0.364,0.0,0.091,0.0,0.0,0.0,0.0,LAFAYETTE GENERAL MEDICAL CENTER
8.62,2.99,29.77956,-90.80568,59384.29,16149.50,0.0,0.153,0.153,0.305,0.0,0.0,0.305,0.0,THIBODAUX REGIONAL MEDICAL CENTER
6.37,2.20,29.59851,-90.71397,42115.43,10091.36,0.0,0.267,0.668,0.134,0.0,0.0,0.134,0.0,TERREBONNE GENERAL MEDICAL CENTER
8.13,2.20,31.28258,-92.46060,55637.10,10074.81,0.0,0.928,0.186,0.557,0.0,0.0,0.557,0.0,CHRISTUS ST FRANCES CABRINI HOSPITAL
10.69,2.34,31.31451,-92.44997,75334.67,11123.67,0.08,0.879,0.479,0.399,0.0,0.0,0.479,0.24,RAPIDES REGIONAL MEDICAL CENTER
8.75,2.58,30.01875,-90.19452,60449.91,12962.27,0.0,0.453,0.091,0.59,0.0,0.0,0.091,0.045,OCHSNER FOUNDATION HOSPITAL
9.71,2.75,32.49443,-93.75011,67770.09,14246.91,0.0,0.256,0.511,0.256,0.0,0.0,0.0,0.085,CHRISTUS SCHUMPERT HEALTH SYSTEM
9.74,2.16,29.98815,-91.78471,67999.15,9715.54,0.0,0.0,0.75,0.0,0.0,0.0,0.25,0.0,IBERIA GENERAL HOSPITAL AND MEDICAL CENTER
6.74,2.26,30.15052,-92.03698,44989.07,10541.64,0.0,0.328,0.328,0.109,0.0,0.109,0.0,0.0,OUR LADY OF LOURDES REGIONAL MEDICAL CENTER INC
6.20,2.29,32.48393,-93.77884,40838.78,10781.89,0.0,0.155,0.466,0.155,0.0,0.039,0.039,0.0,WILLIS KNIGHTON MEDICAL CENTER
8.71,2.28,32.49997,-92.11359,60133.21,10681.00,0.0,1.122,0.321,1.763,0.0,0.0,0.561,0.0,ST FRANCIS MEDICAL CENTER
8.79,2.19,30.01438,-90.18155,60760.18,9970.00,0.0,0.321,0.578,0.064,0.0,0.129,0.0,0.0,EAST JEFFERSON GENERAL HOSPITAL
11.71,2.24,32.51315,-92.15713,83175.63,10386.26,0.0,0.108,0.108,0.0,0.0,0.0,0.0,0.0,GLENWOOD REGIONAL MEDICAL CENTER
14.36,2.31,30.47547,-90.10091,103529.36,10917.45,0.0,0.245,0.245,0.0,0.0,0.0,0.245,0.245,LAKEVIEW REGIONAL MEDICAL CENTER
12.20,2.58,30.19775,-92.07724,86913.83,13011.79,0.0,0.364,0.182,0.0,0.0,0.0,0.0,0.0,THE REGIONAL MEDICAL CENTER OF ACADIANA
6.04,2.06,30.17316,-92.02697,39583.68,8947.91,0.0,0.0,0.398,0.0,0.0,0.0,0.0,0.0,HEART HOSPITAL OF LAFAYETTE
6.27,2.58,43.65325,-70.27533,41372.28,12979.09,0.0,0.287,0.409,0.737,0.0,0.041,0.246,0.082,MAINE MEDICAL CENTER
5.74,2.43,44.10107,-70.21432,37303.11,11818.40,0.0,0.242,0.121,0.485,0.0,0.0,0.242,0.0,CENTRAL MAINE MEDICAL CENTER
4.93,2.53,44.80988,-68.74929,31051.99,12560.17,0.0,0.343,0.286,0.514,0.0,0.0,0.286,0.114,EASTERN MAINE MEDICAL CENTER
3.44,3.29,39.62183,-77.68219,19591.50,18416.12,0.0,0.0,0.0,0.0,0.0,0.0,0.0,0.0,MERITUS MEDICAL CENTER
3.32,3.20,39.28817,-76.62438,18682.88,17717.56,0.0,0.0,0.0,0.0,0.0,0.0,0.0,0.0,UNIVERSITY OF MARYLAND MEDICAL CENTER
3.98,3.79,39.42366,-77.41386,23715.45,22292.45,0.0,0.0,0.0,0.0,0.0,0.0,0.0,0.0,FREDERICK MEMORIAL HOSPITAL
2.69,2.58,39.38813,-76.61068,13800.94,12973.02,0.0,0.0,0.0,0.0,0.0,0.0,0.0,0.0,SAINT JOSEPH MEDICAL CENTER
3.36,3.22,39.29688,-76.59242,19006.00,17865.67,0.0,0.0,0.0,0.0,0.0,0.0,0.0,0.0,JOHNS HOPKINS HOSPITAL THE
3.20,3.05,39.27352,-76.67219,17734.52,16606.88,0.0,0.0,0.0,0.0,0.0,0.0,0.0,0.0,SAINT AGNES HOSPITAL
3.09,2.96,39.35262,-76.66196,16892.02,15897.53,0.0,0.0,0.0,0.0,0.0,0.0,0.0,0.0,SINAI HOSPITAL OF BALTIMORE
2.38,2.30,38.98482,-77.00139,11424.64,10793.97,0.0,0.0,0.0,0.0,0.0,0.0,0.0,0.0,WASHINGTON ADVENTIST HOSPITAL
2.34,2.25,38.36248,-75.59799,11095.79,10466.02,0.0,0.0,0.0,0.0,0.0,0.0,0.0,0.0,PENINSULA REGIONAL MEDICAL CENTER
2.83,2.72,38.99743,-77.11048,14875.13,14072.63,0.0,0.0,0.0,0.0,0.0,0.0,0.0,0.0,SUBURBAN HOSPITAL
3.46,3.32,38.99014,-76.53398,19711.13,18677.07,0.0,0.0,0.0,0.0,0.0,0.0,0.0,0.0,ANNE ARUNDEL MEDICAL CENTER
2.76,2.66,39.32930,-76.61432,14356.12,13624.95,0.0,0.0,0.0,0.0,0.0,0.0,0.0,0.0,UNION MEMORIAL HOSPITAL
3.30,3.16,39.64928,-78.73206,18524.68,17413.18,0.0,0.0,0.0,0.0,0.0,0.0,0.0,0.0,WESTERN MARYLAND REGIONAL MEDICAL CENTER
3.26,3.12,39.13732,-76.62228,18198.85,17106.85,0.0,0.0,0.0,0.0,0.0,0.0,0.0,0.0,BALTIMORE WASHINGTON  MEDICAL CENTER
3.86,3.68,38.74827,-76.87590,22783.48,21416.52,0.0,0.0,0.0,0.0,0.0,0.0,0.0,0.0,SOUTHERN MARYLAND HOSPITAL CENTER
3.27,3.14,39.09796,-77.19799,18288.94,17304.56,0.0,0.0,0.0,0.0,0.0,0.0,0.0,0.0,SHADY GROVE ADVENTIST HOSPITAL
6.21,2.77,42.37441,-71.13378,40874.77,14416.15,0.0,0.0,0.282,0.0,0.0,0.094,0.0,0.0,MOUNT AUBURN HOSPITAL
8.04,2.76,42.70912,-71.14877,54970.38,14339.00,0.0,0.0,1.138,0.114,0.0,0.114,0.0,0.0,LAWRENCE GENERAL HOSPITAL
6.29,2.88,41.65298,-70.27484,41512.44,15310.64,0.0,0.159,0.318,0.106,0.0,0.106,0.053,0.053,CAPE COD HOSPITAL
6.38,3.54,42.35843,-71.05977,42207.82,20347.25,0.0,0.493,0.062,0.123,0.0,0.062,0.308,0.185,BOSTON MEDICAL CENTER CORPORATION
8.42,2.59,42.51078,-70.90712,57873.30,13080.95,0.0,0.108,0.597,0.325,0.0,0.163,0.542,0.054,NORTH SHORE MEDICAL CENTER
5.71,3.14,42.34896,-71.14768,37010.11,17286.53,0.0,0.204,0.306,0.51,0.0,0.102,0.0,0.0,ST ELIZABETH'S MEDICAL CENTER
7.23,2.71,42.03597,-71.09792,48750.11,13981.32,0.0,0.324,0.216,0.108,0.0,0.108,0.0,0.971,SIGNATURE HEALTHCARE BROCKTON HOSPITAL
6.43,2.72,42.64636,-71.34118,42614.35,14013.65,0.0,0.0,0.397,0.264,0.0,0.0,0.0,0.0,LOWELL GENERAL HOSPITAL
9.82,3.09,42.36227,-71.06941,68627.61,16858.90,0.028,0.908,0.482,0.312,0.0,0.0,0.17,0.085,MASSACHUSETTS GENERAL HOSPITAL
5.11,2.68,41.70928,-71.14519,32446.65,13710.54,0.028,0.277,0.471,0.138,0.0,0.0,0.111,0.055,SOUTHCOAST HOSPITAL GROUP INC
4.70,2.96,42.12077,-72.60525,29270.71,15888.53,0.0,0.119,0.398,0.398,0.0,0.0,0.239,0.119,BAYSTATE MEDICAL CENTER
7.60,2.63,42.72846,-71.16830,51599.73,13363.45,0.0,0.122,0.0,0.0,0.0,0.122,0.0,0.122,HOLY FAMILY HOSPITAL
4.67,3.26,42.33719,-71.10939,29046.15,18204.18,0.0,0.469,0.289,0.397,0.0,0.0,0.036,0.0,BETH ISRAEL DEACONESS MEDICAL CENTER
4.86,2.80,42.17644,-70.95398,30519.18,14694.36,0.0,0.204,0.511,0.204,0.0,0.0,0.0,0.102,SOUTH SHORE HOSPITAL
9.92,3.30,42.33600,-71.10704,69449.63,18508.49,0.034,1.091,0.478,0.614,0.0,0.068,0.0,0.273,BRIGHAM AND WOMEN'S HOSPITAL
6.48,3.37,42.34951,-71.06331,42929.95,19015.45,0.0,0.407,0.244,0.163,0.0,0.081,0.081,0.0,TUFTS MEDICAL CENTER
6.94,2.38,42.18869,-71.20197,46529.64,11459.57,0.0,0.0,0.189,0.378,0.0,0.0,0.0,0.189,NORWOOD HOSPITAL
9.07,3.25,42.27720,-71.75922,62896.24,18136.27,0.033,0.36,0.459,0.36,0.0,0.033,0.229,0.033,UMASS MEMORIAL MEDICAL CENTER INC
4.27,2.68,42.48585,-71.20686,25975.12,13732.64,0.0,0.271,0.226,0.045,0.0,0.0,0.0,0.045,LAHEY CLINIC HOSPITAL
5.92,2.70,42.26633,-71.79760,38665.42,13886.47,0.0,0.077,0.077,0.231,0.0,0.0,0.0,0.077,ST VINCENT HOSPITAL
5.04,2.39,43.20588,-86.20839,31881.26,11500.11,0.0,0.089,0.892,0.0,0.0,0.0,0.089,0.0,MERCY HEALTH PARTNERS MERCY CAMPUS
6.86,2.62,42.28551,-85.58042,45904.18,13274.55,0.0,0.0,0.179,0.119,0.0,0.0,0.0,0.06,BRONSON METHODIST HOSPITAL
5.25,2.57,42.45741,-83.20513,33538.55,12880.36,0.0,0.539,0.404,0.438,0.0,0.034,0.135,0.0,PROVIDENCE HOSPITAL AND MEDICAL CENTERS
5.15,2.53,42.29077,-83.21504,32706.95,12625.48,0.0,0.653,0.481,0.309,0.0,0.069,0.103,0.034,OAKWOOD HOSPITAL AND MEDICAL CENTER
4.74,2.57,42.08955,-86.47781,29570.11,12884.09,0.0,0.287,0.862,0.144,0.0,0.0,0.072,0.0,LAKELAND HOSPITAL ST JOSEPH
6.17,2.90,42.41911,-83.18228,40608.18,15465.76,0.0,0.703,0.192,0.512,0.0,0.064,0.384,0.128,SINAI-GRACE HOSPITAL
5.74,2.60,42.61425,-83.27602,37273.14,13126.18,0.0,0.532,0.886,0.295,0.0,0.059,0.177,0.0,ST JOSEPH MERCY OAKLAND
5.22,2.62,42.96881,-85.66649,33304.57,13301.62,0.0,0.275,0.426,0.05,0.0,0.0,0.075,0.025,SPECTRUM HEALTH - BUTTERWORTH CAMPUS
6.04,2.21,43.58941,-83.86908,39542.16,10126.95,0.0,0.576,0.518,0.518,0.0,0.0,0.058,0.23,MCLAREN BAY REGION
8.62,3.22,42.28388,-83.72960,59403.55,17885.73,0.0,0.523,0.628,1.884,0.0,0.0,0.279,0.0,UNIVERSITY OF MICHIGAN HEALTH SYSTEM
5.78,2.35,42.61490,-82.96060,37550.86,11238.14,0.0,0.209,0.962,0.209,0.0,0.0,0.293,0.0,HENRY FORD MACOMB HOSPITAL
4.85,2.90,42.36762,-83.08461,30443.28,15451.59,0.0,0.368,0.501,0.468,0.0,0.033,0.2,0.033,HENRY FORD HOSPITAL
5.09,2.54,46.54758,-87.39560,32282.05,12639.45,0.0,0.375,0.5,0.25,0.0,0.0,0.0,0.125,MARQUETTE GENERAL HOSPITAL
6.37,2.38,43.42857,-83.95556,42116.33,11457.80,0.0,0.253,0.421,0.211,0.0,0.0,0.295,0.042,COVENANT MEDICAL CENTER INC
7.99,2.35,43.42612,-83.94185,54563.32,11224.32,0.0,0.954,0.556,0.238,0.0,0.0,0.0,0.079,ST MARY'S OF MICHIGAN MEDICAL CENTER
5.64,2.26,42.25117,-84.39240,36494.61,10548.91,0.0,0.0,0.448,0.0,0.0,0.0,0.0,0.064,ALLEGIANCE HEALTH
5.26,2.52,44.76156,-85.64143,33593.02,12505.59,0.042,0.21,0.379,0.463,0.0,0.084,0.126,0.042,MUNSON MEDICAL CENTER
5.83,3.18,42.35230,-83.05676,37948.42,17563.86,0.0,0.502,0.144,0.287,0.0,0.0,0.144,0.072,HARPER UNIVERSITY HOSPITAL
5.38,2.42,45.37209,-84.97065,34510.71,11735.79,0.0,0.112,0.784,0.0,0.0,0.0,0.112,0.0,NORTHERN MICHIGAN REGIONAL HOSPITAL
6.73,2.47,42.30489,-85.56152,44853.95,12100.98,0.0,0.803,0.535,0.375,0.0,0.054,0.054,0.054,BORGESS MEDICAL CENTER
6.22,2.60,42.51418,-83.19259,40961.60,13118.57,0.0,0.557,0.298,0.358,0.0,0.0,0.099,0.02,WILLIAM BEAUMONT HOSPITAL
9.78,2.59,43.01399,-83.73250,68361.96,13051.79,0.0,0.364,0.591,0.182,0.0,0.0,0.045,0.136,MCLAREN FLINT
7.73,2.46,42.26181,-83.66003,52609.86,12048.12,0.0,0.217,0.398,0.434,0.0,0.0,0.108,0.072,ST JOSEPH MERCY HOSPITAL
6.54,2.69,42.41975,-82.91442,43421.02,13807.25,0.0,0.151,0.377,0.339,0.0,0.0,0.075,0.0,ST JOHN HOSPITAL AND MEDICAL CENTER
6.10,2.45,42.70417,-84.55488,40044.44,11980.60,0.0,0.267,0.6,0.333,0.0,0.0,0.0,0.0,MCLAREN - GREATER LANSING
6.13,2.40,42.50514,-83.00422,40292.91,11620.25,0.0,0.477,0.404,0.845,0.0,0.147,0.073,0.0,ST JOHN MACOMB-OAKLAND HOSPITAL-MACOMB CENTER
6.42,2.64,42.89254,-83.63621,42528.30,13427.65,0.0,0.051,0.355,0.0,0.0,0.102,0.102,0.0,GENESYS REGIONAL MEDICAL CENTER - HEALTH PARK
4.84,2.26,42.98625,-82.42802,30384.83,10534.21,0.0,0.0,0.84,0.28,0.0,0.093,0.093,0.0,PORT HURON HOSPITAL
5.20,2.43,43.63618,-84.26187,33147.00,11816.45,0.0,0.096,0.482,0.096,0.0,0.0,0.289,0.0,MIDMICHIGAN MEDICAL CENTER-MIDLAND
5.89,2.40,42.58900,-82.89799,38407.51,11624.23,0.0,0.066,0.596,0.331,0.0,0.066,0.066,0.0,MOUNT CLEMENS REGIONAL MEDICAL CENTER
6.90,2.68,42.73767,-84.51698,46208.24,13764.94,0.0,0.339,0.484,0.097,0.0,0.0,0.0,0.242,EDWARD W SPARROW HOSPITAL
6.53,2.28,42.67850,-83.14771,43317.68,10666.92,0.0,0.189,0.944,0.0,0.0,0.0,0.094,0.094,CRITTENTON HOSPITAL MEDICAL CENTER
6.90,2.38,42.61826,-83.09239,46190.91,11436.37,0.0,0.414,0.451,0.338,0.0,0.0,0.038,0.038,WILLIAM BEAUMONT HOSPITAL-TROY
7.55,2.42,45.01403,-93.32177,51187.29,11719.54,0.0,0.114,0.286,0.057,0.0,0.0,0.057,0.114,NORTH MEMORIAL MEDICAL CENTER
6.58,2.43,46.79380,-92.09573,43753.96,11840.47,0.0,0.356,0.64,0.0,0.0,0.0,0.0,0.071,ESSENTIA HEALTH ST MARY'S MEDICAL CENTER
5.20,2.89,44.02052,-92.48292,33087.25,15382.06,0.031,0.862,0.462,0.862,0.0,0.0,0.031,0.123,MAYO CLINIC - SAINT MARYS HOSPITAL
5.92,2.70,45.57390,-94.16942,38618.43,13910.91,0.0,0.599,0.23,0.23,0.0,0.0,0.046,0.184,ST CLOUD HOSPITAL
8.53,2.40,44.94214,-93.10858,58738.77,11626.97,0.0,0.115,0.172,0.172,0.0,0.0,0.0,0.0,UNITED HOSPITAL
7.24,2.42,46.79634,-92.08793,48798.00,11712.00,0.0,0.318,0.318,0.425,0.0,0.0,0.106,0.0,ST LUKES HOSPITAL
4.81,2.34,44.93031,-93.36276,30140.00,11128.07,0.0,0.113,0.395,0.225,0.0,0.056,0.0,0.0,PARK NICOLLET METHODIST HOSPITAL
7.18,2.45,44.95248,-93.26196,48365.76,12009.63,0.0,0.036,0.434,0.723,0.0,0.036,0.0,0.0,ABBOTT NORTHWESTERN HOSPITAL
7.82,2.66,44.94898,-93.10016,53239.85,13586.51,0.0,0.17,0.339,0.085,0.0,0.085,0.085,0.0,ST JOSEPH'S HOSPITAL
6.86,2.40,44.88645,-93.32693,45858.79,11592.97,0.0,0.161,0.241,0.805,0.0,0.0,0.08,0.08,FAIRVIEW SOUTHDALE HOSPITAL
5.42,2.40,44.16396,-94.00412,34789.00,11621.85,0.0,0.275,0.55,0.413,0.0,0.0,0.275,0.138,MAYO CLINIC HEALTH SYSTEM - MANKATO
7.07,2.80,44.95570,-93.09429,47502.75,14636.31,0.0,0.059,0.531,0.531,0.0,0.0,0.0,0.0,REGIONS HOSPITAL
7.03,3.04,45.18355,-93.36789,47221.82,16481.71,0.0,0.067,0.266,0.266,0.0,0.0,0.0,0.133,MERCY HOSPITAL
6.63,3.14,32.33069,-90.17030,44112.05,17277.40,0.0,1.097,0.337,1.687,0.0,0.0,0.506,0.337,UNIVERSITY OF MISSISSIPPI MED CENTER
5.40,2.28,34.24336,-88.71753,34688.93,10681.51,0.0,0.044,0.489,0.267,0.0,0.133,0.0,0.044,NORTH MISSISSIPPI MEDICAL CENTER
12.84,2.33,30.36674,-89.11535,91827.74,11079.72,0.0,0.233,1.01,0.311,0.0,0.0,0.311,0.0,MEMORIAL HOSPITAL AT GULFPORT
10.43,2.42,32.35265,-90.87788,73325.50,11729.33,0.0,0.119,0.477,0.477,0.0,0.0,0.0,0.0,RIVER REGION HEALTH SYSTEM
9.12,2.27,30.37516,-88.53226,63229.84,10626.14,0.0,0.269,0.47,0.269,0.0,0.0,0.134,0.0,SINGING RIVER HOSPITAL
5.05,2.20,32.33616,-90.15652,31995.33,10044.08,0.0,0.461,0.307,0.154,0.0,0.051,0.717,0.0,ST DOMINIC-JACKSON MEMORIAL HOSPITAL
5.61,2.35,31.31872,-89.32955,36308.28,11197.32,0.0,0.422,0.528,0.58,0.0,0.0,0.106,0.053,FORREST GENERAL HOSPITAL
6.88,2.43,33.41099,-91.03479,46022.57,11785.00,0.0,0.155,0.155,0.155,0.0,0.0,0.0,0.0,DELTA REGIONAL MEDICAL CENTER
5.36,2.33,31.24000,-90.45000,34363.94,11036.00,0.0,0.0,0.35,0.0,0.0,0.0,0.0,0.35,SOUTHWEST MS REGIONAL MEDICAL CENTER
7.49,2.27,33.52568,-88.42742,50758.45,10609.00,0.0,0.693,0.0,1.039,0.0,0.0,0.0,0.173,BAPTIST MEM HOSP/GOLDEN TRIANGLE INC
6.52,2.12,32.31643,-90.17922,43259.96,9416.04,0.0,0.312,0.989,0.312,0.0,0.104,0.208,0.052,MISSISSIPPI BAPTIST MEDICAL CENTER
6.39,2.19,32.37280,-88.69954,42289.71,9989.57,0.0,0.105,0.738,0.0,0.0,0.0,0.105,0.0,ANDERSON REGIONAL MEDICAL CENTER
7.94,2.20,37.06032,-94.52747,54204.80,10083.20,0.0,0.534,0.686,0.534,0.0,0.0,0.153,0.0,ST JOHN'S REGIONAL MEDICAL CENTER
8.19,2.32,38.78060,-90.48379,56084.79,10990.29,0.0,0.123,0.738,0.738,0.0,0.0,0.0,0.0,SSM ST JOSEPH HEALTH CENTER
6.13,2.59,39.77393,-94.77089,40285.64,13018.00,0.0,0.286,0.571,0.343,0.0,0.057,0.057,0.0,HEARTLAND REGIONAL MEDICAL CENTER
8.17,2.30,38.64281,-90.44448,55961.84,10851.94,0.0,0.686,0.441,0.294,0.0,0.0,0.147,0.196,MERCY HOSPITAL ST LOUIS
5.55,2.16,38.16498,-90.38082,35810.87,9746.49,0.0,0.105,0.42,0.105,0.0,0.0,0.0,0.0,JEFFERSON REGIONAL MEDICAL CENTER
6.72,2.40,39.71116,-91.45071,44816.39,11612.33,0.0,0.0,0.178,0.0,0.0,0.0,0.178,0.0,HANNIBAL REGIONAL HOSPITAL
11.71,2.63,39.00717,-94.55925,83141.93,13343.33,0.0,0.103,0.414,0.207,0.0,0.0,0.0,0.0,RESEARCH MEDICAL CENTER
7.00,2.90,38.63524,-90.26508,46993.49,15418.59,0.0,0.967,0.604,0.121,0.0,0.0,0.29,0.072,BARNES JEWISH HOSPITAL
8.03,2.27,37.14560,-93.28037,54872.55,10619.18,0.0,0.133,0.575,0.354,0.0,0.0,0.044,0.088,COX MEDICAL CENTER
6.62,2.42,38.56571,-92.18204,44010.40,11737.07,0.0,0.135,0.405,0.135,0.0,0.0,0.0,0.0,CAPITAL REGION MEDICAL CENTER
5.06,3.21,39.08401,-94.57591,32076.25,17845.25,0.0,1.435,0.82,0.41,0.0,0.0,0.0,0.41,TRUMAN MEDICAL CENTER HOSPITAL HILL
7.55,2.55,37.17999,-93.27409,51202.58,12722.54,0.0,0.223,0.356,1.381,0.0,0.0,0.045,0.045,ST JOHN'S REGIONAL HEALTH CENTER
5.34,2.07,38.94903,-92.31563,34185.45,9080.63,0.0,0.114,0.513,0.057,0.0,0.057,0.0,0.0,BOONE HOSPITAL CENTER
5.95,2.10,38.50661,-90.38025,38860.23,9306.62,0.0,1.359,1.15,0.627,0.0,0.0,0.209,0.0,ST ANTHONY'S MEDICAL CENTER
6.35,2.13,38.52738,-90.47501,41990.81,9515.67,0.0,0.339,0.566,0.453,0.0,0.113,0.0,0.0,SSM ST CLARE HEALTH CENTER
6.04,2.14,38.93592,-94.60376,39559.47,9615.89,0.0,0.389,0.389,1.264,0.0,0.0,0.0,0.0,ST JOSEPH MEDICAL CENTER
6.43,2.30,36.64970,-93.22138,42605.48,10834.93,0.0,0.673,0.841,0.337,0.0,0.0,0.0,0.0,SKAGGS REGIONAL MEDICAL CENTER
10.14,2.43,39.04749,-94.34105,71097.75,11815.58,0.0,0.09,0.358,0.358,0.0,0.0,0.09,0.0,CENTERPOINT MEDICAL CENTER OF INDEPENDENCE LLC
7.20,2.17,39.14957,-94.55148,48519.68,9785.68,0.0,0.421,0.421,1.106,0.0,0.0,0.053,0.053,NORTH KANSAS CITY HOSPITAL
7.86,2.31,38.75097,-90.43255,53610.02,10872.32,0.0,0.338,0.619,0.338,0.0,0.0,0.056,0.0,SSM DEPAUL HEALTH CENTER
10.67,2.90,38.62280,-90.24049,75141.85,15407.38,0.097,0.871,0.29,0.194,0.0,0.0,0.097,0.194,ST LOUIS UNIVERSITY HOSPITAL
5.54,2.11,38.63702,-90.44699,35730.32,9331.20,0.0,0.421,0.374,0.515,0.0,0.0,0.047,0.0,MISSOURI BAPTIST MEDICAL CENTER
9.27,2.27,37.31072,-89.53990,64446.83,10574.22,0.0,0.324,0.757,0.0,0.0,0.108,0.0,0.0,SOUTHEAST MISSOURI HOSPITAL
14.36,2.57,36.78510,-90.42779,103554.42,12887.29,0.0,0.43,0.323,0.215,0.0,0.215,0.108,0.0,POPLAR BLUFF REGIONAL MEDICAL CENTER
5.43,2.28,37.05238,-94.52777,34874.14,10702.43,0.0,0.072,0.795,0.289,0.0,0.144,0.0,0.0,FREEMAN HEALTH SYSTEM - FREEMAN WEST
10.24,2.62,39.04761,-94.59037,71892.97,13276.86,0.062,0.248,0.311,0.373,0.0,0.0,0.124,0.124,ST LUKES HOSPITAL OF KANSAS CITY
7.76,2.23,38.58103,-90.45144,52798.64,10253.91,0.0,0.347,0.231,0.463,0.0,0.0,0.0,0.116,DES PERES HOSPITAL
5.05,2.16,38.65123,-90.50301,31963.13,9768.96,0.0,0.296,0.591,0.414,0.0,0.0,0.0,0.059,ST LUKES HOSPITAL
6.39,2.30,38.77576,-90.23906,42297.26,10830.43,0.0,0.15,0.376,0.075,0.0,0.0,0.15,0.0,CHRISTIAN HOSPITAL NORTHEAST
10.11,2.89,37.30401,-89.57190,70844.64,15364.64,0.0,1.223,0.611,0.175,0.0,0.0,0.0,0.087,ST FRANCIS MEDICAL CENTER
7.39,2.50,38.12027,-92.68146,49969.54,12328.46,0.0,0.174,0.87,0.348,0.0,0.0,0.348,0.174,LAKE REGIONAL HEALTH SYSTEM
5.92,2.39,37.60022,-93.42237,38648.33,11520.08,0.0,0.0,0.0,0.0,0.0,0.0,0.0,0.0,CITIZENS MEMORIAL HOSPITAL
9.61,2.20,38.94062,-94.37842,67034.03,10071.41,0.174,0.174,1.22,0.174,0.0,0.0,0.0,0.0,SAINT LUKE'S EAST LEE'S SUMMIT HOSPITAL
7.21,2.33,45.78958,-108.51283,48552.93,11064.02,0.0,0.09,0.181,0.181,0.0,0.0,0.0,0.0,BILLINGS CLINIC HOSPITAL
5.68,2.49,47.49139,-111.26255,36845.67,12246.52,0.0,0.689,0.574,0.689,0.0,0.0,0.0,0.23,BENEFIS HOSPITALS INC
5.62,2.35,46.87545,-114.00033,36357.39,11195.72,0.0,0.445,0.593,0.148,0.0,0.0,0.0,0.0,ST PATRICK HOSPITAL
6.70,2.28,48.21465,-114.32386,44618.95,10701.45,0.0,0.0,0.531,0.531,0.0,0.0,0.0,0.0,KALISPELL REGIONAL MEDICAL CENTER
3.86,2.18,45.66969,-111.01991,22818.42,9902.00,0.0,0.0,0.284,0.284,0.0,0.0,0.0,0.0,BOZEMAN DEACONESS HOSPITAL
6.61,2.72,40.78318,-96.63709,43965.23,14048.23,0.0,0.179,0.239,0.598,0.0,0.06,0.0,0.0,BRYANLGH MEDICAL CENTER
6.15,2.60,40.70646,-99.08136,40456.90,13147.96,0.0,0.129,0.775,0.129,0.0,0.0,0.388,0.0,GOOD SAMARITAN HOSPITAL
8.82,2.59,41.25522,-95.97892,60963.21,13079.67,0.0,1.192,0.65,0.433,0.0,0.0,0.433,0.054,THE NEBRASKA MEDICAL CENTER
6.17,2.99,40.92425,-98.37053,40599.08,16129.92,0.0,0.323,0.161,0.0,0.0,0.0,0.161,0.0,ST FRANCIS MEDICAL CENTER
22.79,2.94,41.26509,-95.95494,168332.19,15768.05,0.0,0.539,0.0,1.797,0.0,0.0,0.0,0.18,CREIGHTON UNIVERSITY MEDICAL CENTER - SAINT JOSEPH
9.28,2.42,41.23897,-96.03162,64528.00,11753.06,0.0,0.449,0.359,0.539,0.09,0.0,0.09,0.09,ALEGENT HEALTH BERGAN MERCY MEDICAL CENTER
8.83,2.44,41.32182,-96.02133,61002.67,11872.58,0.0,0.329,0.988,1.152,0.0,0.0,0.0,0.0,ALEGENT HEALTH IMMANUEL MEDICAL CENTER
4.14,2.26,40.73657,-96.59332,24936.18,10486.88,0.0,0.0,0.0,0.82,0.0,0.0,0.0,0.0,NEBRASKA HEART HOSPITAL
9.58,2.59,39.52637,-119.79456,66831.52,13081.22,0.0,0.707,0.816,0.054,0.0,0.054,0.0,0.0,RENOWN REGIONAL MEDICAL CENTER
14.55,2.66,36.13459,-115.13576,104985.08,13610.80,0.0,0.636,0.445,0.064,0.0,0.0,1.59,0.0,SUNRISE HOSPITAL AND MEDICAL CENTER
8.32,2.25,39.53066,-119.82067,57097.65,10457.60,0.0,0.444,0.296,0.0,0.0,0.0,0.0,0.296,SAINT MARY'S REGIONAL MEDICAL CENTER
9.74,2.63,39.20247,-119.78446,68004.12,13377.62,0.0,0.344,0.344,0.0,0.0,0.115,0.229,0.115,CARSON TAHOE REGIONAL MEDICAL CENTER
15.00,2.76,36.16380,-115.16574,108450.46,14397.00,0.0,0.487,0.325,0.162,0.0,0.162,0.0,0.0,VALLEY HOSPITAL MEDICAL CENTER
11.10,2.31,36.11363,-115.12573,78495.92,10874.17,0.0,0.132,0.66,0.132,0.0,0.0,0.396,0.0,DESERT SPRINGS HOSPITAL
14.39,2.48,36.21599,-115.25095,103768.26,12218.94,0.0,0.832,0.681,0.076,0.0,0.0,0.076,0.151,MOUNTAINVIEW HOSPITAL
12.67,2.45,36.16586,-115.32436,90541.48,11943.76,0.0,0.286,0.381,0.095,0.0,0.0,0.095,0.0,SUMMERLIN HOSPITAL MEDICAL CENTER
13.30,2.83,36.00527,-115.11618,95402.11,14902.37,0.0,1.499,0.583,0.333,0.0,0.167,0.333,0.0,SAINT ROSE DOMINICAN HOSPITAL - SIENA CAMPUS
13.70,2.47,36.09056,-115.24058,98485.58,12126.00,0.0,0.471,0.353,0.236,0.0,0.0,0.0,0.0,SPRING VALLEY HOSPITAL MEDICAL CENTER
7.58,2.39,43.19846,-71.56230,51403.90,11529.81,0.0,0.539,0.449,0.449,0.0,0.09,0.0,0.0,CONCORD HOSPITAL
6.75,2.98,43.67286,-72.27232,45050.13,16048.03,0.0,0.626,0.813,0.876,0.0,0.063,0.188,0.375,MARY HITCHCOCK MEMORIAL HOSPITAL
7.85,2.27,43.06469,-70.78916,53516.55,10602.90,0.0,0.349,0.349,0.873,0.0,0.0,0.0,0.0,PORTSMOUTH REGIONAL HOSPITAL
7.00,2.27,42.99121,-71.47426,46980.09,10607.00,0.0,0.855,0.122,1.099,0.0,0.122,0.0,0.0,CATHOLIC MEDICAL CENTER
8.77,2.70,40.88346,-74.05564,60597.35,13923.00,0.0,0.758,0.528,0.099,0.0,0.033,0.066,0.0,HACKENSACK UNIVERSITY MEDICAL CENTER
9.03,3.23,40.71011,-74.21368,62579.29,17982.53,0.0,1.684,0.146,0.366,0.0,0.0,0.952,0.146,NEWARK BETH ISRAEL MEDICAL CENTER
7.06,2.52,40.88275,-74.01021,47415.16,12480.32,0.0,0.812,0.406,0.068,0.0,0.0,0.406,0.0,HOLY NAME MEDICAL CENTER
10.24,2.50,40.98359,-74.10047,71889.66,12380.66,0.0,0.323,0.575,0.144,0.0,0.0,0.0,0.0,VALLEY HOSPITAL
13.34,2.96,39.94152,-75.11680,95731.37,15882.43,0.0,0.644,0.725,0.403,0.0,0.161,0.081,0.242,COOPER UNIVERSITY HOSPITAL
9.19,2.66,40.78883,-74.46620,63781.52,13615.74,0.039,0.739,0.428,0.389,0.0,0.078,0.311,0.0,MORRISTOWN MEMORIAL HOSPITAL
13.02,2.98,40.90215,-74.16634,93240.47,16029.00,0.0,1.325,0.442,0.294,0.0,0.0,0.392,0.196,ST JOSEPH'S REGIONAL MEDICAL CENTER
16.08,2.71,40.21634,-74.74143,116773.71,14004.25,0.0,1.075,0.0,0.537,0.0,0.0,0.179,0.0,ST FRANCIS MEDICAL CENTER
14.40,2.37,39.78261,-74.91670,103894.06,11377.94,0.0,0.183,0.402,0.365,0.0,0.037,0.146,0.037,VIRTUA WEST JERSEY HOSPITALS BERLIN
11.54,2.59,39.92695,-75.09537,81888.65,13029.24,0.0,0.38,0.456,0.304,0.0,0.0,0.076,0.0,OUR LADY OF LOURDES MEDICAL CENTER
9.89,2.71,39.97776,-74.58456,69186.45,13943.60,0.0,0.579,0.193,1.545,0.0,0.386,0.0,0.0,DEBORAH HEART AND LUNG CENTER
12.96,2.29,40.35309,-74.06484,92767.08,10764.33,0.0,0.905,0.633,0.362,0.0,0.0,0.0,0.181,RIVERVIEW MEDICAL CENTER
11.59,2.84,40.49581,-74.44980,82274.09,14938.25,0.0,0.998,0.694,0.217,0.0,0.13,0.304,0.0,ROBERT WOOD JOHNSON UNIVERSITY HOSPITAL
12.12,2.29,39.96484,-74.21708,86309.79,10765.50,0.0,0.096,0.767,0.32,0.0,0.032,0.256,0.096,COMMUNITY MEDICAL CENTER
17.18,2.60,40.29209,-74.80327,125247.36,13092.18,0.0,0.964,0.193,0.0,0.0,0.0,0.0,0.0,CAPITAL HEALTH MEDICAL CENTER - HOPEWELL
9.85,2.67,40.90400,-73.96847,68881.54,13691.04,0.0,0.254,0.254,0.254,0.0,0.0,0.0,0.0,ENGLEWOOD HOSPITAL AND MEDICAL CENTER
9.86,2.66,40.71264,-74.35460,68973.58,13597.67,0.0,0.371,0.477,1.007,0.0,0.0,0.53,0.106,OVERLOOK HOSPITAL
14.04,2.29,40.07832,-74.13009,101103.93,10759.60,0.0,0.185,0.802,0.432,0.0,0.0,0.308,0.062,OCEAN MEDICAL CENTER
16.38,2.55,39.35775,-74.43449,119050.19,12736.26,0.0,0.321,0.275,0.138,0.0,0.0,0.046,0.138,ATLANTICARE REGIONAL MEDICAL CENTER - CITY DIV
10.03,2.57,40.21065,-74.03566,70279.62,12908.32,0.0,0.574,0.533,0.123,0.0,0.041,0.164,0.0,JERSEY SHORE UNIVERSITY MEDICAL CENTER
15.43,3.28,40.71663,-74.05013,111761.80,18352.57,0.0,1.19,0.238,0.0,0.0,0.0,0.357,0.0,LIBERTYHEALTH-JERSEY CITY MEDICAL CENTER CAMPUS
12.34,2.81,40.76190,-74.30335,88030.58,14763.75,0.0,1.419,0.405,0.558,0.0,0.0,0.203,0.101,SAINT BARNABAS MEDICAL CENTER
11.92,2.93,40.74323,-74.17431,84803.43,15660.05,0.0,0.95,0.173,0.173,0.0,0.0,0.605,0.0,SAINT MICHAEL'S MEDICAL CENTER INC
6.00,2.64,36.72387,-108.21749,39305.41,13439.71,0.0,0.25,0.876,0.0,0.0,0.125,0.0,0.0,SAN JUAN REGIONAL MEDICAL CENTER
6.88,2.83,32.29186,-106.73470,46026.50,14882.20,0.0,0.273,1.502,0.137,0.0,0.273,0.0,0.0,MEMORIAL MEDICAL CENTER INC
7.16,2.53,35.08102,-106.63392,48187.89,12600.39,0.0,0.402,1.155,0.502,0.0,0.0,0.201,0.05,PRESBYTERIAN HOSPITAL
9.37,2.15,35.08729,-106.63687,65156.07,9658.00,0,0,0,0,0,0,0,0,HEART HOSPITAL OF NEW MEXICO
7.59,2.26,32.32310,-106.72900,51515.94,10503.11,0.0,0.447,1.193,0.0,0.0,0.149,0.0,0.0,MOUNTAIN VIEW REGIONAL MEDICAL CENTER
3.87,2.68,42.87482,-78.84942,22884.03,13747.12,0.0,0.439,0.576,0.686,0.0,0.027,0.274,0.027,KALEIDA HEALTH
8.05,2.72,42.65345,-73.77543,54997.23,14029.92,0.0,0.168,0.393,0.0,0.0,0.056,0.168,0.112,ALBANY MEDICAL CENTER HOSPITAL
8.41,2.51,41.69441,-73.93432,57839.58,12405.45,0.0,0.121,0.483,0.121,0.0,0.0,0.0,0.0,VASSAR BROTHERS MEDICAL CENTER
5.72,3.39,40.79041,-73.95386,37151.49,19229.62,0.024,0.568,0.331,0.047,0.0,0.024,0.378,0.142,MOUNT SINAI HOSPITAL
5.70,2.72,40.72567,-73.24189,36985.08,14032.15,0.0,0.184,0.643,0.184,0.0,0.0,0.276,0.184,SOUTHSIDE HOSPITAL
11.47,2.49,40.87946,-73.41621,81327.08,12313.42,0.061,0.121,0.303,0.061,0.0,0.0,0.0,0.061,HUNTINGTON HOSPITAL
6.66,3.31,40.80556,-73.96131,44361.53,18582.00,0.0,0.398,0.487,0.221,0.0,0.0,0.265,0.265,ST LUKE'S ROOSEVELT HOSPITAL
7.52,2.23,42.65583,-73.80372,50961.45,10275.73,0.0,0.053,1.015,0.321,0.0,0.107,0.16,0.053,ST PETER'S HOSPITAL
6.58,3.64,40.87987,-73.87996,43715.76,21130.47,0.0,0.414,0.493,0.197,0.039,0.02,0.158,0.039,MONTEFIORE MEDICAL CENTER
4.52,2.53,42.10076,-76.82800,27887.64,12555.67,0.0,0.102,0.815,0.509,0.0,0.0,0.815,0.0,ARNOT OGDEN MEDICAL CENTER
7.56,3.44,40.76487,-73.95398,51264.76,19558.25,0.016,0.614,0.456,0.693,0.0,0.031,0.331,0.063,NEW YORK-PRESBYTERIAN HOSPITAL
7.59,3.09,40.77686,-73.70212,51512.47,16925.11,0.0,0.161,0.482,0.299,0.0,0.0,0.161,0.115,NORTH SHORE UNIVERSITY HOSPITAL
7.09,3.00,40.77362,-73.96093,47615.27,16177.56,0.0,0.295,0.687,0.098,0.0,0.049,0.638,0.147,LENOX HILL HOSPITAL
4.62,2.37,43.19244,-77.58590,28631.70,11367.74,0.0,0.267,0.667,0.044,0.0,0.089,0.667,0.133,ROCHESTER GENERAL HOSPITAL
10.03,2.61,41.44138,-74.36821,70222.56,13171.78,0.0,0.237,0.415,0.118,0.0,0.0,0.118,0.118,ORANGE REGIONAL MEDICAL CENTER
3.42,3.84,40.74465,-73.88620,19439.46,22690.31,0.0,0.0,0.525,0.0,0.0,0.0,0.263,0.0,ELMHURST HOSPITAL CENTER
5.02,2.93,42.69590,-74.92278,31729.21,15699.58,0.0,0.12,0.36,0.12,0.0,0.0,0.0,0.0,MARY IMOGENE BASSETT HOSPITAL
4.63,2.44,43.05571,-76.14981,28733.71,11923.74,0.044,0.618,0.751,1.458,0.0,0.0,0.486,0.088,ST JOSEPH'S HOSPITAL HEALTH CENTER
6.84,2.28,42.81963,-73.91653,45749.68,10694.79,0.0,0.073,0.58,0.0,0.0,0.0,0.145,0.073,ELLIS HOSPITAL
13.04,2.94,41.11299,-74.13732,93406.04,15773.41,0.0,0.302,0.302,0.101,0.0,0.0,0.0,0.0,GOOD SAMARITAN HOSPITAL OF SUFFERN
7.92,3.02,40.58440,-74.08507,54037.00,16391.89,0.0,0.163,0.449,0.122,0.0,0.0,0.286,0.0,STATEN ISLAND UNIVERSITY HOSPITAL
8.01,2.94,40.74083,-73.64306,54740.85,15733.87,0.0,0.079,0.473,0.236,0.0,0.039,0.709,0.079,WINTHROP-UNIVERSITY HOSPITAL
6.84,3.41,40.73265,-73.98162,45700.81,19342.93,0.0,0.331,0.414,0.386,0.0,0.0,0.221,0.055,BETH ISRAEL MEDICAL CENTER
9.23,2.56,40.80462,-73.67023,64072.76,12811.38,0.0,0.043,0.384,0.341,0.0,0.0,0.128,0.0,ST FRANCIS HOSPITAL ROSLYN
11.15,3.83,40.63937,-73.99851,78856.19,22611.49,0.0,0.866,0.414,0.226,0.0,0.113,1.581,0.038,MAIMONIDES MEDICAL CENTER
7.58,3.43,40.75332,-73.70899,51412.21,19505.67,0.0,0.657,0.482,0.35,0.0,0.044,0.175,0.088,LONG ISLAND JEWISH MEDICAL CENTER
7.70,2.78,40.65189,-73.63096,52348.89,14515.71,0.0,0.469,1.093,0.469,0.0,0.052,0.26,0.0,SOUTH NASSAU COMMUNITIES HOSPITAL
6.15,2.60,43.04139,-76.13803,40393.24,13104.41,0.0,0.873,0.403,0.873,0.0,0.201,0.671,0.067,CROUSE HOSPITAL
8.72,3.01,40.74335,-73.97408,60176.00,16252.74,0.0,0.284,0.366,0.041,0.0,0.041,0.162,0.0,NYU HOSPITALS CENTER
9.71,3.39,41.08773,-73.80395,67769.51,19224.51,0.0,1.917,0.605,0.101,0.0,0.101,1.312,0.101,WESTCHESTER MEDICAL CENTER
4.59,3.25,40.66762,-73.97850,28414.76,18121.75,0.0,0.048,0.335,0.144,0.0,0.048,0.431,0.048,NEW YORK METHODIST HOSPITAL
4.60,2.86,43.04269,-76.14043,28508.85,15099.62,0.0,0.942,0.6,0.171,0.0,0.257,0.771,0.257,UNIVERSITY HOSPITAL S U N Y HEALTH SCIENCE CENTER
5.11,2.24,43.08176,-75.26587,32400.89,10379.39,0.0,0.172,0.344,0.172,0.0,0.172,0.258,0.0,ST ELIZABETH MEDICAL CENTER
6.67,2.80,44.70022,-73.47100,44446.88,14658.17,0.0,0.42,0.42,0.524,0.0,0.105,0.0,0.105,CHAMPLAIN VALLEY PHYSICIANS HOSPITAL MEDICAL CTR
8.49,2.62,41.50307,-74.01517,58448.58,13278.53,0.0,0.202,0.404,0.303,0.0,0.0,0.0,0.0,ST LUKE'S CORNWALL HOSPITAL
6.89,2.31,42.84782,-78.81264,46118.00,10901.83,0.0,0.223,0.816,0.223,0.0,0.0,0.148,0.0,MERCY HOSPITAL
4.37,2.76,43.12266,-77.62360,26771.95,14372.46,0.0,1.147,0.549,0.249,0.0,0.05,0.0,0.15,STRONG MEMORIAL HOSPITAL
9.58,2.62,40.69327,-73.29412,66820.95,13284.14,0.0,0.25,0.551,0.05,0.0,0.0,0.2,0.0,GOOD SAMARITAN HOSPITAL MEDICAL CENTER
8.74,2.47,41.02614,-73.76978,60365.08,12164.50,0.0,1.729,0.432,1.297,0.0,0.0,0.259,0.0,WHITE PLAINS HOSPITAL CENTER
7.42,3.61,40.64666,-74.02049,50194.79,20889.95,0.0,0.073,0.732,0.22,0.0,0.0,0.513,0.0,LUTHERAN MEDICAL CENTER
5.77,2.44,42.47286,-76.53849,37495.68,11904.32,0.0,0.241,0.482,0.241,0.0,0.0,0.0,0.0,CAYUGA MEDICAL CENTER AT ITHACA
3.83,3.63,40.65508,-73.94521,22578.00,21070.26,0.0,0.792,0.339,0.226,0.0,0.0,0.453,0.0,UNIVERSITY HOSPITAL OF BROOKLYN ( DOWNSTATE )
7.47,3.16,40.90922,-73.11520,50591.21,17469.52,0.0,1.247,0.208,0.364,0.0,0.0,0.052,0.104,UNIVERSITY HOSPITAL ( STONY BROOK )
5.28,2.40,42.11422,-75.95851,33745.00,11556.67,0.0,0.075,0.451,0.226,0.0,0.15,0.226,0.226,UNITED HEALTH SERVICES HOSPITALS INC
5.93,2.37,35.43754,-80.60147,38739.16,11383.04,0.0,0.095,0.382,0.334,0.0,0.0,0.048,0.048,CAROLINAS MEDICAL CENTER-NORTHEAST
8.22,2.43,35.57658,-82.54922,56309.27,11849.79,0.026,0.157,0.628,0.262,0.0,0.052,0.052,0.079,MEMORIAL MISSION HOSPITAL AND ASHEVILLE SURGERY CE
5.82,2.29,35.95000,-80.00000,37901.65,10778.91,0.0,0.088,0.351,0.088,0.0,0.0,0.088,0.088,HIGH POINT REGIONAL HOSPITAL
5.50,2.38,36.07581,-80.29779,35445.96,11463.36,0.0,1.353,0.819,0.392,0.0,0.0,0.036,0.107,FORSYTH MEMORIAL HOSPITAL
7.26,2.26,35.68172,-80.47072,48954.53,10477.32,0.0,0.421,0.421,0.14,0.0,0.0,0.0,0.0,ROWAN REGIONAL MEDICAL CENTER
10.52,2.50,35.03156,-78.93205,74044.40,12375.89,0.0,0.256,0.513,0.128,0.0,0.043,0.171,0.085,CAPE FEAR VALLEY MEDICAL CENTER
8.84,3.03,36.00850,-78.94006,61141.12,16468.14,0.0,0.531,0.425,0.708,0.0,0.035,0.496,0.106,DUKE UNIVERSITY HOSPITAL
8.63,2.42,35.27341,-81.13688,59465.55,11765.64,0.0,0.197,0.442,0.59,0.0,0.0,0.0,0.049,GASTON MEMORIAL HOSPITAL
9.09,2.28,35.79986,-80.87863,63005.87,10658.70,0.0,0.46,1.15,0.23,0.0,0.0,0.23,0.0,IREDELL MEMORIAL HOSPITAL INC
7.56,2.74,35.60726,-77.40477,51229.68,14204.05,0.0,0.599,0.41,0.41,0.0,0.063,0.568,0.032,PITT COUNTY MEMORIAL HOSPITAL
5.60,2.88,36.09062,-80.27161,36208.82,15267.95,0.0,0.638,0.567,0.425,0.0,0.0,0.284,0.071,NORTH CAROLINA BAPTIST HOSPITAL
10.06,2.58,34.63723,-79.01213,70461.11,12970.17,0.0,0.077,0.232,0.772,0.0,0.0,0.0,0.154,SOUTHEASTERN REGIONAL MEDICAL CENTER
7.75,2.39,35.22196,-80.83287,52753.63,11482.07,0.0,1.167,0.35,0.817,0.0,0.0,0.0,0.058,PRESBYTERIAN HOSPITAL
5.25,3.11,35.90529,-79.04963,33510.38,17086.12,0.0,1.619,0.442,1.129,0.0,0.098,0.589,0.049,UNIVERSITY OF NORTH CAROLINA HOSPITAL
8.76,2.50,35.78523,-78.58836,60527.36,12373.96,0.0,0.217,0.544,0.254,0.0,0.109,0.181,0.036,WAKEMED RALEIGH CAMPUS
5.32,2.38,36.09251,-79.78855,34079.40,11439.91,0.0,0.085,0.569,0.085,0.0,0.0,0.057,0.028,MOSES H CONE MEMORIAL HOSPITAL THE
7.20,2.36,35.21029,-80.82084,48535.95,11321.40,0.0,0.317,1.11,2.141,0.0,0.0,0.079,0.159,CAROLINAS MED CENTER-MERCY
6.80,2.80,35.20397,-80.83908,45432.10,14634.98,0.0,0.11,0.622,0.256,0.0,0.0,0.073,0.037,CAROLINAS MEDICAL CENTER/BEHAV HEALTH
8.24,2.24,35.81801,-78.70283,56490.56,10328.29,0.0,0.261,0.627,0.574,0.0,0.0,0.0,0.104,REX HOSPITAL
7.51,2.32,35.20554,-79.45645,50895.35,10948.78,0.0,0.294,0.505,0.379,0.0,0.0,0.042,0.084,FIRSTHEALTH MOORE REGIONAL HOSPITAL
11.43,2.30,35.73751,-81.33702,80994.28,10828.34,0.0,0.212,0.423,0.635,0.0,0.0,0.0,0.212,FRYE REGIONAL MEDICAL CENTER
6.02,2.48,35.11420,-77.06568,39424.81,12169.73,0.0,0.276,0.344,0.207,0.0,0.0,0.069,0.0,CAROLINA EAST MEDICAL CENTER
6.64,2.52,34.23786,-77.94764,44185.91,12522.93,0.0,0.46,0.46,0.23,0.0,0.0,0.066,0.0,NEW HANOVER REGIONAL MEDICAL CENTER
8.72,2.39,36.04960,-78.90617,60176.12,11482.29,0.0,0.163,0.245,0.408,0.0,0.163,0.082,0.082,DURHAM REGIONAL HOSPITAL
5.88,2.35,46.88496,-96.78609,38311.85,11238.15,0.0,0.0,0.228,0.571,0.0,0.057,0.057,0.057,SANFORD MEDICAL CENTER FARGO
5.95,2.41,47.91045,-97.06742,38857.07,11693.24,0.0,0.204,2.042,0.204,0.0,0.102,0.0,0.102,ALTRU HOSPITAL
7.53,2.67,39.08582,-84.34886,51023.79,13694.74,0.0,0.277,0.138,0.277,0.0,0.0,0.0,0.138,MERCY HOSPITAL ANDERSON
8.15,3.08,39.13707,-84.50392,55819.35,16809.59,0.0,0.266,0.732,0.333,0.0,0.067,0.333,0.067,UNIVERSITY HOSPITAL INC
6.54,2.37,40.03064,-83.03440,43458.66,11323.30,0.0,0.152,0.516,0.243,0.0,0.0,0.091,0.0,RIVERSIDE METHODIST HOSPITAL
7.36,2.54,38.75320,-82.97800,49703.50,12693.62,0.0,0.095,0.286,0.286,0.0,0.095,0.381,0.0,SOUTHERN OHIO MEDICAL CENTER
6.16,2.29,40.73578,-84.08630,40482.44,10763.04,0.0,0.498,0.498,1.661,0.0,0.0,0.498,0.0,LIMA MEMORIAL HEALTH SYSTEM
6.47,2.31,40.57098,-83.12972,42882.73,10878.07,0.0,0.0,0.16,0.16,0.0,0.0,0.0,0.0,MARION GENERAL HOSPITAL
5.70,2.78,39.20680,-84.38093,36999.22,14510.33,0.0,0.402,0.604,0.201,0.0,0.0,0.0,0.0,JEWISH HOSPITAL LLC
6.75,2.66,39.96098,-82.99077,45049.79,13610.29,0.0,0.279,0.559,0.14,0.0,0.0,0.0,0.0,GRANT MEDICAL CENTER
9.60,2.42,41.08161,-81.50007,66960.07,11730.23,0.0,0.613,0.572,0.572,0.0,0.0,0.0,0.041,SUMMA HEALTH SYSTEMS HOSPITALS
7.01,2.21,41.44642,-82.70864,47005.32,10136.26,0.0,0.106,0.213,0.106,0.0,0.0,0.0,0.0,FIRELANDS REGIONAL MEDICAL CENTER
7.40,2.42,41.07747,-81.53042,50008.41,11732.35,0.0,0.282,0.62,0.113,0.0,0.0,0.113,0.0,AKRON GENERAL MEDICAL CENTER
6.61,2.38,39.95805,-83.02191,43975.97,11418.68,0.07,0.49,0.945,0.63,0.0,0.035,0.035,0.0,MOUNT CARMEL HEALTH
6.74,2.51,39.97510,-82.01812,44970.97,12405.71,0.0,0.076,0.76,0.304,0.0,0.0,0.0,0.0,GENESIS HEALTHCARE SYSTEM
6.00,2.11,41.38265,-81.73127,39238.78,9338.62,0.0,0.12,0.42,0.06,0.0,0.0,0.0,0.12,PARMA COMMUNITY GENERAL HOSPITAL
5.75,2.66,41.61788,-83.61632,37314.14,13576.55,0.0,0.314,0.314,0.0,0.0,0.0,0.21,0.105,UNIVERSITY OF TOLEDO MEDICAL CENTER
11.60,2.45,39.74547,-84.18523,82339.78,11958.83,0.0,0.532,0.975,0.177,0.0,0.044,0.044,0.266,MIAMI VALLEY HOSPITAL
12.03,2.34,39.78778,-84.23493,85601.06,11164.06,0.0,0.506,1.123,0.056,0.0,0.056,0.112,0.0,GOOD SAMARITAN HOSPITAL
6.24,2.18,39.31257,-84.51774,41135.06,9932.30,0.0,0.321,0.214,0.0,0.0,0.0,0.0,0.0,MERCY HOSPITAL FAIRFIELD
7.95,2.27,41.11441,-80.65565,54293.39,10575.71,0.059,0.415,0.356,0.178,0.0,0.0,0.119,0.296,ST ELIZABETH HEALTH CENTER
9.54,2.22,40.74115,-84.11804,66527.69,10221.46,0.0,0.524,0.851,0.131,0.0,0.0,0.0,0.0,ST RITA'S MEDICAL CENTER
11.43,2.50,41.67775,-83.59589,80990.28,12328.23,0.0,0.223,0.668,0.278,0.0,0.0,0.056,0.0,TOLEDO HOSPITAL THE
3.93,2.30,40.81219,-81.39625,23373.10,10854.22,0.0,0.259,0.605,0.864,0.0,0.0,0.0,0.173,MERCY MEDICAL CENTER
7.04,2.29,39.71750,-82.57772,47248.31,10715.05,0.0,0.096,0.193,0.0,0.0,0.0,0.0,0.096,FAIRFIELD MEDICAL CENTER
9.51,2.21,39.49896,-84.31496,66268.12,10152.00,0.0,0.348,0.581,0.0,0.0,0.0,0.232,0.116,ATRIUM MEDICAL CENTER
8.06,2.33,41.45013,-81.82397,55118.85,11035.00,0.0,0.133,0.797,0.465,0.0,0.0,0.066,0.133,FAIRVIEW HOSPITAL
8.42,2.40,39.69724,-84.19232,57881.80,11603.53,0.0,0.061,0.553,0.246,0.0,0.0,0.0,0.0,KETTERING MEDICAL CENTER
4.71,2.27,40.79609,-81.40360,29365.31,10582.94,0.0,0.213,0.373,0.266,0.0,0.053,0.053,0.0,AULTMAN HOSPITAL
8.79,2.76,39.99445,-83.01872,60732.16,14366.37,0.0,0.544,0.117,0.156,0.0,0.039,0.233,0.194,OHIO STATE UNIVERSITY HOSPITALS
5.98,2.47,39.92755,-83.81573,39144.15,12123.62,0.0,0.214,0.855,0.107,0.0,0.0,0.0,0.107,SPRINGFIELD REGIONAL MEDICAL CENTER
5.18,2.16,41.55725,-83.68141,32982.56,9714.59,0.0,0.367,0.459,0.0,0.0,0.0,0.183,0.092,ST LUKE'S HOSPITAL
6.89,2.34,41.01785,-83.65165,46082.56,11156.39,0.0,0.384,0.192,0.192,0.0,0.0,0.0,0.0,BLANCHARD VALLEY HOSPITAL
7.31,2.11,41.66317,-81.24696,49313.41,9331.83,0.0,0.132,0.46,0.132,0.0,0.0,0.132,0.0,LAKE HEALTH
10.75,2.76,41.66810,-83.54275,75775.35,14320.86,0.0,0.339,0.475,0.136,0.0,0.0,0.0,0.136,MERCY ST VINCENT MEDICAL CENTER
6.18,2.26,41.43653,-81.94451,40648.05,10477.25,0.0,0.088,0.263,0.702,0.0,0.0,0.088,0.0,ST JOHN MEDICAL CENTER
7.10,2.53,39.13975,-84.52173,47699.73,12565.12,0.0,0.071,0.353,0.141,0.0,0.0,0.0,0.0,GOOD SAMARITAN HOSPITAL
7.06,2.53,41.13385,-80.65678,47406.75,12552.33,0.0,1.212,0.606,0.0,0.0,0.0,0.121,0.121,NORTHSIDE MEDICAL CENTER
4.69,2.16,41.36649,-82.09708,29187.42,9745.62,0.0,0.258,0.344,0.086,0.0,0.0,0.086,0.0,EMH REGIONAL MEDICAL CENTER
9.68,2.20,40.80656,-81.51633,67574.73,10057.09,0.0,0.657,0.219,0.0,0.0,0.0,0.0,0.0,AFFINITY MEDICAL CENTER
7.23,2.14,41.37028,-81.83189,48693.93,9563.93,0.0,0.079,0.396,0.317,0.0,0.0,0.0,0.079,SOUTHWEST GENERAL HEALTH CENTER
6.87,2.41,39.39463,-82.96979,45978.29,11657.24,0.0,0.201,0.301,0.201,0.0,0.201,0.301,0.201,ADENA REGIONAL MEDICAL CENTER
6.10,2.35,39.12105,-84.51059,40073.78,11216.52,0.0,0.268,0.697,0.161,0.0,0.054,0.322,0.214,CHRIST HOSPITAL
6.86,2.22,41.43688,-82.23761,45880.81,10229.38,0.0,0.079,0.476,0.159,0.0,0.0,0.0,0.0,MERCY REGIONAL MEDICAL CENTER
6.53,2.28,39.25076,-84.34341,43353.00,10677.39,0.0,0.1,0.651,0.1,0.0,0.1,0.05,0.0,BETHESDA NORTH HOSPITAL
8.60,2.53,41.50248,-81.62110,59225.76,12562.24,0.025,0.469,0.271,0.814,0.0,0.049,0.691,0.222,CLEVELAND CLINIC
6.43,2.64,40.04876,-82.45029,42579.54,13421.15,0.0,0.195,0.0,0.195,0.0,0.0,0.195,0.0,LICKING MEMORIAL HOSPITAL
7.10,2.17,41.52013,-81.43291,47692.22,9817.58,0.053,0.16,0.747,0.64,0.0,0.053,0.16,0.0,HILLCREST HOSPITAL
7.59,3.16,36.14687,-95.96841,51461.06,17458.02,0.0,0.195,0.781,0.455,0.0,0.0,0.0,0.0,HILLCREST MEDICAL CENTER
8.44,2.18,35.22999,-97.44074,58067.05,9875.81,0.0,0.229,0.61,0.076,0.0,0.0,0.076,0.0,NORMAN REGIONAL HEALTH SYSTEM
12.10,2.48,35.52960,-97.57496,86151.85,12188.02,0.0,1.118,0.373,0.0,0.0,0.0,0.053,0.0,INTEGRIS BAPTIST MEDICAL CENTER
10.53,2.21,35.52531,-97.58461,74089.58,10108.68,0.0,0.616,0.37,0.0,0.0,0.0,0.123,0.0,DEACONESS HOSPITAL
6.61,2.61,35.47800,-97.52352,43969.00,13230.23,0.082,0.165,0.411,0.0,0.0,0.0,0.082,0.082,ST ANTHONY HOSPITAL
11.22,2.83,34.18908,-97.14128,79410.55,14866.09,0.0,0.561,0.701,0.561,0.0,0.0,0.28,0.14,MERCY MEMORIAL HEALTH CENTER
6.44,2.20,34.60992,-98.43419,42623.82,10080.76,0.0,0.216,0.973,0.865,0.0,0.0,0.324,0.0,COMANCHE COUNTY MEMORIAL HOSPITAL
6.16,2.35,36.06135,-95.95154,40520.73,11213.11,0.0,0.428,0.214,0.535,0.0,0.0,0.107,0.036,SAINT FRANCIS HOSPITAL INC
14.65,3.81,35.48138,-97.49624,105759.25,22453.42,0.0,2.396,1.042,1.458,0.0,0.0,0.625,0.208,O U MEDICAL CENTER
14.86,2.25,35.46721,-97.39370,107408.70,10413.05,0.0,0.261,0.871,0.174,0.0,0.0,0.0,0.0,MIDWEST REGIONAL MEDICAL CENTER
11.91,2.36,35.42168,-97.53306,84743.92,11285.58,0.0,0.0,0.974,0.0,0.0,0.0,0.195,0.097,INTEGRIS SOUTHWEST MEDICAL CENTER
6.07,2.23,36.13393,-95.96718,39801.02,10294.72,0.0,0.556,0.834,1.159,0.0,0.0,0.046,0.093,ST JOHN MEDICAL CENTER INC
11.08,2.27,36.03590,-95.86511,78303.57,10562.46,0.0,0.355,0.709,1.95,0.0,0.0,0.355,0.0,SOUTHCREST HOSPITAL
7.32,2.23,35.60901,-97.59429,49440.12,10248.93,0.0,0.0,0.272,0.0,0.0,0.0,0.0,0.0,OKLAHOMA HEART HOSPITAL
7.27,2.05,35.38969,-97.42688,49047.92,8871.12,0.0,0.0,0.0,0.0,0.0,0.0,0.0,0.0,OKLAHOMA HEART HOSPITAL SOUTH
6.12,2.56,45.50973,-122.77368,40204.12,12796.44,0.0,0.307,0.799,0.553,0.0,0.0,0.123,0.123,PROVIDENCE ST VINCENT MEDICAL CENTER
7.07,3.11,45.49956,-122.68802,47503.88,17070.35,0.0,0.63,0.236,0.866,0.0,0.079,0.079,0.079,OHSU HOSPITAL AND CLINICS
6.48,2.55,42.31769,-122.83333,42960.17,12759.62,0.0,0.105,0.523,0.105,0.0,0.105,0.209,0.0,ROGUE VALLEY MEDICAL CENTER
8.07,2.37,44.06773,-121.26817,55217.19,11397.00,0.0,0.098,0.393,0.0,0.0,0.098,0.098,0.0,ST CHARLES MEDICAL CENTER - BEND
6.34,2.66,42.25296,-121.78512,41881.16,13586.44,0.0,0.0,0.406,0.609,0.0,0.0,0.203,0.0,SKY LAKES MEDICAL CENTER
6.19,2.62,44.93267,-123.03418,40719.35,13306.13,0.0,0.0,0.685,0.228,0.0,0.114,0.0,0.0,SALEM HOSPITAL
6.02,2.44,45.51288,-122.55630,39417.08,11885.38,0.0,0.213,0.0,0.213,0.0,0.0,0.0,0.0,ADVENTIST MEDICAL CENTER
4.28,2.66,44.08146,-123.02694,26027.92,13596.42,0.0,0.081,0.565,0.323,0.0,0.081,0.161,0.0,SACRED HEART MEDICAL CENTER - RIVERBEND
5.16,2.26,41.40075,-75.64594,32799.30,10481.00,0.0,0.088,0.265,0.088,0.0,0.0,0.088,0.0,COMMUNITY MEDICAL CENTER
5.06,2.12,40.25296,-76.92151,32066.78,9464.28,0.0,0.161,0.323,0.081,0.0,0.0,0.0,0.0,HOLY SPIRIT HOSPITAL
9.63,2.91,40.96789,-76.60506,67217.56,15503.79,0.0,1.39,0.484,0.786,0.0,0.0,0.06,0.06,GEISINGER MEDICAL CENTER
11.55,2.34,42.11102,-80.07912,81977.91,11119.65,0.0,0.074,0.447,0.596,0.0,0.0,0.074,0.0,SAINT VINCENT HEALTH CENTER
6.65,2.66,40.43609,-79.98537,44243.00,13592.80,0.0,0.08,0.642,0.401,0.0,0.0,0.08,0.08,UPMC MERCY
4.84,2.19,40.71251,-80.32136,30323.16,9983.16,0.0,0.0,0.675,0.169,0.0,0.0,0.169,0.084,HERITAGE VALLEY BEAVER
3.19,2.26,39.90180,-79.73854,17685.17,10521.92,0.0,0.0,0.174,0.0,0.0,0.0,0.174,0.0,UNIONTOWN HOSPITAL
4.70,2.37,40.18302,-80.24767,29287.19,11360.30,0.0,0.0,0.367,0.551,0.0,0.0,0.092,0.0,WASHINGTON HOSPITAL THE
8.01,2.67,40.33271,-75.95020,54727.26,13691.13,0.0,0.321,0.688,0.138,0.0,0.046,0.0,0.0,READING HOSPITAL MEDICAL CENTER
6.11,2.26,41.24548,-77.01438,40139.04,10525.33,0.0,0.556,0.463,0.093,0.0,0.093,0.093,0.0,WILLIAMSPORT REGIONAL MEDICAL CENTER
6.36,2.64,39.94604,-76.71884,42024.17,13423.62,0.0,0.222,0.843,0.621,0.0,0.044,0.133,0.133,YORK HOSPITAL
10.03,2.39,40.60811,-75.39260,70294.37,11500.89,0.0,0.563,1.02,0.598,0.0,0.0,0.035,0.035,ST LUKE'S HOSPITAL BETHLEHEM
7.26,2.53,40.45705,-80.00363,48960.00,12586.00,0.0,0.164,0.383,0.0,0.0,0.0,0.273,0.055,ALLEGHENY GENERAL HOSPITAL
11.70,2.47,42.13338,-80.08703,83118.44,12137.09,0.0,0.343,0.48,0.685,0.0,0.069,0.069,0.069,UPMC HAMOT
5.52,2.25,40.32799,-76.44588,35565.80,10458.26,0.0,0.748,0.748,0.748,0.0,0.125,0.0,0.0,GOOD SAMARITAN HOSPITAL
5.52,2.69,40.25661,-76.87572,35596.97,13814.27,0.0,0.473,0.568,0.284,0.0,0.047,0.095,0.095,PINNACLE HEALTH HOSPITALS
5.29,2.22,40.52204,-78.39824,33802.48,10214.43,0.0,0.063,0.505,0.442,0.0,0.063,0.126,0.0,ALTOONA REGIONAL HEALTH SYSTEM
29.63,2.90,40.00955,-75.78622,220942.55,15464.00,0.0,0.703,0.527,0.703,0.0,0.0,0.0,0.0,BRANDYWINE HOSPITAL
4.61,2.34,41.98012,-76.52072,28562.97,11121.82,0.0,0.849,0.695,0.077,0.0,0.077,0.0,0.0,ROBERT PACKER HOSPITAL
4.74,2.31,41.11492,-78.77515,29605.22,10919.96,0.0,0.164,0.493,0.986,0.0,0.0,0.0,0.0,DUBOIS REGIONAL MEDICAL CENTER
7.85,2.53,40.37587,-75.97750,53526.42,12592.75,0.0,0.132,0.53,0.397,0.0,0.0,0.0,0.132,ST JOSEPH MEDICAL CENTER
19.24,2.36,40.11139,-75.09250,141061.08,11317.15,0.0,0.0,0.744,0.372,0.0,0.0,0.248,0.0,HOLY REDEEMER HOSPITAL AND MEDICAL CENTER
7.02,2.29,40.04740,-76.30540,47084.86,10735.88,0.0,0.207,0.344,0.482,0.0,0.0,0.276,0.103,LANCASTER GENERAL HOSPITAL
8.38,2.09,40.57319,-80.01455,57559.96,9237.22,0.0,0.222,0.444,0.333,0.0,0.0,0.444,0.444,UPMC PASSAVANT
14.13,2.60,40.12453,-75.33533,101776.53,13106.80,0.0,0.0,1.459,0.417,0.0,0.0,0.0,0.208,MONTGOMERY HOSPITAL
5.50,2.31,40.32674,-78.92197,35448.83,10872.37,0.0,0.336,0.616,0.056,0.0,0.056,0.0,0.056,CONEMAUGH VALLEY MEMORIAL HOSPITAL
13.11,3.12,39.95045,-75.19259,93924.26,17098.89,0.0,0.604,0.503,0.453,0.05,0.101,0.101,0.151,HOSPITAL OF UNIV OF PENNSYLVANIA
9.76,2.71,40.07160,-74.98341,68180.61,13995.52,0.0,0.388,0.581,0.291,0.0,0.0,0.145,0.0,ARIA HEALTH
10.04,2.59,40.60000,-75.47000,70353.80,13062.76,0.0,0.661,0.451,0.24,0.0,0.0,0.03,0.09,LEHIGH VALLEY HOSPITAL
7.86,2.25,41.25860,-75.86729,53584.98,10457.35,0.0,0.051,0.511,0.307,0.0,0.102,0.307,0.0,WILKES-BARRE GENERAL HOSPITAL
6.05,2.20,40.30103,-79.55505,39640.65,10035.71,0.0,0.117,0.585,0.234,0.0,0.0,0.0,0.0,EXCELA HEALTH WESTMORELAND REGIONAL HOSPITAL
5.92,2.27,39.93492,-77.64744,38678.00,10575.24,0.0,0.087,0.696,0.348,0.0,0.0,0.087,0.087,CHAMBERSBURG HOSPITAL
11.58,2.25,40.04475,-75.50425,82161.75,10420.62,0.0,0.208,0.312,0.0,0.0,0.0,0.104,0.104,MAIN LINE HOSPITAL PAOLI
17.25,2.74,40.68708,-75.24272,125763.62,14186.75,0.0,0.353,0.265,0.353,0.0,0.0,0.177,0.0,EASTON HOSPITAL
11.85,2.67,40.44190,-79.96044,84220.60,13643.47,0.0,0.873,0.738,0.291,0.0,0.0,0.157,0.022,UPMC PRESBYTERIAN SHADYSIDE
8.94,2.18,40.86656,-79.88351,61857.28,9930.61,0.0,0.152,0.607,0.0,0.0,0.0,0.0,0.0,BUTLER MEMORIAL HOSPITAL
11.09,3.08,39.94969,-75.15712,78408.20,16783.96,0.0,0.442,0.544,1.19,0.0,0.136,0.986,0.102,THOMAS JEFFERSON UNIVERSITY HOSPITAL
19.83,2.59,39.85598,-75.36791,145617.10,13032.95,0.0,0.449,0.729,0.28,0.0,0.112,0.056,0.0,CROZER CHESTER MEDICAL CENTER
11.18,2.66,39.98905,-75.27707,79071.80,13589.60,0.0,0.383,0.255,0.064,0.0,0.128,0.128,0.064,MAIN LINE HOSPITAL LANKENAU
7.96,2.53,40.99225,-75.17466,54312.70,12612.00,0.0,0.197,0.295,0.0,0.0,0.0,0.0,0.0,POCONO MEDICAL CENTER
7.59,2.28,40.30531,-75.14763,51493.65,10642.74,0.0,0.115,0.115,0.344,0.0,0.0,0.0,0.0,DOYLESTOWN HOSPITAL
5.96,2.24,41.23235,-80.49626,38942.07,10341.33,0.0,0.244,0.366,0.244,0.0,0.0,0.0,0.0,SHARON REGIONAL HEALTH SYSTEM
12.84,2.71,39.95825,-75.19909,91855.64,13980.75,0.0,0.265,0.529,0.0,0.0,0.176,0.529,0.088,PENN PRESBYTERIAN MEDICAL CENTER
14.92,2.88,39.94560,-75.15561,107841.21,15284.88,0.0,0.245,0.653,0.245,0.0,0.0,0.245,0.326,PENNSYLVANIA HOSP OF THE UNIV OF PA HEALTH SYS
6.43,2.07,40.37782,-80.06589,42607.22,9048.78,0.0,0.0,0.735,0.735,0.0,0.0,0.0,0.0,ST CLAIR MEMORIAL HOSPITAL
12.68,2.60,40.12077,-75.11818,90642.04,13107.13,0.0,0.352,0.664,0.664,0.0,0.078,0.469,0.0,ABINGTON MEMORIAL HOSPITAL
7.57,2.18,41.41276,-75.65399,51351.47,9917.47,0.0,0.442,0.53,0.265,0.0,0.0,0.265,0.0,REGIONAL HOSPITAL OF SCRANTON
6.20,3.23,40.26468,-76.67582,40834.83,17984.08,0.0,0.684,1.057,0.56,0.0,0.124,0.062,0.187,MILTON S HERSHEY MEDICAL CENTER
8.80,2.32,40.20064,-74.92952,60833.36,10993.06,0.0,0.153,0.255,0.662,0.0,0.0,0.102,0.0,ST MARY MEDICAL CENTER
10.90,2.49,40.64463,-75.40842,76924.82,12257.00,0.0,0.335,0.503,0.419,0.0,0.0,0.0,0.168,LEHIGH VALLEY HOSPITAL - MUHLENBERG
5.39,2.12,40.31802,-79.93494,34546.24,9445.95,0.0,0.247,0.742,0.0,0.0,0.0,0.0,0.0,JEFFERSON REGIONAL MEDICAL CENTER
11.13,2.38,41.25855,-75.81041,78735.39,11422.61,0.0,0.185,0.556,0.0,0.0,0.0,0.0,0.0,GEISINGER WYOMING VALLEY MEDICAL CENTER
11.08,2.98,41.81254,-71.40760,78321.80,16073.13,0.0,0.53,0.838,0.53,0.0,0.044,0.0,0.177,RHODE ISLAND HOSPITAL
10.05,2.62,42.00497,-71.49561,70431.36,13265.50,0.0,0.222,0.0,0.222,0.0,0.0,0.0,0.0,LANDMARK MEDICAL CENTER  INC
10.96,2.92,41.85172,-71.39826,77395.92,15587.00,0.0,0.571,0.714,0.5,0.0,0.071,0.0,0.143,MIRIAM HOSPITAL
6.18,2.98,32.78272,-79.94543,40645.76,16049.40,0.0,0.388,0.277,0.0,0.0,0.0,0.444,0.0,MUSC MEDICAL CENTER
6.66,2.53,34.96733,-81.94021,44382.74,12610.18,0.0,0.367,0.612,0.163,0.0,0.0,0.082,0.041,SPARTANBURG REGIONAL MEDICAL CENTER
9.11,3.00,34.02839,-81.03539,63216.08,16211.85,0.0,0.91,0.486,0.364,0.0,0.121,0.182,0.061,PALMETTO HEALTH RICHLAND
7.88,2.59,33.37683,-79.29450,53722.38,13020.56,0.0,0.0,0.178,1.962,0.0,0.0,0.0,0.0,GEORGETOWN MEMORIAL HOSPITAL
12.00,2.22,34.83965,-82.42147,85428.94,10222.81,0.0,0.428,0.714,0.071,0.0,0.0,0.0,0.214,ST FRANCIS-DOWNTOWN
7.44,2.09,34.01469,-81.01343,50357.48,9213.48,0.0,0.0,0.585,0.251,0.0,0.0,0.0,0.0,SISTERS OF CHARITY PROVIDENCE HOSPITALS
11.80,2.45,34.51119,-82.64683,83867.04,11981.02,0.0,0.34,0.453,0.17,0.0,0.057,0.113,0.0,ANMED HEALTH
9.92,2.46,34.19543,-79.76256,69378.42,12025.58,0.0,0.836,0.148,0.443,0.0,0.049,0.098,0.049,MCLEOD REGIONAL MEDICAL CENTER-PEE DEE
8.10,2.62,34.81904,-82.41308,55392.56,13320.18,0.0,0.303,0.477,0.91,0.0,0.043,0.0,0.087,GREENVILLE MEMORIAL HOSPITAL
12.93,2.29,32.97605,-80.07302,92566.38,10767.00,0.0,0.707,0.413,0.531,0.0,0.0,0.295,0.059,TRIDENT MEDICAL CENTER
11.44,2.17,33.70704,-78.89487,81081.03,9830.00,0.0,0.359,0.646,0.072,0.0,0.072,0.215,0.072,GRAND STRAND REG MED CENTER
8.18,2.18,32.78211,-79.95018,56056.70,9931.85,0.0,0.475,0.543,0.0,0.0,0.068,0.136,0.0,ROPER HOSPITAL
11.98,2.23,34.19543,-79.76256,85231.80,10297.00,0.0,0.741,0.297,0.222,0.0,0.0,0.445,0.0,CAROLINAS HOSPITAL SYSTEM
6.14,2.54,45.46141,-98.47929,40331.16,12631.65,0.0,0.199,0.995,0.0,0.0,0.0,0.199,0.199,AVERA ST LUKES
5.59,2.34,43.53562,-96.74305,36112.05,11137.45,0.0,0.116,0.232,0.0,0.0,0.0,0.0,0.058,SANFORD USD MEDICAL CENTER
7.02,2.81,44.05563,-103.22633,47081.41,14780.79,0.0,0.175,0.7,0.35,0.0,0.175,0.438,0.175,RAPID CITY REGIONAL HOSPITAL
5.54,2.24,43.49092,-96.78037,35740.24,10376.61,0.0,0.0,0.546,0.0,0.0,0.0,0.0,0.0,AVERA HEART HOSPITAL OF SOUTH DAKOTA LLC
4.65,2.40,35.63906,-88.83207,28888.97,11602.21,0.0,0.534,0.762,0.381,0.0,0.0,0.114,0.076,JACKSON-MADISON COUNTY GENERAL HOSPITAL
5.87,2.05,35.75588,-83.95808,38282.45,8896.00,0.0,0.424,0.636,0.0,0.0,0.0,0.106,0.0,BLOUNT MEMORIAL HOSPITAL
6.69,2.25,36.58587,-82.25703,44602.67,10470.33,0.0,0.208,0.764,0.139,0.0,0.0,0.069,0.069,WELLMONT BRISTOL REGIONAL MEDICAL CENTER
6.62,2.45,35.93985,-83.94326,44010.20,11956.77,0.0,0.482,0.214,0.161,0.0,0.0,0.161,0.321,UNIVERSITY OF TN MEMORIAL HOSPITAL
6.33,2.17,36.55401,-82.55483,41822.76,9811.89,0.0,0.223,0.89,0.223,0.0,0.0,0.111,0.056,WELLMONT HOLSTON VALLEY MEDICAL CENTER
5.30,2.16,36.21370,-83.29406,33885.81,9771.00,0.0,0.167,0.0,0.167,0.0,0.0,0.0,0.0,MORRISTOWN HAMBLEN HOSPITAL ASSOCIATION
5.57,2.24,35.98589,-84.28055,35951.17,10378.17,0.0,0.0,0.56,0.373,0.093,0.0,0.187,0.0,METHODIST MEDICAL CENTER OF OAK RIDGE
6.40,2.83,36.14316,-86.80048,42352.07,14921.86,0.0,1.184,0.219,0.57,0.0,0.088,0.526,0.088,VANDERBILT UNIVERSITY HOSPITAL
8.11,2.28,35.12837,-89.86202,55473.13,10638.80,0.031,0.519,0.427,5.338,0.0,0.0,0.153,0.092,BAPTIST MEMORIAL HOSPITAL
11.03,2.52,35.13640,-90.01928,77976.05,12497.81,0.0,0.402,0.378,0.071,0.0,0.095,0.213,0.047,METHODIST HEALTHCARE MEMPHIS HOSPITALS
5.36,2.37,36.17121,-85.50938,34315.05,11331.27,0.0,0.307,0.538,0.077,0.0,0.0,0.077,0.0,COOKEVILLE REGIONAL MEDICAL CENTER
10.90,2.30,36.30767,-82.38497,76982.59,10858.65,0.04,0.324,0.364,0.283,0.0,0.081,0.0,0.04,JOHNSON CITY MEDICAL CENTER
6.47,2.33,35.60668,-87.06635,42851.75,11087.25,0.0,0.161,0.242,0.242,0.0,0.0,0.0,0.081,MAURY REGIONAL HOSPITAL
6.10,2.17,36.12859,-86.84559,40053.04,9799.26,0.0,0.209,0.334,0.042,0.0,0.0,0.0,0.083,ST THOMAS HOSPITAL
6.37,2.11,35.04157,-85.26037,42132.14,9385.13,0.0,0.146,0.291,0.327,0.0,0.0,0.0,0.036,MEMORIAL HEALTHCARE SYSTEM INC
5.78,2.54,35.05068,-85.28823,37560.31,12653.25,0.0,0.576,0.36,5.972,0.0,0.0,0.432,0.072,ERLANGER MEDICAL CENTER
7.26,2.30,35.99233,-83.92697,48948.33,10814.10,0.0,0.514,0.799,0.114,0.057,0.0,0.057,0.0,TENNOVA HEALTHCARE
5.40,2.16,35.95747,-83.93660,34642.06,9776.25,0.0,0.581,0.485,0.194,0.0,0.0,0.291,0.097,FORT SANDERS REGIONAL MEDICAL CENTER
11.15,2.44,35.03467,-85.26735,78887.42,11907.45,0.0,0.514,0.617,0.206,0.0,0.0,0.103,0.103,PARKRIDGE MEDICAL CENTER
10.81,2.67,36.15310,-86.80910,76262.44,13649.19,0.0,0.499,0.499,0.071,0.0,0.0,0.214,0.0,CENTENNIAL MEDICAL CENTER
5.49,2.13,35.91765,-84.10080,35368.53,9519.31,0.0,0.065,0.524,0.0,0.0,0.0,0.065,0.065,PARKWEST MEDICAL CENTER
12.97,2.36,35.09925,-89.86301,92844.12,11259.50,0.0,1.178,0.079,0.157,0.0,0.079,0.079,0.0,ST FRANCIS HOSPITAL
16.96,2.30,35.68445,-88.85461,123552.94,10854.25,0.0,0.492,0.656,0.492,0.0,0.0,0.0,0.0,REGIONAL HOSPITAL OF JACKSON
9.27,2.31,30.65598,-96.34672,64449.72,10906.44,0.0,0.414,0.553,0.207,0.0,0.0,0.276,0.069,ST JOSEPH REGIONAL HEALTH CENTER
6.76,3.89,29.31233,-94.77317,45141.73,23017.20,0.0,0.15,0.903,0.301,0.0,0.0,0.602,0.15,UNIVERSITY OF TEXAS MEDICAL BRANCH GAL
10.00,2.17,30.08729,-94.13292,70064.08,9791.17,0.0,0.183,0.183,0.061,0.0,0.0,0.0,0.0,CHRISTUS HOSPITAL
9.57,2.24,32.50219,-94.73025,66711.52,10355.90,0.0,0.349,0.489,0.0,0.0,0.0,0.0,0.209,GOOD SHEPHERD MEDICAL CENTER
13.56,2.22,33.57524,-101.89272,97400.26,10229.87,0.0,0.907,1.088,0.227,0.0,0.045,0.181,0.091,COVENANT MEDICAL CENTER
9.57,2.34,27.77751,-97.39515,66710.18,11117.41,0.0,0.509,0.339,0.0,0.0,0.042,0.127,0.127,CHRISTUS SPOHN HOSPITAL CORPUS CHRISTI
6.98,2.90,31.07837,-97.36403,46780.75,15448.79,0.044,0.4,0.667,0.133,0.0,0.0,0.0,0.044,SCOTT & WHITE MEMORIAL HOSPITAL
12.34,2.20,30.30491,-97.74540,88042.00,10045.32,0.0,0.365,0.426,0.243,0.0,0.122,0.0,0.182,SETON MEDICAL CENTER AUSTIN
10.67,2.49,29.43360,-98.49265,75157.09,12280.71,0.0,0.524,0.524,0.131,0.0,0.0,0.044,0.065,BAPTIST MEDICAL CENTER
14.72,2.19,32.33824,-95.29122,106322.63,9975.82,0.0,0.105,0.369,0.211,0.0,0.053,0.053,0.105,EAST TEXAS MEDICAL CENTER
9.58,2.25,32.34280,-95.29201,66802.53,10449.98,0.0,0.0,0.796,0.044,0.0,0.044,0.044,0.044,MOTHER FRANCES HOSPITAL
15.08,2.75,26.26353,-98.18455,109119.95,14286.86,0.0,0.215,0.215,0.0,0.0,0.0,0.0,0.0,SOUTH TEXAS HEALTH SYSTEM
8.73,2.77,31.84507,-102.37373,60294.95,14438.15,0.0,0.169,0.169,0.0,0.0,0.0,0.169,0.0,MEDICAL CENTER HOSPITAL
6.19,2.48,31.99616,-102.09950,40712.00,12231.58,0.0,0.258,1.033,0.129,0.0,0.129,0.258,0.0,MIDLAND MEMORIAL HOSPITAL
6.79,2.37,32.73780,-97.33899,45326.99,11387.61,0.0,0.405,0.405,0.699,0.0,0.11,0.0,0.11,TEXAS HEALTH HARRIS METHODIST FORT WORTH
12.95,2.26,28.80765,-96.99896,92700.67,10505.30,0.0,0.418,0.418,0.0,0.0,0.0,0.0,0.139,DETAR HOSPITAL NAVARRO
6.31,2.48,29.81230,-95.43010,41689.13,12171.39,0.0,0.508,0.294,0.16,0.0,0.0,0.027,0.107,MEMORIAL HERMANN HOSPITAL SYSTEM
9.48,2.55,29.70719,-95.40048,66066.32,12736.59,0.0,1.855,0.379,0.759,0.0,0.042,0.506,0.042,ST LUKES EPISCOPAL HOSPITAL
8.95,2.30,33.42875,-94.04725,61966.86,10835.27,0.0,0.0,0.69,0.172,0.0,0.172,0.0,0.0,WADLEY REGIONAL MEDICAL CENTER
6.14,2.44,35.19934,-101.92186,40341.81,11904.93,0.0,0.213,0.213,0.0,0.0,0.0,0.107,0.0,NORTHWEST TEXAS HOSPITAL
16.45,2.19,31.33632,-94.74205,119644.25,9945.19,0.0,0.382,1.782,0.0,0.0,0.0,0.127,0.0,MEMORIAL HEALTH SYSTEM OF EAST TEXAS- LUFKIN
11.38,2.49,30.28473,-95.46714,80670.19,12272.27,0.0,1.212,0.727,0.162,0.0,0.0,0.242,0.242,CONROE REGIONAL MEDICAL CENTER
9.53,2.71,32.47171,-99.73315,66425.64,14011.55,0.0,0.555,0.317,0.0,0.0,0.0,0.0,0.0,HENDRICK MEDICAL CENTER
6.05,2.15,35.19533,-101.91907,39663.57,9630.39,0.0,0.438,0.501,0.188,0.0,0.063,0.0,0.063,BAPTIST ST ANTHONYS HEALTH SYSTEM-BAPTIST CAMPUS
10.52,2.92,29.42825,-98.49859,74000.79,15582.79,0.0,0.662,0.357,0.051,0.0,0.0,0.0,0.0,CHRISTUS SANTA ROSA HOSPITAL
8.22,2.20,33.21990,-97.59383,56378.73,10039.18,0.0,0.0,0.0,0.0,0.343,0.0,0.0,0.0,WISE REGIONAL HEALTH SYSTEM
13.60,2.37,30.58113,-96.29051,97708.09,11369.91,0.0,0.232,0.464,1.16,0.0,0.464,0.0,0.232,COLLEGE STATION MEDICAL CENTER
7.71,2.42,33.71085,-96.58493,52410.96,11736.84,0.13,0.26,0.389,0.0,0.0,0.0,0.13,0.13,TEXOMA MEDICAL CENTER
12.62,2.27,31.42009,-100.47013,90187.36,10563.55,0.0,0.377,0.377,0.755,0.0,0.189,0.0,0.189,SAN ANGELO COMMUNITY MEDICAL CENTER
10.71,2.46,29.71020,-95.39956,75502.50,12027.57,0.0,1.047,0.209,0.449,0.0,0.0,0.06,0.15,METHODIST HOSPITALTHE
9.16,2.41,29.50795,-98.57224,63531.07,11676.18,0.0,0.797,0.319,0.1,0.0,0.0,0.04,0.02,METHODIST HOSPITAL
9.95,2.61,30.28957,-97.72584,69624.16,13231.04,0.0,0.073,0.145,0.871,0.0,0.0,0.0,0.0,ST DAVIDS MEDICAL CENTER
7.43,2.42,32.88076,-96.76226,50275.14,11769.24,0.0,0.359,0.615,0.256,0.0,0.051,0.0,0.0,TEXAS HEALTH PRESBYTERIAN HOSPITAL  DALLAS
14.60,2.20,31.32794,-94.75614,105384.83,10032.89,0.0,0.206,0.206,0.0,0.0,0.412,0.0,0.0,WOODLAND HEIGHTS MEDICAL CENTER
13.05,2.23,32.40574,-99.76486,93493.62,10255.95,0.0,0.161,0.805,0.161,0.0,0.0,0.322,0.483,ABILENE REGIONAL MEDICAL CENTER
6.49,2.19,31.46574,-100.43466,43007.27,9989.00,0.0,0.0,0.805,0.0,0.0,0.0,0.101,0.101,SHANNON MEDICAL CENTER
10.65,2.47,32.43227,-97.80315,75006.71,12118.38,0.0,0.0,0.89,0.89,0.0,0.0,0.0,0.0,LAKE GRANBURY MEDICAL CENTER
10.92,2.39,30.01994,-95.44379,77065.33,11538.40,0.0,0.592,0.395,1.382,0.0,0.0,0.099,0.0,HOUSTON NORTHWEST MEDICAL CENTER
14.66,2.38,32.91132,-96.77424,105838.14,11440.41,0.0,2.136,0.57,1.353,0.0,0.0,0.142,0.142,MEDICAL CITY DALLAS HOSPITAL
12.26,2.25,33.02168,-96.76621,87438.75,10436.00,0.0,0.895,0.335,0.335,0.0,0.0,0.112,0.0,MEDICAL CENTER OF PLANO
7.18,2.27,30.08682,-95.62403,48312.17,10603.54,0.0,0.25,0.876,0.125,0.0,0.0,1.002,0.0,TOMBALL REGIONAL MEDICAL CENTER
13.53,2.40,32.73563,-97.34483,97184.30,11581.55,0.0,0.629,0.707,0.629,0.0,0.079,0.236,0.079,PLAZA MEDICAL CENTER OF FORT WORTH
8.71,2.34,30.22723,-97.77447,60090.71,11127.36,0.0,0.087,0.693,0.866,0.0,0.087,0.26,0.087,ST DAVID'S SOUTH AUSTIN MEDICAL CENTER
10.64,2.54,30.51034,-97.71486,74948.14,12636.38,0.0,0.212,0.635,1.269,0.0,0.0,0.0,0.212,ROUND ROCK MEDICAL CENTER
10.02,2.30,33.21746,-97.16488,70193.77,10800.38,0.0,0.158,0.631,0.315,0.0,0.0,0.0,0.0,TEXAS HEALTH PRESBYTERIAN HOSPITAL DENTON
12.53,3.14,27.69288,-97.34476,89499.93,17253.57,0.0,0.578,0.826,0.33,0.0,0.0,1.322,0.0,CORPUS CHRISTI MEDICAL CENTERTHE
9.55,2.25,33.46323,-94.07490,66601.08,10423.27,0.0,0.068,0.615,0.205,0.0,0.0,0.0,0.0,CHRISTUS ST MICHAEL HEALTH SYSTEM
12.89,2.42,30.41163,-97.70649,92279.91,11745.91,0.0,0.108,0.648,2.592,0.0,0.0,0.0,0.216,NORTH AUSTIN MEDICAL CENTER
6.72,2.27,32.78814,-96.78083,44839.95,10617.74,0.0,0.0,1.296,0.0,0.0,0.0,0.0,0.0,BAYLOR HEART AND VASCULAR HOSPITAL
8.36,2.88,26.25286,-98.20590,57387.20,15263.07,0.0,0.168,0.168,0.084,0.0,0.084,0.0,0.084,DOCTORS HOSPITAL AT RENAISSANCE
6.18,2.09,33.60310,-101.91587,40648.03,9219.00,0.0,0.628,0.0,0.0,0.0,0.0,0.0,0.0,LUBBOCK HEART HOSPITAL LP
7.67,2.10,29.49011,-98.54746,52104.73,9318.00,0,0,0,0,0,0,0,0,TEXSAN HEART HOSPITAL
4.86,2.28,41.22300,-111.97383,30526.76,10696.65,0.0,0.106,0.319,1.171,0.0,0.0,0.0,0.106,MCKAY DEE HOSPITAL CENTER
5.48,2.45,40.65922,-111.89189,35307.95,12001.34,0.0,0.542,1.151,1.219,0.0,0.0,0.135,0.0,INTERMOUNTAIN MEDICAL CENTER
4.87,2.37,37.09986,-113.55271,30571.58,11323.33,0.0,0.414,1.241,0.0,0.0,0.0,0.103,0.103,DIXIE REGIONAL MEDICAL CENTER
8.27,2.28,40.68610,-111.85735,56689.62,10632.15,0.0,0.218,0.871,0.0,0.0,0.109,0.0,0.0,ST MARKS HOSPITAL
5.55,2.95,44.47966,-73.19412,35789.20,15842.43,0.0,0.062,0.559,0.311,0.0,0.124,0.062,0.186,FLETCHER ALLEN HOSPITAL OF VERMONT
5.23,2.38,38.40552,-78.85730,33363.34,11425.34,0.0,0.239,0.319,1.355,0.0,0.0,0.08,0.0,ROCKINGHAM MEMORIAL HOSPITAL
6.28,2.53,39.19345,-78.19599,41428.74,12599.65,0.0,0.145,0.485,0.436,0.0,0.097,0.048,0.0,WINCHESTER MEDICAL CENTER INC
6.96,2.53,36.86268,-76.30355,46658.67,12612.62,0.0,0.697,0.161,1.179,0.0,0.0,0.054,0.107,SENTARA NORFOLK GENERAL HOSPITAL
8.15,3.08,38.02573,-78.51526,55777.13,16826.48,0.049,0.44,0.488,0.195,0.0,0.049,0.977,0.098,UNIVERSITY OF VIRGINIA MEDICAL CENTER
7.23,2.28,36.89933,-76.28157,48736.75,10664.42,0.0,0.17,0.682,0.0,0.0,0.0,0.0,0.0,BON SECOURS - DEPAUL MEDICAL CENTER
8.34,2.48,38.09436,-78.98659,57283.68,12189.16,0.0,0.0,0.48,1.824,0.0,0.0,0.0,0.0,AUGUSTA HEALTH
5.52,2.45,37.41368,-79.16870,35544.71,12005.44,0.0,0.353,0.812,0.071,0.0,0.0,0.071,0.0,CENTRA  HEALTH INC
9.18,2.57,38.31158,-77.48061,63715.33,12908.95,0.0,0.382,0.873,0.273,0.0,0.0,0.0,0.0,MARY WASHINGTON HOSPITAL INC
7.91,2.52,37.25129,-79.94125,53963.82,12483.27,0.0,0.36,0.36,0.108,0.0,0.0,0.036,0.18,CARILION ROANOKE MEMORIAL CENTER
9.43,3.29,37.54330,-77.42932,65625.07,18461.22,0.0,0.898,0.691,0.622,0.0,0.0,0.622,0.138,MEDICAL COLLEGE OF VIRGINIA HOSPITALS
6.19,2.30,39.07405,-77.47754,40769.23,10819.62,0.0,0.166,0.332,0.166,0.0,0.0,0.0,0.0,INOVA LOUDOUN HOSPITAL
11.62,2.25,37.26336,-80.03166,82520.74,10442.34,0.0,0.073,0.584,1.24,0.0,0.073,0.073,0.073,LEWISGALE MEDICAL CENTER
6.38,2.50,37.06523,-76.48417,42229.36,12395.84,0.0,1.03,0.317,0.475,0.0,0.0,0.079,0.0,RIVERSIDE REGIONAL MEDICAL CENTER
7.54,3.61,36.86449,-76.02844,51120.07,20887.29,0.0,0.214,0.286,1.072,0.0,0.0,0.071,0.071,SENTARA VIRGINIA BEACH GENERAL HOSPITAL
9.74,2.43,37.58440,-77.51252,68016.60,11801.73,0.0,0.066,0.396,0.132,0.0,0.0,0.132,0.066,BON SECOURS - ST MARYS HOSPITAL OF RICHMOND
5.35,2.63,38.85764,-77.22772,34307.51,13385.27,0.0,0.439,0.718,0.399,0.0,0.0,0.199,0.12,INOVA FAIRFAX HOSPITAL
7.69,2.14,37.33700,-76.74046,52288.71,9604.21,0.0,0.0,0.138,1.66,0.0,0.0,0.138,0.138,SENTARA WILLIAMSBURG REGIONAL MEDICAL CENTER
13.18,2.31,37.18253,-77.35957,94510.53,10876.67,0.0,0.884,0.491,0.098,0.0,0.0,0.0,0.0,SOUTHSIDE REGIONAL MEDICAL CENTER
10.44,2.24,37.62931,-77.38804,73417.68,10377.24,0.0,0.388,0.465,0.233,0.0,0.0,0.0,0.078,BON SECOURS - MEMORIAL REGIONAL MEDICAL
5.30,2.12,38.02176,-78.44530,33867.09,9432.49,0.0,0.0,0.368,0.735,0.0,0.0,0.0,0.092,MARTHA JEFFERSON HOSPITAL
