size_charge,size_pay,lat,lon,charge,pay,Air,BloodInf,UrinaryInf,Falls,Mismatch,Objects,Sores,Sugar,name
2.64,2.26,35.83746,-90.70386,6886.29,5129.67,0.0,0.119,0.474,0.178,0.0,0.0,0.059,0.0,ST BERNARDS MEDICAL CTR
5.13,2.15,36.18082,-94.13644,18160.87,4642.55,0.0,0.327,0.245,0.818,0.0,0.0,0.164,0.0,NW ARKANSAS HOSPITALS LLC
5.62,2.18,34.46784,-93.06667,20362.57,4767.75,0.0,0.343,0.942,0.171,0.0,0.0,0.171,0.0,ST JOSEPHS MERCY HEALTH CENTER INC
2.98,2.06,36.34295,-92.39442,8388.65,4244.22,0.0,0.0,0.484,0.194,0.0,0.097,0.194,0.0,BAXTER REGIONAL MEDICAL CENTER
3.60,2.14,35.08546,-92.45774,11235.45,4587.55,0.0,0.62,1.24,0.155,0.0,0.0,0.0,0.0,CONWAY REGIONAL MEDICAL CENTER
5.10,2.10,34.77770,-92.12539,18003.86,4422.57,0.0,0.625,0.803,0.0,0.0,0.0,0.357,0.089,BAPTIST HEALTH MEDICAL CENTER NORTH LITTLE ROCK
4.90,2.20,35.28275,-93.14901,17098.17,4880.78,0.0,0.429,1.287,0.0,0.0,0.0,0.0,0.215,ST MARYS REGIONAL MEDICAL CENTER
4.62,2.42,35.14320,-90.18837,15822.69,5895.15,0.0,0.303,0.303,0.0,0.0,0.0,0.0,0.0,CRITTENDEN MEMORIAL HOSPITAL
3.37,2.15,35.37445,-94.41868,10171.46,4659.65,0.0,0.277,1.248,0.486,0.0,0.0,0.139,0.069,SPARKS REGIONAL MEDICAL CENTER
6.16,2.09,35.35395,-94.35262,22816.06,4388.28,0.0,0.604,0.302,0.906,0.0,0.0,0.101,0.0,ST EDWARD MERCY MEDICAL CENTER
5.54,2.28,34.18894,-92.01886,20017.81,5239.62,0.0,0.453,0.567,0.0,0.0,0.0,0.113,0.0,JEFFERSON REGIONAL MEDICAL CENTER
3.49,2.19,34.35877,-92.78638,10730.17,4857.42,0.0,0.0,1.401,0.0,0.0,0.0,0.0,0.0,HOT SPRING COUNTY MEDICAL CENTER
7.33,2.18,34.48600,-93.03521,28093.82,4795.73,0.0,0.423,0.846,0.423,0.212,0.0,0.212,0.0,NATIONAL PARK MEDICAL CENTER
3.90,2.12,34.57290,-92.58508,12586.80,4523.93,0.0,0.442,0.221,0.0,0.0,0.0,0.0,0.0,SALINE MEMORIAL HOSPITAL
4.82,2.20,33.22053,-92.67102,16756.88,4878.41,0.0,0.379,0.947,0.0,0.0,0.189,0.0,0.0,MEDICAL CENTER SOUTH ARKANSAS
4.33,2.13,34.74866,-92.35422,14523.64,4566.27,0.0,0.656,0.656,0.231,0.0,0.039,0.347,0.077,BAPTIST HEALTH MEDICAL CENTER-LITTLE ROCK
3.64,2.21,35.80838,-90.66658,11384.58,4946.92,0.0,0.134,0.939,0.402,0.0,0.0,0.134,0.134,NEA BAPTIST MEMORIAL HOSPITAL
5.43,2.26,35.76927,-91.63408,19480.56,5133.75,0.0,0.87,0.497,0.249,0.0,0.0,0.373,0.0,WHITE RIVER MEDICAL CENTER
10.45,3.10,37.63362,-122.08802,42212.75,8965.92,0.0,1.826,0.609,0.812,0.0,0.0,0.203,0.0,ST ROSE HOSPITAL
9.80,2.54,37.59283,-122.38249,39256.75,6412.00,0.0,0.495,0.619,1.114,0.0,0.0,0.0,0.0,PENINSULA MEDICAL CENTER
7.69,2.67,38.57053,-121.45216,29703.25,6998.67,0.0,0.499,0.666,0.416,0.0,0.0,0.166,0.083,MERCY GENERAL HOSPITAL
9.09,2.76,33.97659,-117.38184,36072.00,7418.00,0.0,0.54,0.432,0.324,0.0,0.0,0.0,0.216,RIVERSIDE COMMUNITY HOSPITAL
8.18,2.96,32.68425,-117.08161,31933.00,8301.12,0.0,0.267,0.0,0.0,0.0,0.0,0.0,0.0,PARADISE VALLEY HOSPITAL
6.12,3.14,32.75426,-117.16592,22614.32,9117.00,0.0,0.475,0.158,0.079,0.0,0.238,0.0,0.0,UNIVERSITY OF CALIFORNIA SAN DIEGO MEDICAL CENTER
7.68,2.44,32.77495,-117.01467,29673.19,5961.19,0.0,0.131,0.327,0.523,0.0,0.065,0.0,0.0,GROSSMONT HOSPITAL
7.39,2.50,39.50528,-121.54100,28359.56,6249.07,0.0,0.366,0.61,0.0,0.0,0.0,0.244,0.0,OROVILLE HOSPITAL
10.73,2.53,35.38736,-119.01690,43483.94,6364.91,0.0,0.381,0.507,0.0,0.0,0.0,0.0,0.0,BAKERSFIELD MEMORIAL HOSPITAL
9.84,3.91,37.31288,-121.93329,39442.33,12598.67,0.0,0.196,0.589,0.786,0.0,0.0,0.589,0.0,SANTA CLARA VALLEY MEDICAL CENTER
6.29,2.34,39.74221,-121.85000,23396.13,5529.73,0.0,0.144,0.433,0.0,0.0,0.072,0.072,0.0,ENLOE MEDICAL CENTER
10.44,4.56,34.30238,-118.36957,42167.21,15566.14,0.0,0.725,0.0,0.0,0.0,0.0,0.0,0.0,LAC/OLIVE VIEW-UCLA MEDICAL CENTER
10.60,3.02,37.82206,-122.26275,42876.11,8587.05,0.0,0.897,0.489,0.489,0.0,0.0,0.163,0.0,ALTA BATES SUMMIT MEDICAL CENTER
10.00,2.63,32.78037,-115.56848,40174.64,6822.18,0.0,0.0,0.23,0.0,0.0,0.0,0.0,0.0,EL CENTRO REGIONAL MEDICAL CENTER
12.81,3.30,37.79100,-122.43125,52910.07,9865.20,0.0,0.689,0.536,0.842,0.0,0.0,0.153,0.0,CALIFORNIA PACIFIC MEDICAL CTR-PACIFIC CAMPUS HOSP
11.06,3.12,37.74717,-122.42088,44985.00,9043.86,0.0,0.821,0.821,0.41,0.0,0.0,0.41,0.0,CALIFORNIA PACIFIC MEDICAL CTR - ST. LUKE'S CAMPUS
5.92,2.64,34.67486,-118.15771,21694.29,6890.58,0.0,0.369,0.462,0.092,0.0,0.185,0.0,0.0,ANTELOPE VALLEY HOSPITAL MED CENTER
8.93,2.54,36.32737,-119.29548,35352.95,6398.19,0.0,0.4,0.599,0.4,0.0,0.0,0.2,0.067,KAWEAH DELTA MEDICAL CENTER
7.12,2.91,34.12834,-118.25777,27160.71,8072.71,0.0,0.231,0.463,0.116,0.0,0.0,0.116,0.0,GLENDALE MEM HOSPITAL & HLTH CENTER
6.99,2.88,36.73000,-119.78000,26541.78,7942.04,0.0,0.42,0.18,0.12,0.0,0.0,0.48,0.0,COMMUNITY REGIONAL MEDICAL CENTER
6.70,3.18,34.09643,-118.29103,25230.81,9306.00,0.0,0.695,0.139,0.834,0.0,0.0,0.0,0.0,HOLLYWOOD PRESBYTERIAN MEDICAL CENTER
10.12,2.37,33.78036,-117.86495,40719.06,5648.83,0.0,0.106,0.53,0.212,0.0,0.106,0.212,0.0,ST JOSEPH HOSPITAL
8.40,2.75,32.75143,-117.16083,32918.63,7385.95,0.052,0.105,0.472,0.21,0.0,0.0,0.052,0.0,SCRIPPS MERCY HOSPITAL
7.35,2.47,33.73798,-118.30525,28171.67,6118.92,0.0,0.294,0.0,0.0,0.0,0.294,0.0,0.0,PROVIDENCE LITTLE CO OF MARY MED CTR SAN PEDRO
12.25,2.85,37.95337,-122.33672,50379.24,7831.48,0.0,0.0,0.203,1.829,0.0,0.0,0.406,0.203,DOCTORS MEDICAL CENTER-SAN PABLO
7.53,2.54,34.21674,-119.15631,29018.47,6412.77,0.0,0.601,0.601,0.241,0.0,0.12,0.0,0.0,ST JOHNS REGIONAL MEDICAL CENTER
11.57,2.64,37.96987,-121.28873,47266.18,6865.86,0.0,0.222,0.296,0.518,0.0,0.148,0.0,0.0,ST JOSEPHS MED CENTER OF STOCKTON
10.07,2.97,34.13101,-117.32181,40499.21,8353.00,0.0,1.585,0.396,0.0,0.0,0.0,0.0,0.0,COMMUNITY HOSPITAL OF SAN BERNARDINO
6.40,2.53,36.83532,-119.76562,23867.73,6378.58,0.0,0.275,0.826,0.138,0.0,0.0,0.184,0.0,SAINT AGNES MEDICAL CENTER
6.45,2.37,34.10130,-117.63651,24127.00,5660.85,0.0,0.539,0.673,0.135,0.0,0.0,0.135,0.0,SAN ANTONIO COMMUNITY HOSPITAL
10.86,2.54,32.79949,-117.15394,44076.85,6413.85,0.0,0.288,0.672,0.48,0.0,0.096,0.0,0.0,SHARP MEMORIAL HOSPITAL
11.13,2.91,38.13118,-122.23732,45309.00,8103.62,0.0,0.0,1.022,0.341,0.0,0.0,0.0,0.0,SUTTER SOLANO MEDICAL CENTER
10.97,3.11,34.04932,-118.21746,44574.43,9019.07,0.0,0.339,0.904,0.0,0.0,0.0,0.113,0.0,WHITE MEMORIAL MEDICAL CENTER
7.75,3.14,33.92963,-118.20332,30006.73,9116.64,0.0,0.684,0.171,0.342,0.0,0.0,0.0,0.0,SAINT FRANCIS MEDICAL CENTER
5.72,2.52,34.95099,-120.41322,20794.31,6332.38,0.0,0.0,0.485,0.0,0.0,0.0,0.0,0.0,MARIAN MEDICAL CENTER
8.82,2.69,38.57155,-121.46874,34846.22,7103.67,0.0,0.129,0.579,0.643,0.0,0.0,0.0,0.0,SUTTER GENERAL HOSPITAL
7.92,2.81,34.07558,-118.28424,30777.07,7641.00,0.0,0.0,0.276,0.0,0.0,0.0,0.0,0.0,TEMPLE COMMUNITY HOSPITAL
10.30,2.58,34.02685,-118.48651,41550.88,6618.76,0.0,0.45,0.36,0.629,0.0,0.0,0.0,0.0,SANTA MONICA - UCLA MED CTR & ORTHOPAEDIC HOSPITAL
9.89,2.42,33.12535,-117.07336,39668.57,5880.00,0.0,0.56,0.56,0.224,0.0,0.0,0.224,0.112,PALOMAR MEDICAL CENTER
9.93,2.57,34.22014,-118.53410,39858.89,6566.00,0.0,1.27,0.098,0.586,0.0,0.195,0.098,0.0,NORTHRIDGE HOSPITAL MEDICAL CENTER
5.70,2.68,36.32362,-119.66726,20740.57,7074.20,0.0,0.129,0.516,0.0,0.0,0.0,0.0,0.0,ADVENTIST MEDICAL CENTER
14.47,2.56,37.96125,-121.30103,60396.14,6517.29,0.0,0.265,0.0,0.531,0.0,0.265,0.796,0.265,DAMERON HOSPITAL
14.83,3.24,37.36257,-121.84974,62051.84,9580.35,0.0,0.248,0.124,0.372,0.0,0.0,0.372,0.0,REGIONAL MEDICAL CENTER OF SAN JOSE
5.91,2.47,33.18402,-117.29661,21656.95,6087.77,0.0,0.196,0.294,2.551,0.0,0.196,0.196,0.0,TRI-CITY MEDICAL CENTER
10.15,2.64,34.13495,-117.27603,40843.42,6868.50,0.0,0.42,0.42,0.0,0.0,0.14,0.14,0.0,ST BERNARDINE MEDICAL CENTER
12.90,2.80,34.10081,-118.10588,53293.12,7577.82,0.0,0.207,0.414,0.414,0.0,0.0,0.414,0.0,SAN GABRIEL VALLEY MEDICAL CENTER
7.33,2.48,39.13822,-121.59436,28112.07,6130.15,0.0,0.727,0.83,0.311,0.0,0.104,0.0,0.104,RIDEOUT MEMORIAL HOSPITAL
5.91,2.94,34.09638,-118.32518,21650.40,8216.67,0.0,0.505,0.168,0.0,0.0,0.0,0.337,0.0,HOLLYWOOD COMMUNITY HOSPITAL OF HOLLYWOOD
12.38,3.06,36.57886,-121.91316,50954.12,8790.00,0.0,0.488,0.781,0.098,0.0,0.098,0.098,0.0,COMMUNITY HOSPITAL OF THE MONTEREY PENINSULA
6.52,3.07,34.03705,-118.26575,24409.00,8825.68,0.0,0.0,0.24,0.479,0.0,0.0,0.0,0.0,CALIFORNIA HOSPITAL MEDICAL CENTER LA
10.12,2.63,39.22809,-121.04721,40710.08,6841.54,0.0,0.777,0.388,0.388,0.0,0.0,0.0,0.194,SIERRA NEVADA MEMORIAL HOSPITAL
13.06,3.05,37.78963,-122.41700,54034.75,8745.33,0.0,1.236,0.742,0.742,0.0,0.0,0.0,0.0,SAINT FRANCIS MEMORIAL HOSPITAL
6.72,3.02,34.28029,-119.25410,25336.85,8609.23,0.0,0.375,0.75,1.501,0.0,0.0,0.375,0.375,VENTURA COUNTY MEDICAL CENTER
8.54,3.12,37.88664,-121.28308,33593.94,9035.44,0.0,0.0,0.0,0.0,0.0,0.0,0.558,0.0,SAN JOAQUIN GENERAL HOSPITAL
10.60,2.24,33.89465,-117.92716,42907.53,5060.47,0.0,0.103,0.309,0.516,0.0,0.0,0.206,0.0,ST JUDE MEDICAL CENTER
11.45,2.40,33.96860,-118.04831,46725.56,5803.94,0.074,0.298,0.521,0.298,0.0,0.0,0.744,0.074,PRESBYTERIAN INTERCOMMUNITY HOSPITAL
10.58,2.70,38.44369,-122.70138,42787.93,7162.33,0.0,0.0,0.389,0.389,0.0,0.0,0.0,0.0,SANTA ROSA MEMORIAL HOSPITAL
11.08,2.48,37.51164,-120.83800,45068.08,6129.33,0.0,0.147,0.587,0.0,0.0,0.0,0.0,0.0,EMANUEL MEDICAL CENTER INC
14.20,2.71,37.91341,-122.04163,59192.67,7194.95,0.0,0.082,0.245,0.735,0.0,0.0,0.082,0.082,JOHN MUIR MEDICAL CENTER - WALNUT CREEK CAMPUS
7.95,2.92,33.77991,-118.18602,30915.00,8130.23,0.0,0.0,0.523,0.0,0.0,0.174,0.0,0.0,ST MARY MEDICAL CENTER
16.33,3.05,36.92821,-121.79360,68804.15,8747.85,0.0,0.317,0.0,0.0,0.0,0.0,0.0,0.0,WATSONVILLE COMMUNITY HOSPITAL
14.17,2.89,37.55717,-121.98126,59048.96,8020.26,0.0,0.196,0.785,0.589,0.0,0.098,0.0,0.098,WASHINGTON HOSPITAL
14.25,2.59,37.48000,-122.25441,59399.64,6646.91,0.0,0.0,0.74,0.74,0.0,0.0,0.0,0.0,SEQUOIA HOSPITAL
9.31,2.41,34.58305,-118.14490,37078.83,5848.58,0.0,0.0,0.231,0.0,0.0,0.0,0.0,0.231,PALMDALE REGIONAL MEDICAL CENTER
4.68,2.71,33.91255,-118.09846,16095.38,7201.77,0,0,0,0,0,0,0,0,COAST PLAZA HOSPITAL
12.27,2.63,32.61972,-117.02278,50431.91,6833.55,0.0,0.355,1.421,0.355,0.0,0.0,0.0,0.0,SHARP CHULA VISTA MEDICAL CENTER
6.60,2.22,33.62229,-117.92995,24796.38,4968.57,0.0,0.544,0.302,0.363,0.0,0.0,0.06,0.0,HOAG MEMORIAL HOSPITAL PRESBYTERIAN
10.41,2.45,33.84780,-117.93661,42022.88,6033.25,0.0,0.632,0.474,0.0,0.0,0.0,0.0,0.158,AHMC ANAHEIM REGIONAL MEDICAL CENTER
19.90,5.43,37.75676,-122.40461,85003.78,19511.96,0.0,0.0,0.626,0.209,0.0,0.209,0.417,0.209,SAN FRANCISCO GENERAL HOSPITAL
7.70,3.05,33.77483,-117.91329,29761.83,8725.92,0.0,0.892,0.297,0.0,0.0,0.0,0.0,0.0,GARDEN GROVE HOSPITAL & MEDICAL CENTER
10.63,2.84,34.07709,-117.75063,43041.07,7779.13,0.0,0.211,0.211,0.106,0.0,0.106,0.0,0.0,POMONA VALLEY HOSPITAL MEDICAL CENTER
11.39,2.45,34.15601,-118.32834,46469.30,6016.45,0.0,0.58,0.248,0.166,0.0,0.0,0.0,0.0,PROVIDENCE SAINT JOSEPH MEDICAL CTR
8.97,2.37,34.28920,-118.74484,35503.55,5628.00,0.0,0.0,0.0,0.0,0.0,0.0,0.25,0.0,SIMI VALLEY HOSPITAL & HEALTH CARE SERVICES
7.42,2.50,34.13973,-118.03534,28506.96,6233.14,0.0,0.262,1.397,0.175,0.0,0.087,0.087,0.087,METHODIST HOSPITAL OF SOUTHERN CA
10.93,2.89,34.14987,-118.23117,44378.84,8004.04,0.0,0.23,1.075,0.0,0.0,0.0,0.154,0.0,GLENDALE ADVENTIST MEDICAL CENTER
14.34,3.32,36.98999,-121.98357,59826.71,9931.94,0.0,0.241,0.723,0.844,0.0,0.0,0.121,0.0,DOMINICAN HOSPITAL
5.23,3.18,34.07389,-117.35111,18614.81,9326.31,0.0,0.44,1.1,0.0,0.0,0.0,0.0,0.0,ARROWHEAD REGIONAL MEDICAL CENTER
6.75,2.63,36.06956,-119.02748,25474.41,6845.50,0.0,1.188,0.396,0.396,0.0,0.0,0.198,0.0,SIERRA VIEW DISTRICT HOSPITAL
11.17,3.75,34.06675,-118.44613,45486.82,11883.12,0.079,0.707,0.786,0.472,0.0,0.157,0.707,0.236,RONALD REAGAN UCLA MEDICAL CENTER
8.62,4.60,38.00655,-122.13312,33939.25,15731.08,0.472,0.945,0.0,0.0,0.0,0.0,0.0,0.472,CONTRA COSTA REGIONAL MEDICAL CENTER
7.84,2.97,33.80733,-118.19305,30393.44,8377.50,0.0,0.778,0.778,0.0,0.0,0.0,0.259,0.0,PACIFIC HOSPITAL OF LONG BEACH
16.80,2.55,34.27915,-118.46006,70932.58,6480.74,0.0,0.514,0.0,0.0,0.0,0.0,0.0,0.128,PROVIDENCE HOLY CROSS MEDICAL CENTER
8.81,2.66,40.58654,-122.39168,34806.81,6952.95,0.0,0.238,0.713,0.079,0.0,0.0,0.079,0.0,MERCY MEDICAL CENTER REDDING
8.29,2.84,34.09049,-118.14410,32463.50,7773.94,0.0,0.0,0.0,0.0,0.0,0.0,0.0,0.0,ALHAMBRA HOSPITAL MEDICAL CENTER
12.95,2.79,37.67947,-122.47447,53528.58,7531.00,0.0,0.253,0.38,0.127,0.0,0.0,0.127,0.127,SETON MEDICAL CENTER
6.96,2.21,34.03009,-118.47833,26419.07,4912.60,0.0,0.165,0.248,0.0,0.0,0.0,0.165,0.0,SAINT JOHN'S HEALTH CENTER
9.12,2.86,33.91173,-117.19590,36218.43,7868.71,0.0,0.463,0.463,0.231,0.0,0.0,0.0,0.0,RIVERSIDE COUNTY REGIONAL MEDICAL CENTER
8.27,2.38,35.37279,-119.02817,32359.57,5694.00,0.0,0.74,0.555,0.0,0.0,0.0,0.555,0.0,MERCY HOSPITAL
7.75,2.49,34.50107,-117.17285,29994.26,6182.63,0.0,0.245,0.368,0.0,0.0,0.0,0.0,0.0,ST MARY MEDICAL CENTER
7.26,3.04,37.85593,-122.25730,27763.23,8662.08,0.0,0.134,0.937,0.669,0.0,0.0,0.134,0.134,ALTA BATES SUMMIT MEDICAL CENTER - ALTA BATES CAMP
12.57,2.55,37.36934,-122.08047,51825.58,6462.58,0.0,0.83,0.554,1.015,0.0,0.277,0.185,0.0,EL CAMINO HOSPITAL
7.05,2.44,38.76514,-121.24979,26819.14,5978.48,0.0,0.208,0.415,0.83,0.0,0.0,0.0,0.0,SUTTER ROSEVILLE MEDICAL CENTER
9.81,2.46,37.74409,-121.43469,39335.45,6066.00,0.0,0.0,0.347,0.0,0.0,0.0,0.0,0.0,SUTTER TRACY COMMUNITY HOSPITAL
8.28,2.28,32.88461,-117.22244,32403.00,5239.00,0.0,0.344,0.458,1.146,0.0,0.0,0.229,0.0,SCRIPPS MEMORIAL HOSPITAL LA JOLLA
8.13,3.16,34.05076,-117.26395,31707.59,9233.35,0.0,1.539,0.513,0.366,0.0,0.0,0.147,0.147,LOMA LINDA UNIVERSITY MEDICAL CENTER
6.60,2.53,33.87236,-117.56809,24804.42,6367.58,0.0,0.496,0.248,0.248,0.0,0.0,0.0,0.0,CORONA REGIONAL MEDICAL CENTER
9.03,2.76,36.65910,-121.64630,35770.19,7426.38,0.0,0.227,0.453,0.113,0.0,0.113,0.0,0.0,SALINAS VALLEY MEMORIAL HOSPITAL
17.05,2.49,38.12186,-121.28665,72062.44,6214.17,0.0,0.76,0.76,0.76,0.0,0.0,0.0,0.0,LODI MEMORIAL HOSPITAL
8.13,2.64,32.95813,-115.55388,31739.00,6853.42,0.0,0.0,0.793,0.0,0.0,0.0,0.0,0.0,PIONEERS MEMORIAL HEALTHCARE DISTRICT
11.16,3.18,33.78798,-117.89026,45424.75,9309.15,0.0,0.652,0.261,0.522,0.0,0.0,0.13,0.391,UNIVERSITY OF CALIFORNIA IRVINE MED CENTER
3.90,2.73,34.01501,-118.10064,12555.88,7257.00,0.0,0.203,0.407,0.0,0.0,0.0,0.0,0.0,BEVERLY HOSPITAL
10.64,2.36,33.81131,-118.34364,43055.30,5584.17,0.0,0.585,0.418,0.167,0.0,0.0,0.418,0.0,TORRANCE MEMORIAL MEDICAL CENTER
11.86,2.45,33.83891,-118.35677,48607.60,6027.20,0.0,0.179,0.089,0.089,0.0,0.0,0.0,0.0,PROVIDENCE LITTLE COMPANY OF MARY MED CTR TORRANCE
4.62,2.63,36.22008,-119.33764,15840.46,6829.00,0.0,0.599,0.0,0.0,0.0,0.0,0.3,0.0,TULARE REGIONAL MEDICAL CENTER
13.08,2.65,37.94748,-122.53677,54140.55,6914.09,0.0,0.759,0.379,0.379,0.0,0.126,0.0,0.0,MARIN GENERAL HOSPITAL
19.86,2.98,38.26174,-122.04662,84822.36,8404.09,0.0,0.52,0.26,0.26,0.0,0.0,0.26,0.0,NORTHBAY MEDICAL CENTER
9.38,3.72,34.06034,-118.21014,37359.94,11780.81,0.0,1.243,0.621,0.0,0.0,0.311,0.0,0.0,LAC+USC MEDICAL CENTER
4.31,3.03,34.24018,-118.39632,14431.83,8623.25,0.0,0.0,0.0,0.0,0.0,0.0,0.0,0.402,PACIFICA HOSPITAL OF THE VALLEY
6.85,2.87,34.08802,-117.89341,25935.00,7910.62,0.0,1.315,0.088,0.263,0.0,0.088,0.0,0.0,CITRUS VALLEY MEDICAL CENTER-IC CAMPUS
6.19,2.43,33.75117,-116.96028,22934.08,5934.33,0.0,0.274,0.137,0.274,0.0,0.0,0.137,0.0,HEMET VALLEY MEDICAL CENTER
11.88,2.67,33.93530,-118.13030,48668.43,7020.23,0.0,0.33,0.11,0.0,0.0,0.0,0.0,0.0,DOWNEY REGIONAL MEDICAL CENTER
10.66,2.52,34.42951,-119.72333,43182.79,6313.58,0.0,0.0,0.239,0.159,0.0,0.0,0.08,0.08,SANTA BARBARA COTTAGE HOSPITAL
4.32,2.65,33.82557,-117.99493,14486.82,6903.18,0.0,0.191,0.191,0.0,0.0,0.0,0.0,0.0,WEST ANAHEIM MEDICAL CENTER
10.94,2.52,34.13364,-118.15275,44413.38,6323.03,0.0,0.171,0.514,0.171,0.0,0.0,0.057,0.057,HUNTINGTON MEMORIAL HOSPITAL
17.56,3.95,37.43436,-122.18013,74384.19,12793.38,0.0,0.28,0.449,0.337,0.0,0.0,0.112,0.112,STANFORD HOSPITAL
7.87,2.75,37.34027,-120.46817,30525.95,7378.68,0.0,0.358,0.597,0.119,0.0,0.0,0.0,0.0,MERCY MEDICAL CENTER
10.69,3.57,37.76421,-122.45716,43288.55,11102.45,0.0,0.738,0.492,0.492,0.0,0.123,0.123,0.0,UCSF MEDICAL CENTER
6.64,2.54,35.38338,-119.01969,24979.29,6408.93,0.0,0.606,0.242,0.0,0.0,0.0,0.0,0.0,SAN JOAQUIN COMMUNITY HOSPITAL
17.26,2.69,37.66540,-120.99743,73030.80,7088.80,0.0,0.232,0.928,0.464,0.0,0.0,0.116,0.0,DOCTORS MEDICAL CENTER
6.14,2.78,33.89307,-118.29506,22691.75,7515.25,0.0,0.0,0.285,0.0,0.0,0.0,0.0,0.0,MEMORIAL HOSPITAL OF GARDENA
8.22,2.85,34.05336,-118.26558,32107.84,7822.34,0.0,0.096,0.861,0.096,0.0,0.0,0.191,0.0,GOOD SAMARITAN HOSPITAL
8.92,2.63,33.80861,-118.18661,35289.72,6848.91,0.0,0.66,0.6,0.42,0.0,0.0,0.0,0.06,LONG BEACH MEMORIAL MEDICAL CENTER
9.18,2.77,37.69824,-122.08730,36455.32,7464.61,0.0,0.431,0.0,0.431,0.0,0.0,0.288,0.288,EDEN MEDICAL CENTER
17.29,2.64,37.98396,-122.03464,73174.81,6867.58,0.0,0.512,0.256,0.64,0.0,0.0,0.0,0.0,JOHN MUIR MEDICAL CENTER - CONCORD CAMPUS
9.19,3.01,34.06389,-118.27347,36505.40,8562.95,0.0,0.863,0.0,0.0,0.0,0.0,0.108,0.0,SAINT VINCENT MEDICAL CENTER
10.04,2.97,38.66956,-121.31378,40343.03,8376.59,0.0,0.085,0.34,0.17,0.0,0.0,0.17,0.085,MERCY SAN JUAN MEDICAL CENTER
7.85,3.10,37.98224,-121.80362,30437.00,8932.21,0.0,1.247,1.069,0.356,0.0,0.178,0.0,0.0,SUTTER DELTA MEDICAL CENTER
6.36,2.48,33.70376,-117.98776,23719.08,6169.23,0.0,0.0,0.343,0.0,0.0,0.0,0.0,0.0,HUNTINGTON BEACH HOSPITAL
11.34,2.82,33.68179,-116.23394,46260.17,7678.67,0.0,0.576,0.864,0.0,0.0,0.0,0.288,0.0,JOHN F KENNEDY MEMORIAL HOSPITAL INC
11.64,2.53,34.20777,-118.88305,47619.53,6389.00,0.0,0.543,0.633,0.543,0.0,0.181,0.0,0.09,LOS ROBLES HOSPITAL & MEDICAL CENTER
11.19,2.48,37.66867,-120.97339,45564.69,6156.10,0.0,0.667,0.167,0.25,0.0,0.0,0.0,0.0,MEMORIAL  MEDICAL CENTER
9.87,2.34,33.56100,-117.66530,39613.69,5510.92,0.0,0.311,0.466,0.233,0.0,0.078,0.233,0.0,MISSION HOSPITAL REGIONAL MED CENTER
10.31,2.75,33.71466,-117.93322,41581.92,7351.56,0.0,0.882,0.196,0.0,0.0,0.0,0.0,0.0,FOUNTAIN VALLEY REGIONAL HOSPITAL & MEDICAL CENTER
13.55,2.28,33.76335,-116.40628,56262.18,5237.00,0.0,0.344,0.589,0.393,0.0,0.049,0.0,0.049,EISENHOWER MEDICAL CENTER
6.66,2.61,33.83340,-118.08118,25054.24,6754.00,0.0,0.0,0.0,0.0,0.0,0.0,0.308,0.0,TRI-CITY REGIONAL MEDICAL CENTER
5.52,2.65,33.84753,-118.03841,19912.89,6916.95,0.0,0.318,0.0,0.0,0.0,0.0,0.0,0.0,LA PALMA INTERCOMMUNITY HOSPITAL
10.90,2.46,33.84932,-118.15323,44246.86,6050.14,0.0,0.143,0.57,0.143,0.0,0.0,0.0,0.0,LAKEWOOD REGIONAL MEDICAL CENTER
4.80,2.57,34.02561,-117.68583,16632.09,6548.73,0.0,0.0,0.0,0.0,0.0,0.0,0.0,0.0,CHINO VALLEY MEDICAL CENTER
8.05,2.80,38.46387,-121.41645,31359.22,7579.87,0.0,0.565,0.0,0.377,0.0,0.0,0.188,0.188,METHODIST HOSPITAL OF SACRAMENTO
6.22,2.49,34.13289,-117.87121,23060.17,6198.61,0.0,0.353,0.0,0.353,0.0,0.0,0.0,0.0,FOOTHILL PRESBYTERIAN HOSPITAL
12.47,3.36,38.55484,-121.45628,51350.41,10143.90,0.0,1.915,0.479,2.668,0.0,0.137,0.0,0.137,UNIVERSITY OF CALIFORNIA DAVIS MEDICAL CENTER
8.79,2.40,33.60883,-117.70881,34712.68,5763.63,0.0,0.0,0.267,0.534,0.0,0.0,0.067,0.067,SADDLEBACK MEMORIAL MEDICAL CENTER
7.22,2.90,35.76216,-119.23889,27608.56,8063.25,0.0,0.0,0.525,0.0,0.0,0.0,0.0,0.525,DELANO REGIONAL MEDICAL CENTER
16.81,2.83,34.07664,-118.37955,71006.05,7752.88,0.0,0.348,0.294,0.268,0.0,0.107,0.241,0.0,CEDARS-SINAI MEDICAL CENTER
15.20,2.36,35.55536,-120.72067,63705.65,5601.53,0.0,0.951,0.571,0.0,0.0,0.0,0.0,0.0,TWIN CITIES COMMUNITY HOSPITAL
5.26,2.97,34.01936,-118.18661,18743.00,8382.44,0.0,0.0,0.0,0.0,0.0,0.0,0.194,0.0,LOS ANGELES COMMUNITY HOSPITAL
7.27,2.36,33.70167,-117.95566,27823.85,5586.08,0.0,0.223,0.0,0.0,0.0,0.0,0.0,0.223,ORANGE COAST MEMORIAL MEDICAL CENTER
12.30,2.86,37.03560,-121.57109,50610.71,7863.00,0.0,0.0,0.776,0.0,0.0,0.0,0.0,0.0,SAINT LOUISE REGIONAL HOSPITAL
6.06,2.40,33.55876,-117.18329,22343.45,5789.91,0.0,0.0,1.03,0.257,0.0,0.0,0.129,0.0,SOUTHWEST HEALTHCARE SYSTEM
5.26,2.85,34.22139,-118.45660,18709.75,7809.08,0.0,0.376,0.0,0.0,0.0,0.0,0.0,0.0,MISSION COMMUNITY HOSPITAL - PANORAMA
4.71,2.36,34.47174,-117.29791,16238.44,5620.67,0.0,0.0,0.0,0.0,0.0,0.0,0.0,0.0,DESERT VALLEY HOSPITAL
14.79,3.06,34.06760,-118.12291,61852.14,8785.75,0.0,0.0,0.0,0.154,0.0,0.0,0.0,0.0,GARFIELD MEDICAL CENTER
8.26,2.98,34.04777,-118.04344,32302.56,8403.50,0.0,0.0,0.786,0.0,0.0,0.0,0.0,0.0,GREATER EL MONTE COMMUNITY HOSPITAL
9.07,2.67,33.95076,-118.34828,35988.81,7012.43,0.0,0.139,0.279,0.0,0.0,0.07,0.139,0.0,CENTINELA HOSPITAL MEDICAL CENTER
16.81,2.48,34.05723,-118.36025,70976.58,6152.62,0.0,1.391,0.506,0.379,0.0,0.0,0.253,0.0,OLYMPIA MEDICAL CENTER
11.93,2.52,34.02303,-118.39741,48935.50,6337.20,0.0,0.494,0.0,0.0,0.0,0.0,0.0,0.0,BROTMAN MEDICAL CENTER
5.88,2.80,34.07861,-117.69582,21522.47,7580.00,0.0,0.0,0.0,0.0,0.0,0.0,0.0,0.0,MONTCLAIR HOSPITAL MEDICAL CENTER
17.88,2.51,34.17067,-118.53200,75860.18,6276.94,0.0,1.031,0.344,0.258,0.0,0.0,0.172,0.086,PROVIDENCE TARZANA MEDICAL CENTER
5.09,3.04,34.06958,-118.26344,17944.16,8661.68,0.0,0.271,0.271,0.0,0.0,0.0,0.271,0.0,SILVER LAKE MEDICAL CENTER
8.76,2.53,40.58532,-122.38702,34565.61,6381.72,0.0,0.0,0.113,0.225,0.0,0.113,0.0,0.0,SHASTA REGIONAL MEDICAL CENTER
4.68,2.42,40.41481,-104.70890,16122.15,5857.55,0.0,0.0,0.603,0.345,0.0,0.0,0.172,0.0,NORTH COLORADO MEDICAL CENTER
6.35,2.17,39.76893,-105.09006,23682.16,4749.20,0.109,0.437,0.219,0.328,0.0,0.109,0.0,0.109,EXEMPLA LUTHERAN MEDICAL CENTER
4.50,2.15,40.57315,-105.05741,15296.77,4648.08,0.0,0.181,0.543,0.362,0.0,0.0,0.0,0.091,POUDRE VALLEY HOSPITAL
4.52,2.98,39.72730,-104.99157,15378.79,8410.42,0.0,0.407,0.204,1.628,0.0,0.0,0.0,0.407,DENVER HEALTH MEDICAL CENTER
5.62,2.29,38.23421,-104.62292,20367.46,5286.61,0.0,0.304,1.064,0.152,0.0,0.304,0.456,0.0,CENTURA HEALTH-ST MARY CORWIN MEDICAL CENTER
6.06,2.25,38.28184,-104.61256,22361.88,5109.84,0.0,0.206,0.619,0.206,0.0,0.0,0.31,0.0,PARKVIEW MEDICAL CENTER INC
5.86,2.26,38.83903,-104.80024,21435.58,5150.63,0.0,0.363,0.544,0.06,0.0,0.0,0.0,0.181,MEMORIAL HOSPITAL CENTRAL
5.68,2.37,39.09046,-108.56190,20638.00,5635.78,0.0,0.976,0.759,1.193,0.0,0.0,0.217,0.108,ST MARYS HOSPITAL AND MEDICAL CENTER
5.58,3.00,39.74234,-104.84156,20190.91,8497.65,0.0,0.843,0.169,1.096,0.0,0.0,0.084,0.0,UNIVERSITY OF COLORADO HOSPITAL ANSCHUTZ INPATIENT
4.34,2.14,40.41320,-105.05139,14548.64,4592.09,0.0,0.0,0.0,0.252,0.0,0.0,0.0,0.0,MCKEE MEDICAL CENTER
5.40,2.22,38.86559,-104.82182,19360.46,4968.15,0.0,0.655,0.298,0.119,0.0,0.0,0.238,0.0,CENTURA HEALTH-PENROSE ST FRANCIS HEALTH SERVICES
7.43,2.36,39.65399,-104.98116,28553.76,5622.82,0.0,1.376,0.994,0.688,0.0,0.076,0.0,0.306,SWEDISH MEDICAL CENTER
9.40,2.35,39.86430,-104.98481,37453.73,5551.91,0.0,0.0,0.431,1.292,0.0,0.0,0.0,0.0,NORTH SUBURBAN MEDICAL CENTER
7.23,2.34,39.84960,-105.01825,27642.29,5519.86,0.0,0.581,0.968,0.387,0.0,0.0,0.194,0.0,CENTURA HEALTH-ST ANTHONY NORTH HOSPITAL
5.75,2.13,40.45184,-105.19608,20932.92,4545.00,0.0,0.342,0.342,0.513,0.0,0.0,0.0,0.0,MEDICAL CENTER OF THE ROCKIES
5.37,2.55,41.30978,-72.93806,19234.56,6468.09,0.0,0.344,0.516,0.602,0.0,0.0,0.086,0.043,HOSPITAL OF ST RAPHAEL
5.51,2.62,41.77507,-72.69941,19842.98,6790.02,0.0,0.714,0.672,0.462,0.0,0.0,0.126,0.084,ST FRANCIS HOSPITAL & MEDICAL CENTER
7.42,2.57,41.55959,-73.05941,28488.36,6577.50,0.0,0.629,0.45,0.09,0.0,0.09,0.09,0.0,WATERBURY HOSPITAL
7.21,2.54,41.05562,-73.55390,27537.70,6436.41,0.0,1.067,0.534,0.32,0.0,0.0,0.854,0.107,STAMFORD HOSPITAL
3.92,2.39,41.33722,-72.10380,12662.42,5750.94,0.0,0.401,0.321,0.08,0.0,0.08,0.0,0.0,LAWRENCE & MEMORIAL HOSPITAL
5.43,2.92,41.18881,-73.16645,19496.41,8119.27,0.0,0.711,0.622,0.622,0.0,0.0,0.622,0.089,BRIDGEPORT HOSPITAL
2.81,2.32,41.79153,-73.13382,7653.20,5412.33,0.0,0.0,0.494,0.165,0.0,0.0,0.165,0.0,CHARLOTTE HUNGERFORD HOSPITAL
3.39,2.62,41.55241,-73.03554,10261.73,6787.20,0.0,0.294,0.783,0.098,0.0,0.098,0.196,0.0,SAINT MARYS HOSPITAL
4.24,2.38,41.54874,-72.80148,14133.43,5683.71,0.0,1.042,0.781,0.391,0.0,0.13,0.0,0.0,MIDSTATE MEDICAL CENTER
6.20,2.41,41.03431,-73.63020,22997.64,5830.00,0.0,0.102,0.407,0.611,0.0,0.102,0.204,0.102,GREENWICH HOSPITAL ASSOCIATION
5.76,2.39,41.55473,-72.64872,20981.12,5736.27,0.0,0.0,0.574,1.884,0.0,0.082,0.246,0.0,MIDDLESEX HOSPITAL
7.32,3.14,41.30400,-72.93502,28055.49,9135.01,0.0,0.865,0.587,0.68,0.0,0.124,0.062,0.34,YALE-NEW HAVEN HOSPITAL
3.85,2.40,41.54301,-72.08799,12361.60,5767.04,0.0,0.555,0.333,0.111,0.0,0.0,0.0,0.111,WILLIAM W BACKUS HOSPITAL
5.52,2.83,41.75412,-72.67927,19920.72,7725.26,0.0,0.402,0.511,0.548,0.0,0.073,0.073,0.11,HARTFORD HOSPITAL
4.92,2.57,41.20049,-73.20281,17207.84,6558.63,0.0,0.375,0.25,0.437,0.0,0.0,0.0,0.0,ST VINCENT'S MEDICAL CENTER
4.88,2.32,41.67540,-72.93617,17029.50,5417.58,0.0,0.0,0.591,0.197,0.0,0.0,0.394,0.0,BRISTOL HOSPITAL
4.26,2.49,41.40474,-73.44739,14203.08,6207.31,0.0,0.0,0.517,0.46,0.0,0.0,0.057,0.23,DANBURY HOSPITAL
5.71,2.49,41.11147,-73.42010,20766.12,6208.42,0.0,0.195,0.39,0.098,0.0,0.0,0.293,0.0,NORWALK HOSPITAL ASSOCIATION
3.94,2.46,41.66107,-72.78671,12774.32,6074.80,0.0,0.249,0.187,0.435,0.0,0.062,0.124,0.124,HOSPITAL OF CENTRAL CONNECTICUT THE
4.65,3.17,41.73545,-72.79489,15959.85,9290.54,0.0,1.01,0.866,0.722,0.0,0.0,0.144,0.0,JOHN DEMPSEY HOSPITAL
4.36,2.56,39.69005,-75.68408,14641.30,6525.80,0.0,0.513,0.424,0.379,0.0,0.0,0.067,0.089,CHRISTIANA CARE HEALTH SERVICES INC.
4.76,2.48,39.74954,-75.56662,16470.90,6138.29,0.0,0.364,0.91,0.0,0.0,0.0,0.0,0.0,ST FRANCIS HOSPITAL
4.80,2.34,39.15135,-75.52309,16658.82,5521.86,0.0,0.258,0.773,0.193,0.0,0.0,0.064,0.129,BAYHEALTH - KENT GENERAL HOSPITAL
3.69,2.56,38.64231,-75.60660,11631.07,6497.50,0.0,0.421,0.0,0.0,0.0,0.0,0.211,0.0,NANTICOKE MEMORIAL HOSPITAL
5.06,2.22,38.77159,-75.14210,17844.71,4950.57,0.0,0.0,0.098,0.195,0.0,0.0,0.0,0.0,BEEBE MEDICAL CENTER
6.41,2.72,38.90106,-77.05079,23926.61,7233.52,0.0,0.445,1.112,0.778,0.0,0.445,0.0,0.111,GEORGE WASHINGTON UNIV HOSPITAL
5.37,3.38,38.91770,-77.02193,19215.30,10227.61,0.0,0.805,0.322,0.644,0.0,0.0,0.161,0.0,HOWARD UNIVERSITY HOSPITAL
6.96,2.82,38.91221,-77.07588,26404.75,7692.67,0.0,0.876,0.548,0.438,0.0,0.0,0.11,0.0,GEORGETOWN UNIVERSITY HOSPITAL
4.23,2.63,38.94397,-76.99040,14046.97,6824.06,0.0,0.322,0.215,0.0,0.107,0.107,0.322,0.0,PROVIDENCE HOSPITAL
6.12,2.57,38.83504,-76.98388,22614.54,6575.00,0.0,0.0,0.0,0.0,0.0,0.0,0.355,0.0,UNITED MEDICAL CENTER
6.50,2.69,38.92944,-77.01473,24326.92,7110.29,0.0,0.761,0.217,0.362,0.0,0.0,0.145,0.109,WASHINGTON HOSPITAL CENTER
5.95,2.76,30.34913,-81.66391,21839.25,7404.63,0.0,0.31,0.31,0.186,0.0,0.0,0.124,0.186,SHANDS JACKSONVILLE MEDICAL CENTER
11.75,2.33,26.50479,-80.06979,48091.94,5485.62,0.0,0.508,0.799,0.29,0.0,0.073,0.29,0.0,BETHESDA MEMORIAL HOSPITAL
7.08,2.37,28.52517,-81.37729,26967.84,5628.58,0.0,0.826,0.486,0.219,0.0,0.049,0.097,0.024,ORLANDO HEALTH
6.36,2.34,28.57345,-81.36990,23706.45,5512.66,0.0,0.317,0.317,0.136,0.0,0.0,0.011,0.023,FLORIDA HOSPITAL
9.15,2.60,25.68309,-80.34038,36330.76,6683.85,0.0,0.316,0.443,0.19,0.0,0.0,0.19,0.063,BAPTIST HOSPITAL OF MIAMI INC
11.96,2.56,25.78846,-80.21644,49034.42,6524.42,0.0,0.929,0.547,0.109,0.0,0.0,1.093,0.055,UNIVERSITY OF MIAMI HOSPITAL
4.29,2.19,26.62849,-81.87423,14357.45,4855.79,0.0,0.511,0.746,1.021,0.0,0.0,0.157,0.039,LEE MEMORIAL HOSPITAL
4.67,2.26,29.20117,-81.05828,16067.85,5131.04,0.0,0.425,0.729,0.121,0.0,0.0,0.0,0.0,HALIFAX HEALTH MEDICAL CENTER
5.08,2.19,26.15053,-81.79919,17904.24,4844.69,0.0,0.303,0.539,0.101,0.0,0.0,0.135,0.034,NAPLES COMMUNITY HOSPITAL
5.78,2.12,28.08771,-80.61362,21092.67,4500.74,0.0,0.475,0.647,0.216,0.0,0.043,0.043,0.0,HOLMES REGIONAL MEDICAL CENTER
6.31,3.46,25.79143,-80.21250,23497.58,10573.91,0.047,0.837,0.186,0.186,0.0,0.047,0.326,0.0,JACKSON MEMORIAL HOSPITAL
5.38,2.10,28.83363,-82.33561,19264.19,4407.08,0.0,0.415,0.415,2.24,0.0,0.0,0.249,0.083,CITRUS MEMORIAL HOSPITAL
4.58,2.25,30.47650,-87.21219,15673.58,5109.37,0.058,0.231,0.231,0.81,0.0,0.173,0.058,0.116,SACRED HEART HOSPITAL
4.75,2.15,30.15963,-85.64818,16433.67,4654.70,0.0,0.3,0.72,0.0,0.0,0.06,0.0,0.0,BAY MEDICAL CENTER
9.78,2.47,25.86166,-80.21398,39187.57,6118.04,0.0,0.15,0.225,0.0,0.0,0.0,0.075,0.0,NORTH SHORE MEDICAL CENTER
5.07,2.24,28.54917,-81.52746,17884.31,5054.47,0.0,0.307,0.461,0.154,0.0,0.0,0.0,0.154,HEALTH CENTRAL
5.40,2.44,27.76332,-82.64325,19344.77,5955.15,0.0,1.031,0.469,0.0,0.0,0.0,0.0,0.0,BAYFRONT MEDICAL CENTER INC
8.00,2.54,25.81317,-80.13996,31110.23,6399.46,0.0,0.313,0.813,0.313,0.0,0.063,0.125,0.063,MOUNT SINAI MEDICAL CENTER
6.24,2.24,27.49789,-82.56220,23161.40,5068.00,0.0,0.271,0.542,0.542,0.0,0.09,0.181,0.0,MANATEE MEMORIAL HOSPITAL
8.55,2.41,26.01867,-80.17981,33637.26,5821.56,0.0,0.273,0.436,0.164,0.0,0.0,0.055,0.109,MEMORIAL REGIONAL HOSPITAL
4.98,2.65,26.10282,-80.14245,17464.58,6906.92,0.0,0.847,0.423,0.212,0.0,0.0,0.0,0.0,BROWARD HEALTH BROWARD GENERAL MEDICAL CENTER
5.37,2.20,30.30835,-81.68919,19228.19,4879.49,0.0,0.139,0.173,0.104,0.0,0.0,0.069,0.035,ST VINCENT'S MEDICAL CENTER
6.19,2.09,28.01404,-82.78368,22957.73,4373.27,0.0,0.199,0.596,2.783,0.0,0.0,0.0,0.0,MEASE HOSPITAL DUNEDIN
8.25,2.51,27.19837,-80.24306,32265.31,6269.19,0.0,0.448,0.384,0.128,0.0,0.064,0.0,0.0,MARTIN MEMORIAL MEDICAL CENTER
4.67,2.20,29.04263,-81.31635,16040.67,4889.00,0.0,0.0,0.348,0.0,0.0,0.0,0.174,0.0,FLORIDA HOSPITAL DELAND
8.08,2.13,28.26092,-82.18802,31482.62,4563.54,0.0,0.131,0.262,0.262,0.0,0.131,0.262,0.0,FLORIDA HOSPITAL ZEPHYRHILLS
5.21,2.10,26.94042,-82.04094,18520.11,4422.00,0.0,0.199,0.099,0.397,0.0,0.0,0.0,0.099,CHARLOTTE REGIONAL MEDICAL CENTER
5.76,2.10,27.46707,-81.43358,21013.00,4426.09,0.0,0.0,0.736,1.104,0.0,0.368,0.0,0.368,HIGHLANDS REGIONAL MEDICAL CENTER
5.36,2.54,25.86856,-80.31222,19175.71,6432.00,0.0,0.0,0.14,0.0,0.0,0.0,0.14,0.0,PALM SPRINGS GENERAL HOSPITAL
7.00,2.32,28.55140,-81.72120,26598.08,5431.77,0.0,1.095,1.824,0.547,0.0,0.0,0.0,0.0,SOUTH LAKE HOSPITAL
7.06,2.14,28.02768,-81.72466,26855.12,4618.00,0.0,0.4,0.799,0.32,0.0,0.0,0.719,0.0,WINTER HAVEN HOSPITAL
10.81,2.74,25.84597,-80.26872,43854.37,7331.30,0.0,0.0,0.468,0.0,0.0,0.0,0.468,0.0,HIALEAH HOSPITAL
5.76,2.19,28.82358,-81.71133,20990.86,4816.29,0.0,0.137,0.825,0.069,0.0,0.0,0.069,0.0,FLORIDA HOSPITAL WATERMAN
5.87,2.11,29.17594,-82.13898,21474.35,4475.06,0.0,0.135,0.628,0.359,0.0,0.0,0.09,0.135,MUNROE REGIONAL MEDICAL CENTER
5.45,2.08,28.25431,-82.71447,19611.00,4340.88,0.0,0.0,0.245,0.0,0.0,0.0,0.0,0.0,MORTON PLANT NORTH BAY HOSPITAL
6.26,2.15,27.78088,-82.65126,23242.29,4668.14,0.0,0.632,0.316,0.316,0.0,0.0,0.105,0.0,ST ANTHONY'S HOSPITAL
4.42,2.07,29.24333,-81.10760,14928.55,4301.60,0.0,0.378,0.472,0.189,0.0,0.094,0.0,0.0,FLORIDA HOSPITAL MEMORIAL MEDICAL CENTER
8.09,2.39,27.09043,-82.44499,31557.06,5719.06,0.0,0.41,0.614,0.205,0.0,0.0,0.0,0.0,VENICE REGIONAL MEDICAL CENTER
12.40,2.22,28.53906,-82.44193,51030.21,4983.43,0.0,0.525,0.393,0.0,0.0,0.0,0.262,0.0,BROOKSVILLE REGIONAL HOSPITAL
5.80,2.27,28.91403,-81.28480,21172.71,5175.06,0.0,0.142,0.285,0.142,0.0,0.0,0.142,0.0,FLORIDA HOSPITAL FISH MEMORIAL
7.22,2.17,26.18711,-80.11941,27582.36,4725.00,0.0,0.328,0.46,1.182,0.0,0.0,0.131,0.066,HOLY CROSS HOSPITAL INC
5.36,2.35,27.98242,-82.49025,19179.17,5558.29,0.0,0.48,0.384,0.144,0.0,0.0,0.096,0.192,ST JOSEPH'S HOSPITAL
6.97,2.59,25.77941,-80.29397,26471.23,6628.91,0.0,0.0,0.272,0.0,0.0,0.0,0.0,0.0,METROPOLITAN HOSPITAL OF MIAMI
6.14,2.15,26.98905,-82.09559,22713.06,4633.61,0.0,0.13,0.391,0.782,0.0,0.13,0.0,0.0,PEACE RIVER REGIONAL MEDICAL CENTER
8.43,2.34,26.59805,-80.09271,33077.83,5504.75,0.0,0.454,0.578,0.165,0.0,0.041,0.041,0.0,JFK MEDICAL CENTER
4.56,2.15,28.80659,-81.86906,15579.65,4640.35,0.0,0.322,0.643,0.214,0.0,0.054,0.0,0.0,LEESBURG REGIONAL MEDICAL CENTER
6.96,2.27,26.27623,-80.12220,26440.07,5210.07,0.0,0.318,0.318,0.159,0.0,0.0,0.318,0.0,BROWARD HEALTH NORTH BROWARD MEDICAL CENTER
4.85,2.15,27.31827,-82.53140,16879.05,4643.50,0.045,0.27,0.36,1.622,0.0,0.045,0.045,0.09,SARASOTA MEMORIAL HOSPITAL
7.82,2.46,30.31525,-81.66398,30295.39,6051.52,0.0,0.377,0.519,1.131,0.0,0.047,0.047,0.047,BAPTIST MEDICAL CENTER
8.33,2.29,29.86371,-81.31749,32639.63,5302.34,0.0,0.591,0.739,0.074,0.0,0.0,0.0,0.0,FLAGLER HOSPITAL
5.03,2.16,28.33522,-80.72319,17696.19,4701.93,0.0,0.193,1.158,0.289,0.0,0.0,0.0,0.193,WUESTHOFF MEDICAL CENTER  ROCKLEDGE
5.32,2.16,30.43066,-87.23191,19000.39,4692.83,0.0,0.201,0.502,0.1,0.0,0.0,0.1,0.0,BAPTIST HOSPITAL
6.86,2.09,27.89590,-81.56547,25954.30,4404.48,0.0,0.0,0.381,0.0,0.0,0.0,0.0,0.0,LAKE WALES MEDICAL CENTER
5.17,2.08,30.19345,-82.63268,18300.78,4341.74,0.0,0.0,0.604,0.0,0.0,0.0,0.0,0.0,SHANDS LAKE SHORE REGIONAL MEDICAL CENTER
3.67,2.21,27.65832,-80.39307,11512.77,4906.00,0.0,0.068,0.204,0.136,0.0,0.068,0.0,0.0,INDIAN RIVER MEDICAL CENTER
7.28,2.17,26.61563,-81.65945,27876.45,4738.36,0.0,0.0,1.162,0.0,0.0,0.0,0.291,0.0,LEHIGH REGIONAL MEDICAL CENTER
6.18,2.17,27.50001,-81.43962,22896.32,4740.79,0.0,0.568,0.812,0.487,0.0,0.081,0.0,0.0,FLORIDA HOSPITAL HEARTLAND MEDICAL CENTER
8.89,2.47,28.29946,-81.41021,35154.76,6104.37,0.0,1.196,0.498,0.299,0.0,0.1,0.0,0.0,OSCEOLA REGIONAL MEDICAL CENTER
5.85,2.96,29.64155,-82.34844,21408.10,8334.85,0.0,0.99,0.344,0.689,0.0,0.0,0.172,0.172,SHANDS HOSPITAL AT THE UNIVERSITY OF FLORIDA
6.13,2.07,30.27449,-81.40071,22667.23,4298.69,0.0,0.0,0.0,0.173,0.0,0.0,0.0,0.0,BAPTIST MEDICAL CENTER  BEACHES
5.11,2.32,29.47897,-81.18915,18050.38,5420.54,0.0,0.778,1.089,0.156,0.0,0.156,0.0,0.156,FLORIDA HOSPITAL FLAGLER
9.11,2.14,30.73540,-86.56171,36149.22,4611.17,0.0,0.163,0.325,0.0,0.0,0.0,0.0,0.0,NORTH OKALOOSA MEDICAL CENTER
6.75,2.18,30.63421,-87.06708,25465.36,4797.36,0.0,0.0,0.317,0.317,0.0,0.0,0.0,0.317,SANTA ROSA MEDICAL CENTER
8.49,2.51,25.47971,-80.43038,33330.43,6270.43,0.0,0.0,0.499,0.25,0.0,0.0,0.0,0.0,HOMESTEAD HOSPITAL
5.27,2.17,27.95192,-82.80379,18790.42,4760.83,0.052,0.209,0.731,0.992,0.0,0.0,0.0,0.0,MORTON PLANT HOSPITAL
10.30,2.77,27.93740,-82.45927,41533.80,7476.39,0.0,0.722,0.587,0.045,0.0,0.0,0.0,0.181,TAMPA GENERAL HOSPITAL
8.75,2.24,25.96994,-80.14533,34522.38,5083.24,0.0,0.351,0.984,0.141,0.0,0.0,0.351,0.0,AVENTURA HOSPITAL AND MEDICAL CENTER
6.59,2.27,30.45726,-84.26175,24766.05,5184.21,0.0,0.228,0.609,1.37,0.0,0.0,0.076,0.076,TALLAHASSEE MEMORIAL HEALTHCARE
8.44,2.19,28.18120,-81.64018,33138.72,4817.88,0.0,0.246,0.246,0.123,0.0,0.0,0.0,0.123,HEART OF FLORIDA REGIONAL MEDICAL CENTER
3.05,2.15,30.78675,-85.24189,8718.67,4637.50,0.0,0.313,0.313,0.0,0.0,0.0,0.313,0.313,JACKSON HOSPITAL
4.93,2.56,24.58076,-81.74233,17222.36,6525.00,0.0,1.094,1.094,1.094,0.0,0.0,0.0,0.0,LOWER KEYS MEDICAL CENTER
4.30,2.51,30.26389,-81.44283,14398.75,6295.88,0.0,0.504,0.144,0.216,0.0,0.0,0.072,0.144,MAYO CLINIC
6.18,2.37,30.18340,-82.68783,22902.06,5650.65,0.0,0.547,0.182,0.365,0.0,0.0,0.0,0.0,LAKE CITY MEDICAL CENTER
6.58,2.17,28.06172,-81.95304,24699.89,4733.87,0.0,1.08,0.68,0.52,0.0,0.0,0.12,0.04,LAKELAND REGIONAL MEDICAL CENTER
6.18,2.17,28.81611,-81.28351,22873.89,4748.00,0.141,1.129,0.282,0.423,0.0,0.0,0.141,0.0,CENTRAL FLORIDA REGIONAL HOSPITAL
10.00,2.68,26.12647,-80.20519,40173.12,7067.94,0.0,1.164,0.582,0.0,0.0,0.0,0.0,0.0,PLANTATION GENERAL HOSPITAL
5.20,2.12,26.35875,-80.10203,18478.52,4497.16,0.0,0.324,0.486,0.648,0.0,0.054,0.324,0.108,BOCA RATON REGIONAL HOSPITAL
5.84,2.28,28.07111,-82.42342,21366.70,5238.91,0.0,0.307,0.461,0.307,0.0,0.077,0.0,0.0,FLORIDA HOSPITAL TAMPA
7.04,2.23,26.83035,-80.08655,26787.33,5012.28,0.0,0.494,0.494,0.593,0.0,0.0,0.099,0.099,PALM BEACH GARDENS MEDICAL CENTER
5.11,2.20,28.36005,-80.62309,18063.00,4902.20,0.0,0.62,0.207,0.0,0.0,0.0,0.0,0.0,CAPE CANAVERAL HOSPITAL
9.38,2.16,30.28793,-81.60103,37366.12,4704.86,0.0,0.449,0.337,0.281,0.0,0.112,0.449,0.056,MEMORIAL HOSPITAL JACKSONVILLE
11.95,2.60,25.74360,-80.25465,49009.53,6693.00,0.0,0.0,0.65,0.0,0.0,0.0,0.217,0.0,CORAL GABLES HOSPITAL
10.49,2.62,25.88563,-80.32635,42409.69,6791.62,0.0,0.477,0.341,0.0,0.0,0.0,0.136,0.0,PALMETTO GENERAL HOSPITAL
10.00,2.20,26.26259,-80.20292,40189.17,4865.08,0.0,0.203,0.507,0.101,0.0,0.101,0.101,0.101,NORTHWEST MEDICAL CENTER
9.45,2.09,28.19342,-82.46987,37702.60,4402.45,0.0,0.312,0.623,0.208,0.0,0.0,0.0,0.0,MEDICAL CENTER OF TRINITY
7.42,2.18,26.20644,-80.11086,28499.36,4809.27,0.0,0.0,0.291,0.291,0.0,0.0,0.0,0.0,BROWARD HEALTH IMPERIAL POINT MEDICAL CENTER
8.92,2.15,29.66085,-82.41172,35311.23,4667.36,0.0,0.656,0.615,0.983,0.0,0.082,0.164,0.0,NORTH FLORIDA REGIONAL MEDICAL CENTER
4.89,2.08,27.93758,-82.48933,17067.25,4351.42,0.0,0.25,0.25,0.0,0.0,0.0,0.5,0.0,MEMORIAL HOSPITAL OF TAMPA
8.93,2.52,25.73195,-80.38580,35346.70,6341.35,0.0,0.247,0.412,0.082,0.0,0.082,0.494,0.165,KENDALL REGIONAL MEDICAL CENTER
8.32,2.08,29.17550,-82.13680,32584.05,4329.40,0.0,0.338,0.745,0.474,0.0,0.0,0.203,0.135,OCALA REGIONAL MEDICAL CENTER
7.02,2.07,27.48213,-82.62126,26710.80,4307.53,0.0,0.073,1.028,0.0,0.0,0.0,0.22,0.0,BLAKE MEDICAL CENTER
7.67,2.17,27.84359,-80.48849,29643.07,4722.43,0.0,0.172,1.204,1.547,0.0,0.0,0.0,0.0,SEBASTIAN RIVER MEDICAL CENTER
5.05,2.19,26.52735,-81.83337,17763.33,4855.33,0.0,0.418,0.731,0.209,0.0,0.0,0.052,0.052,GULF COAST MEDICAL CENTER LEE MEM HEALTH SYSTEM
10.34,2.10,30.45448,-86.63362,41702.96,4433.83,0.0,1.008,0.807,0.202,0.0,0.0,0.0,0.0,FORT WALTON BEACH MEDICAL CENTER
10.08,2.17,26.21219,-80.25478,40554.58,4732.08,0.0,0.513,0.684,0.0,0.0,0.0,0.0,0.171,UNIVERSITY HOSPITAL AND MEDICAL CENTER
9.96,2.23,30.16550,-81.73775,40000.47,5029.63,0.0,0.578,0.413,0.165,0.0,0.0,0.0,0.165,ORANGE PARK MEDICAL CENTER
7.74,2.25,26.12354,-80.25951,29968.06,5088.89,0.0,0.441,0.617,0.176,0.0,0.088,0.088,0.0,WESTSIDE REGIONAL MEDICAL CENTER
10.06,2.36,26.02951,-80.24607,40450.53,5590.82,0.0,0.651,0.326,0.651,0.0,0.326,0.326,0.0,MEMORIAL HOSPITAL PEMBROKE
8.83,2.25,30.51624,-87.21856,34863.62,5097.00,0.0,0.614,0.79,0.176,0.0,0.0,0.176,0.0,WEST FLORIDA HOSPITAL
5.57,2.20,29.64481,-81.69431,20114.29,4889.79,0.0,0.0,0.326,0.163,0.0,0.163,0.0,0.0,PUTNAM COMMUNITY MEDICAL CENTER
7.24,2.05,26.98884,-82.09877,27690.00,4194.36,0.0,0.333,0.333,0.416,0.0,0.0,0.0,0.0,FAWCETT MEMORIAL HOSPITAL
10.13,2.20,27.82545,-82.70122,40760.04,4859.22,0.0,0.941,0.523,0.105,0.0,0.0,0.0,0.314,NORTHSIDE HOSPITAL
8.20,2.20,30.18657,-85.66513,32054.73,4868.09,0.0,0.256,0.896,0.384,0.0,0.0,0.256,0.0,GULF COAST MEDICAL CENTER
8.11,2.27,27.93259,-82.28759,31609.65,5194.80,0.0,0.598,0.684,0.085,0.0,0.0,0.085,0.0,BRANDON REGIONAL HOSPITAL
5.92,2.09,26.63958,-81.94164,21708.03,4366.48,0.0,0.526,1.278,0.301,0.0,0.075,0.15,0.0,CAPE CORAL HOSPITAL
8.09,2.34,27.43392,-80.34350,31514.97,5508.21,0.0,0.563,0.563,0.188,0.0,0.094,0.0,0.282,LAWNWOOD REGIONAL MEDICAL CENTER & HEART INSTITUTE
7.54,2.15,27.91458,-82.80382,29033.07,4676.23,0.0,0.108,0.759,0.433,0.0,0.163,0.108,0.054,LARGO MEDICAL CENTER
6.92,2.52,30.47616,-84.23140,26219.84,6322.20,0.0,0.695,0.463,0.116,0.0,0.116,0.0,0.0,CAPITAL REGIONAL MEDICAL CENTER
5.77,2.21,28.00237,-82.57309,21057.93,4934.43,0.0,0.352,0.703,0.0,0.0,0.0,0.352,0.352,TOWN & COUNTRY HOSPITAL
8.80,2.07,28.36128,-82.68883,34764.13,4312.29,0.0,0.258,0.687,0.258,0.0,0.0,0.086,0.0,REGIONAL MEDICAL CENTER BAYONET POINT
9.36,2.16,26.43709,-80.12728,37276.72,4700.50,0.0,0.373,0.479,0.053,0.0,0.0,0.053,0.0,DELRAY MEDICAL CENTER
9.57,2.09,27.71350,-82.36512,38213.17,4370.00,0.0,0.539,0.404,0.673,0.0,0.0,0.135,0.0,SOUTH BAY HOSPITAL
7.77,2.38,27.28861,-80.29431,30097.48,5709.96,0.0,0.407,0.652,0.244,0.0,0.0,0.0,0.244,ST LUCIE MEDICAL CENTER
14.38,2.08,28.53585,-82.53404,59995.11,4342.26,0.0,0.467,1.089,0.0,0.0,0.078,0.0,0.0,OAK HILL HOSPITAL
5.97,2.12,28.03957,-82.70875,21937.42,4512.50,0.0,0.083,0.667,0.833,0.0,0.0,0.083,0.0,MEASE COUNTRYSIDE HOSPITAL
8.64,2.44,26.68337,-80.25269,34011.00,5972.46,0.0,0.0,1.097,0.914,0.0,0.0,0.548,0.0,PALMS WEST HOSPITAL
6.68,2.26,26.26841,-80.25571,25142.38,5144.85,0.0,1.241,0.248,0.248,0.0,0.0,0.248,0.0,CORAL SPRINGS MEDICAL CENTER
8.89,2.52,26.01394,-80.30980,35163.68,6318.84,0.0,0.341,0.114,0.454,0.0,0.0,0.0,0.114,MEMORIAL HOSPITAL WEST
5.37,2.87,25.74731,-80.31765,19225.93,7927.93,0.0,0.148,0.739,0.0,0.0,0.0,0.0,0.0,WESTCHESTER GENERAL HOSPITAL
7.62,2.13,26.21388,-81.73257,29409.42,4575.00,0.0,0.122,0.733,0.122,0.0,0.0,0.0,0.0,PHYSICIANS REGIONAL MEDICAL CENTER - PINE RIDGE
7.39,2.22,26.70181,-80.05055,28381.17,4981.89,0.0,0.825,0.275,0.138,0.138,0.0,0.138,0.0,GOOD SAMARITAN MEDICAL CENTER
4.79,2.08,28.94952,-81.95843,16610.65,4333.94,0.0,0.386,0.258,0.0,0.0,0.0,0.064,0.0,VILLAGES REGIONAL HOSPITAL THE
15.08,2.59,25.72132,-80.27116,63150.18,6663.09,0.0,0.395,0.395,0.0,0.0,0.0,0.0,0.198,DOCTORS HOSPITAL INC
7.11,2.11,28.24311,-81.30279,27082.36,4453.91,0.0,0.525,0.263,0.0,0.0,0.0,0.0,0.0,ST CLOUD REGIONAL MEDICAL CENTER
5.00,2.09,30.25377,-81.58270,17529.79,4385.63,0.0,0.499,0.333,0.333,0.0,0.0,0.0,0.0,ST VINCENT'S MEDICAL CENTER SOUTHSIDE
4.24,2.21,34.78963,-84.98398,14094.68,4918.71,0.0,0.162,0.809,0.324,0.0,0.0,0.0,0.0,HAMILTON MEDICAL CENTER
3.58,2.34,32.88710,-84.33393,11118.48,5495.05,0.0,0.329,0.329,0.0,0.0,0.0,0.0,0.0,UPSON REGIONAL MEDICAL CENTER
4.71,2.16,31.22516,-82.34898,16237.59,4689.33,0.0,0.0,0.535,0.0,0.0,0.0,0.0,0.0,SATILLA REGIONAL MEDICAL CENTER
4.70,2.22,34.94766,-85.26296,16192.55,4969.50,0.0,0.389,0.0,0.777,0.0,0.0,0.0,0.777,HUTCHESON MEDICAL CENTER
4.74,2.23,33.94791,-83.40531,16383.41,5038.47,0.0,0.179,0.358,0.0,0.0,0.0,0.179,0.0,ST MARY'S HOSPITAL
4.97,2.39,31.59023,-84.15756,17402.59,5760.30,0.177,0.177,0.795,0.0,0.0,0.177,0.088,0.0,PHOEBE PUTNEY MEMORIAL HOSPITAL
7.78,2.17,34.24569,-84.49068,30147.00,4765.55,0.0,0.622,0.933,0.311,0.0,0.0,0.0,0.0,NORTHSIDE HOSPITAL CHEROKEE
4.31,2.52,33.79230,-84.32107,14421.39,6314.29,0.0,2.246,0.299,1.098,0.0,0.1,0.299,0.2,EMORY UNIVERSITY HOSPITAL
3.82,2.22,33.03204,-85.05781,12224.08,4986.54,0.0,0.151,0.303,0.0,0.0,0.151,0.0,0.0,WEST GEORGIA MEDICAL CENTER
3.41,2.20,33.60237,-83.84809,10334.00,4873.29,0.0,0.229,0.229,0.0,0.0,0.0,0.0,0.0,NEWTON MEDICAL CENTER
5.79,2.39,34.51192,-84.92579,21117.14,5731.36,0.0,0.0,0.273,0.273,0.0,0.0,0.0,0.0,GORDON HOSPITAL
5.21,2.22,32.02825,-81.09977,18508.72,4981.34,0.0,0.559,0.0,0.0,0.0,0.0,0.14,0.0,CANDLER HOSPITAL
3.78,2.46,31.17425,-81.48459,12033.53,6064.73,0.0,0.576,0.346,0.115,0.0,0.0,0.115,0.115,SOUTHEAST GEORGIA HEALTH SYSTEM- BRUNSWICK CAMPUS
4.79,2.25,33.47096,-81.98176,16623.35,5112.89,0.0,0.792,0.396,5.205,0.0,0.0,0.339,0.113,UNIVERSITY HOSPITAL
4.82,2.32,34.30335,-83.81737,16723.00,5403.94,0.0,0.15,0.4,0.65,0.0,0.05,0.0,0.1,NORTHEAST GEORGIA MEDICAL CENTER INC
8.88,2.24,34.19990,-84.79378,35118.87,5053.53,0.0,0.414,0.621,0.621,0.0,0.0,0.0,0.414,CARTERSVILLE MEDICAL CENTER
5.87,2.36,33.23886,-84.26706,21500.40,5604.13,0.0,0.721,0.432,0.144,0.0,0.0,0.0,0.0,SPALDING REGIONAL MEDICAL CENTER
4.21,2.79,33.47091,-81.98988,13957.33,7558.24,0.0,0.631,0.36,0.18,0.0,0.09,0.45,0.27,MEDICAL COLLEGE OF GA HOSPITALS AND CLINICS
6.73,2.32,33.96770,-84.55011,25386.61,5443.90,0.0,0.818,0.696,0.368,0.0,0.0,0.082,0.0,WELLSTAR KENNESTONE HOSPITAL
4.95,2.41,32.03185,-81.09158,17304.96,5820.77,0.0,0.179,0.359,0.299,0.0,0.06,0.179,0.0,MEMORIAL HEALTH UNIV MED CEN INC
4.64,2.15,30.82614,-83.97393,15931.31,4645.23,0.0,0.134,0.403,0.134,0.0,0.0,0.134,0.0,JOHN D ARCHBOLD MEMORIAL HOSPITAL
4.61,2.10,31.98515,-81.15475,15787.53,4444.21,0.0,0.375,0.844,0.0,0.0,0.0,0.094,0.0,ST JOSEPH'S HOSPITAL - SAVANNAH
4.44,2.25,33.78334,-83.71709,15021.75,5126.17,0.0,0.0,2.203,0.0,0.0,0.0,0.0,0.0,WALTON REGIONAL MEDICAL CENTER
5.71,2.38,34.26000,-85.17000,20775.31,5710.81,0.0,0.109,1.091,0.218,0.0,0.0,0.0,0.109,FLOYD MEDICAL CENTER
4.56,2.49,32.46602,-84.98695,15554.61,6213.22,0.0,0.0,0.177,0.0,0.0,0.177,0.0,0.0,MEDICAL CENTER THE
4.16,2.21,32.61642,-83.63065,13729.61,4911.03,0.0,0.863,0.384,0.767,0.0,0.0,0.0,0.0,HOUSTON MEDICAL CENTER
6.05,2.26,31.76996,-82.35014,22286.00,5163.18,0.0,0.0,0.0,0.0,0.0,0.0,0.0,0.0,APPLING HOSPITAL
6.26,2.50,32.54026,-82.95741,23272.43,6260.57,0.0,0.463,0.463,0.0,0.0,0.0,0.232,0.0,FAIRVIEW PARK HOSPITAL
3.96,2.23,33.96117,-83.39832,12867.58,5038.61,0.0,0.276,0.276,0.414,0.0,0.138,0.0,0.0,ATHENS REGIONAL MEDICAL CENTER
5.37,2.31,32.41483,-81.76990,19216.87,5357.60,0.0,0.0,0.656,0.0,0.0,0.0,0.0,0.164,EAST GEORGIA REGIONAL MEDICAL CENTER
3.84,2.35,33.78956,-84.28077,12299.24,5538.65,0.0,0.243,0.243,0.081,0.0,0.0,0.0,0.0,DEKALB MEDICAL CENTER
3.37,2.36,33.76810,-84.38616,10155.21,5600.42,0.0,1.358,0.647,0.453,0.0,0.065,0.129,0.065,EMORY UNIVERSITY HOSPITAL MIDTOWN
4.94,2.79,33.75205,-84.38272,17273.62,7567.51,0.0,0.528,0.211,1.056,0.0,0.106,0.106,0.0,GRADY MEMORIAL HOSPITAL
4.47,2.12,33.90877,-84.35180,15136.38,4505.12,0.0,0.348,0.557,0.696,0.0,0.07,0.0,0.07,SAINT JOSEPH'S HOSPITAL OF ATLANTA INC
5.61,2.21,33.81003,-84.39568,20302.52,4932.76,0.0,0.146,0.438,0.049,0.0,0.049,0.049,0.049,PIEDMONT HOSPITAL
3.85,2.36,33.96351,-84.01769,12342.50,5593.46,0.0,0.159,0.239,0.0,0.0,0.0,0.0,0.0,GWINNETT MEDICAL CENTER
3.61,2.08,31.50971,-82.86341,11240.22,4333.78,0.0,0.208,0.208,0.0,0.0,0.0,0.416,0.0,COFFEE REGIONAL MEDICAL CENTER
5.10,2.33,33.68072,-84.00200,17985.53,5452.41,0.0,0.0,0.369,0.185,0.0,0.185,0.185,0.185,ROCKDALE MEDICAL CENTER
4.88,2.21,31.47069,-83.50473,17020.05,4928.43,0.0,0.0,0.751,0.0,0.0,0.0,0.501,0.0,TIFT REGIONAL MEDICAL CENTER
3.52,2.12,31.97683,-83.78280,10841.69,4505.56,0.0,0.432,0.432,0.0,0.0,0.0,0.0,0.0,CRISP REGIONAL HOSPITAL
4.75,2.38,32.83041,-83.63476,16408.46,5717.75,0.0,0.371,0.619,0.165,0.0,0.041,0.165,0.082,MEDICAL CENTER OF CENTRAL GEORGIA
10.02,2.59,33.76372,-84.37315,40282.52,6643.00,0.0,1.769,0.531,0.0,0.0,0.0,0.354,0.0,ATLANTA MEDICAL CENTER
4.43,2.31,30.86250,-83.28630,14970.45,5380.68,0.0,0.41,0.41,0.513,0.0,0.0,0.103,0.0,SOUTH GEORGIA MEDICAL CENTER
4.92,2.10,32.20903,-82.37585,17175.92,4443.00,0.0,0.0,0.691,0.0,0.0,0.0,0.0,0.0,MEADOWS REGIONAL MEDICAL CENTER
4.03,2.14,32.50679,-84.95933,13168.72,4606.93,0.0,0.229,0.915,0.153,0.0,0.0,0.0,0.153,ST FRANCIS HOSPITAL INC
5.68,2.31,33.85638,-84.60446,20608.70,5359.97,0.0,0.718,0.319,0.558,0.0,0.0,0.239,0.08,WELLSTAR COBB HOSPITAL
6.70,2.20,31.53017,-84.17516,25259.92,4879.00,0.0,0.577,0.865,0.288,0.0,0.0,0.0,0.0,PHOEBE NORTH
5.80,2.24,32.84705,-83.61823,21169.13,5065.47,0.0,0.817,0.584,0.35,0.0,0.0,0.234,0.0,COLISEUM MEDICAL CENTER
5.72,2.33,33.57843,-84.38897,20809.67,5459.90,0.0,0.51,0.255,0.255,0.0,0.0,0.0,0.0,SOUTHERN REGIONAL MEDICAL CENTER
4.88,2.15,34.25704,-85.16467,17025.09,4666.68,0.0,0.0,0.501,0.167,0.0,0.0,0.0,0.0,REDMOND REGIONAL MEDICAL CENTER
8.68,2.30,33.48259,-82.09038,34191.69,5343.15,0.0,1.353,1.353,0.301,0.0,0.0,0.451,0.0,DOCTORS HOSPITAL
4.45,2.16,33.73938,-84.73111,15058.78,4694.43,0.0,0.0,0.79,0.0,0.0,0.0,0.0,0.0,WELLSTAR DOUGLAS HOSPITAL
3.50,2.19,33.51144,-84.22200,10743.62,4828.88,0.0,0.124,0.249,0.0,0.0,0.0,0.0,0.0,HENRY MEDICAL CENTER INC
5.51,2.17,33.87683,-84.02136,19838.97,4749.10,0.0,0.0,0.297,0.446,0.0,0.0,0.297,0.0,EMORY EASTSIDE MEDICAL CENTER
10.02,2.22,34.06334,-84.31976,40258.08,4966.00,0.0,0.587,0.782,1.565,0.0,0.0,0.0,0.0,NORTH FULTON REGIONAL HOSPITAL
5.26,2.14,33.45252,-84.50697,18725.00,4624.00,0.0,0.375,0.876,0.0,0.0,0.0,0.375,0.125,PIEDMONT FAYETTE HOSPITAL
11.21,2.43,33.68000,-84.42685,45645.27,5938.81,0.0,1.406,0.234,0.0,0.0,0.0,0.0,0.0,SOUTH FULTON MEDICAL CENTER
4.22,2.33,33.70365,-84.14697,14025.57,5471.79,0.0,1.109,0.37,0.0,0.0,0.0,0.0,0.0,DEKALB MEDICAL CENTER AT HILLANDALE
4.94,2.19,33.39118,-84.81563,17261.25,4841.50,0.0,0.406,0.203,0.0,0.0,0.0,0.0,0.0,PIEDMONT NEWNAN HOSPITAL INC
5.41,2.75,21.30780,-157.85505,19391.88,7369.04,0.0,0.369,0.442,0.811,0.0,0.0,0.074,0.0,THE QUEENS MEDICAL CENTER
4.04,2.57,21.37080,-158.02746,13184.92,6535.50,0,0,0,0,0,0,0,0,HAWAII MEDICAL CENTER WEST
3.19,2.35,42.59072,-114.49627,9376.71,5557.57,0.0,0.491,0.818,0.327,0.0,0.0,0.0,0.164,ST LUKES MAGIC VALLEY RMC
4.61,2.24,43.61218,-116.19234,15788.47,5079.07,0.068,0.342,0.342,0.342,0.0,0.0,0.068,0.0,ST LUKES REGIONAL MEDICAL CENTER
3.87,2.24,43.61359,-116.25484,12419.56,5062.25,0.0,0.085,0.683,0.256,0.0,0.0,0.0,0.0,ST ALPHONSUS REGIONAL MEDICAL CENTER
4.43,2.55,42.87331,-112.42180,14992.45,6458.55,0.0,0.196,0.588,0.784,0.0,0.0,0.0,0.0,PORTNEUF MEDICAL CENTER
4.22,2.25,47.69645,-116.79476,14019.82,5126.64,0.0,0.246,1.229,0.738,0.0,0.0,0.0,0.0,KOOTENAI MEDICAL CENTER
4.56,2.08,38.90068,-90.16026,15559.88,4356.25,0.0,0.178,0.534,0.178,0.0,0.0,0.0,0.0,ALTON MEMORIAL HOSPITAL
6.46,2.26,41.52896,-88.13550,24159.17,5159.19,0.0,0.0,0.289,2.213,0.0,0.0,0.192,0.0,PROVENA ST JOSEPH MEDICAL CENTER
5.52,2.43,42.06550,-87.68428,19896.08,5940.68,0.0,0.131,0.557,0.164,0.0,0.033,0.066,0.033,EVANSTON HOSPITAL
3.51,2.14,37.80207,-89.02660,10817.21,4607.25,0.0,0.168,0.503,0.168,0.0,0.0,0.0,0.0,HERRIN HOSPITAL
4.70,2.31,39.93563,-91.39833,16209.90,5378.33,0.0,0.164,0.164,0.082,0.0,0.082,0.409,0.164,BLESSING HOSPITAL
5.31,3.02,41.86011,-87.69571,18936.43,8584.83,0.0,0.0,0.179,0.359,0.0,0.179,0.718,0.0,MT SINAI HOSPITAL MEDICAL CENTER
8.76,2.85,41.72930,-88.26976,34558.55,7809.73,0.0,0.135,0.405,0.0,0.0,0.0,0.0,0.0,COPLEY MEMORIAL HOSPITAL
7.45,4.30,42.07012,-88.33180,28618.87,14386.30,0.0,0.0,0.996,0.299,0.0,0.0,0.0,0.0,SHERMAN HOSPITAL
2.74,2.03,39.12680,-88.55059,7337.08,4125.08,0.0,0.135,0.811,0.811,0.0,0.0,0.135,0.0,ST ANTHONYS MEMORIAL HOSPITAL
3.93,2.23,38.52908,-89.11604,12724.74,5002.93,0.0,0.537,0.269,0.0,0.0,0.0,0.0,0.0,ST MARYS HOSPITAL
6.41,2.66,40.95560,-90.36618,23918.93,6969.57,0.0,0.0,0.0,0.0,0.0,0.244,0.0,0.0,GALESBURG COTTAGE HOSPITAL
4.64,2.14,38.32292,-88.91026,15915.77,4612.69,0.0,0.137,0.274,0.411,0.0,0.0,0.0,0.0,GOOD SAMARITAN REGIONAL HLTH CENTER
5.68,2.47,41.72636,-87.56727,20632.51,6090.54,0.0,0.832,0.238,0.595,0.0,0.0,0.0,0.119,ADVOCATE TRINITY HOSPITAL
5.86,2.65,41.89141,-87.77618,21422.97,6896.84,0.0,0.164,0.492,0.164,0.0,0.0,0.164,0.0,WEST SUBURBAN MEDICAL CENTER
6.15,2.36,42.05624,-87.74012,22734.11,5604.43,0.0,0.207,0.311,0.104,0.0,0.0,0.104,0.0,SKOKIE HOSPITAL
5.13,2.34,39.80726,-89.64496,18151.67,5519.17,0.0,0.318,0.572,0.254,0.0,0.0,0.127,0.127,ST JOHNS HOSPITAL
5.35,2.54,41.83195,-87.79266,19140.35,6415.48,0.0,0.181,0.272,0.0,0.0,0.091,0.0,0.0,MACNEAL  HOSPITAL
4.97,2.17,41.66900,-87.81414,17407.44,4726.92,0.0,0.0,0.181,0.136,0.0,0.045,0.091,0.0,PALOS COMMUNITY HOSPITAL
4.91,2.24,41.87870,-87.80322,17133.20,5055.33,0.0,0.477,0.954,0.0,0.0,0.0,0.477,0.0,RUSH OAK PARK HOSPITAL
5.61,2.53,41.79660,-87.88627,20315.14,6395.07,0.0,0.092,0.832,0.554,0.092,0.0,0.0,0.0,ADVENTIST LA GRANGE MEMORIAL HOSPITAL
6.80,2.43,40.70200,-89.59222,25689.25,5926.46,0.0,0.311,0.489,0.533,0.0,0.0,0.133,0.089,SAINT FRANCIS MEDICAL CENTER
7.62,2.66,41.69322,-87.62436,29409.74,6955.17,0.0,0.0,0.0,0.0,0.0,0.0,0.0,0.0,ROSELAND COMMUNITY HOSPITAL
7.55,2.71,42.02578,-87.68371,29069.55,7193.39,0.0,0.378,0.378,0.0,0.0,0.126,0.0,0.0,RHC ST FRANCIS HOSPITAL
5.33,2.65,41.96698,-87.64941,19042.64,6939.62,0.0,0.387,1.161,0.0,0.0,0.0,0.258,0.0,LOUIS A WEISS MEMORIAL HOSPITAL
3.63,2.69,41.87259,-87.76181,11343.75,7081.25,0.0,0.0,0.219,0.0,0.0,0.0,0.219,0.0,LORETTO HOSPITAL
6.50,2.38,42.37840,-87.83329,24321.48,5694.68,0.0,0.631,0.526,0.0,0.0,0.0,0.315,0.0,VISTA MEDICAL CENTER EAST
9.78,3.07,41.78829,-87.60485,39164.92,8826.96,0.0,1.208,0.226,0.453,0.0,0.0,0.0,0.528,THE UNIVERSITY OF CHICAGO MEDICAL CENTER
4.98,2.34,40.11696,-88.21506,17446.25,5497.75,0.0,0.374,0.524,0.824,0.0,0.0,0.225,0.0,CARLE FOUNDATION HOSPITAL
6.65,2.31,40.13811,-87.64569,25007.60,5383.00,0.0,0.166,0.498,0.332,0.0,0.0,0.0,0.0,PROVENA UNITED SAMARITANS MEDCTR-LOGAN
6.89,2.69,41.85543,-87.69810,26115.79,7078.74,0.0,1.088,0.363,0.363,0.0,0.0,0.0,0.0,SAINT ANTHONY HOSPITAL
4.20,2.75,41.77813,-87.63330,13932.31,7349.73,0.0,0.0,0.0,0.0,0.0,0.0,0.0,0.0,ST BERNARD HOSPITAL
7.45,2.29,40.11739,-88.22714,28651.00,5290.13,0.0,0.0,0.877,0.146,0.0,0.0,0.438,0.146,PROVENA COVENANT MEDICAL CENTER- URBANA
9.16,2.55,41.97532,-87.69958,36397.04,6447.54,0.0,0.276,0.0,0.276,0.0,0.0,0.0,0.0,SWEDISH COVENANT HOSPITAL
4.11,2.59,41.95453,-87.65225,13534.50,6667.31,0.0,0.682,0.0,0.0,0.0,0.0,0.227,0.0,THOREK MEMORIAL HOSPITAL
4.76,2.18,42.31832,-88.27920,16448.67,4808.00,0.0,0.205,0.307,0.102,0.0,0.0,0.0,0.0,CENTEGRA HEALTH SYSTEM - MC HENRY HOSPITAL
7.94,2.34,41.98743,-87.81440,30873.00,5536.55,0.0,0.446,1.211,0.382,0.0,0.0,0.0,0.064,RESURRECTION MEDICAL CENTER
4.81,2.35,41.65880,-87.67729,16711.71,5542.42,0.0,0.11,0.44,0.11,0.0,0.0,0.11,0.11,METROSOUTH MEDICAL CENTER
5.16,2.84,41.87497,-87.66927,18282.93,7773.98,0.0,0.884,0.416,0.988,0.0,0.156,0.104,0.156,RUSH UNIVERSITY MEDICAL CENTER
5.91,2.25,41.80555,-87.92059,21681.46,5115.85,0.0,0.507,0.304,0.304,0.0,0.101,0.0,0.0,HINSDALE HOSPITAL
4.28,3.20,41.87381,-87.67421,14308.67,9402.42,0.0,1.269,0.423,0.211,0.0,0.0,0.211,0.423,JOHN H STROGER JR HOSPITAL
9.63,2.37,38.70148,-90.14382,38509.09,5629.61,0.0,0.428,0.856,0.0,0.0,0.0,0.0,0.0,GATEWAY REGIONAL MEDICAL CENTER
5.78,2.17,42.25244,-87.86528,21076.00,4736.29,0.0,0.167,0.333,0.0,0.0,0.0,0.0,0.0,LAKE FOREST HOSPITAL
5.51,2.42,41.76946,-87.69239,19847.80,5887.80,0.0,0.253,0.126,0.253,0.0,0.0,0.0,0.0,HOLY CROSS HOSPITAL
4.60,2.31,39.86644,-88.96090,15742.93,5382.41,0.0,0.161,1.048,0.161,0.0,0.0,0.081,0.081,DECATUR MEMORIAL HOSPITAL
4.47,2.27,39.80893,-89.65530,15140.26,5202.29,0.0,0.643,0.683,0.121,0.0,0.0,0.08,0.08,MEMORIAL MEDICAL CENTER
5.90,3.40,41.86927,-87.67052,21643.55,10320.30,0.0,1.673,0.257,0.0,0.0,0.0,0.129,0.0,UNIVERSITY OF ILLINOIS HOSPITAL
7.11,2.41,41.12049,-87.87187,27112.68,5849.24,0.0,0.145,0.435,0.58,0.0,0.0,0.0,0.145,PROVENA ST MARYS HOSPITAL
3.96,2.81,41.84639,-87.62345,12853.49,7622.71,0.0,0.442,0.442,0.53,0.0,0.088,0.088,0.088,MERCY HOSPITAL AND MEDICAL CENTER
3.86,2.18,37.72790,-89.22058,12405.16,4793.37,0.0,0.504,0.504,0.0,0.0,0.126,0.126,0.0,MEMORIAL HOSPITAL OF CARBONDALE
5.03,2.47,41.52283,-87.71111,17698.33,6090.42,0.0,0.0,0.196,0.147,0.0,0.0,0.049,0.049,FRANCISCAN ST JAMES HEALTH
8.82,2.54,41.78566,-88.32886,34834.12,6399.81,0.0,1.262,0.361,0.0,0.0,0.0,0.0,0.18,PROVENA MERCY MEDICAL CENTER
4.93,2.47,42.27597,-88.40019,17225.93,6103.20,0.0,0.173,1.553,0.0,0.0,0.0,0.0,0.173,CENTEGRA HEALTH SYSTEM - WOODSTOCK HOSPITAL
7.48,2.77,41.75746,-87.58559,28765.00,7476.50,0.0,0.0,0.0,0.0,0.0,0.0,0.0,0.0,JACKSON PARK HOSPITAL
6.40,2.27,41.72094,-87.69220,23873.64,5199.58,0.0,0.218,0.436,0.291,0.0,0.0,0.073,0.145,LITTLE COMPANY OF MARY HOSPITAL
6.48,2.74,41.90414,-87.68254,24271.85,7302.94,0.0,0.285,0.57,0.071,0.0,0.071,0.428,0.071,ST MARY & ELIZABETH MED CTR-DIVISION CAMPUS
5.70,2.53,41.74948,-87.56909,20706.84,6370.89,0.0,0.466,0.233,0.0,0.0,0.0,0.0,0.0,SOUTH SHORE HOSPITAL
6.71,2.92,41.93641,-87.65295,25299.54,8134.71,0.0,0.399,0.199,0.0,0.0,0.1,0.0,0.0,ADVOCATE ILLINOIS MASONIC MEDICAL CENTER
4.98,2.16,38.55020,-90.02146,17440.83,4702.86,0.0,0.611,0.229,0.153,0.0,0.0,0.0,0.0,MEMORIAL HOSPITAL
4.50,2.36,41.12572,-87.88526,15293.92,5603.65,0.0,0.186,0.931,1.117,0.0,0.0,0.0,0.0,RIVERSIDE MEDICAL CENTER
5.45,2.31,38.51081,-89.99014,19568.32,5358.00,0.0,0.211,0.949,0.527,0.0,0.0,0.105,0.0,ST ELIZABETH HOSPITAL
4.29,2.19,39.48849,-88.27581,14337.42,4843.00,0.0,0.53,0.177,0.884,0.0,0.177,0.177,0.0,SARAH BUSH LINCOLN HEALTH CENTER
6.16,2.36,41.60726,-87.66060,22815.81,5594.02,0.0,0.279,0.21,0.279,0.0,0.07,0.07,0.0,INGALLS MEMORIAL HOSPITAL
9.72,2.17,41.86362,-87.93567,38906.35,4730.82,0.0,0.449,0.299,0.973,0.0,0.0,0.0,0.0,ELMHURST MEMORIAL HOSPITAL
7.38,2.25,42.27447,-87.95764,28326.81,5095.78,0.0,0.279,0.488,0.209,0.0,0.0,0.0,0.07,ADVOCATE CONDELL MEDICAL CENTER
7.45,2.82,41.90078,-87.69925,28619.05,7668.16,0.0,0.24,0.48,0.0,0.0,0.0,0.0,0.0,NORWEGIAN-AMERICAN HOSPITAL
5.33,2.84,41.72031,-87.73249,19060.32,7755.22,0.0,0.172,0.138,0.034,0.0,0.069,0.241,0.034,ADVOCATE CHRIST HOSPITAL & MEDICAL CENTER
4.97,2.32,40.70065,-89.59505,17415.50,5418.43,0.0,0.178,0.446,0.0,0.0,0.0,0.0,0.089,METHODIST MEDICAL CENTER OF ILLINOIS
6.58,2.18,41.88566,-88.34311,24706.67,4796.92,0.0,0.132,0.397,0.397,0.0,0.0,0.0,0.0,DELNOR COMMUNITY HOSPITAL
4.53,2.33,41.54446,-87.98379,15405.14,5449.52,0.0,0.513,0.22,0.439,0.0,0.0,0.0,0.073,SILVER CROSS HOSPITAL  AND MEDICAL CENTERS
6.72,2.16,42.03576,-88.32575,25335.40,4698.07,0.0,0.295,0.884,0.295,0.0,0.0,0.0,0.147,PROVENA - SAINT JOSEPH HOSPITAL
4.36,2.47,42.03837,-87.84820,14659.78,6095.72,0.0,0.181,0.135,0.045,0.0,0.0,0.0,0.045,ADVOCATE LUTHERAN GENERAL HOSPITAL
5.46,2.84,41.93418,-87.63579,19620.74,7781.95,0.0,0.24,0.24,0.12,0.12,0.0,0.0,0.12,SAINT JOSEPH HOSPITAL
5.41,2.43,42.26584,-89.07428,19392.35,5901.25,0.0,0.156,0.857,0.312,0.0,0.0,0.312,0.0,SWEDISH AMERICAN HOSPITAL
5.23,2.18,41.76076,-88.15016,18591.95,4771.86,0.0,0.393,0.131,0.524,0.0,0.066,0.0,0.0,EDWARD HOSPITAL
6.19,2.13,42.26634,-89.00900,22923.24,4550.14,0.0,0.311,0.414,0.311,0.0,0.104,0.104,0.104,SAINT ANTHONY MEDICAL CENTER
4.96,2.37,42.29844,-89.09897,17386.05,5645.00,0.0,0.197,0.492,0.0,0.0,0.0,0.0,0.0,ROCKFORD MEMORIAL HOSPITAL
7.84,2.70,41.89166,-87.84838,30423.08,7131.92,0.0,0.511,0.256,0.256,0.0,0.0,0.0,0.256,WESTLAKE COMMUNITY HOSPITAL
6.60,2.48,41.87269,-88.15684,24797.88,6148.79,0.0,0.067,0.599,0.399,0.0,0.0,0.067,0.067,CENTRAL DUPAGE HOSPITAL
5.28,2.27,41.56720,-87.69566,18826.00,5194.54,0.0,0.588,0.098,0.196,0.0,0.0,0.0,0.0,ADVOCATE SOUTH SUBURBAN HOSPITAL
6.88,2.32,41.94560,-87.76897,26049.96,5403.93,0.0,0.801,0.572,0.114,0.0,0.0,0.0,0.0,OUR LADY OF THE RESURRECTION MED CTR
5.46,2.40,42.06732,-87.99368,19617.22,5801.59,0.0,0.249,0.87,0.207,0.0,0.0,0.041,0.0,NORTHWEST COMMUNITY HOSPITAL
6.29,2.18,42.00413,-88.01745,23379.61,4797.28,0.0,0.056,0.726,0.223,0.0,0.0,0.0,0.0,ALEXIAN BROTHERS MEDICAL CENTER
4.70,2.80,41.86110,-87.83404,16200.69,7611.64,0.0,0.47,0.352,0.587,0.0,0.117,0.235,0.059,LOYOLA UNIVERSITY MEDICAL CENTER
3.45,2.19,41.48200,-90.57158,10517.30,4826.00,0.0,0.145,0.867,0.145,0.0,0.072,0.145,0.0,TRINITY ROCK ISLAND
6.06,2.73,41.89477,-87.62131,22345.21,7293.19,0.0,0.382,0.243,0.208,0.0,0.0,0.243,0.035,NORTHWESTERN MEMORIAL HOSPITAL
5.20,2.17,41.96185,-88.72130,18455.08,4746.08,0.0,0.181,0.542,0.181,0.0,0.0,0.0,0.0,KISHWAUKEE COMMUNITY HOSPITAL
6.73,2.17,41.81791,-88.00907,25393.42,4741.36,0.0,0.125,0.25,0.063,0.0,0.0,0.0,0.0,ADVOCATE GOOD SAMARITAN HOSPITAL
3.91,2.33,38.73818,-89.94728,12629.53,5484.76,0.0,0.0,0.187,0.561,0.0,0.0,0.0,0.0,ANDERSON HOSPITAL
5.88,2.34,42.05260,-88.14173,21550.65,5511.62,0.0,0.232,0.232,0.0,0.0,0.077,0.0,0.0,ST ALEXIUS MEDICAL CENTER
6.85,2.22,41.68062,-88.08319,25935.73,4972.18,0.0,0.0,0.533,0.799,0.0,0.0,0.0,0.0,ADVENTIST BOLINGBROOK HOSPITAL
4.50,2.37,41.59920,-87.35764,15268.27,5656.87,0.0,0.576,0.384,0.0,0.0,0.064,0.192,0.0,METHODIST HOSPITALS INC
5.43,2.23,40.42687,-86.88197,19489.14,5015.09,0.0,0.456,0.684,0.228,0.0,0.0,0.228,0.0,FRANCISCAN ST ELIZABETH HEALTH - LAFAYETTE CENTRAL
4.28,2.35,41.61514,-87.52413,14300.95,5555.10,0.0,0.732,0.209,0.105,0.0,0.0,0.0,0.0,FRANCISCAN ST MARGARET HEALTH - HAMMOND
3.85,2.37,41.63466,-87.44901,12342.81,5651.62,0.0,0.171,0.686,0.171,0.0,0.0,0.0,0.0,ST CATHERINE HOSPITAL INC
3.39,2.18,38.28244,-85.74923,10277.55,4804.23,0.0,0.0,0.695,0.261,0.0,0.0,0.0,0.0,CLARK MEMORIAL HOSPITAL
3.67,2.20,40.56435,-85.66576,11548.58,4872.25,0.0,0.212,0.425,0.212,0.0,0.0,0.0,0.425,MARION GENERAL HOSPITAL
4.40,2.30,41.70877,-86.17026,14816.19,5314.87,0.0,0.0,0.439,0.146,0.0,0.0,0.0,0.0,SAINT JOSEPH REGIONAL MEDICAL CENTER
4.31,2.22,41.70639,-86.89936,14411.42,4964.88,0.0,0.156,0.0,0.311,0.0,0.0,0.156,0.156,FRANCISCAN ST ANTHONY HEALTH - MICHIGAN CITY
5.18,2.23,41.03874,-85.24876,18363.08,5016.64,0.0,0.481,0.962,0.361,0.0,0.0,0.12,0.0,LUTHERAN HOSPITAL OF INDIANA
4.58,2.16,41.70568,-85.93404,15646.03,4715.48,0.0,0.0,0.791,0.099,0.099,0.0,0.297,0.099,ELKHART GENERAL HOSPITAL
5.21,2.21,41.04659,-85.10906,18491.52,4931.10,0.0,0.131,0.524,1.114,0.0,0.0,0.131,0.066,PARKVIEW REGIONAL MEDICAL CENTER
4.75,2.23,39.48518,-87.40893,16406.95,5032.38,0.0,0.182,0.728,0.182,0.0,0.0,0.061,0.061,UNION HOSPITAL INC
3.57,2.83,39.78091,-86.17629,11073.60,7727.36,0.0,0.291,0.145,0.436,0.0,0.145,0.0,0.0,WILLIAM N WISHARD MEMORIAL HOSPITAL
4.87,2.16,39.72432,-86.10055,16956.26,4682.55,0,0,0,0,0,0,0,0,FRANCISCAN ST FRANCIS HEALTH - BEECH GROVE
4.54,2.22,41.51266,-87.26125,15480.09,4968.26,0.0,0.19,0.476,0.381,0.0,0.0,0.0,0.0,ST MARY MEDICAL CENTER INC
6.15,2.25,41.46729,-87.05130,22754.85,5097.82,0.0,0.342,0.684,0.342,0.0,0.0,0.0,0.0,PORTER VALPARAISO HOSPITAL
3.55,2.08,38.67313,-87.53370,10986.92,4348.46,0.0,0.285,0.285,0.142,0.0,0.0,0.0,0.142,GOOD SAMARITAN HOSPITAL
4.07,2.09,38.30195,-85.83409,13321.74,4362.50,0.0,0.077,0.154,0.309,0.0,0.0,0.0,0.0,FLOYD MEMORIAL HOSPITAL AND HEALTH SERVICES
6.61,2.19,39.41951,-87.40898,24825.06,4827.44,0.0,0.0,0.563,0.0,0.0,0.0,0.0,0.0,TERRE HAUTE REGIONAL HOSPITAL
3.38,2.32,39.86405,-84.88413,10236.82,5415.21,0.0,0.354,0.707,0.0,0.0,0.0,0.088,0.088,REID HOSPITAL & HEALTH CARE SERVICES
4.23,2.23,39.16006,-86.54038,14045.47,5025.60,0.0,0.287,0.382,0.955,0.0,0.096,0.096,0.0,INDIANA UNIVERSITY HEALTH BLOOMINGTON HOSPITAL
6.61,2.81,39.79009,-86.16260,24830.00,7634.76,0.028,0.369,0.454,0.17,0.0,0.0,0.057,0.057,INDIANA UNIVERSITY HEALTH
5.35,2.16,39.60783,-86.35573,19122.00,4695.18,0.0,0.0,0.924,0.308,0.0,0.0,0.0,0.308,FRANCISCAN ST FRANCIS HEALTH - MOORESVILLE
3.71,2.27,41.68479,-86.25217,11697.00,5209.00,0.0,0.0,1.135,1.059,0.0,0.076,0.151,0.0,MEMORIAL HOSPITAL OF SOUTH BEND
3.76,2.30,39.65626,-85.13265,11942.93,5313.00,0.0,0.0,0.518,0.518,0.0,0.0,0.0,0.0,FAYETTE REGIONAL HEALTH SYSTEM
3.73,2.20,38.73589,-85.37996,11821.12,4868.62,0.0,0.0,0.265,0.796,0.0,0.0,0.0,0.0,KING'S DAUGHTERS' HOSPITAL AND HEALTH SERVICESTHE
4.14,2.31,39.78704,-86.07673,13642.26,5373.00,0.0,0.299,0.1,0.299,0.0,0.0,0.0,0.0,COMMUNITY HOSPITAL EAST
4.91,2.11,37.98293,-87.57072,17139.98,4458.78,0.0,0.472,0.515,0.215,0.0,0.086,0.0,0.0,DEACONESS HOSPITAL INC
6.46,2.46,39.91001,-86.19660,24178.62,6052.98,0.0,0.773,0.258,0.472,0.0,0.086,0.043,0.086,ST VINCENT HOSPITAL & HEALTH SERVICES
5.33,2.28,40.09594,-85.68152,19064.50,5249.36,0.0,0.15,0.15,0.451,0.0,0.0,0.0,0.15,SAINT JOHN'S HEALTH SYSTEM
6.79,2.34,40.19679,-85.41573,25654.36,5510.60,0.0,0.066,0.66,0.264,0.0,0.0,0.132,0.066,INDIANA UNIVERSITY HEALTH BALL MEMORIAL HOSPITAL
5.30,2.20,41.49222,-87.52429,18904.06,4859.12,0.0,0.765,0.306,0.0,0.0,0.0,0.0,0.0,FRANCISCAN ST MARGARET HEALTH - DYER
4.47,2.24,37.96320,-87.50292,15170.70,5063.18,0.0,0.262,0.589,0.327,0.0,0.0,0.131,0.0,ST MARY'S MEDICAL CENTER OF EVANSVILLE INC
3.77,2.19,39.21585,-85.89683,11964.63,4830.79,0.0,0.0,0.652,0.13,0.0,0.0,0.0,0.13,COLUMBUS REGIONAL HOSPITAL
3.74,2.20,40.12998,-85.69436,11868.11,4865.56,0.0,0.159,0.637,0.0,0.0,0.0,0.0,0.0,COMMUNITY HOSPITAL OF ANDERSON AND MADISON COUNTY
4.55,2.21,41.55065,-87.50619,15496.02,4915.28,0.0,0.554,0.604,0.252,0.0,0.0,0.0,0.0,COMMUNITY HOSPITAL
5.15,2.25,41.39576,-87.36689,18251.52,5109.52,0.0,0.0,0.849,0.189,0.0,0.0,0.0,0.0,FRANCISCAN ST ANTHONY HEALTH - CROWN POINT
4.88,2.22,39.63776,-86.13260,16997.24,4975.59,0.0,0.0,0.922,0.0,0.0,0.154,0.0,0.154,COMMUNITY HOSPITAL SOUTH
4.56,2.14,41.24786,-85.82927,15555.92,4596.92,0.0,0.0,1.3,0.0,0.0,0.0,0.0,0.0,KOSCIUSKO COMMUNITY HOSPITAL
5.77,2.17,39.78047,-86.34084,21014.56,4752.48,0.0,0.194,1.357,0.0,0.0,0.0,0.194,0.0,IU HEALTH WEST HOSPITAL
4.13,2.22,39.90060,-86.04218,13593.08,4979.50,0.0,0.335,0.781,0.112,0.0,0.0,0.0,0.0,COMMUNITY HOSPITAL NORTH
5.00,2.14,40.40296,-86.80885,17565.42,4598.47,0.0,0.14,0.279,0.14,0.0,0.0,0.0,0.0,INDIANA UNIVERSITY HEALTH ARNETT HOSPITAL
4.96,2.30,41.60051,-93.61086,17351.71,5322.36,0.0,0.187,0.187,0.187,0.0,0.0,0.0,0.0,IOWA LUTHERAN HOSPITAL
4.51,2.38,41.26886,-95.83923,15328.58,5710.33,0.0,0.197,0.592,0.0,0.0,0.197,0.0,0.0,ALEGENT HEALTH MERCY HOSPITAL
4.11,2.12,41.66411,-91.52841,13518.58,4524.75,0.0,0.133,0.665,0.798,0.0,0.133,0.0,0.0,MERCY HOSPITAL
3.53,2.12,42.03321,-93.61164,10877.24,4530.29,0.0,0.0,0.135,0.541,0.0,0.0,0.0,0.0,MARY GREELEY MEDICAL CENTER
3.52,2.15,41.54190,-90.55691,10858.12,4649.59,0.0,0.118,0.296,0.059,0.0,0.059,0.118,0.059,GENESIS MEDICAL CENTER-DAVENPORT
4.95,2.20,41.98570,-91.66093,17335.22,4890.67,0.0,0.0,0.589,0.098,0.0,0.098,0.0,0.0,ST LUKES HOSPITAL
3.57,2.18,40.81009,-91.17356,11102.46,4778.31,0.0,0.798,1.117,0.0,0.0,0.16,0.0,0.0,GREAT RIVER MEDICAL CENTER
6.24,2.78,41.66092,-91.54800,23178.00,7491.69,0.0,0.58,1.159,0.58,0.0,0.064,0.386,0.064,UNIVERSITY OF IOWA HOSPITAL & CLINICS
4.10,2.15,43.15063,-93.21718,13459.14,4641.21,0.0,0.076,0.076,0.534,0.0,0.0,0.0,0.0,MERCY MEDICAL CENTER-NORTH IOWA
3.48,2.07,41.97864,-91.65507,10692.73,4300.13,0.0,0.226,0.113,0.0,0.0,0.113,0.0,0.0,MERCY MEDICAL CENTER - CEDAR RAPIDS
4.52,2.25,41.58955,-93.63248,15375.06,5107.75,0.0,0.502,0.669,1.339,0.0,0.112,0.223,0.335,IOWA METHODIST MEDICAL CENTER
4.80,2.26,41.59886,-93.62344,16659.49,5168.32,0.0,0.201,0.402,0.08,0.0,0.0,0.12,0.0,MERCY MEDICAL CENTER-DES MOINES
3.47,2.19,41.02751,-92.38994,10645.67,4824.75,0.0,0.0,0.563,0.0,0.0,0.0,0.0,0.0,OTTUMWA REGIONAL HEALTH CENTER
3.58,2.16,42.52665,-92.33957,11116.78,4691.59,0.0,0.165,0.165,0.0,0.0,0.082,0.0,0.0,ALLEN MEMORIAL HOSPITAL
3.11,2.08,42.49632,-90.68587,8985.47,4334.21,0.0,0.0,1.134,0.0,0.0,0.0,0.454,0.0,THE FINLEY HOSPITAL
3.92,2.28,42.51846,-96.40581,12681.75,5222.94,0.0,0.187,1.494,0.0,0.187,0.0,0.374,0.0,ST LUKES REGIONAL MEDICAL CENTER
4.47,2.08,42.49250,-96.39975,15149.85,4320.54,0.0,0.417,0.104,0.208,0.0,0.0,0.208,0.0,MERCY MEDICAL CENTER-SIOUX CITY
4.38,2.18,37.37991,-94.68739,14744.82,4778.00,0.0,1.024,1.28,0.768,0.0,0.0,0.0,0.0,VIA CHRISTI HOSPITAL PITTSBURG INC
4.51,2.18,38.83324,-97.61028,15318.27,4810.91,0.0,0.155,0.774,0.0,0.0,0.0,0.0,0.0,SALINA REGIONAL HEALTH CENTER
3.80,2.12,39.05660,-95.69599,12104.11,4538.67,0.0,0.42,0.631,3.258,0.0,0.0,0.21,0.21,ST FRANCIS HEALTH CENTER INC
4.38,2.27,38.07731,-97.89183,14733.73,5185.53,0.0,0.135,0.808,0.135,0.0,0.0,0.0,0.0,HUTCHINSON REGIONAL MEDICAL CENTER INC
7.26,2.45,39.05583,-94.60912,27789.23,6034.21,0.0,0.627,0.57,0.0,0.0,0.057,0.114,0.114,UNIVERSITY OF KANSAS HOSPITAL
5.21,2.22,39.05128,-95.69572,18500.71,4971.04,0.0,0.061,0.427,0.549,0.0,0.0,0.122,0.0,STORMONT-VAIL HEALTHCARE
7.32,2.10,38.99549,-94.69061,28070.71,4421.96,0.0,0.563,0.844,0.141,0.0,0.07,0.141,0.07,SHAWNEE MISSION MEDICAL CENTER
4.90,2.54,37.70405,-97.31386,17080.83,6420.28,0.0,0.213,0.39,0.567,0.0,0.0,0.213,0.0,VIA CHRISTI HOSPITALS WICHITA INC
6.96,2.54,37.69556,-97.29785,26406.20,6435.40,0.0,0.076,0.841,1.605,0.0,0.076,0.382,0.0,WESLEY MEDICAL CENTER
3.40,2.17,38.97848,-95.24771,10302.56,4750.81,0.0,0.207,0.83,0.415,0.0,0.0,0.0,0.207,LAWRENCE MEMORIAL HOSPITAL
4.79,2.20,39.12677,-94.78643,16613.32,4900.21,0.0,1.045,1.045,0.597,0.0,0.0,0.149,0.0,PROVIDENCE MEDICAL CENTER
6.13,2.09,38.90355,-94.66966,22668.91,4371.91,0.0,0.0,0.471,0.0,0.0,0.0,0.0,0.0,SAINT LUKE'S SOUTH HOSPITAL
3.33,2.07,37.73142,-97.26078,9986.64,4294.00,0,0,0,0,0,0,0,0,GALICHIA HEART HOSPITAL LLC
3.40,2.20,39.07816,-84.46695,10327.62,4893.54,0.0,0.176,0.528,0.176,0.0,0.0,0.0,0.0,ST ELIZABETH FT THOMAS
4.99,2.15,37.11520,-82.81022,17520.55,4638.45,0.0,0.295,0.589,0.295,0.0,0.0,0.0,0.0,WHITESBURG ARH HOSPITAL
4.78,2.23,38.47021,-82.63498,16567.44,5034.36,0.0,0.092,0.826,0.092,0.0,0.0,0.138,0.138,KING'S DAUGHTERS' MEDICAL CENTER
4.65,2.38,38.03140,-84.52194,15962.08,5702.38,0.0,0.051,0.66,0.61,0.0,0.0,0.254,0.0,SAINT JOSEPH HOSPITAL
4.56,2.27,37.11784,-84.10910,15582.95,5199.05,0.0,0.0,0.451,0.0,0.0,0.0,0.15,0.15,SAINT JOSEPH HOSPITAL LONDON
2.52,2.10,37.71183,-85.87623,6343.55,4427.32,0.0,0.09,0.538,0.627,0.0,0.0,0.0,0.0,HARDIN MEMORIAL HOSPITAL
5.53,2.68,36.99641,-86.43006,19929.33,7056.27,0.0,0.412,1.029,0.412,0.0,0.0,0.48,0.069,THE MEDICAL CENTER AT BOWLING GREEN
3.24,2.39,38.18397,-83.43268,9594.18,5744.36,0.0,0.0,0.0,0.0,0.0,0.0,0.0,0.248,ST CLAIRE REGIONAL MEDICAL CENTER
3.66,2.18,36.60615,-83.74024,11477.43,4773.38,0.0,0.0,0.0,0.0,0.0,0.0,0.0,0.0,MIDDLESBORO APPALACHIAN REGIONAL HEALTHCARE HOSPIT
2.82,2.13,36.76316,-83.70793,7674.92,4550.85,0.0,0.0,0.0,0.0,0.0,0.0,0.0,0.0,PINEVILLE COMMUNITY HOSPITAL
4.19,2.22,39.06704,-84.49946,13878.38,4969.72,0.042,0.085,0.254,0.042,0.0,0.0,0.042,0.042,ST ELIZABETH MEDICAL CENTER NORTH
3.77,2.08,36.60798,-88.30957,11989.57,4359.57,0.0,0.0,0.91,0.682,0.0,0.0,0.0,0.0,MURRAY-CALLOWAY COUNTY HOSPITAL
5.28,2.26,37.27729,-83.22802,18841.25,5140.12,0.0,0.198,0.495,0.0,0.0,0.0,0.0,0.0,HAZARD ARH REGIONAL MEDICAL CENTER
4.40,2.20,38.50697,-82.69222,14825.08,4890.62,0.0,0.426,1.137,0.0,0.0,0.0,0.0,0.0,OUR LADY OF BELLEFONTE HOSPITAL
3.80,2.59,37.76518,-87.10197,12111.09,6641.18,0.0,0.121,0.908,0.0,0.0,0.061,0.0,0.061,OWENSBORO MEDICAL HEALTH SYSTEM
4.47,2.35,38.24927,-85.75081,15169.85,5546.74,0.0,0.506,0.476,0.149,0.0,0.06,0.06,0.03,JEWISH HOSPITAL & ST MARY'S HEALTHCARE
7.36,2.45,37.47264,-82.52605,28241.19,6028.56,0.0,0.71,0.304,0.0,0.0,0.0,0.0,0.0,PIKEVILLE MEDICAL CENTER
4.14,2.26,39.01660,-84.63078,13639.27,5159.80,0.0,0.0,0.182,0.0,0.0,0.0,0.363,0.363,ST ELIZABETH FLORENCE
3.52,2.23,37.64378,-84.77272,10832.67,5016.00,0.0,0.0,1.158,0.386,0.0,0.0,0.0,0.129,EPHRAIM MCDOWELL REGIONAL MEDICAL CENTER
3.87,2.31,37.73107,-84.29238,12459.62,5389.77,0.0,0.0,1.123,0.0,0.0,0.0,0.0,0.0,PATTIE A CLAY REGIONAL MEDICAL CENTER
3.25,2.22,36.80963,-83.31313,9618.32,4951.53,0.0,0.249,0.498,0.0,0.0,0.0,0.0,0.0,HARLAN APPALACHIAN REGIONAL HEALTHCARE HOSPITAL
3.65,2.21,37.85504,-87.58345,11464.45,4936.82,0.0,0.0,0.0,0.0,0.0,0.0,0.0,0.0,METHODIST HOSPITAL
5.87,2.85,38.03282,-84.50674,21489.36,7807.85,0.0,0.676,1.07,0.282,0.0,0.0,0.282,0.0,UNIVERSITY OF KENTUCKY HOSPITAL
3.31,2.21,37.67604,-82.29731,9905.55,4939.73,0.0,0.0,0.325,0.0,0.0,0.325,0.0,0.0,WILLIAMSON ARH HOSPITAL
4.05,2.20,36.92128,-84.11838,13258.24,4868.16,0.0,0.0,1.301,0.0,0.0,0.0,0.0,0.13,BAPTIST REGIONAL MEDICAL CENTER
3.57,2.18,37.36583,-85.33917,11085.58,4791.75,0.0,0.332,0.664,0.0,0.0,0.0,0.0,0.0,TAYLOR REGIONAL HOSPITAL
5.04,2.35,38.24806,-85.75125,17736.83,5558.47,0.0,0.605,0.706,0.176,0.025,0.025,0.202,0.05,NORTON HOSPITALS INC
4.61,2.17,37.33959,-87.48988,15808.64,4729.29,0.0,0.0,0.271,0.0,0.0,0.0,0.0,0.136,REGIONAL MEDICAL CENTER OF HOPKINS COUNTY
3.12,2.05,37.06431,-88.67523,9050.65,4197.15,0.0,0.466,1.025,0.373,0.0,0.093,0.093,0.093,LOURDES HOSPITAL
4.26,2.21,38.01849,-84.51236,14217.58,4937.17,0.0,0.283,0.848,2.191,0.0,0.0,0.0,0.0,CENTRAL BAPTIST HOSPITAL
3.54,2.14,37.07404,-88.62685,10949.17,4593.81,0.0,0.131,0.588,0.261,0.0,0.0,0.0,0.0,WESTERN BAPTIST HOSPITAL
2.53,2.41,36.70006,-85.67862,6383.69,5819.92,0.0,0.0,1.223,0.0,0.0,0.0,0.0,0.0,MONROE COUNTY MEDICAL CENTER
4.23,2.16,36.75751,-88.65129,14072.55,4697.00,0.0,0.0,0.647,0.216,0.0,0.0,0.216,0.0,JACKSON PURCHASE MEDICAL CENTER
4.93,2.19,38.16020,-84.90519,17250.00,4835.25,0.0,0.258,0.0,0.258,0.0,0.0,0.0,0.0,FRANKFORT REGIONAL MEDICAL CENTER
5.85,2.07,38.11425,-82.60321,21386.25,4294.67,0.0,0.0,0.709,0.0,0.0,0.0,0.354,0.0,THREE RIVERS MEDICAL CENTER
3.45,2.07,38.23898,-85.63941,10554.43,4275.17,0.0,0.615,0.73,0.192,0.0,0.038,0.038,0.0,BAPTIST HOSPITAL EAST
4.14,2.27,37.08724,-84.61828,13665.56,5198.38,0.0,0.191,1.147,0.0,0.0,0.0,0.86,0.573,LAKE CUMBERLAND REGIONAL HOSPITAL
5.62,2.71,38.24802,-85.74464,20368.72,7204.89,0.0,0.122,0.122,1.347,0.0,0.0,0.0,0.0,UNIVERSITY OF LOUISVILLE HOSPITAL
2.72,2.34,37.09412,-85.29359,7245.44,5529.75,0.0,0.449,0.0,0.0,0.0,0.0,0.0,0.0,WESTLAKE REGIONAL HOSPITAL
3.92,2.15,30.77914,-89.86795,12678.38,4671.54,0.0,0.0,0.533,0.0,0.0,0.0,0.0,0.0,WASHINGTON ST TAMMANY  REGIONAL MEDICAL CENTER
4.24,2.22,30.20227,-92.01906,14115.62,4965.15,0.091,0.364,0.0,0.091,0.0,0.0,0.0,0.0,LAFAYETTE GENERAL MEDICAL CENTER
4.52,2.07,29.77956,-90.80568,15394.74,4297.79,0.0,0.153,0.153,0.305,0.0,0.0,0.305,0.0,THIBODAUX REGIONAL MEDICAL CENTER
5.00,2.92,29.95958,-90.07701,17548.55,8125.82,0.0,1.761,0.0,0.0,0.0,0.0,0.44,0.0,CHARITY HOSPITAL & MEDICAL CENTER OF LOUI AT NO
3.45,2.23,31.75235,-93.07788,10559.57,5015.00,0.0,0.0,0.84,0.0,0.0,0.0,0.0,0.0,NATCHITOCHES REGIONAL MEDICAL CENTER
4.61,2.05,30.22981,-93.36867,15805.27,4204.82,0.0,0.331,0.662,0.0,0.0,0.0,0.0,0.0,WEST CALCASIEU CAMERON HOSPITAL
5.80,2.36,29.69402,-91.20867,21151.62,5616.00,0.0,0.0,0.444,0.887,0.0,0.0,0.444,0.0,TECHE REGIONAL MEDICAL CENTER
8.22,2.34,30.46813,-90.45814,32111.27,5503.27,0.0,0.101,0.101,0.604,0.0,0.0,0.806,0.0,NORTH OAKS MEDICAL CENTER LLC
4.05,2.31,30.54354,-92.07608,13253.17,5388.92,0.0,0.0,0.587,0.0,0.0,0.0,0.147,0.147,OPELOUSAS GENERAL HEALTH SYSTEM
5.65,2.25,31.28258,-92.46060,20501.33,5109.15,0.0,0.928,0.186,0.557,0.0,0.0,0.557,0.0,CHRISTUS ST FRANCES CABRINI HOSPITAL
4.45,2.15,30.65001,-91.13821,15042.72,4672.28,0.0,0.0,1.784,0.0,0.0,0.0,0.0,0.0,LANE REGIONAL MEDICAL CENTER
9.18,2.45,31.31451,-92.44997,36447.85,6028.77,0.08,0.879,0.479,0.399,0.0,0.0,0.479,0.24,RAPIDES REGIONAL MEDICAL CENTER
7.30,2.45,30.21521,-93.22682,27962.21,5999.00,0.0,0.53,0.662,0.132,0.0,0.0,0.0,0.265,CHRISTUS ST PATRICK HOSPITAL
4.26,2.41,30.01875,-90.19452,14183.64,5833.82,0.0,0.453,0.091,0.59,0.0,0.0,0.091,0.045,OCHSNER FOUNDATION HOSPITAL
4.38,2.27,29.89089,-90.09395,14742.65,5205.57,0.0,0.214,0.107,0.107,0.0,0.0,0.214,0.107,WEST JEFFERSON MEDICAL CENTER
7.69,2.19,30.28456,-89.77038,29722.83,4835.25,0.0,0.89,0.534,0.0,0.0,0.0,0.0,0.0,SLIDELL MEMORIAL HOSPITAL AND MEDICAL CENTER
4.84,2.27,32.49443,-93.75011,16828.27,5190.27,0.0,0.256,0.511,0.256,0.0,0.0,0.0,0.085,CHRISTUS SCHUMPERT HEALTH SYSTEM
2.05,2.10,30.22762,-92.36253,4190.91,4427.64,0.0,0.0,0.0,0.0,0.0,0.0,0.0,0.0,AMERICAN LEGION HOSPITAL
6.63,2.15,30.46834,-90.11383,24935.73,4666.45,0.0,0.271,0.135,0.0,0.0,0.135,0.135,0.0,ST TAMMANY PARISH HOSPITAL
8.54,2.38,29.92596,-90.09191,33591.62,5673.62,0.0,0.523,0.523,0.131,0.0,0.0,0.262,0.0,TOURO INFIRMARY
5.71,2.26,30.20458,-93.19774,20752.17,5149.87,0.0,0.0,1.108,0.0,0.0,0.0,0.277,0.0,LAKE CHARLES MEMORIAL HOSPITAL
4.00,2.45,30.40118,-91.11160,13005.09,6003.91,0.0,0.221,0.486,0.044,0.0,0.044,0.839,0.088,OUR LADY OF THE LAKE REGIONAL MEDICAL CENTER
3.11,2.34,30.45015,-91.15273,9018.85,5502.76,0.0,0.556,0.626,0.139,0.0,0.0,0.0,0.0,BATON ROUGE GENERAL MEDICAL CENTER
5.29,2.20,32.51544,-92.63343,18881.04,4894.83,0.0,0.193,0.0,0.193,0.0,0.0,1.157,0.386,NORTHERN LOUISIANA MEDICAL CENTER
2.60,2.67,32.48177,-93.76264,6706.31,6992.23,0.0,3.903,0.163,0.163,0.0,0.0,0.0,0.0,LSU HEALTH SCIENCES CENTER - SHREVEPORT
3.77,2.17,30.15052,-92.03698,11990.23,4741.88,0.0,0.328,0.328,0.109,0.0,0.109,0.0,0.0,OUR LADY OF LOURDES REGIONAL MEDICAL CENTER INC
5.60,2.17,32.48393,-93.77884,20244.75,4761.46,0.0,0.155,0.466,0.155,0.0,0.039,0.039,0.0,WILLIS KNIGHTON MEDICAL CENTER
5.26,2.20,32.49997,-92.11359,18749.18,4900.86,0.0,1.122,0.321,1.763,0.0,0.0,0.561,0.0,ST FRANCIS MEDICAL CENTER
4.15,2.57,32.61700,-93.28566,13684.21,6540.79,0.0,0.279,0.558,0.0,0.0,0.0,0.0,0.0,MINDEN MEDICAL CENTER
4.30,2.11,30.01438,-90.18155,14376.45,4477.90,0.0,0.321,0.578,0.064,0.0,0.129,0.0,0.0,EAST JEFFERSON GENERAL HOSPITAL
6.45,2.15,32.51315,-92.15713,24114.46,4671.04,0.0,0.108,0.108,0.0,0.0,0.0,0.0,0.0,GLENWOOD REGIONAL MEDICAL CENTER
5.47,2.13,31.13861,-93.26892,19699.92,4552.00,0.0,0.0,0.268,0.268,0.0,0.0,0.0,0.268,BYRD REGIONAL HOSPITAL
3.29,2.26,30.68494,-92.26601,9821.93,5153.57,0.0,0.263,1.313,0.0,0.0,0.0,0.0,0.0,MERCY REGIONAL MEDICAL CENTER
8.49,2.67,29.95570,-90.07587,33354.08,7018.44,0.0,2.571,0.454,0.756,0.0,0.151,0.151,0.454,TULANE MEDICAL CENTER
2.61,2.12,32.10429,-92.07602,6738.73,4522.00,0.0,0.0,0.0,0.0,0.0,0.0,0.0,0.0,CALDWELL MEMORIAL HOSPITAL
4.28,2.14,30.43973,-91.00727,14280.39,4622.78,0.0,0.0,1.002,0.668,0.0,0.334,0.0,0.0,OCHSNER MEDICAL CENTER-BATON ROUGE
5.01,2.05,32.55761,-93.71874,17611.05,4185.64,0.0,0.0,0.0,0.0,0.0,0.149,0.0,0.0,WILLIS KNIGHTON BOSSIER HEALTH CENTER
3.39,2.15,30.20918,-90.93215,10277.45,4665.18,0.0,0.0,1.61,0.0,0.0,0.0,0.537,0.0,ST ELIZABETH HOSPITAL
3.73,2.15,44.81469,-68.77153,11808.55,4668.77,0.0,0.0,0.609,1.217,0.0,0.0,0.203,0.203,ST JOSEPH HOSPITAL
4.03,2.23,43.65159,-70.26482,13183.08,5027.42,0.0,0.312,0.468,0.78,0.0,0.0,0.312,0.0,MERCY HOSPITAL
4.71,2.70,43.65325,-70.27533,16242.76,7134.43,0.0,0.287,0.409,0.737,0.0,0.041,0.246,0.082,MAINE MEDICAL CENTER
4.24,2.32,43.47840,-70.49221,14091.73,5427.93,0.0,0.194,0.0,0.581,0.0,0.194,0.0,0.194,SOUTHERN MAINE MEDICAL CENTER
4.06,2.32,43.90901,-69.89611,13307.08,5411.92,0.0,0.249,0.997,0.748,0.0,0.0,0.0,0.0,MID COAST HOSPITAL
3.42,2.29,44.10107,-70.21432,10420.42,5283.16,0.0,0.242,0.121,0.485,0.0,0.0,0.242,0.0,CENTRAL MAINE MEDICAL CENTER
3.99,2.31,44.80988,-68.74929,12983.12,5367.48,0.0,0.343,0.286,0.514,0.0,0.0,0.286,0.114,EASTERN MAINE MEDICAL CENTER
4.83,2.33,45.25378,-69.44547,16778.28,5478.44,0.0,0.895,0.597,0.895,0.0,0.0,0.298,0.199,MAINE GENERAL MEDICAL CENTER
4.10,2.42,44.14436,-69.08577,13464.33,5889.67,0.0,0.243,0.487,0.243,0.0,0.0,0.0,0.0,PENOBSCOT BAY MEDICAL CENTER
2.59,2.52,39.62183,-77.68219,6640.71,6331.77,0.0,0.0,0.0,0.0,0.0,0.0,0.0,0.0,MERITUS MEDICAL CENTER
3.80,3.64,39.28817,-76.62438,12115.92,11394.04,0.0,0.0,0.0,0.0,0.0,0.0,0.0,0.0,UNIVERSITY OF MARYLAND MEDICAL CENTER
3.31,3.18,38.93090,-76.92161,9908.62,9314.15,0.0,0.0,0.0,0.0,0.0,0.0,0.0,0.0,PRINCE GEORGES HOSPITAL CENTER
2.58,2.50,39.01578,-77.03591,6617.50,6257.53,0.0,0.0,0.0,0.0,0.0,0.0,0.0,0.0,HOLY CROSS HOSPITAL
2.58,2.49,39.42366,-77.41386,6579.91,6185.09,0.0,0.0,0.0,0.0,0.0,0.0,0.0,0.0,FREDERICK MEMORIAL HOSPITAL
2.82,2.73,39.54345,-76.09153,7701.68,7299.05,0.0,0.0,0.0,0.0,0.0,0.0,0.0,0.0,HARFORD MEMORIAL HOSPITAL
2.80,2.71,39.38813,-76.61068,7574.41,7203.67,0.0,0.0,0.0,0.0,0.0,0.0,0.0,0.0,SAINT JOSEPH MEDICAL CENTER
2.98,2.87,39.29297,-76.61314,8424.90,7919.40,0.0,0.0,0.0,0.0,0.0,0.0,0.0,0.0,MERCY MEDICAL CENTER INC
4.14,3.99,39.29688,-76.59242,13667.24,12976.17,0.0,0.0,0.0,0.0,0.0,0.0,0.0,0.0,JOHNS HOPKINS HOSPITAL THE
3.00,2.88,39.27352,-76.67219,8480.74,7972.02,0.0,0.0,0.0,0.0,0.0,0.0,0.0,0.0,SAINT AGNES HOSPITAL
2.79,2.69,39.35262,-76.66196,7562.11,7108.45,0.0,0.0,0.0,0.0,0.0,0.0,0.0,0.0,SINAI HOSPITAL OF BALTIMORE
3.22,3.09,39.28833,-76.64912,9479.83,8911.22,0.0,0.0,0.0,0.0,0.0,0.0,0.0,0.0,BON SECOURS HOSPITAL
3.02,2.91,39.35169,-76.47919,8578.80,8091.31,0.0,0.0,0.0,0.0,0.0,0.0,0.0,0.0,FRANKLIN SQUARE HOSPITAL CENTER
3.11,3.00,38.98482,-77.00139,9013.69,8504.36,0.0,0.0,0.0,0.0,0.0,0.0,0.0,0.0,WASHINGTON ADVENTIST HOSPITAL
2.68,2.58,39.41339,-79.40103,7032.08,6610.33,0.0,0.0,0.0,0.0,0.0,0.0,0.0,0.0,GARRETT COUNTY MEMORIAL HOSPITAL
2.97,2.87,39.15402,-77.05431,8352.40,7926.60,0.0,0.0,0.0,0.0,0.0,0.0,0.0,0.0,MONTGOMERY GENERAL HOSPITAL INC
2.86,2.76,38.36248,-75.59799,7846.02,7399.76,0.0,0.0,0.0,0.0,0.0,0.0,0.0,0.0,PENINSULA REGIONAL MEDICAL CENTER
2.23,2.17,38.99743,-77.11048,5037.58,4735.37,0.0,0.0,0.0,0.0,0.0,0.0,0.0,0.0,SUBURBAN HOSPITAL
2.77,2.68,38.99014,-76.53398,7440.13,7037.55,0.0,0.0,0.0,0.0,0.0,0.0,0.0,0.0,ANNE ARUNDEL MEDICAL CENTER
2.93,2.82,39.32930,-76.61432,8192.40,7700.83,0.0,0.0,0.0,0.0,0.0,0.0,0.0,0.0,UNION MEMORIAL HOSPITAL
2.87,2.77,39.64928,-78.73206,7906.07,7481.31,0.0,0.0,0.0,0.0,0.0,0.0,0.0,0.0,WESTERN MARYLAND REGIONAL MEDICAL CENTER
2.48,2.40,38.29124,-76.63579,6150.79,5781.52,0.0,0.0,0.0,0.0,0.0,0.0,0.0,0.0,SAINT MARY'S HOSPITAL
3.06,2.97,39.29100,-76.54623,8791.17,8351.11,0.0,0.0,0.0,0.0,0.0,0.0,0.0,0.0,JOHNS HOPKINS BAYVIEW MEDICAL CENTER
3.02,2.90,39.60859,-75.83201,8574.00,8059.50,0.0,0.0,0.0,0.0,0.0,0.0,0.0,0.0,UNION HOSPITAL OF CECIL COUNTY
3.23,3.10,39.55808,-76.99107,9524.97,8953.50,0.0,0.0,0.0,0.0,0.0,0.0,0.0,0.0,CARROLL HOSPITAL CENTER
3.26,3.13,39.25189,-76.61399,9667.78,9087.74,0.0,0.0,0.0,0.0,0.0,0.0,0.0,0.0,HARBOR HOSPITAL
2.46,2.38,38.52905,-76.97068,6050.83,5687.74,0.0,0.0,0.0,0.0,0.0,0.0,0.0,0.0,CIVISTA MEDICAL CENTER
2.64,2.54,38.76970,-76.07697,6850.71,6439.63,0.0,0.0,0.0,0.0,0.0,0.0,0.0,0.0,MEMORIAL HOSPITAL AT EASTON
3.19,3.06,39.29994,-76.62138,9345.83,8785.08,0.0,0.0,0.0,0.0,0.0,0.0,0.0,0.0,MARYLAND GENERAL  HOSPITAL
2.74,2.66,38.55963,-76.59455,7304.13,6941.13,0.0,0.0,0.0,0.0,0.0,0.0,0.0,0.0,CALVERT MEMORIAL HOSPITAL
2.63,2.54,39.35852,-76.78208,6825.47,6438.64,0.0,0.0,0.0,0.0,0.0,0.0,0.0,0.0,NORTHWEST HOSPITAL CENTER
2.29,2.22,39.13732,-76.62228,5280.33,4963.63,0.0,0.0,0.0,0.0,0.0,0.0,0.0,0.0,BALTIMORE WASHINGTON  MEDICAL CENTER
2.99,2.88,39.39017,-76.62216,8467.84,7959.76,0.0,0.0,0.0,0.0,0.0,0.0,0.0,0.0,GREATER BALTIMORE MEDICAL CENTER
2.96,2.86,39.21273,-76.88526,8332.46,7872.93,0.0,0.0,0.0,0.0,0.0,0.0,0.0,0.0,HOWARD COUNTY GENERAL HOSPITAL
2.55,2.46,39.51870,-76.34688,6443.89,6057.22,0.0,0.0,0.0,0.0,0.0,0.0,0.0,0.0,UPPER CHESAPEAKE MEDICAL CENTER
2.67,2.58,38.96851,-76.86203,7006.81,6613.36,0.0,0.0,0.0,0.0,0.0,0.0,0.0,0.0,DOCTORS'  COMMUNITY HOSPITAL
2.80,2.70,38.74827,-76.87590,7597.62,7141.82,0.0,0.0,0.0,0.0,0.0,0.0,0.0,0.0,SOUTHERN MARYLAND HOSPITAL CENTER
2.62,2.53,39.08690,-76.88163,6763.05,6357.24,0.0,0.0,0.0,0.0,0.0,0.0,0.0,0.0,LAUREL REGIONAL MEDICAL CENTER
2.84,2.75,39.35962,-76.58851,7796.08,7367.22,0.0,0.0,0.0,0.0,0.0,0.0,0.0,0.0,GOOD SAMARITAN HOSPITAL
2.89,2.79,39.09796,-77.19799,8003.22,7557.38,0.0,0.0,0.0,0.0,0.0,0.0,0.0,0.0,SHADY GROVE ADVENTIST HOSPITAL
2.39,2.31,38.72818,-76.99214,5720.82,5380.71,0.0,0.0,0.0,0.0,0.0,0.0,0.0,0.0,FORT WASHINGTON HOSPITAL
2.94,2.83,38.33876,-75.21128,8221.57,7728.57,0.0,0.0,0.0,0.0,0.0,0.0,0.0,0.0,ATLANTIC GENERAL HOSPITAL
3.91,2.44,42.54113,-71.76120,12610.46,5982.92,0.0,0.192,0.575,0.766,0.0,0.0,0.0,0.192,HEALTHALLIANCE HOSPITALS INC
4.15,2.58,42.37441,-71.13378,13709.00,6605.95,0.0,0.0,0.282,0.0,0.0,0.094,0.0,0.0,MOUNT AUBURN HOSPITAL
2.98,2.26,41.94236,-71.27364,8398.65,5168.75,0.0,0.315,0.472,2.99,0.0,0.0,0.157,0.0,STURDY MEMORIAL HOSPITAL
3.11,2.56,42.70912,-71.14877,9018.11,6501.04,0.0,0.0,1.138,0.114,0.0,0.114,0.0,0.0,LAWRENCE GENERAL HOSPITAL
3.23,2.88,42.37451,-71.10418,9525.35,7940.62,0.0,0.144,0.0,0.144,0.0,0.0,0.0,0.0,CAMBRIDGE HEALTH ALLIANCE
3.26,2.59,41.65298,-70.27484,9688.15,6639.30,0.0,0.159,0.318,0.106,0.0,0.106,0.053,0.053,CAPE COD HOSPITAL
2.85,2.23,42.33185,-72.65422,7837.42,4998.42,0.0,0.0,0.455,0.152,0.0,0.0,0.0,0.0,COOLEY DICKINSON HOSPITAL INCTHE
3.08,2.89,42.27872,-71.06625,8870.43,8013.22,0.0,0.172,0.0,0.172,0.0,0.0,0.0,0.172,CARNEY HOSPITAL
2.90,2.45,42.07708,-72.04298,8067.26,6002.42,0.0,0.0,0.0,0.0,0.0,0.0,0.358,0.0,HARRINGTON MEMORIAL HOSPITAL
3.22,2.42,41.69217,-71.16474,9509.68,5858.29,0.0,0.0,0.0,0.0,0.0,0.0,0.0,0.0,SAINT ANNE'S HOSPITAL
3.11,2.38,42.20038,-72.62762,9009.05,5676.81,0.0,0.0,0.727,0.0,0.0,0.0,0.182,0.0,HOLYOKE MEDICAL CENTER
2.84,2.29,42.81476,-70.89068,7793.79,5302.00,0.0,0.622,0.778,0.0,0.0,0.0,0.0,0.0,ANNA JAQUES HOSPITAL
3.40,2.15,42.16849,-72.34130,10314.33,4633.92,0.0,0.0,0.572,0.0,0.0,0.0,0.0,0.0,WING MEMORIAL HOSPITAL AND MEDICAL CENTER
3.76,3.28,42.35843,-71.05977,11957.31,9781.19,0.0,0.493,0.062,0.123,0.0,0.062,0.308,0.185,BOSTON MEDICAL CENTER CORPORATION
2.60,2.35,42.56407,-70.87543,6669.15,5549.74,0.0,0.397,0.238,0.238,0.0,0.0,0.079,0.079,BEVERLY HOSPITAL CORPORATION
5.40,2.44,42.51078,-70.90712,19340.88,5985.24,0.0,0.108,0.597,0.325,0.0,0.163,0.542,0.054,NORTH SHORE MEDICAL CENTER
2.97,3.00,42.34896,-71.14768,8376.23,8490.55,0.0,0.204,0.306,0.51,0.0,0.102,0.0,0.0,ST ELIZABETH'S MEDICAL CENTER
2.99,2.51,51.46599,-1.28140,8438.43,6281.52,0.0,0.194,0.485,1.261,0.0,0.0,0.0,0.0,BERKSHIRE MEDICAL CENTER INC
3.20,2.57,42.03597,-71.09792,9391.55,6558.55,0.0,0.324,0.216,0.108,0.0,0.108,0.0,0.971,SIGNATURE HEALTHCARE BROCKTON HOSPITAL
2.77,2.33,41.94445,-70.64511,7466.61,5459.39,0.0,0.0,0.556,0.0,0.0,0.0,0.278,0.0,JORDAN HOSPITAL INC
3.95,2.49,42.64636,-71.34118,12791.08,6211.00,0.0,0.0,0.397,0.264,0.0,0.0,0.0,0.0,LOWELL GENERAL HOSPITAL
3.52,2.39,42.11449,-72.59502,10858.50,5740.05,0.0,0.33,0.55,0.0,0.0,0.0,0.11,0.0,MERCY MEDICAL CENTER
2.96,2.36,42.25105,-71.01411,8341.31,5584.31,0.0,0.206,0.823,0.0,0.0,0.0,0.206,0.411,QUINCY MEDICAL CENTER
3.00,2.38,42.46049,-71.06203,8491.71,5675.74,0.0,0.251,0.564,0.188,0.0,0.063,0.063,0.063,HALLMARK HEALTH SYSTEM
8.18,2.95,42.36227,-71.06941,31944.30,8285.64,0.028,0.908,0.482,0.312,0.0,0.0,0.17,0.085,MASSACHUSETTS GENERAL HOSPITAL
2.58,2.37,41.90456,-71.09562,6585.53,5654.63,0.0,0.125,0.0,0.626,0.0,0.0,0.0,0.0,MORTON HOSPITAL
3.70,2.45,41.70928,-71.14519,11677.20,5990.56,0.028,0.277,0.471,0.138,0.0,0.0,0.111,0.055,SOUTHCOAST HOSPITAL GROUP INC
3.86,2.67,42.12077,-72.60525,12382.10,7011.22,0.0,0.119,0.398,0.398,0.0,0.0,0.239,0.119,BAYSTATE MEDICAL CENTER
3.07,2.36,42.72846,-71.16830,8827.81,5599.88,0.0,0.122,0.0,0.0,0.0,0.122,0.0,0.122,HOLY FAMILY HOSPITAL
3.21,2.33,42.64529,-71.30052,9470.67,5485.44,0.0,0.0,0.308,0.0,0.0,0.0,0.0,0.0,SAINTS  MEDICAL CENTER INC
3.77,2.95,42.33719,-71.10939,12007.00,8278.64,0.0,0.469,0.289,0.397,0.0,0.0,0.036,0.0,BETH ISRAEL DEACONESS MEDICAL CENTER
3.93,2.39,42.13234,-71.52825,12723.65,5755.10,0.0,0.118,0.355,0.355,0.0,0.0,0.0,0.118,MILFORD REGIONAL MEDICAL CENTER
3.63,2.26,42.17644,-70.95398,11346.62,5148.74,0.0,0.204,0.511,0.204,0.0,0.0,0.0,0.102,SOUTH SHORE HOSPITAL
4.62,2.30,42.33149,-71.24568,15811.56,5327.69,0.0,0.187,0.281,0.749,0.0,0.0,0.187,0.0,NEWTON-WELLESLEY HOSPITAL
3.21,2.33,42.46581,-71.12210,9429.46,5473.58,0.0,0.273,0.638,0.091,0.0,0.091,0.091,0.0,WINCHESTER HOSPITAL
7.54,2.89,42.33600,-71.10704,29060.88,7983.96,0.034,1.091,0.478,0.614,0.0,0.068,0.0,0.273,BRIGHAM AND WOMEN'S HOSPITAL
2.82,2.43,42.09864,-71.06607,7701.42,5932.52,0.0,0.169,0.675,0.169,0.0,0.0,0.084,0.506,GOOD SAMARITAN MEDICAL CENTER
3.78,2.94,42.34951,-71.06331,12036.10,8242.52,0.0,0.407,0.244,0.163,0.0,0.081,0.081,0.0,TUFTS MEDICAL CENTER
4.11,2.75,42.30049,-71.12771,13537.47,7385.53,0.0,0.0,0.301,0.0,0.0,0.0,0.0,0.0,FAULKNER HOSPITAL
2.82,2.30,42.18869,-71.20197,7688.75,5352.04,0.0,0.0,0.189,0.378,0.0,0.0,0.0,0.189,NORWOOD HOSPITAL
2.87,2.37,41.56412,-70.62200,7891.38,5669.94,0.0,0.0,0.27,0.135,0.0,0.27,0.27,0.0,FALMOUTH HOSPITAL
5.73,3.10,42.27720,-71.75922,20871.86,8944.56,0.033,0.36,0.459,0.36,0.0,0.033,0.229,0.033,UMASS MEMORIAL MEDICAL CENTER INC
3.51,2.69,42.48585,-71.20686,10793.53,7097.56,0.0,0.271,0.226,0.045,0.0,0.0,0.0,0.045,LAHEY CLINIC HOSPITAL
3.65,2.28,42.76256,-71.04507,11454.79,5259.71,0.0,0.0,0.958,0.0,0.0,0.0,0.24,0.0,MERRIMACK VALLEY HOSPITAL
3.37,2.42,42.28385,-71.41896,10160.85,5869.88,0.0,0.162,0.081,0.081,0.0,0.0,0.0,0.081,METROWEST MEDICAL CENTER
3.15,2.52,42.26633,-71.79760,9162.75,6321.67,0.0,0.077,0.077,0.231,0.0,0.0,0.0,0.077,ST VINCENT HOSPITAL
3.43,2.16,42.39466,-83.40537,10455.55,4701.78,0.0,0.225,0.845,0.056,0.0,0.0,0.056,0.169,ST MARY MERCY HOSPITAL
3.36,2.37,43.20588,-86.20839,10121.13,5629.32,0.0,0.089,0.892,0.0,0.0,0.0,0.089,0.0,MERCY HEALTH PARTNERS MERCY CAMPUS
4.50,2.51,42.28551,-85.58042,15296.66,6300.17,0.0,0.0,0.179,0.119,0.0,0.0,0.0,0.06,BRONSON METHODIST HOSPITAL
4.22,2.49,42.45741,-83.20513,14019.35,6182.44,0.0,0.539,0.404,0.438,0.0,0.034,0.135,0.0,PROVIDENCE HOSPITAL AND MEDICAL CENTERS
4.80,2.45,42.29077,-83.21504,16647.26,6003.80,0.0,0.653,0.481,0.309,0.0,0.069,0.103,0.034,OAKWOOD HOSPITAL AND MEDICAL CENTER
2.95,2.28,42.08955,-86.47781,8254.50,5223.88,0.0,0.287,0.862,0.144,0.0,0.0,0.072,0.0,LAKELAND HOSPITAL ST JOSEPH
3.75,2.75,42.41911,-83.18228,11911.22,7374.52,0.0,0.703,0.192,0.512,0.0,0.064,0.384,0.128,SINAI-GRACE HOSPITAL
4.01,2.55,42.61425,-83.27602,13077.96,6475.10,0.0,0.532,0.886,0.295,0.0,0.059,0.177,0.0,ST JOSEPH MERCY OAKLAND
2.98,2.14,42.95582,-82.43222,8426.50,4622.67,0.0,0.212,0.423,0.0,0.0,0.0,0.0,0.0,ST JOSEPH MERCY PORT HURON
5.48,2.38,45.07773,-83.45146,19709.50,5694.17,0.0,0.207,0.83,0.83,0.0,0.0,0.0,0.0,ALPENA REGIONAL MEDICAL CENTER
3.45,2.49,42.96881,-85.66649,10557.14,6212.67,0.0,0.275,0.426,0.05,0.0,0.0,0.075,0.025,SPECTRUM HEALTH - BUTTERWORTH CAMPUS
4.47,2.17,43.58941,-83.86908,15173.27,4766.27,0.0,0.576,0.518,0.518,0.0,0.0,0.058,0.23,MCLAREN BAY REGION
5.82,3.33,42.28388,-83.72960,21277.80,9980.98,0.0,0.523,0.628,1.884,0.0,0.0,0.279,0.0,UNIVERSITY OF MICHIGAN HEALTH SYSTEM
3.62,2.26,42.61490,-82.96060,11308.78,5155.78,0.0,0.209,0.962,0.209,0.0,0.0,0.293,0.0,HENRY FORD MACOMB HOSPITAL
4.71,2.86,42.36762,-83.08461,16223.47,7847.90,0.0,0.368,0.501,0.468,0.0,0.033,0.2,0.033,HENRY FORD HOSPITAL
3.36,2.55,46.54758,-87.39560,10149.92,6473.23,0.0,0.375,0.5,0.25,0.0,0.0,0.0,0.125,MARQUETTE GENERAL HOSPITAL
3.26,2.27,44.66805,-84.70733,9694.91,5175.64,0.0,0.0,0.249,0.0,0.0,0.0,0.0,0.249,MERCY HOSPITAL - GRAYLING
3.03,2.47,42.95817,-85.66253,8632.84,6103.13,0.0,0.162,1.217,0.243,0.0,0.0,0.406,0.081,SAINT MARY'S HEALTH CARE
3.70,2.29,43.22169,-86.24283,11654.50,5297.36,0.0,0.0,0.417,0.0,0.0,0.209,0.209,0.0,MERCY HEALTH PARTNERS HACKLEY CAMPUS
5.18,2.52,42.61504,-83.93929,18375.92,6340.92,0.0,0.0,1.082,0.0,0.0,0.27,0.0,0.27,SAINT JOSEPH MERCY LIVINGSTON HOSPITAL
4.40,2.28,43.42857,-83.95556,14817.96,5229.58,0.0,0.253,0.421,0.211,0.0,0.0,0.295,0.042,COVENANT MEDICAL CENTER INC
3.59,2.24,42.77487,-86.11378,11179.00,5060.73,0.0,0.713,0.951,1.665,0.0,0.238,0.0,0.238,HOLLAND COMMUNITY HOSPITAL
3.28,2.23,42.33111,-85.17817,9785.89,4995.19,0.0,0.196,0.295,0.098,0.0,0.0,0.0,0.0,BRONSON BATTLE CREEK HOSPITAL
5.62,2.31,43.42612,-83.94185,20371.46,5383.38,0.0,0.954,0.556,0.238,0.0,0.0,0.0,0.079,ST MARY'S OF MICHIGAN MEDICAL CENTER
3.69,2.19,44.24532,-85.38950,11621.62,4843.00,0.0,0.464,0.696,0.232,0.232,0.0,0.0,0.0,MERCY HOSPITAL - CADILLAC
3.59,2.23,42.38392,-82.91480,11165.82,4996.55,0.0,0.526,0.263,0.088,0.0,0.0,0.088,0.088,BEAUMONT HOSPITAL GROSSE POINTE
5.72,2.22,42.25117,-84.39240,20812.54,4965.73,0.0,0.0,0.448,0.0,0.0,0.0,0.0,0.064,ALLEGIANCE HEALTH
2.68,2.20,44.26333,-84.24625,7057.00,4885.64,0.0,0.0,0.326,0.653,0.0,0.0,0.0,0.0,WEST BRANCH REGIONAL MEDICAL CENTER
4.74,2.41,44.76156,-85.64143,16382.42,5822.03,0.042,0.21,0.379,0.463,0.0,0.084,0.126,0.042,MUNSON MEDICAL CENTER
4.53,2.23,41.91643,-83.39771,15416.27,5015.88,0.0,0.125,0.623,0.374,0.0,0.0,0.249,0.0,MERCY MEMORIAL HOSPITAL SYSTEM
4.93,3.10,42.35230,-83.05676,17237.47,8961.63,0.0,0.502,0.144,0.287,0.0,0.0,0.144,0.072,HARPER UNIVERSITY HOSPITAL
3.99,2.31,45.37209,-84.97065,12968.47,5363.76,0.0,0.112,0.784,0.0,0.0,0.0,0.112,0.0,NORTHERN MICHIGAN REGIONAL HOSPITAL
5.00,2.36,42.30489,-85.56152,17563.84,5620.84,0.0,0.803,0.535,0.375,0.0,0.054,0.054,0.054,BORGESS MEDICAL CENTER
5.42,2.50,42.51418,-83.19259,19457.46,6216.99,0.0,0.557,0.298,0.358,0.0,0.0,0.099,0.02,WILLIAM BEAUMONT HOSPITAL
5.13,2.83,43.02135,-83.70308,18141.27,7711.77,0.0,1.113,0.223,0.111,0.0,0.0,0.0,0.223,HURLEY MEDICAL CENTER
4.28,2.43,43.01399,-83.73250,14297.76,5942.17,0.0,0.364,0.591,0.182,0.0,0.0,0.045,0.136,MCLAREN FLINT
4.36,2.28,42.27424,-83.36580,14636.02,5240.44,0.0,0.233,0.117,0.0,0.0,0.0,0.35,0.117,OAKWOOD ANNAPOLIS HOSPITAL
3.84,2.29,42.21065,-83.14861,12285.95,5296.70,0.0,0.232,0.522,0.232,0.0,0.058,0.0,0.0,HENRY FORD WYANDOTTE HOSPITAL
3.36,2.60,42.46176,-83.37629,10135.90,6706.71,0.0,0.066,0.531,0.0,0.0,0.0,0.199,0.0,BOTSFORD HOSPITAL
4.70,2.37,42.26181,-83.66003,16212.35,5649.85,0.0,0.217,0.398,0.434,0.0,0.0,0.108,0.072,ST JOSEPH MERCY HOSPITAL
4.20,2.55,42.41975,-82.91442,13922.13,6482.71,0.0,0.151,0.377,0.339,0.0,0.0,0.075,0.0,ST JOHN HOSPITAL AND MEDICAL CENTER
5.08,2.41,42.70417,-84.55488,17909.15,5846.91,0.0,0.267,0.6,0.333,0.0,0.0,0.0,0.0,MCLAREN - GREATER LANSING
5.50,2.37,42.11695,-83.21365,19802.56,5669.12,0.0,0.0,1.176,0.706,0.0,0.0,0.118,0.0,OAKWOOD SOUTHSHORE MEDICAL CENTER
4.78,2.19,43.06290,-83.32082,16545.42,4835.33,0.0,0.356,0.356,0.0,0.0,0.0,0.356,0.178,LAPEER REGIONAL MEDICAL CENTER
4.07,2.34,42.50514,-83.00422,13358.48,5505.88,0.0,0.477,0.404,0.845,0.0,0.147,0.073,0.0,ST JOHN MACOMB-OAKLAND HOSPITAL-MACOMB CENTER
5.03,2.55,42.89254,-83.63621,17709.55,6485.48,0.0,0.051,0.355,0.0,0.0,0.102,0.102,0.0,GENESYS REGIONAL MEDICAL CENTER - HEALTH PARK
3.68,2.84,42.63849,-83.29062,11577.71,7778.57,0.0,0.375,0.749,0.187,0.0,0.0,0.0,0.0,MCLAREN OAKLAND
3.89,2.20,42.98625,-82.42802,12506.13,4858.87,0.0,0.0,0.84,0.28,0.0,0.093,0.093,0.0,PORT HURON HOSPITAL
3.95,2.17,42.27302,-84.95775,12809.82,4723.09,0.0,0.327,0.327,0.327,0.0,0.0,0.0,0.0,OAKLAWN HOSPITAL
3.79,2.33,43.63618,-84.26187,12077.38,5479.88,0.0,0.096,0.482,0.096,0.0,0.0,0.289,0.0,MIDMICHIGAN MEDICAL CENTER-MIDLAND
3.58,2.34,42.58900,-82.89799,11116.96,5517.29,0.0,0.066,0.596,0.331,0.0,0.066,0.066,0.0,MOUNT CLEMENS REGIONAL MEDICAL CENTER
5.89,2.49,42.73767,-84.51698,21564.98,6180.68,0.0,0.339,0.484,0.097,0.0,0.0,0.0,0.242,EDWARD W SPARROW HOSPITAL
4.01,2.44,42.85736,-85.71774,13074.72,5960.89,0.0,0.131,0.131,0.262,0.0,0.0,0.131,0.131,METRO HEALTH HOSPITAL
3.91,2.50,42.33215,-83.31195,12602.96,6247.56,0.0,0.117,0.235,0.0,0.0,0.0,0.117,0.0,GARDEN CITY HOSPITAL
4.84,2.29,42.61826,-83.09239,16839.71,5282.20,0.0,0.414,0.451,0.338,0.0,0.0,0.038,0.038,WILLIAM BEAUMONT HOSPITAL-TROY
4.38,2.23,42.23506,-83.27602,14749.55,5014.55,0.0,0.795,0.795,0.0,0.0,0.159,0.159,0.0,OAKWOOD HERITAGE HOSPITAL
5.25,2.92,42.35295,-83.05447,18687.81,8125.40,0.0,0.486,0.243,1.093,0.0,0.0,0.364,0.0,DETROIT RECEIVING HOSPITAL & UNIV HEALTH CENTER
4.47,2.35,42.59290,-83.49920,15141.25,5562.25,0.0,0.406,0.271,0.271,0.0,0.135,0.135,0.406,HURON VALLEY-SINAI HOSPITAL
4.61,2.10,42.53914,-83.40777,15779.86,4422.59,0.0,0.323,0.646,1.507,0.0,0.0,0.108,0.323,HENRY FORD WEST BLOOMFIELD HOSPITAL
5.79,2.29,45.01403,-93.32177,21139.57,5275.57,0.0,0.114,0.286,0.057,0.0,0.0,0.057,0.114,NORTH MEMORIAL MEDICAL CENTER
4.32,3.27,44.97210,-93.26240,14489.88,9736.44,0.0,0.984,0.547,2.514,0.0,0.109,0.547,0.656,HENNEPIN COUNTY MEDICAL CENTER
4.77,2.57,44.02052,-92.48292,16494.96,6575.71,0.031,0.862,0.462,0.862,0.0,0.0,0.031,0.123,MAYO CLINIC - SAINT MARYS HOSPITAL
4.39,2.52,45.57390,-94.16942,14811.55,6341.62,0.0,0.599,0.23,0.23,0.0,0.0,0.046,0.184,ST CLOUD HOSPITAL
6.49,2.60,44.94214,-93.10858,24302.87,6687.77,0.0,0.115,0.172,0.172,0.0,0.0,0.0,0.0,UNITED HOSPITAL
5.18,2.34,46.79634,-92.08793,18344.80,5499.53,0.0,0.318,0.318,0.425,0.0,0.0,0.106,0.0,ST LUKES HOSPITAL
2.97,2.32,44.93031,-93.36276,8360.27,5434.70,0.0,0.113,0.395,0.225,0.0,0.056,0.0,0.0,PARK NICOLLET METHODIST HOSPITAL
7.62,2.44,44.95248,-93.26196,29397.86,5977.64,0.0,0.036,0.434,0.723,0.0,0.036,0.0,0.0,ABBOTT NORTHWESTERN HOSPITAL
5.04,2.34,44.94898,-93.10016,17730.29,5531.00,0.0,0.17,0.339,0.085,0.0,0.085,0.085,0.0,ST JOSEPH'S HOSPITAL
4.75,2.24,44.88645,-93.32693,16425.12,5062.69,0.0,0.161,0.241,0.805,0.0,0.0,0.08,0.08,FAIRVIEW SOUTHDALE HOSPITAL
5.92,2.88,44.96766,-93.23640,21694.14,7964.50,0.0,1.524,0.435,0.363,0.0,0.073,0.145,0.0,UNIVERSITY OF MINNESOTA  MEDICAL CENTER FAIRVIEW
3.65,2.33,44.16396,-94.00412,11458.50,5462.71,0.0,0.275,0.55,0.413,0.0,0.0,0.275,0.138,MAYO CLINIC HEALTH SYSTEM - MANKATO
4.66,2.66,44.95570,-93.09429,16004.84,6940.44,0.0,0.059,0.531,0.531,0.0,0.0,0.0,0.0,REGIONS HOSPITAL
5.28,2.27,45.18355,-93.36789,18840.65,5177.95,0.0,0.067,0.266,0.266,0.0,0.0,0.0,0.133,MERCY HOSPITAL
5.59,2.25,45.10789,-93.25685,20220.08,5094.38,0.0,0.114,0.341,0.114,0.0,0.0,0.0,0.0,UNITY HOSPITAL
4.82,2.42,45.02892,-93.03418,16722.81,5896.48,0.0,0.188,0.283,0.094,0.0,0.0,0.094,0.0,HEALTHEAST ST JOHN'S HOSPITAL
5.46,2.21,44.91542,-92.94757,19619.46,4941.54,0.0,0.0,0.468,0.0,0.0,0.0,0.0,0.234,HEALTHEAST WOODWINDS HOSPITAL
4.44,2.64,32.33069,-90.17030,15033.73,6892.91,0.0,1.097,0.337,1.687,0.0,0.0,0.506,0.337,UNIVERSITY OF MISSISSIPPI MED CENTER
4.21,2.21,34.24336,-88.71753,13963.19,4906.47,0.0,0.044,0.489,0.267,0.0,0.133,0.0,0.044,NORTH MISSISSIPPI MEDICAL CENTER
3.93,2.23,34.49648,-89.03326,12703.82,5025.27,0.0,0.735,2.573,2.573,0.0,0.0,0.368,0.735,BAPTIST MEMORIAL HOSPITAL UNION COUNTY
6.03,2.17,34.93596,-88.55955,22228.92,4744.28,0.0,0.0,1.107,0.123,0.0,0.123,0.0,0.0,MAGNOLIA REGIONAL HEALTH CENTER
2.40,2.27,34.72982,-88.95062,5795.15,5179.92,0.0,0.0,0.925,0.0,0.0,0.0,0.0,0.0,TIPPAH COUNTY HOSPITAL
3.40,2.12,33.76246,-89.81743,10309.20,4527.40,0.0,0.723,0.362,2.17,0.0,0.0,0.0,0.362,GRENADA LAKE MEDICAL CENTER
7.71,2.26,30.36674,-89.11535,29832.57,5145.94,0.0,0.233,1.01,0.311,0.0,0.0,0.311,0.0,MEMORIAL HOSPITAL AT GULFPORT
3.28,2.11,33.97458,-88.47761,9761.69,4470.38,0.0,0.322,0.322,0.0,0.0,0.0,0.0,0.0,GILMORE MEMORIAL HOSPITAL
6.99,2.29,32.35265,-90.87788,26570.29,5280.14,0.0,0.119,0.477,0.477,0.0,0.0,0.0,0.0,RIVER REGION HEALTH SYSTEM
5.14,2.21,34.34899,-89.52062,18182.06,4933.44,0.0,0.124,0.249,2.115,0.0,0.0,0.0,0.249,BAPTIST MEMORIAL HOSPITAL NORTH MS
6.23,2.13,30.37516,-88.53226,23120.80,4570.08,0.0,0.269,0.47,0.269,0.0,0.0,0.134,0.0,SINGING RIVER HOSPITAL
6.26,2.44,34.19610,-90.55208,23257.29,5971.54,0.0,0.199,0.0,0.597,0.0,0.0,0.0,0.0,NORTHWEST MISSISSIPPI REGIONAL MEDICAL CENTER
4.16,2.11,32.33616,-90.15652,13759.09,4478.81,0.0,0.461,0.307,0.154,0.0,0.051,0.717,0.0,ST DOMINIC-JACKSON MEMORIAL HOSPITAL
3.37,2.14,31.69405,-89.13061,10167.12,4615.27,0.0,0.611,1.526,0.153,0.0,0.0,0.0,0.0,SOUTH CENTRAL REG MED CTR
3.26,2.21,33.61860,-88.66204,9655.10,4930.00,0.0,0.0,0.0,0.0,0.0,0.59,0.0,0.0,CLAY COUNTY MEDICAL CENTER
3.96,2.23,32.36983,-88.69702,12847.70,5003.10,0.0,0.412,0.619,0.0,0.0,0.0,0.0,0.0,RUSH FOUNDATION HOSPITAL
7.97,2.23,32.28805,-90.25566,30997.10,5021.67,0.0,0.501,0.167,0.167,0.0,0.0,0.0,0.0,CENTRAL MISSISSIPPI MEDICAL CENTER
2.27,2.19,31.67488,-88.64615,5212.46,4822.00,0.0,0.0,0.506,0.0,0.0,0.0,0.0,0.0,WAYNE GENERAL HOSPITAL
3.89,2.25,31.31872,-89.32955,12538.56,5110.44,0.0,0.422,0.528,0.58,0.0,0.0,0.106,0.053,FORREST GENERAL HOSPITAL
5.99,2.32,33.41099,-91.03479,22052.81,5406.15,0.0,0.155,0.155,0.155,0.0,0.0,0.0,0.0,DELTA REGIONAL MEDICAL CENTER
8.05,3.05,31.32573,-89.36670,31375.45,8725.73,0.0,0.591,0.355,0.118,0.118,0.118,0.0,0.0,WESLEY MEDICAL CENTER
5.64,2.14,32.28618,-90.03434,20458.20,4613.27,0.0,0.0,0.972,0.729,0.0,0.0,0.0,0.243,CROSSGATES RIVER OAKS HOSPITAL
2.98,2.26,31.24000,-90.45000,8406.68,5170.37,0.0,0.0,0.35,0.0,0.0,0.0,0.0,0.35,SOUTHWEST MS REGIONAL MEDICAL CENTER
4.32,2.32,33.51824,-90.19832,14482.72,5410.41,0.0,0.487,0.487,0.162,0.0,0.0,0.162,0.0,GREENWOOD LEFLORE HOSPITAL
3.75,2.22,33.52568,-88.42742,11901.93,4970.33,0.0,0.693,0.0,1.039,0.0,0.0,0.0,0.173,BAPTIST MEM HOSP/GOLDEN TRIANGLE INC
5.12,2.07,32.31643,-90.17922,18115.62,4292.67,0.0,0.312,0.989,0.312,0.0,0.104,0.208,0.052,MISSISSIPPI BAPTIST MEDICAL CENTER
3.27,2.07,32.37280,-88.69954,9709.12,4303.65,0.0,0.105,0.738,0.0,0.0,0.0,0.105,0.0,ANDERSON REGIONAL MEDICAL CENTER
6.46,2.16,31.56044,-91.40317,24144.27,4704.33,0.0,0.56,0.56,0.56,0.0,0.0,0.0,0.0,NATCHEZ COMMUNITY HOSPITAL/SWING BED
4.29,2.38,34.62445,-89.95655,14317.33,5698.00,0.0,0.0,0.953,0.0,0.0,0.0,0.0,0.0,NORTH OAK REGIONAL MEDICAL CENTER
4.64,2.29,34.96927,-89.99709,15919.26,5278.09,0.0,0.277,0.416,0.486,0.0,0.0,0.0,0.069,BAPTIST MEMORIAL HOSPITAL DESOTO
6.31,2.18,37.06032,-94.52747,23495.13,4810.70,0.0,0.534,0.686,0.534,0.0,0.0,0.153,0.0,ST JOHN'S REGIONAL MEDICAL CENTER
4.19,2.21,38.78060,-90.48379,13878.19,4916.50,0.0,0.123,0.738,0.738,0.0,0.0,0.0,0.0,SSM ST JOSEPH HEALTH CENTER
4.11,2.44,39.77393,-94.77089,13522.58,5982.45,0.0,0.286,0.571,0.343,0.0,0.057,0.057,0.0,HEARTLAND REGIONAL MEDICAL CENTER
3.78,2.10,38.69946,-93.22211,12029.07,4428.00,0.0,0.334,0.334,0.167,0.0,0.0,0.0,0.0,BOTHWELL REGIONAL HEALTH CENTER
4.47,2.06,38.57670,-92.17352,15132.31,4248.00,0.0,0.117,0.705,0.0,0.0,0.0,0.0,0.0,ST MARYS HEALTH CENTER
4.64,2.44,37.95144,-91.75940,15909.67,5977.50,0.0,0.0,0.445,0.148,0.0,0.0,0.0,0.0,PHELPS COUNTY REGIONAL MEDICAL CENTER
6.03,2.19,38.64281,-90.44448,22207.62,4856.00,0.0,0.686,0.441,0.294,0.0,0.0,0.147,0.196,MERCY HOSPITAL ST LOUIS
3.36,2.07,38.16498,-90.38082,10111.73,4313.67,0.0,0.105,0.42,0.105,0.0,0.0,0.0,0.0,JEFFERSON REGIONAL MEDICAL CENTER
7.78,2.31,39.00717,-94.55925,30134.83,5396.59,0.0,0.103,0.414,0.207,0.0,0.0,0.0,0.0,RESEARCH MEDICAL CENTER
4.53,2.47,38.63524,-90.26508,15435.18,6096.34,0.0,0.967,0.604,0.121,0.0,0.0,0.29,0.072,BARNES JEWISH HOSPITAL
3.70,2.26,37.14560,-93.28037,11677.25,5136.92,0.0,0.133,0.575,0.354,0.0,0.0,0.044,0.088,COX MEDICAL CENTER
3.94,2.99,39.08401,-94.57591,12755.67,8452.29,0.0,1.435,0.82,0.41,0.0,0.0,0.0,0.41,TRUMAN MEDICAL CENTER HOSPITAL HILL
7.20,2.64,39.24809,-94.64928,27493.64,6893.09,0.0,0.0,0.251,0.251,0.0,0.0,0.0,0.0,ST LUKES NORTHLAND HOSPITAL
3.42,2.21,39.17288,-91.87692,10383.27,4917.18,0.0,0.0,0.642,0.0,0.0,0.0,0.0,0.0,AUDRAIN MEDICAL CENTER
6.31,2.26,37.17999,-93.27409,23478.47,5143.85,0.0,0.223,0.356,1.381,0.0,0.0,0.045,0.045,ST JOHN'S REGIONAL HEALTH CENTER
4.63,2.03,38.94903,-92.31563,15887.72,4116.78,0.0,0.114,0.513,0.057,0.0,0.057,0.0,0.0,BOONE HOSPITAL CENTER
5.14,2.36,39.42385,-92.41354,18196.91,5596.36,0.0,0.0,0.426,0.0,0.0,0.0,0.852,0.0,MOBERLY REGIONAL MEDICAL CENTER
3.63,2.07,38.50661,-90.38025,11354.08,4272.24,0.0,1.359,1.15,0.627,0.0,0.0,0.209,0.0,ST ANTHONY'S MEDICAL CENTER
5.00,2.25,38.52738,-90.47501,17559.17,5085.89,0.0,0.339,0.566,0.453,0.0,0.113,0.0,0.0,SSM ST CLARE HEALTH CENTER
6.49,2.11,38.93592,-94.60376,24315.52,4490.62,0.0,0.389,0.389,1.264,0.0,0.0,0.0,0.0,ST JOSEPH MEDICAL CENTER
4.19,2.53,38.63268,-90.31089,13893.38,6358.95,0.0,0.449,0.449,0.225,0.0,0.0,0.0,0.0,SSM ST MARYS HEALTH CENTER
