size,lat,lon,price,name
2.21,35.83746,-90.70386,6886.29,ST BERNARDS MEDICAL CTR
3.28,34.46784,-93.06667,20362.57,ST JOSEPHS MERCY HEALTH CENTER INC
2.33,36.34295,-92.39442,8388.65,BAXTER REGIONAL MEDICAL CENTER
3.02,35.28275,-93.14901,17098.17,ST MARYS REGIONAL MEDICAL CENTER
2.47,35.37445,-94.41868,10171.46,SPARKS REGIONAL MEDICAL CENTER
3.25,34.18894,-92.01886,20017.81,JEFFERSON REGIONAL MEDICAL CENTER
3.89,34.48600,-93.03521,28093.82,NATIONAL PARK MEDICAL CENTER
2.82,34.74866,-92.35422,14523.64,BAPTIST HEALTH MEDICAL CENTER-LITTLE ROCK
2.57,35.80838,-90.66658,11384.58,NEA BAPTIST MEMORIAL HOSPITAL
3.21,35.76927,-91.63408,19480.56,WHITE RIVER MEDICAL CENTER
5.01,37.63362,-122.08802,42212.75,ST ROSE HOSPITAL
4.02,38.57053,-121.45216,29703.25,MERCY GENERAL HOSPITAL
3.91,39.50528,-121.54100,28359.56,OROVILLE HOSPITAL
5.11,35.38736,-119.01690,43483.94,BAKERSFIELD MEMORIAL HOSPITAL
4.79,37.31288,-121.93329,39442.33,SANTA CLARA VALLEY MEDICAL CENTER
5.85,37.79100,-122.43125,52910.07,CALIFORNIA PACIFIC MEDICAL CTR-PACIFIC CAMPUS HOSP
5.22,37.74717,-122.42088,44985.00,CALIFORNIA PACIFIC MEDICAL CTR - ST. LUKE'S CAMPUS
3.38,34.67486,-118.15771,21694.29,ANTELOPE VALLEY HOSPITAL MED CENTER
4.46,36.32737,-119.29548,35352.95,KAWEAH DELTA MEDICAL CENTER
3.82,34.12834,-118.25777,27160.71,GLENDALE MEM HOSPITAL & HLTH CENTER
4.89,33.78036,-117.86495,40719.06,ST JOSEPH HOSPITAL
3.90,33.73798,-118.30525,28171.67,PROVIDENCE LITTLE CO OF MARY MED CTR SAN PEDRO
5.65,37.95337,-122.33672,50379.24,DOCTORS MEDICAL CENTER-SAN PABLO
5.41,37.96987,-121.28873,47266.18,ST JOSEPHS MED CENTER OF STOCKTON
3.56,36.83532,-119.76562,23867.73,SAINT AGNES MEDICAL CENTER
3.58,34.10130,-117.63651,24127.00,SAN ANTONIO COMMUNITY HOSPITAL
5.15,32.79949,-117.15394,44076.85,SHARP MEMORIAL HOSPITAL
5.25,38.13118,-122.23732,45309.00,SUTTER SOLANO MEDICAL CENTER
5.19,34.04932,-118.21746,44574.43,WHITE MEMORIAL MEDICAL CENTER
3.31,34.95099,-120.41322,20794.31,MARIAN MEDICAL CENTER
4.42,38.57155,-121.46874,34846.22,SUTTER GENERAL HOSPITAL
4.10,34.07558,-118.28424,30777.07,TEMPLE COMMUNITY HOSPITAL
4.95,34.02685,-118.48651,41550.88,SANTA MONICA - UCLA MED CTR & ORTHOPAEDIC HOSPITAL
3.31,36.32362,-119.66726,20740.57,ADVENTIST MEDICAL CENTER
6.57,37.36257,-121.84974,62051.84,REGIONAL MEDICAL CENTER OF SAN JOSE
3.38,33.18402,-117.29661,21656.95,TRI-CITY MEDICAL CENTER
3.89,39.13822,-121.59436,28112.07,RIDEOUT MEMORIAL HOSPITAL
3.60,34.03705,-118.26575,24409.00,CALIFORNIA HOSPITAL MEDICAL CENTER LA
4.89,39.22809,-121.04721,40710.08,SIERRA NEVADA MEMORIAL HOSPITAL
3.67,34.28029,-119.25410,25336.85,VENTURA COUNTY MEDICAL CENTER
4.32,37.88664,-121.28308,33593.94,SAN JOAQUIN GENERAL HOSPITAL
5.36,33.96860,-118.04831,46725.56,PRESBYTERIAN INTERCOMMUNITY HOSPITAL
5.05,38.44369,-122.70138,42787.93,SANTA ROSA MEMORIAL HOSPITAL
6.34,37.55717,-121.98126,59048.96,WASHINGTON HOSPITAL
6.36,37.48000,-122.25441,59399.64,SEQUOIA HOSPITAL
4.60,34.58305,-118.14490,37078.83,PALMDALE REGIONAL MEDICAL CENTER
2.94,33.91255,-118.09846,16095.38,COAST PLAZA HOSPITAL
5.66,32.61972,-117.02278,50431.91,SHARP CHULA VISTA MEDICAL CENTER
3.63,33.62229,-117.92995,24796.38,HOAG MEMORIAL HOSPITAL PRESBYTERIAN
4.99,33.84780,-117.93661,42022.88,AHMC ANAHEIM REGIONAL MEDICAL CENTER
4.02,33.77483,-117.91329,29761.83,GARDEN GROVE HOSPITAL & MEDICAL CENTER
5.34,34.15601,-118.32834,46469.30,PROVIDENCE SAINT JOSEPH MEDICAL CTR
4.48,34.28920,-118.74484,35503.55,SIMI VALLEY HOSPITAL & HEALTH CARE SERVICES
3.68,36.06956,-119.02748,25474.41,SIERRA VIEW DISTRICT HOSPITAL
5.26,34.06675,-118.44613,45486.82,RONALD REAGAN UCLA MEDICAL CENTER
4.35,38.00655,-122.13312,33939.25,CONTRA COSTA REGIONAL MEDICAL CENTER
4.07,33.80733,-118.19305,30393.44,PACIFIC HOSPITAL OF LONG BEACH
4.42,40.58654,-122.39168,34806.81,MERCY MEDICAL CENTER REDDING
4.24,34.09049,-118.14410,32463.50,ALHAMBRA HOSPITAL MEDICAL CENTER
3.76,34.03009,-118.47833,26419.07,SAINT JOHN'S HEALTH CENTER
4.04,34.50107,-117.17285,29994.26,ST MARY MEDICAL CENTER
3.86,37.85593,-122.25730,27763.23,ALTA BATES SUMMIT MEDICAL CENTER - ALTA BATES CAMP
5.77,37.36934,-122.08047,51825.58,EL CAMINO HOSPITAL
3.79,38.76514,-121.24979,26819.14,SUTTER ROSEVILLE MEDICAL CENTER
4.78,37.74409,-121.43469,39335.45,SUTTER TRACY COMMUNITY HOSPITAL
4.23,32.88461,-117.22244,32403.00,SCRIPPS MEMORIAL HOSPITAL LA JOLLA
4.18,34.05076,-117.26395,31707.59,LOMA LINDA UNIVERSITY MEDICAL CENTER
3.63,33.87236,-117.56809,24804.42,CORONA REGIONAL MEDICAL CENTER
7.37,38.12186,-121.28665,72062.44,LODI MEMORIAL HOSPITAL
4.18,32.95813,-115.55388,31739.00,PIONEERS MEMORIAL HEALTHCARE DISTRICT
2.66,34.01501,-118.10064,12555.88,BEVERLY HOSPITAL
2.92,36.22008,-119.33764,15840.46,TULARE REGIONAL MEDICAL CENTER
5.95,37.94748,-122.53677,54140.55,MARIN GENERAL HOSPITAL
8.37,38.26174,-122.04662,84822.36,NORTHBAY MEDICAL CENTER
4.62,34.06034,-118.21014,37359.94,LAC+USC MEDICAL CENTER
2.81,34.24018,-118.39632,14431.83,PACIFICA HOSPITAL OF THE VALLEY
3.48,33.75117,-116.96028,22934.08,HEMET VALLEY MEDICAL CENTER
5.52,33.93530,-118.13030,48668.43,DOWNEY REGIONAL MEDICAL CENTER
2.81,33.82557,-117.99493,14486.82,WEST ANAHEIM MEDICAL CENTER
5.18,34.13364,-118.15275,44413.38,HUNTINGTON MEMORIAL HOSPITAL
7.55,37.43436,-122.18013,74384.19,STANFORD HOSPITAL
5.09,37.76421,-122.45716,43288.55,UCSF MEDICAL CENTER
3.64,35.38338,-119.01969,24979.29,SAN JOAQUIN COMMUNITY HOSPITAL
7.44,37.66540,-120.99743,73030.80,DOCTORS MEDICAL CENTER
3.46,33.89307,-118.29506,22691.75,MEMORIAL HOSPITAL OF GARDENA
4.21,34.05336,-118.26558,32107.84,GOOD SAMARITAN HOSPITAL
4.55,37.69824,-122.08730,36455.32,EDEN MEDICAL CENTER
4.55,34.06389,-118.27347,36505.40,SAINT VINCENT MEDICAL CENTER
5.43,34.20777,-118.88305,47619.53,LOS ROBLES HOSPITAL & MEDICAL CENTER
4.96,33.71466,-117.93322,41581.92,FOUNTAIN VALLEY REGIONAL HOSPITAL & MEDICAL CENTER
3.24,33.84753,-118.03841,19912.89,LA PALMA INTERCOMMUNITY HOSPITAL
2.98,34.02561,-117.68583,16632.09,CHINO VALLEY MEDICAL CENTER
4.15,38.46387,-121.41645,31359.22,METHODIST HOSPITAL OF SACRAMENTO
3.49,34.13289,-117.87121,23060.17,FOOTHILL PRESBYTERIAN HOSPITAL
5.73,38.55484,-121.45628,51350.41,UNIVERSITY OF CALIFORNIA DAVIS MEDICAL CENTER
4.41,33.60883,-117.70881,34712.68,SADDLEBACK MEMORIAL MEDICAL CENTER
3.85,35.76216,-119.23889,27608.56,DELANO REGIONAL MEDICAL CENTER
7.28,34.07664,-118.37955,71006.05,CEDARS-SINAI MEDICAL CENTER
3.87,33.70167,-117.95566,27823.85,ORANGE COAST MEMORIAL MEDICAL CENTER
5.67,37.03560,-121.57109,50610.71,SAINT LOUISE REGIONAL HOSPITAL
3.15,34.22139,-118.45660,18709.75,MISSION COMMUNITY HOSPITAL - PANORAMA
2.95,34.47174,-117.29791,16238.44,DESERT VALLEY HOSPITAL
6.56,34.06760,-118.12291,61852.14,GARFIELD MEDICAL CENTER
4.22,34.04777,-118.04344,32302.56,GREATER EL MONTE COMMUNITY HOSPITAL
4.51,33.95076,-118.34828,35988.81,CENTINELA HOSPITAL MEDICAL CENTER
7.28,34.05723,-118.36025,70976.58,OLYMPIA MEDICAL CENTER
7.67,34.17067,-118.53200,75860.18,PROVIDENCE TARZANA MEDICAL CENTER
4.40,40.58532,-122.38702,34565.61,SHASTA REGIONAL MEDICAL CENTER
2.88,40.57315,-105.05741,15296.77,POUDRE VALLEY HOSPITAL
3.28,38.23421,-104.62292,20367.46,CENTURA HEALTH-ST MARY CORWIN MEDICAL CENTER
3.44,38.28184,-104.61256,22361.88,PARKVIEW MEDICAL CENTER INC
3.26,39.74234,-104.84156,20190.91,UNIVERSITY OF COLORADO HOSPITAL ANSCHUTZ INPATIENT
2.82,40.41320,-105.05139,14548.64,MCKEE MEDICAL CENTER
3.20,38.86559,-104.82182,19360.46,CENTURA HEALTH-PENROSE ST FRANCIS HEALTH SERVICES
3.93,39.65399,-104.98116,28553.76,SWEDISH MEDICAL CENTER
3.85,39.84960,-105.01825,27642.29,CENTURA HEALTH-ST ANTHONY NORTH HOSPITAL
3.24,41.77507,-72.69941,19842.98,ST FRANCIS HOSPITAL & MEDICAL CENTER
3.92,41.55959,-73.05941,28488.36,WATERBURY HOSPITAL
3.85,41.05562,-73.55390,27537.70,STAMFORD HOSPITAL
2.67,41.33722,-72.10380,12662.42,LAWRENCE & MEMORIAL HOSPITAL
3.21,41.18881,-73.16645,19496.41,BRIDGEPORT HOSPITAL
2.27,41.79153,-73.13382,7653.20,CHARLOTTE HUNGERFORD HOSPITAL
2.48,41.55241,-73.03554,10261.73,SAINT MARYS HOSPITAL
2.79,41.54874,-72.80148,14133.43,MIDSTATE MEDICAL CENTER
3.49,41.03431,-73.63020,22997.64,GREENWICH HOSPITAL ASSOCIATION
2.65,41.54301,-72.08799,12361.60,WILLIAM W BACKUS HOSPITAL
3.24,41.75412,-72.67927,19920.72,HARTFORD HOSPITAL
3.03,41.20049,-73.20281,17207.84,ST VINCENT'S MEDICAL CENTER
2.79,41.40474,-73.44739,14203.08,DANBURY HOSPITAL
2.68,41.66107,-72.78671,12774.32,HOSPITAL OF CENTRAL CONNECTICUT, THE
2.93,41.73545,-72.79489,15959.85,JOHN DEMPSEY HOSPITAL
2.97,39.74954,-75.56662,16470.90,ST FRANCIS HOSPITAL
2.99,39.15135,-75.52309,16658.82,BAYHEALTH - KENT GENERAL HOSPITAL
2.59,38.64231,-75.60660,11631.07,NANTICOKE MEMORIAL HOSPITAL
3.08,38.77159,-75.14210,17844.71,BEEBE MEDICAL CENTER
3.56,38.90106,-77.05079,23926.61,GEORGE WASHINGTON UNIV HOSPITAL
3.19,38.91770,-77.02193,19215.30,HOWARD UNIVERSITY HOSPITAL
3.76,38.91221,-77.07588,26404.75,GEORGETOWN UNIVERSITY HOSPITAL
2.78,38.94397,-76.99040,14046.97,PROVIDENCE HOSPITAL
3.46,38.83504,-76.98388,22614.54,UNITED MEDICAL CENTER
3.59,38.92944,-77.01473,24326.92,WASHINGTON HOSPITAL CENTER
3.40,30.34913,-81.66391,21839.25,SHANDS JACKSONVILLE MEDICAL CENTER
5.47,26.50479,-80.06979,48091.94,BETHESDA MEMORIAL HOSPITAL
3.80,28.52517,-81.37729,26967.84,ORLANDO HEALTH
4.54,25.68309,-80.34038,36330.76,BAPTIST HOSPITAL OF MIAMI INC
5.54,25.78846,-80.21644,49034.42,UNIVERSITY OF MIAMI HOSPITAL
2.94,29.20117,-81.05828,16067.85,HALIFAX HEALTH MEDICAL CENTER
3.08,26.15053,-81.79919,17904.24,NAPLES COMMUNITY HOSPITAL
3.53,25.79143,-80.21250,23497.58,JACKSON MEMORIAL HOSPITAL
3.19,28.83363,-82.33561,19264.19,CITRUS MEMORIAL HOSPITAL
2.91,30.47650,-87.21219,15673.58,SACRED HEART HOSPITAL
2.97,30.15963,-85.64818,16433.67,BAY MEDICAL CENTER
4.77,25.86166,-80.21398,39187.57,NORTH SHORE MEDICAL CENTER
4.13,25.81317,-80.13996,31110.23,MOUNT SINAI MEDICAL CENTER
4.33,26.01867,-80.17981,33637.26,MEMORIAL REGIONAL HOSPITAL
3.19,30.30835,-81.68919,19228.19,ST VINCENT'S MEDICAL CENTER
4.22,27.19837,-80.24306,32265.31,MARTIN MEMORIAL MEDICAL CENTER
2.94,29.04263,-81.31635,16040.67,FLORIDA HOSPITAL DELAND
4.16,28.26092,-82.18802,31482.62,FLORIDA HOSPITAL ZEPHYRHILLS
3.13,26.94042,-82.04094,18520.11,CHARLOTTE REGIONAL MEDICAL CENTER
3.77,28.55140,-81.72120,26598.08,SOUTH LAKE HOSPITAL
3.37,29.17594,-82.13898,21474.35,MUNROE REGIONAL MEDICAL CENTER
3.22,28.25431,-82.71447,19611.00,MORTON PLANT NORTH BAY HOSPITAL
3.51,27.78088,-82.65126,23242.29,ST ANTHONY'S HOSPITAL
2.85,29.24333,-81.10760,14928.55,FLORIDA HOSPITAL MEMORIAL MEDICAL CENTER
4.16,27.09043,-82.44499,31557.06,VENICE REGIONAL MEDICAL CENTER
5.70,28.53906,-82.44193,51030.21,BROOKSVILLE REGIONAL HOSPITAL
3.85,26.18711,-80.11941,27582.36,HOLY CROSS HOSPITAL INC
3.46,26.98905,-82.09559,22713.06,PEACE RIVER REGIONAL MEDICAL CENTER
4.28,26.59805,-80.09271,33077.83,JFK MEDICAL CENTER
2.90,28.80659,-81.86906,15579.65,LEESBURG REGIONAL MEDICAL CENTER
3.76,26.27623,-80.12220,26440.07,BROWARD HEALTH NORTH BROWARD MEDICAL CENTER
4.06,30.31525,-81.66398,30295.39,BAPTIST MEDICAL CENTER
3.07,28.33522,-80.72319,17696.19,WUESTHOFF MEDICAL CENTER  ROCKLEDGE
3.17,30.43066,-87.23191,19000.39,BAPTIST HOSPITAL
3.12,30.19345,-82.63268,18300.78,SHANDS LAKE SHORE REGIONAL MEDICAL CENTER
2.58,27.65832,-80.39307,11512.77,INDIAN RIVER MEDICAL CENTER
3.87,26.61563,-81.65945,27876.45,LEHIGH REGIONAL MEDICAL CENTER
3.36,29.64155,-82.34844,21408.10,SHANDS HOSPITAL AT THE UNIVERSITY OF FLORIDA
3.46,30.27449,-81.40071,22667.23,BAPTIST MEDICAL CENTER  BEACHES
2.36,30.78675,-85.24189,8718.67,JACKSON HOSPITAL
3.03,24.58076,-81.74233,17222.36,LOWER KEYS MEDICAL CENTER
2.81,30.26389,-81.44283,14398.75,MAYO CLINIC
3.62,28.06172,-81.95304,24699.89,LAKELAND REGIONAL MEDICAL CENTER
3.48,28.81611,-81.28351,22873.89,CENTRAL FLORIDA REGIONAL HOSPITAL
3.10,28.36005,-80.62309,18063.00,CAPE CANAVERAL HOSPITAL
4.85,26.26259,-80.20292,40189.17,NORTHWEST MEDICAL CENTER
3.02,27.93758,-82.48933,17067.25,MEMORIAL HOSPITAL OF TAMPA
4.46,25.73195,-80.38580,35346.70,KENDALL REGIONAL MEDICAL CENTER
3.78,27.48213,-82.62126,26710.80,BLAKE MEDICAL CENTER
4.04,26.12354,-80.25951,29968.06,WESTSIDE REGIONAL MEDICAL CENTER
3.26,29.64481,-81.69431,20114.29,PUTNAM COMMUNITY MEDICAL CENTER
4.17,27.93259,-82.28759,31609.65,BRANDON REGIONAL HOSPITAL
4.16,27.43392,-80.34350,31514.97,LAWNWOOD REGIONAL MEDICAL CENTER & HEART INSTITUTE
3.33,28.00237,-82.57309,21057.93,TOWN & COUNTRY HOSPITAL
4.42,28.36128,-82.68883,34764.13,REGIONAL MEDICAL CENTER BAYONET POINT
4.62,26.43709,-80.12728,37276.72,DELRAY MEDICAL CENTER
4.69,27.71350,-82.36512,38213.17,SOUTH BAY HOSPITAL
4.05,27.28861,-80.29431,30097.48,ST LUCIE MEDICAL CENTER
6.41,28.53585,-82.53404,59995.11,OAK HILL HOSPITAL
3.40,28.03957,-82.70875,21937.42,MEASE COUNTRYSIDE HOSPITAL
4.36,26.68337,-80.25269,34011.00,PALMS WEST HOSPITAL
4.45,26.01394,-80.30980,35163.68,MEMORIAL HOSPITAL WEST
3.99,26.21388,-81.73257,29409.42,PHYSICIANS REGIONAL MEDICAL CENTER - PINE RIDGE
3.91,26.70181,-80.05055,28381.17,GOOD SAMARITAN MEDICAL CENTER
2.78,34.78963,-84.98398,14094.68,HAMILTON MEDICAL CENTER
2.55,32.88710,-84.33393,11118.48,UPSON REGIONAL MEDICAL CENTER
2.95,31.22516,-82.34898,16237.59,SATILLA REGIONAL MEDICAL CENTER
2.95,34.94766,-85.26296,16192.55,HUTCHESON MEDICAL CENTER
3.04,31.59023,-84.15756,17402.59,PHOEBE PUTNEY MEMORIAL HOSPITAL
4.05,34.24569,-84.49068,30147.00,NORTHSIDE HOSPITAL CHEROKEE
2.81,33.79230,-84.32107,14421.39,EMORY UNIVERSITY HOSPITAL
2.64,33.03204,-85.05781,12224.08,WEST GEORGIA MEDICAL CENTER
2.49,33.60237,-83.84809,10334.00,NEWTON MEDICAL CENTER
3.34,34.51192,-84.92579,21117.14,GORDON HOSPITAL
3.13,32.02825,-81.09977,18508.72,CANDLER HOSPITAL
2.98,33.47096,-81.98176,16623.35,UNIVERSITY HOSPITAL
2.99,34.30335,-83.81737,16723.00,NORTHEAST GEORGIA MEDICAL CENTER, INC
4.44,34.19990,-84.79378,35118.87,CARTERSVILLE MEDICAL CENTER
2.77,33.47091,-81.98988,13957.33,MEDICAL COLLEGE OF GA HOSPITALS AND CLINICS
3.68,33.96770,-84.55011,25386.61,WELLSTAR KENNESTONE HOSPITAL
2.92,31.98515,-81.15475,15787.53,ST JOSEPH'S HOSPITAL - SAVANNAH
3.31,34.26000,-85.17000,20775.31,FLOYD MEDICAL CENTER
2.75,32.61642,-83.63065,13729.61,HOUSTON MEDICAL CENTER
2.69,33.96117,-83.39832,12867.58,ATHENS REGIONAL MEDICAL CENTER
2.64,33.78956,-84.28077,12299.24,DEKALB MEDICAL CENTER
2.47,33.76810,-84.38616,10155.21,EMORY UNIVERSITY HOSPITAL MIDTOWN
3.03,33.75205,-84.38272,17273.62,GRADY MEMORIAL HOSPITAL
2.87,33.90877,-84.35180,15136.38,SAINT JOSEPH'S HOSPITAL OF ATLANTA, INC
3.09,33.68072,-84.00200,17985.53,ROCKDALE MEDICAL CENTER
3.01,31.47069,-83.50473,17020.05,TIFT REGIONAL MEDICAL CENTER
2.53,31.97683,-83.78280,10841.69,CRISP REGIONAL HOSPITAL
2.97,32.83041,-83.63476,16408.46,MEDICAL CENTER OF CENTRAL GEORGIA
4.85,33.76372,-84.37315,40282.52,ATLANTA MEDICAL CENTER
2.85,30.86250,-83.28630,14970.45,SOUTH GEORGIA MEDICAL CENTER
3.03,32.20903,-82.37585,17175.92,MEADOWS REGIONAL MEDICAL CENTER
3.30,33.85638,-84.60446,20608.70,WELLSTAR COBB HOSPITAL
3.34,32.84705,-83.61823,21169.13,COLISEUM MEDICAL CENTER
3.31,33.57843,-84.38897,20809.67,SOUTHERN REGIONAL MEDICAL CENTER
4.37,33.48259,-82.09038,34191.69,DOCTORS HOSPITAL
2.52,33.51144,-84.22200,10743.62,HENRY MEDICAL CENTER, INC
4.85,34.06334,-84.31976,40258.08,NORTH FULTON REGIONAL HOSPITAL
3.15,33.45252,-84.50697,18725.00,PIEDMONT FAYETTE HOSPITAL
5.28,33.68000,-84.42685,45645.27,SOUTH FULTON MEDICAL CENTER
2.78,33.70365,-84.14697,14025.57,DEKALB MEDICAL CENTER AT HILLANDALE
3.20,21.30780,-157.85505,19391.88,THE QUEENS MEDICAL CENTER
2.71,21.37080,-158.02746,13184.92,HAWAII MEDICAL CENTER WEST
2.92,43.61218,-116.19234,15788.47,ST LUKES REGIONAL MEDICAL CENTER
3.24,42.06550,-87.68428,19896.08,EVANSTON HOSPITAL
2.95,39.93563,-91.39833,16209.90,BLESSING HOSPITAL
3.17,41.86011,-87.69571,18936.43,MT SINAI HOSPITAL MEDICAL CENTER
4.40,41.72930,-88.26976,34558.55,COPLEY MEMORIAL HOSPITAL
2.25,39.12680,-88.55059,7337.08,ST ANTHONYS MEMORIAL HOSPITAL
2.67,38.52908,-89.11604,12724.74,ST MARYS HOSPITAL
3.56,40.95560,-90.36618,23918.93,GALESBURG COTTAGE HOSPITAL
2.93,38.32292,-88.91026,15915.77,GOOD SAMARITAN REGIONAL HLTH CENTER
3.30,41.72636,-87.56727,20632.51,ADVOCATE TRINITY HOSPITAL
3.36,41.89141,-87.77618,21422.97,WEST SUBURBAN MEDICAL CENTER
3.47,42.05624,-87.74012,22734.11,SKOKIE HOSPITAL
3.10,39.80726,-89.64496,18151.67,ST JOHNS HOSPITAL
3.18,41.83195,-87.79266,19140.35,MACNEAL  HOSPITAL
3.04,41.66900,-87.81414,17407.44,PALOS COMMUNITY HOSPITAL
3.70,40.70200,-89.59222,25689.25,SAINT FRANCIS MEDICAL CENTER
3.99,41.69322,-87.62436,29409.74,ROSELAND COMMUNITY HOSPITAL
2.57,41.87259,-87.76181,11343.75,LORETTO HOSPITAL
3.59,42.37840,-87.83329,24321.48,VISTA MEDICAL CENTER EAST
4.76,41.78829,-87.60485,39164.92,THE UNIVERSITY OF CHICAGO MEDICAL CENTER
3.65,40.13811,-87.64569,25007.60,PROVENA UNITED SAMARITANS MEDCTR-LOGAN
2.77,41.77813,-87.63330,13932.31,ST BERNARD HOSPITAL
3.93,40.11739,-88.22714,28651.00,PROVENA COVENANT MEDICAL CENTER- URBANA
4.55,41.97532,-87.69958,36397.04,SWEDISH COVENANT HOSPITAL
2.74,41.95453,-87.65225,13534.50,THOREK MEMORIAL HOSPITAL
2.97,42.31832,-88.27920,16448.67,CENTEGRA HEALTH SYSTEM - MC HENRY HOSPITAL
3.38,41.80555,-87.92059,21681.46,HINSDALE HOSPITAL
2.80,41.87381,-87.67421,14308.67,JOHN H STROGER JR HOSPITAL
4.71,38.70148,-90.14382,38509.09,GATEWAY REGIONAL MEDICAL CENTER
3.24,41.76946,-87.69239,19847.80,HOLY CROSS HOSPITAL
3.38,41.86927,-87.67052,21643.55,UNIVERSITY OF ILLINOIS HOSPITAL
3.81,41.12049,-87.87187,27112.68,PROVENA ST MARYS HOSPITAL
2.68,41.84639,-87.62345,12853.49,MERCY HOSPITAL AND MEDICAL CENTER
2.65,37.72790,-89.22058,12405.16,MEMORIAL HOSPITAL OF CARBONDALE
4.42,41.78566,-88.32886,34834.12,PROVENA MERCY MEDICAL CENTER
3.03,42.27597,-88.40019,17225.93,CENTEGRA HEALTH SYSTEM - WOODSTOCK HOSPITAL
3.56,41.72094,-87.69220,23873.64,LITTLE COMPANY OF MARY HOSPITAL
3.59,41.90414,-87.68254,24271.85,ST MARY & ELIZABETH MED CTR-DIVISION CAMPUS
2.88,41.12572,-87.88526,15293.92,RIVERSIDE MEDICAL CENTER
3.22,38.51081,-89.99014,19568.32,ST ELIZABETH HOSPITAL
2.80,39.48849,-88.27581,14337.42,SARAH BUSH LINCOLN HEALTH CENTER
4.74,41.86362,-87.93567,38906.35,ELMHURST MEMORIAL HOSPITAL
3.91,42.27447,-87.95764,28326.81,ADVOCATE CONDELL MEDICAL CENTER
3.18,41.72031,-87.73249,19060.32,ADVOCATE CHRIST HOSPITAL & MEDICAL CENTER
3.62,41.88566,-88.34311,24706.67,DELNOR COMMUNITY HOSPITAL
3.67,42.03576,-88.32575,25335.40,PROVENA - SAINT JOSEPH HOSPITAL
2.83,42.03837,-87.84820,14659.78,ADVOCATE LUTHERAN GENERAL HOSPITAL
3.22,41.93418,-87.63579,19620.74,SAINT JOSEPH HOSPITAL
3.20,42.26584,-89.07428,19392.35,SWEDISH AMERICAN HOSPITAL
3.48,42.26634,-89.00900,22923.24,SAINT ANTHONY MEDICAL CENTER
3.04,42.29844,-89.09897,17386.05,ROCKFORD MEMORIAL HOSPITAL
4.07,41.89166,-87.84838,30423.08,WESTLAKE COMMUNITY HOSPITAL
3.16,41.56720,-87.69566,18826.00,ADVOCATE SOUTH SUBURBAN HOSPITAL
3.73,41.94560,-87.76897,26049.96,OUR LADY OF THE RESURRECTION MED CTR
2.50,41.48200,-90.57158,10517.30,TRINITY ROCK ISLAND
3.13,41.96185,-88.72130,18455.08,KISHWAUKEE COMMUNITY HOSPITAL
3.68,41.81791,-88.00907,25393.42,ADVOCATE GOOD SAMARITAN HOSPITAL
2.67,38.73818,-89.94728,12629.53,ANDERSON HOSPITAL
2.64,41.63466,-87.44901,12342.81,ST CATHERINE HOSPITAL INC
2.58,40.56435,-85.66576,11548.58,MARION GENERAL HOSPITAL
2.81,41.70639,-86.89936,14411.42,FRANCISCAN ST ANTHONY HEALTH - MICHIGAN CITY
2.91,41.70568,-85.93404,15646.03,ELKHART GENERAL HOSPITAL
2.89,41.51266,-87.26125,15480.09,ST MARY MEDICAL CENTER INC
3.47,41.46729,-87.05130,22754.85,PORTER VALPARAISO HOSPITAL
3.63,39.79009,-86.16260,24830.00,INDIANA UNIVERSITY HEALTH
3.18,39.60783,-86.35573,19122.00,FRANCISCAN ST FRANCIS HEALTH - MOORESVILLE
2.61,39.65626,-85.13265,11942.93,FAYETTE REGIONAL HEALTH SYSTEM
2.75,39.78704,-86.07673,13642.26,COMMUNITY HOSPITAL EAST
3.02,37.98293,-87.57072,17139.98,DEACONESS HOSPITAL INC
3.58,39.91001,-86.19660,24178.62,ST VINCENT HOSPITAL & HEALTH SERVICES
3.18,40.09594,-85.68152,19064.50,SAINT JOHN'S HEALTH SYSTEM
3.70,40.19679,-85.41573,25654.36,INDIANA UNIVERSITY HEALTH BALL MEMORIAL HOSPITAL
2.87,37.96320,-87.50292,15170.70,ST MARY'S MEDICAL CENTER OF EVANSVILLE INC
2.61,39.21585,-85.89683,11964.63,COLUMBUS REGIONAL HOSPITAL
2.90,41.24786,-85.82927,15555.92,KOSCIUSKO COMMUNITY HOSPITAL
2.74,39.90060,-86.04218,13593.08,COMMUNITY HOSPITAL NORTH
3.06,40.40296,-86.80885,17565.42,INDIANA UNIVERSITY HEALTH ARNETT HOSPITAL
2.88,41.26886,-95.83923,15328.58,ALEGENT HEALTH MERCY HOSPITAL
2.74,41.66411,-91.52841,13518.58,MERCY HOSPITAL
2.53,41.54190,-90.55691,10858.12,GENESIS MEDICAL CENTER-DAVENPORT
3.04,41.98570,-91.66093,17335.22,ST LUKES HOSPITAL
3.50,41.66092,-91.54800,23178.00,UNIVERSITY OF IOWA HOSPITAL & CLINICS
2.73,43.15063,-93.21718,13459.14,MERCY MEDICAL CENTER-NORTH IOWA
2.51,41.97864,-91.65507,10692.73,MERCY MEDICAL CENTER - CEDAR RAPIDS
2.99,41.59886,-93.62344,16659.49,MERCY MEDICAL CENTER-DES MOINES
2.51,41.02751,-92.38994,10645.67,OTTUMWA REGIONAL HEALTH CENTER
2.38,42.49632,-90.68587,8985.47,THE FINLEY HOSPITAL
2.67,42.51846,-96.40581,12681.75,ST LUKES REGIONAL MEDICAL CENTER
2.87,42.49250,-96.39975,15149.85,MERCY MEDICAL CENTER-SIOUX CITY
2.83,37.37991,-94.68739,14744.82,VIA CHRISTI HOSPITAL PITTSBURG INC
2.88,38.83324,-97.61028,15318.27,SALINA REGIONAL HEALTH CENTER
2.63,39.05660,-95.69599,12104.11,ST FRANCIS HEALTH CENTER INC
3.76,37.69556,-97.29785,26406.20,WESLEY MEDICAL CENTER
2.48,38.97848,-95.24771,10302.56,LAWRENCE MEMORIAL HOSPITAL
2.98,39.12677,-94.78643,16613.32,PROVIDENCE MEDICAL CENTER
3.46,38.90355,-94.66966,22668.91,SAINT LUKE'S SOUTH HOSPITAL
2.46,37.73142,-97.26078,9986.64,GALICHIA HEART HOSPITAL LLC
2.49,39.07816,-84.46695,10327.62,ST ELIZABETH FT THOMAS
2.98,38.47021,-82.63498,16567.44,KING'S DAUGHTERS' MEDICAL CENTER
2.90,37.11784,-84.10910,15582.95,SAINT JOSEPH HOSPITAL LONDON
2.43,38.18397,-83.43268,9594.18,ST CLAIRE REGIONAL MEDICAL CENTER
2.58,36.60615,-83.74024,11477.43,MIDDLESBORO APPALACHIAN REGIONAL HEALTHCARE HOSPIT
2.77,39.06704,-84.49946,13878.38,ST ELIZABETH MEDICAL CENTER NORTH
2.62,36.60798,-88.30957,11989.57,MURRAY-CALLOWAY COUNTY HOSPITAL
3.16,37.27729,-83.22802,18841.25,HAZARD ARH REGIONAL MEDICAL CENTER
2.63,37.76518,-87.10197,12111.09,OWENSBORO MEDICAL HEALTH SYSTEM
3.90,37.47264,-82.52605,28241.19,PIKEVILLE MEDICAL CENTER
2.55,37.36583,-85.33917,11085.58,TAYLOR REGIONAL HOSPITAL
2.92,37.33959,-87.48988,15808.64,REGIONAL MEDICAL CENTER OF HOPKINS COUNTY
2.79,38.01849,-84.51236,14217.58,CENTRAL BAPTIST HOSPITAL
2.17,36.70006,-85.67862,6383.69,MONROE COUNTY MEDICAL CENTER
3.03,38.16020,-84.90519,17250.00,FRANKFORT REGIONAL MEDICAL CENTER
2.75,37.08724,-84.61828,13665.56,LAKE CUMBERLAND REGIONAL HOSPITAL
2.24,37.09412,-85.29359,7245.44,WESTLAKE REGIONAL HOSPITAL
2.78,30.20227,-92.01906,14115.62,LAFAYETTE GENERAL MEDICAL CENTER
2.92,30.22981,-93.36867,15805.27,WEST CALCASIEU CAMERON HOSPITAL
4.21,30.46813,-90.45814,32111.27,NORTH OAKS MEDICAL CENTER, LLC
2.72,30.54354,-92.07608,13253.17,OPELOUSAS GENERAL HEALTH SYSTEM
3.29,31.28258,-92.46060,20501.33,CHRISTUS ST FRANCES CABRINI HOSPITAL
2.86,30.65001,-91.13821,15042.72,LANE REGIONAL MEDICAL CENTER
4.55,31.31451,-92.44997,36447.85,RAPIDES REGIONAL MEDICAL CENTER
4.02,30.28456,-89.77038,29722.83,SLIDELL MEMORIAL HOSPITAL AND MEDICAL CENTER
2.00,30.22762,-92.36253,4190.91,AMERICAN LEGION HOSPITAL
3.31,30.20458,-93.19774,20752.17,LAKE CHARLES MEMORIAL HOSPITAL
2.70,30.40118,-91.11160,13005.09,OUR LADY OF THE LAKE REGIONAL MEDICAL CENTER
2.38,30.45015,-91.15273,9018.85,BATON ROUGE GENERAL MEDICAL CENTER
3.16,32.51544,-92.63343,18881.04,NORTHERN LOUISIANA MEDICAL CENTER
2.20,32.48177,-93.76264,6706.31,LSU HEALTH SCIENCES CENTER - SHREVEPORT
3.27,32.48393,-93.77884,20244.75,WILLIS KNIGHTON MEDICAL CENTER
2.75,32.61700,-93.28566,13684.21,MINDEN MEDICAL CENTER
2.81,30.01438,-90.18155,14376.45,EAST JEFFERSON GENERAL HOSPITAL
3.23,31.13861,-93.26892,19699.92,BYRD REGIONAL HOSPITAL
2.45,30.68494,-92.26601,9821.93,MERCY REGIONAL MEDICAL CENTER
4.31,29.95570,-90.07587,33354.08,TULANE MEDICAL CENTER
2.20,32.10429,-92.07602,6738.73,CALDWELL MEMORIAL HOSPITAL
2.80,30.43973,-91.00727,14280.39,OCHSNER MEDICAL CENTER-BATON ROUGE
2.48,30.20918,-90.93215,10277.45,ST ELIZABETH HOSPITAL
2.71,43.65159,-70.26482,13183.08,MERCY HOSPITAL
2.95,43.65325,-70.27533,16242.76,MAINE MEDICAL CENTER
2.78,43.47840,-70.49221,14091.73,SOUTHERN MAINE MEDICAL CENTER
2.49,44.10107,-70.21432,10420.42,CENTRAL MAINE MEDICAL CENTER
2.73,44.14436,-69.08577,13464.33,PENOBSCOT BAY MEDICAL CENTER
2.19,39.62183,-77.68219,6640.71,MERITUS MEDICAL CENTER
2.63,39.28817,-76.62438,12115.92,UNIVERSITY OF MARYLAND MEDICAL CENTER
2.45,38.93090,-76.92161,9908.62,PRINCE GEORGES HOSPITAL CENTER
2.19,39.01578,-77.03591,6617.50,HOLY CROSS HOSPITAL
2.19,39.42366,-77.41386,6579.91,FREDERICK MEMORIAL HOSPITAL
2.28,39.54345,-76.09153,7701.68,HARFORD MEMORIAL HOSPITAL
2.27,39.38813,-76.61068,7574.41,SAINT JOSEPH MEDICAL CENTER
2.75,39.29688,-76.59242,13667.24,JOHNS HOPKINS HOSPITAL, THE
2.34,39.27352,-76.67219,8480.74,SAINT AGNES HOSPITAL
2.27,39.35262,-76.66196,7562.11,SINAI HOSPITAL OF BALTIMORE
2.35,39.35169,-76.47919,8578.80,FRANKLIN SQUARE HOSPITAL CENTER
2.22,39.41339,-79.40103,7032.08,GARRETT COUNTY MEMORIAL HOSPITAL
2.33,39.15402,-77.05431,8352.40,MONTGOMERY GENERAL HOSPITAL INC
2.29,38.36248,-75.59799,7846.02,PENINSULA REGIONAL MEDICAL CENTER
2.26,38.99014,-76.53398,7440.13,ANNE ARUNDEL MEDICAL CENTER
2.32,39.32930,-76.61432,8192.40,UNION MEMORIAL HOSPITAL
2.15,38.29124,-76.63579,6150.79,SAINT MARY'S HOSPITAL
2.35,39.60859,-75.83201,8574.00,UNION HOSPITAL OF CECIL COUNTY
2.42,39.55808,-76.99107,9524.97,CARROLL HOSPITAL CENTER
2.15,38.52905,-76.97068,6050.83,CIVISTA MEDICAL CENTER
2.21,38.76970,-76.07697,6850.71,MEMORIAL HOSPITAL AT EASTON
2.41,39.29994,-76.62138,9345.83,MARYLAND GENERAL  HOSPITAL
2.25,38.55963,-76.59455,7304.13,CALVERT MEMORIAL HOSPITAL
2.21,39.35852,-76.78208,6825.47,NORTHWEST HOSPITAL CENTER
2.09,39.13732,-76.62228,5280.33,BALTIMORE WASHINGTON  MEDICAL CENTER
2.33,39.21273,-76.88526,8332.46,HOWARD COUNTY GENERAL HOSPITAL
2.18,39.51870,-76.34688,6443.89,UPPER CHESAPEAKE MEDICAL CENTER
2.27,38.74827,-76.87590,7597.62,SOUTHERN MARYLAND HOSPITAL CENTER
2.28,39.35962,-76.58851,7796.08,GOOD SAMARITAN HOSPITAL
2.30,39.09796,-77.19799,8003.22,SHADY GROVE ADVENTIST HOSPITAL
2.12,38.72818,-76.99214,5720.82,FORT WASHINGTON HOSPITAL
2.32,38.33876,-75.21128,8221.57,ATLANTIC GENERAL HOSPITAL
2.75,42.37441,-71.13378,13709.00,MOUNT AUBURN HOSPITAL
2.38,42.70912,-71.14877,9018.11,LAWRENCE GENERAL HOSPITAL
2.37,42.27872,-71.06625,8870.43,CARNEY HOSPITAL
2.31,42.07708,-72.04298,8067.26,HARRINGTON MEMORIAL HOSPITAL
2.42,41.69217,-71.16474,9509.68,SAINT ANNE'S HOSPITAL
2.38,42.20038,-72.62762,9009.05,HOLYOKE MEDICAL CENTER
2.28,42.81476,-70.89068,7793.79,ANNA JAQUES HOSPITAL
2.48,42.16849,-72.34130,10314.33,WING MEMORIAL HOSPITAL AND MEDICAL CENTER
2.20,42.56407,-70.87543,6669.15,BEVERLY HOSPITAL CORPORATION
3.20,42.51078,-70.90712,19340.88,NORTH SHORE MEDICAL CENTER
2.33,42.34896,-71.14768,8376.23,ST ELIZABETH'S MEDICAL CENTER
2.41,42.03597,-71.09792,9391.55,SIGNATURE HEALTHCARE BROCKTON HOSPITAL
2.26,41.94445,-70.64511,7466.61,JORDAN HOSPITAL INC
2.68,42.64636,-71.34118,12791.08,LOWELL GENERAL HOSPITAL
2.34,42.46049,-71.06203,8491.71,HALLMARK HEALTH SYSTEM
4.19,42.36227,-71.06941,31944.30,MASSACHUSETTS GENERAL HOSPITAL
2.19,41.90456,-71.09562,6585.53,MORTON HOSPITAL
2.59,41.70928,-71.14519,11677.20,SOUTHCOAST HOSPITAL GROUP, INC
2.65,42.12077,-72.60525,12382.10,BAYSTATE MEDICAL CENTER
2.37,42.72846,-71.16830,8827.81,HOLY FAMILY HOSPITAL
2.42,42.64529,-71.30052,9470.67,SAINTS  MEDICAL CENTER INC
2.57,42.17644,-70.95398,11346.62,SOUTH SHORE HOSPITAL
3.97,42.33600,-71.10704,29060.88,BRIGHAM AND WOMEN'S HOSPITAL
2.28,42.09864,-71.06607,7701.42,GOOD SAMARITAN MEDICAL CENTER
2.62,42.34951,-71.06331,12036.10,TUFTS MEDICAL CENTER
2.28,42.18869,-71.20197,7688.75,NORWOOD HOSPITAL
2.29,41.56412,-70.62200,7891.38,FALMOUTH HOSPITAL
2.57,42.76256,-71.04507,11454.79,MERRIMACK VALLEY HOSPITAL
2.47,42.28385,-71.41896,10160.85,METROWEST MEDICAL CENTER
2.47,43.20588,-86.20839,10121.13,MERCY HEALTH PARTNERS, MERCY CAMPUS
2.78,42.45741,-83.20513,14019.35,PROVIDENCE HOSPITAL AND MEDICAL CENTERS
2.98,42.29077,-83.21504,16647.26,OAKWOOD HOSPITAL AND MEDICAL CENTER
2.70,42.61425,-83.27602,13077.96,ST JOSEPH MERCY OAKLAND
2.50,42.96881,-85.66649,10557.14,SPECTRUM HEALTH - BUTTERWORTH CAMPUS
2.87,43.58941,-83.86908,15173.27,MCLAREN BAY REGION
2.56,42.61490,-82.96060,11308.78,HENRY FORD MACOMB HOSPITAL
2.95,42.36762,-83.08461,16223.47,HENRY FORD HOSPITAL
2.59,43.22169,-86.24283,11654.50,MERCY HEALTH PARTNERS, HACKLEY CAMPUS
2.84,43.42857,-83.95556,14817.96,COVENANT MEDICAL CENTER, INC
2.55,42.77487,-86.11378,11179.00,HOLLAND COMMUNITY HOSPITAL
2.44,42.33111,-85.17817,9785.89,BRONSON BATTLE CREEK HOSPITAL
3.28,43.42612,-83.94185,20371.46,ST MARY'S OF MICHIGAN MEDICAL CENTER
3.31,42.25117,-84.39240,20812.54,ALLEGIANCE HEALTH
2.23,44.26333,-84.24625,7057.00,WEST BRANCH REGIONAL MEDICAL CENTER
3.10,43.02135,-83.70308,18141.27,HURLEY MEDICAL CENTER
2.64,42.21065,-83.14861,12285.95,HENRY FORD WYANDOTTE HOSPITAL
3.08,42.70417,-84.55488,17909.15,MCLAREN - GREATER LANSING
3.23,42.11695,-83.21365,19802.56,OAKWOOD SOUTHSHORE MEDICAL CENTER
3.07,42.89254,-83.63621,17709.55,GENESYS REGIONAL MEDICAL CENTER - HEALTH PARK
2.58,42.63849,-83.29062,11577.71,MCLAREN OAKLAND
2.66,42.98625,-82.42802,12506.13,PORT HURON HOSPITAL
2.68,42.27302,-84.95775,12809.82,OAKLAWN HOSPITAL
2.66,42.33215,-83.31195,12602.96,GARDEN CITY HOSPITAL
3.00,42.61826,-83.09239,16839.71,WILLIAM BEAUMONT HOSPITAL-TROY
3.15,42.35295,-83.05447,18687.81,DETROIT RECEIVING HOSPITAL & UNIV HEALTH CENTER
2.87,42.59290,-83.49920,15141.25,HURON VALLEY-SINAI HOSPITAL
2.92,42.53914,-83.40777,15779.86,HENRY FORD WEST BLOOMFIELD HOSPITAL
2.81,44.97210,-93.26240,14489.88,HENNEPIN COUNTY MEDICAL CENTER
2.84,45.57390,-94.16942,14811.55,ST CLOUD HOSPITAL
3.12,46.79634,-92.08793,18344.80,ST LUKES HOSPITAL
3.99,44.95248,-93.26196,29397.86,ABBOTT NORTHWESTERN HOSPITAL
2.97,44.88645,-93.32693,16425.12,FAIRVIEW SOUTHDALE HOSPITAL
2.93,44.95570,-93.09429,16004.84,REGIONS HOSPITAL
3.16,45.18355,-93.36789,18840.65,MERCY HOSPITAL
3.27,45.10789,-93.25685,20220.08,UNITY HOSPITAL
2.77,34.24336,-88.71753,13963.19,NORTH MISSISSIPPI MEDICAL CENTER
2.67,34.49648,-89.03326,12703.82,BAPTIST MEMORIAL HOSPITAL UNION COUNTY
2.44,33.97458,-88.47761,9761.69,GILMORE MEMORIAL HOSPITAL
3.11,34.34899,-89.52062,18182.06,BAPTIST MEMORIAL HOSPITAL NORTH MS
2.43,33.61860,-88.66204,9655.10,CLAY COUNTY MEDICAL CENTER
4.12,32.28805,-90.25566,30997.10,CENTRAL MISSISSIPPI MEDICAL CENTER
2.33,31.24000,-90.45000,8406.68,SOUTHWEST MS REGIONAL MEDICAL CENTER
2.81,33.51824,-90.19832,14482.72,GREENWOOD LEFLORE HOSPITAL
2.61,33.52568,-88.42742,11901.93,BAPTIST MEM HOSP/GOLDEN TRIANGLE INC
3.10,32.31643,-90.17922,18115.62,MISSISSIPPI BAPTIST MEDICAL CENTER
2.44,32.37280,-88.69954,9709.12,ANDERSON REGIONAL MEDICAL CENTER
3.58,31.56044,-91.40317,24144.27,NATCHEZ COMMUNITY HOSPITAL/SWING BED
3.53,37.06032,-94.52747,23495.13,ST JOHN'S REGIONAL MEDICAL CENTER
2.93,37.95144,-91.75940,15909.67,PHELPS COUNTY REGIONAL MEDICAL CENTER
2.47,38.16498,-90.38082,10111.73,JEFFERSON REGIONAL MEDICAL CENTER
4.05,39.00717,-94.55925,30134.83,RESEARCH MEDICAL CENTER
2.89,38.63524,-90.26508,15435.18,BARNES JEWISH HOSPITAL
2.68,39.08401,-94.57591,12755.67,TRUMAN MEDICAL CENTER HOSPITAL HILL
2.49,39.17288,-91.87692,10383.27,AUDRAIN MEDICAL CENTER
3.52,37.17999,-93.27409,23478.47,ST JOHN'S REGIONAL HEALTH CENTER
2.92,38.94903,-92.31563,15887.72,BOONE HOSPITAL CENTER
3.11,39.42385,-92.41354,18196.91,MOBERLY REGIONAL MEDICAL CENTER
2.57,38.50661,-90.38025,11354.08,ST ANTHONY'S MEDICAL CENTER
2.77,38.63268,-90.31089,13893.38,SSM ST MARYS HEALTH CENTER
2.89,36.64970,-93.22138,15413.10,SKAGGS REGIONAL MEDICAL CENTER
4.03,39.04749,-94.34105,29866.06,CENTERPOINT MEDICAL CENTER OF INDEPENDENCE, LLC
3.02,38.75097,-90.43255,17129.40,SSM DEPAUL HEALTH CENTER
3.45,38.62280,-90.24049,22594.00,ST LOUIS UNIVERSITY HOSPITAL
3.20,37.31072,-89.53990,19389.14,SOUTHEAST MISSOURI HOSPITAL
2.48,37.79962,-90.44045,10261.25,MINERAL AREA REGIONAL MEDICAL CENTER
3.55,36.78510,-90.42779,23749.95,POPLAR BLUFF REGIONAL MEDICAL CENTER
3.06,37.05238,-94.52777,17587.33,FREEMAN HEALTH SYSTEM - FREEMAN WEST
4.46,39.04761,-94.59037,35335.26,ST LUKES HOSPITAL OF KANSAS CITY
3.05,38.95171,-92.33407,17446.48,UNIVERSITY OF MISSOURI HEALTH CARE
2.44,37.78031,-90.43967,9749.64,PARKLAND HEALTH CENTER
2.76,39.27591,-94.42572,13861.43,LIBERTY HOSPITAL
2.73,38.77576,-90.23906,13428.80,CHRISTIAN HOSPITAL NORTHEAST
2.92,38.12027,-92.68146,15773.27,LAKE REGIONAL HEALTH SYSTEM
2.75,38.79427,-90.58049,13731.75,BARNES-JEWISH ST PETERS HOSPITAL
2.46,37.60022,-93.42237,10059.80,CITIZENS MEMORIAL HOSPITAL
3.84,38.94062,-94.37842,27419.33,SAINT LUKE'S EAST LEE'S SUMMIT HOSPITAL
3.04,41.25522,-95.97892,17368.04,THE NEBRASKA MEDICAL CENTER
2.70,40.80816,-96.62689,13090.17,SAINT ELIZABETH REGIONAL MEDICAL CENTER
2.80,40.92425,-98.37053,14275.69,ST FRANCIS MEDICAL CENTER
3.74,41.25797,-96.04164,26187.25,THE NEBRASKA METHODIST HOSPITAL
3.48,41.23771,-96.18052,22924.08,ALEGENT HEALTH LAKESIDE HOSPITAL
5.31,36.13459,-115.13576,46062.49,SUNRISE HOSPITAL AND MEDICAL CENTER
6.91,36.19568,-115.12284,66311.62,NORTH VISTA HOSPITAL
4.55,36.03931,-114.98259,36449.42,SAINT ROSE DOMINICAN HOSPITAL - DE LIMA
3.33,39.20247,-119.78446,20986.86,CARSON TAHOE REGIONAL MEDICAL CENTER
4.49,36.16380,-115.16574,35688.95,VALLEY HOSPITAL MEDICAL CENTER
5.33,36.21599,-115.25095,46369.29,MOUNTAINVIEW HOSPITAL
4.62,36.16586,-115.32436,37322.59,SUMMERLIN HOSPITAL MEDICAL CENTER
4.06,36.28588,-115.28772,30276.62,CENTENNIAL HILLS HOSPITAL MEDICAL CENTER
2.72,43.19846,-71.56230,13274.68,CONCORD HOSPITAL
2.87,43.67286,-72.27232,15150.36,MARY HITCHCOCK MEMORIAL HOSPITAL
2.51,42.75004,-71.48100,10616.25,ST JOSEPH HOSPITAL
2.70,43.00792,-71.46807,13016.38,ELLIOT HOSPITAL
3.12,43.21231,-70.87499,18343.00,WENTWORTH-DOUGLASS HOSPITAL
2.41,42.75623,-71.46059,9423.23,SOUTHERN NH MEDICAL CENTER
5.26,40.88346,-74.05564,45439.81,HACKENSACK UNIVERSITY MEDICAL CENTER
6.51,40.71011,-74.21368,61179.28,NEWARK BETH ISRAEL MEDICAL CENTER
5.12,40.79576,-73.99575,43669.76,PALISADES MEDICAL CTR-NY PRESBYTERIAN HEALTHCARE S
3.07,40.53142,-74.86080,17753.92,HUNTERDON MEDICAL CENTER
4.39,40.88275,-74.01021,34387.44,HOLY NAME MEDICAL CENTER
3.29,40.35684,-74.66166,20491.36,UNIVERSITY MEDICAL CENTER AT PRINCETON
3.14,39.08752,-74.81657,18564.45,CAPE REGIONAL MEDICAL CENTER INC
4.17,40.98359,-74.10047,31615.88,VALLEY HOSPITAL
4.15,39.94152,-75.11680,31429.75,COOPER UNIVERSITY HOSPITAL
4.61,40.78883,-74.46620,37240.50,MORRISTOWN MEMORIAL HOSPITAL
12.00,40.73417,-74.04977,130689.71,CHRIST HOSPITAL
6.02,40.21634,-74.74143,55027.39,ST FRANCIS MEDICAL CENTER
4.90,39.78261,-74.91670,40840.64,VIRTUA WEST JERSEY HOSPITALS BERLIN
6.52,40.61288,-74.29092,61328.84,ROBERT WOOD JOHNSON UNIVERSITY HOSPITAL AT RAHWAY
9.47,40.66805,-74.11334,98719.21,BAYONNE HOSPITAL CENTER
4.96,39.44743,-75.05838,41695.68,SOUTH JERSEY HEALTHCARE REGIONAL MEDICAL CENTER
5.16,40.35309,-74.06484,44132.48,RIVERVIEW MEDICAL CENTER
5.33,40.51891,-74.28183,46254.55,RARITAN BAY MEDICAL CENTER
5.24,40.29209,-74.80327,45187.11,CAPITAL HEALTH MEDICAL CENTER - HOPEWELL
5.30,40.90400,-73.96847,45909.18,ENGLEWOOD HOSPITAL AND MEDICAL CENTER
4.64,40.89538,-74.46479,37554.65,SAINT CLARE'S HOSPITAL
4.07,40.71264,-74.35460,30316.16,OVERLOOK HOSPITAL
4.93,40.07832,-74.13009,41279.11,OCEAN MEDICAL CENTER
4.26,40.81058,-74.20459,32829.23,MOUNTAINSIDE HOSPITAL
5.87,40.04632,-74.88059,53169.06,LOURDES MEDICAL CENTER OF BURLINGTON COUNTY
5.91,39.35775,-74.43449,53667.06,ATLANTICARE REGIONAL MEDICAL CENTER - CITY DIV
5.56,40.76190,-74.30335,49226.74,SAINT BARNABAS MEDICAL CENTER
4.59,40.75402,-74.21335,37014.85,EAST ORANGE GENERAL HOSPITAL
5.01,40.07503,-74.21832,42241.39,KIMBALL MEDICAL CENTER
5.26,40.23629,-74.75256,45408.50,CAPITAL HEALTH SYSTEM-FULD CAMPUS
5.43,40.55784,-74.34970,47630.64,JFK MEDICAL CTR - ANTHONY M. YELENCSICS COMMUNITY
5.54,40.21575,-74.67273,49023.83,ROBERT WOOD JOHNSON UNIVERSITY HOSPITAL HAMILTON
2.92,35.65960,-105.94578,15775.76,ST VINCENT HOSPITAL
2.48,36.72387,-108.21749,10240.60,SAN JUAN REGIONAL MEDICAL CENTER
4.11,33.42340,-104.52748,30828.75,EASTERN NEW MEXICO MEDICAL CENTER
3.22,32.26331,-107.74805,19592.55,MIMBRES MEMORIAL HOSPITAL
3.04,34.41937,-103.23173,17390.42,PLAINS REGIONAL MEDICAL CENTER  CLOVIS
3.85,32.76065,-103.18088,27650.81,LEA REGIONAL MEDICAL CENTER
2.84,32.32310,-106.72900,14816.43,MOUNTAIN VIEW REGIONAL MEDICAL CENTER
3.25,41.92720,-73.99535,20006.57,KINGSTON HOSPITAL
2.87,42.87482,-78.84942,15166.76,KALEIDA HEALTH
2.34,40.92963,-73.89840,8497.46,ST JOSEPH'S MEDICAL CENTER
2.40,42.09299,-75.93704,9303.90,OUR LADY OF LOURDES MEMORIAL HOSPITAL, INC
3.47,42.65345,-73.77543,22836.55,ALBANY MEDICAL CENTER HOSPITAL
2.55,40.70141,-73.81630,11194.14,JAMAICA HOSPITAL MEDICAL CENTER
4.61,41.69441,-73.93432,37166.15,VASSAR BROTHERS MEDICAL CENTER
3.67,40.79041,-73.95386,25377.54,MOUNT SINAI HOSPITAL
2.83,40.72548,-73.55287,14679.47,NASSAU UNIVERSITY MEDICAL CENTER
3.72,40.63588,-74.10556,25977.38,RICHMOND UNIVERSITY MEDICAL CENTER
2.69,43.09840,-75.27819,12914.33,FAXTON-ST LUKE'S HEALTHCARE
4.01,40.80556,-73.96131,29672.98,ST LUKE'S ROOSEVELT HOSPITAL
2.54,42.95425,-74.21527,11035.11,ST MARY'S HOSPITAL AT AMSTERDAM
3.63,40.74722,-73.82521,24761.49,NEW YORK HOSPITAL MEDICAL CENTER OF QUEENS
3.03,40.68983,-73.97794,17227.35,BROOKLYN HOSPITAL CENTER AT DOWNTOWN CAMPUS
3.11,42.65583,-73.80372,18198.11,ST PETER'S HOSPITAL
3.61,41.71846,-73.92710,24617.95,ST FRANCIS HOSPITAL
2.50,43.00584,-78.17670,10483.93,UNITED MEMORIAL MEDICAL CENTER
2.28,42.87616,-77.28907,7740.54,F F THOMPSON HOSPITAL
2.36,40.81770,-73.92401,8742.16,LINCOLN MEDICAL & MENTAL HEALTH CENTER
2.23,44.85685,-74.29199,7085.31,ALICE HYDE MEDICAL CENTER
2.88,40.91304,-73.84024,15292.86,MOUNT VERNON HOSPITAL
2.63,42.10076,-76.82800,12209.79,ARNOT OGDEN MEDICAL CENTER
2.36,42.24595,-73.77855,8755.00,COLUMBIA MEMORIAL HOSPITAL
2.07,42.12242,-77.95056,5139.00,JONES MEMORIAL HOSPITAL
2.44,42.09049,-78.42780,9698.47,OLEAN GENERAL HOSPITAL
3.90,41.09642,-73.92501,28281.62,NYACK HOSPITAL
4.28,40.77686,-73.70212,32970.85,NORTH SHORE UNIVERSITY HOSPITAL
3.92,40.93376,-72.67383,28444.60,PECONIC BAY MEDICAL CENTER
2.71,43.19244,-77.58590,13115.05,ROCHESTER GENERAL HOSPITAL
3.97,41.44138,-74.36821,29108.81,ORANGE REGIONAL MEDICAL CENTER
5.00,41.36763,-74.68150,42135.46,BON SECOURS COMMUNITY HOSPITAL
2.81,43.05571,-76.14981,14456.57,ST JOSEPH'S HOSPITAL HEALTH CENTER
4.57,40.78000,-72.97763,36757.87,BROOKHAVEN MEMORIAL HOSPITAL MEDICAL CENTER
2.59,42.81963,-73.91653,11616.79,ELLIS HOSPITAL
2.73,41.19677,-73.72572,13409.55,NORTHERN WESTCHESTER HOSPITAL
2.48,43.17738,-78.67123,10299.95,EASTERN NIAGARA HOSPITAL
2.28,43.13562,-77.60602,7772.94,HIGHLAND HOSPITAL
4.58,40.73265,-73.98162,36796.56,BETH ISRAEL MEDICAL CENTER
2.77,42.60884,-76.18764,13948.77,CORTLAND REGIONAL MEDICAL CENTER, INC
2.42,42.73354,-73.67249,9492.64,SAMARITAN HOSPITAL
4.38,40.80462,-73.67023,34340.65,ST FRANCIS HOSPITAL, ROSLYN
3.10,40.91276,-73.78720,18120.35,SOUND SHORE MEDICAL CENTER OF WESTSCHESTER
2.72,43.30652,-73.64663,13292.10,GLENS FALLS HOSPITAL
3.04,40.75543,-73.81532,17377.73,FLUSHING HOSPITAL MEDICAL CENTER
4.21,40.75332,-73.70899,32207.12,LONG ISLAND JEWISH MEDICAL CENTER
2.53,44.67677,-74.98237,10859.54,CANTON-POTSDAM HOSPITAL
3.72,40.65189,-73.63096,25912.26,SOUTH NASSAU COMMUNITIES HOSPITAL
3.79,40.65957,-73.93378,26794.44,KINGSBROOK JEWISH MEDICAL CENTER
3.42,40.96967,-73.88447,22165.91,ST JOHN'S RIVERSIDE HOSPITAL
5.79,40.74335,-73.97408,52078.00,NYU HOSPITALS CENTER
3.23,43.22952,-75.44361,19748.80,ROME MEMORIAL HOSPITAL, INC
2.81,43.45491,-76.51645,14481.00,OSWEGO HOSPITAL
2.61,42.92531,-78.83111,11868.88,ERIE COUNTY MEDICAL CENTER
3.55,40.70419,-73.91754,23800.29,WYCKOFF HEIGHTS MEDICAL CENTER
3.54,43.08561,-73.79712,23622.47,SARATOGA HOSPITAL
2.55,43.19054,-77.70177,11202.48,UNITY HOSPITAL OF ROCHESTER
2.90,40.71730,-73.80353,15565.08,QUEENS HOSPITAL CENTER
3.09,40.65533,-73.91221,17951.51,BROOKDALE HOSPITAL MEDICAL CENTER
4.82,41.08773,-73.80395,39814.25,WESTCHESTER MEDICAL CENTER
3.15,40.66762,-73.97850,18799.02,NEW YORK METHODIST HOSPITAL
2.32,42.08997,-79.23058,8300.18,WOMAN'S CHRISTIAN ASSOCIATION
2.94,40.81477,-73.94027,16021.87,HARLEM HOSPITAL CENTER
3.18,43.04269,-76.14043,19171.46,UNIVERSITY HOSPITAL S U N Y HEALTH SCIENCE CENTER
4.55,41.10880,-73.86355,36476.25,PHELPS MEMORIAL HOSPITAL ASSN
3.75,41.50307,-74.01517,26270.37,ST LUKE'S CORNWALL HOSPITAL
3.07,43.06952,-74.33001,17698.08,NATHAN LITTAUER HOSPITAL
4.67,40.69327,-73.29412,38015.71,GOOD SAMARITAN HOSPITAL MEDICAL CENTER
2.58,40.64666,-74.02049,11468.74,LUTHERAN MEDICAL CENTER
3.66,40.83778,-73.85417,25193.00,NEW YORK WESTCHESTER SQUARE MEDICAL CENTER
3.44,40.72593,-73.47844,22381.76,ST JOSEPH HOSPITAL
3.03,40.65508,-73.94521,17165.57,UNIVERSITY HOSPITAL OF BROOKLYN ( DOWNSTATE )
2.87,42.11422,-75.95851,15223.67,UNITED HEALTH SERVICES HOSPITALS, INC
3.32,40.59803,-73.75296,20896.23,ST JOHN'S EPISCOPAL HOSPITAL AT SOUTH SHORE
4.48,40.85738,-73.18681,35549.30,ST CATHERINE OF SIENA HOSPITAL
2.60,35.57658,-82.54922,11744.39,MEMORIAL MISSION HOSPITAL AND ASHEVILLE SURGERY CE
2.77,35.95000,-80.00000,13951.48,HIGH POINT REGIONAL HOSPITAL
2.75,34.75124,-79.46789,13740.52,SCOTLAND MEMORIAL HOSPITAL
2.65,36.07581,-80.29779,12418.19,FORSYTH MEMORIAL HOSPITAL
2.95,35.68172,-80.47072,16208.75,ROWAN REGIONAL MEDICAL CENTER
2.55,35.32080,-82.46812,11189.48,MARGARET R PARDEE MEMORIAL HOSPITAL
2.88,35.30288,-81.53571,15292.86,CLEVELAND REGIONAL MEDICAL CENTER
2.52,35.29053,-77.58307,10788.41,LENOIR MEMORIAL HOSPITAL
3.30,36.00850,-78.94006,20607.97,DUKE UNIVERSITY HOSPITAL
3.09,36.09904,-78.30111,17977.76,FRANKLIN REGIONAL MEDICAL CENTER
2.73,35.24106,-81.35660,13451.92,KINGS MOUNTAIN HOSPITAL INC
2.19,35.54918,-77.03985,6610.27,BEAUFORT COUNTY MEDICAL CENTER
2.91,35.79986,-80.87863,15701.26,IREDELL MEMORIAL HOSPITAL INC
3.06,35.60726,-77.40477,17607.12,PITT COUNTY MEMORIAL HOSPITAL
2.75,35.91058,-81.53512,13633.15,CALDWELL MEMORIAL HOSPITAL
2.91,34.76273,-77.38582,15699.12,ONSLOW MEMORIAL HOSPITAL
2.61,36.09062,-80.27161,11871.21,NORTH CAROLINA BAPTIST HOSPITAL
2.92,35.22196,-80.83287,15861.08,PRESBYTERIAN HOSPITAL
2.59,35.90529,-79.04963,11639.57,UNIVERSITY OF NORTH CAROLINA HOSPITAL
2.62,34.33747,-78.69425,11980.08,COLUMBUS REGIONAL HEALTHCARE SYSTEM
3.29,35.78523,-78.58836,20493.03,WAKEMED, RALEIGH CAMPUS
2.48,36.06347,-79.50208,10313.59,ALAMANCE REGIONAL MEDICAL CENTER
2.59,36.09251,-79.78855,11597.84,MOSES H CONE MEMORIAL HOSPITAL, THE
2.68,35.21029,-80.82084,12781.67,CAROLINAS MED CENTER-MERCY
2.82,36.28555,-76.99489,14567.33,ROANOKE CHOWAN HOSPITAL
3.11,34.90228,-79.71125,18281.00,SANDHILLS REGIONAL MEDICAL CENTER
2.92,36.32690,-76.22370,15804.07,ALBEMARLE HOSPITAL AUTHORITY
2.80,35.71177,-79.81489,14310.25,RANDOLPH HOSPITAL
3.40,35.71850,-77.94518,21940.78,WILSON MEDICAL CENTER
2.41,34.97382,-80.52250,9337.08,CAROLINAS MEDICAL CENTER-UNION
2.49,36.32959,-78.39916,10408.68,MARIA PARHAM MEDICAL CENTER
2.58,34.72615,-76.75452,11585.44,CARTERET GENERAL HOSPITAL
2.67,36.43295,-77.64729,12711.45,HALIFAX REGIONAL MEDICAL CENTER INC
2.92,36.04960,-78.90617,15857.70,DURHAM REGIONAL HOSPITAL
2.80,35.11432,-80.71971,14289.00,PRESBYTERIAN HOSPITAL MATTHEWS
2.27,35.52586,-82.94351,7606.33,MEDWEST HAYWOOD
2.69,48.23258,-101.28843,12974.75,TRINITY HOSPITALS
2.51,46.88496,-96.78609,10676.89,SANFORD MEDICAL CENTER FARGO
2.25,46.80798,-100.78229,7380.95,MEDCENTER ONE
2.54,47.91045,-97.06742,10963.80,ALTRU HOSPITAL
2.82,39.08582,-84.34886,14544.28,MERCY HOSPITAL ANDERSON
2.74,39.13707,-84.50392,13603.63,UNIVERSITY HOSPITAL, INC
3.18,40.03064,-83.03440,19152.83,RIVERSIDE METHODIST HOSPITAL
2.89,38.75320,-82.97800,15503.00,SOUTHERN OHIO MEDICAL CENTER
2.62,40.73578,-84.08630,11999.06,LIMA MEMORIAL HEALTH SYSTEM
2.21,40.51393,-81.45644,6830.17,UNION HOSPITAL
3.02,39.20680,-84.38093,17136.32,JEWISH HOSPITAL, LLC
2.96,39.96098,-82.99077,16327.03,GRANT MEDICAL CENTER
3.43,41.01476,-81.58913,22218.94,SUMMA HEALTH SYSTEM BARBERTON HOSPITAL
2.70,41.44642,-82.70864,13014.76,FIRELANDS REGIONAL MEDICAL CENTER
2.98,41.07747,-81.53042,16585.32,AKRON GENERAL MEDICAL CENTER
2.09,40.82041,-81.93422,5382.87,WOOSTER COMMUNITY HOSPITAL
2.45,41.38265,-81.73127,9883.32,PARMA COMMUNITY GENERAL HOSPITAL
3.06,41.61788,-83.61632,17620.04,UNIVERSITY OF TOLEDO MEDICAL CENTER
4.00,39.74547,-84.18523,29549.05,MIAMI VALLEY HOSPITAL
4.16,39.78778,-84.23493,31541.60,GOOD SAMARITAN HOSPITAL
2.53,38.84439,-82.23902,10928.23,HOLZER MEDICAL CENTER
2.55,39.31257,-84.51774,11192.25,MERCY HOSPITAL FAIRFIELD
2.45,41.22570,-82.60491,9935.46,FISHER-TITUS HOSPITAL
2.43,40.81219,-81.39625,9649.84,MERCY MEDICAL CENTER
2.47,39.71750,-82.57772,10085.57,FAIRFIELD MEDICAL CENTER
2.75,41.58130,-81.48979,13650.58,UHHS RICHMOND HEIGHTS HOSPITAL
2.72,41.17554,-81.24915,13294.21,ROBINSON MEMORIAL HOSPITAL
2.78,40.09873,-80.72072,14090.91,EAST OHIO REGIONAL HOSPITAL
2.82,41.59825,-81.54884,14533.58,EUCLID HOSPITAL
3.39,39.99445,-83.01872,21780.77,OHIO STATE UNIVERSITY HOSPITALS
2.77,41.55725,-83.68141,13944.74,ST LUKE'S HOSPITAL
2.37,40.62149,-80.58651,8846.33,EAST LIVERPOOL CITY HOSPITAL
3.21,41.66317,-81.24696,19533.18,LAKE HEALTH
3.46,41.52522,-81.58267,22675.78,HURON HOSPITAL
3.10,41.66810,-83.54275,18062.95,MERCY ST VINCENT MEDICAL CENTER
2.83,41.39496,-81.53484,14667.86,UHHS BEDFORD MEDICAL CENTER
2.71,40.75264,-82.52803,13144.50,MEDCENTRAL HEALTH SYSTEM
2.63,41.43653,-81.94451,12166.05,ST JOHN MEDICAL CENTER
2.70,41.88034,-80.79553,12991.00,ASHTABULA COUNTY MEDICAL CENTER
3.15,41.42112,-81.59808,18788.65,MARYMOUNT HOSPITAL
2.48,41.36649,-82.09708,10205.20,EMH REGIONAL MEDICAL CENTER
2.78,39.43061,-81.46454,14096.50,MARIETTA MEMORIAL HOSPITAL
3.52,41.37028,-81.83189,23400.62,SOUTHWEST GENERAL HEALTH CENTER
2.84,41.43688,-82.23761,14800.50,MERCY REGIONAL MEDICAL CENTER
3.66,41.50248,-81.62110,25219.69,CLEVELAND CLINIC
2.25,40.04115,-81.57789,7331.83,SOUTHEASTERN OHIO REGIONAL MEDICAL CENTER
3.16,41.48479,-81.79649,18852.25,LAKEWOOD HOSPITAL
3.08,41.52013,-81.43291,17898.47,HILLCREST HOSPITAL
3.85,41.69195,-83.62455,27601.69,MERCY ST ANNE HOSPITAL
2.91,40.99498,-80.66192,15728.46,ST ELIZABETH BOARDMAN HEALTH CENTER
3.50,39.35830,-84.36785,23181.33,WEST CHESTER MEDICAL CENTER
2.54,36.87520,-94.87633,11005.86,INTEGRIS BAPTIST REG HEALTH CENTER
3.87,34.00655,-96.39398,27855.54,MEDICAL CENTER OF SOUTHEASTERN OKLAHOMA
2.76,36.75199,-95.94089,13786.67,JANE PHILLIPS MEDICAL CENTER
2.62,34.63509,-99.31700,12019.21,JACKSON COUNTY MEMORIAL HOSPITAL
2.96,35.75351,-95.40612,16392.90,MUSKOGEE REGIONAL MEDICAL CENTER
3.16,35.52531,-97.58461,18892.83,DEACONESS HOSPITAL
2.67,35.47800,-97.52352,12701.88,ST ANTHONY HOSPITAL
2.43,35.04453,-94.61214,9589.91,EASTERN OKLAHOMA MEDICAL CENTER
3.27,34.18908,-97.14128,20302.68,MERCY MEMORIAL HEALTH CENTER
2.21,33.88091,-94.81273,6849.21,MCCURTAIN MEMORIAL HOSPITAL
2.33,36.65318,-95.15577,8384.91,CRAIG GENERAL HOSPITAL
3.09,36.14675,-95.99969,17937.35,OKLAHOMA STATE UNIVERSITY MEDICAL CENTER
4.28,35.46721,-97.39370,33043.31,MIDWEST REGIONAL MEDICAL CENTER
2.72,36.13393,-95.96718,13288.52,ST JOHN MEDICAL CENTER, INC
3.09,36.03590,-95.86511,17985.17,SOUTHCREST HOSPITAL
3.05,44.60322,-123.25312,17491.82,GOOD SAMARITAN REGIONAL MEDICAL CENTER
3.23,45.53028,-122.69692,19774.53,LEGACY GOOD SAMARITAN MEDICAL CENTER
3.20,42.31769,-122.83333,19432.33,ROGUE VALLEY MEDICAL CENTER
2.66,44.93267,-123.03418,12586.32,SALEM HOSPITAL
2.50,45.52677,-122.61469,10500.09,PROVIDENCE PORTLAND MEDICAL CENTER
2.76,42.34086,-122.86108,13744.46,PROVIDENCE MEDFORD MEDICAL CENTER
3.23,41.40075,-75.64594,19755.73,COMMUNITY MEDICAL CENTER
4.02,40.96789,-76.60506,29744.54,GEISINGER MEDICAL CENTER
3.60,42.11102,-80.07912,24434.67,SAINT VINCENT HEALTH CENTER
2.27,40.97877,-76.88593,7611.33,EVANGELICAL COMMUNITY HOSPITAL
2.38,41.01409,-80.35398,8976.07,JAMESON MEMORIAL HOSPITAL
5.17,40.07880,-75.21107,44330.72,CHESTNUT HILL HOSPITAL
3.00,40.43609,-79.98537,16887.00,UPMC MERCY
2.55,40.69101,-76.18682,11186.50,SCHUYLKILL MEDICAL CENTER - EAST NORWEGIAN STREET
3.98,40.43850,-75.34895,29269.54,ST LUKE'S QUAKERTOWN HOSPITAL
2.36,40.71251,-80.32136,8802.56,HERITAGE VALLEY BEAVER
2.27,39.90180,-79.73854,7555.00,UNIONTOWN HOSPITAL
2.73,40.18302,-80.24767,13363.07,WASHINGTON HOSPITAL, THE
2.66,41.24548,-77.01438,12566.81,WILLIAMSPORT REGIONAL MEDICAL CENTER
2.66,40.61795,-77.56734,12546.18,LEWISTOWN HOSPITAL
3.43,40.45705,-80.00363,22219.35,ALLEGHENY GENERAL HOSPITAL
3.99,42.13338,-80.08703,29353.20,UPMC HAMOT
2.58,40.52204,-78.39824,11505.21,ALTOONA REGIONAL HEALTH SYSTEM
2.30,41.11492,-78.77515,7995.59,DUBOIS REGIONAL MEDICAL CENTER
2.42,41.36116,-79.70065,9527.47,UPMC NORTHWEST
2.18,41.19016,-79.39934,6442.81,CLARION HOSPITAL
3.27,40.04740,-76.30540,20251.05,LANCASTER GENERAL HOSPITAL
3.01,40.48928,-79.89596,16928.53,UPMC ST MARGARET
4.45,39.95045,-75.19259,35150.57,HOSPITAL OF UNIV OF PENNSYLVANIA
4.26,40.07160,-74.98341,32833.72,ARIA HEALTH
4.34,40.13916,-75.31510,33774.08,MERCY SUBURBAN HOSPITAL
3.35,41.41107,-75.65091,21207.95,MOSES TAYLOR HOSPITAL
4.02,40.24397,-75.61364,29790.76,POTTSTOWN MEMORIAL MEDICAL CENTER
2.47,41.57647,-75.26049,10149.67,WAYNE MEMORIAL HOSPITAL
3.82,40.60000,-75.47000,27241.37,LEHIGH VALLEY HOSPITAL
2.90,40.30103,-79.55505,15622.52,EXCELA HEALTH WESTMORELAND REGIONAL HOSPITAL
2.83,39.93492,-77.64744,14681.44,CHAMBERSBURG HOSPITAL
4.79,39.92871,-75.26873,39512.14,MERCY FITZGERALD HOSPITAL
4.45,40.68708,-75.24272,35175.41,EASTON HOSPITAL
2.61,40.60755,-79.15657,11935.71,INDIANA REGIONAL MEDICAL CENTER
4.32,39.94969,-75.15712,33508.84,THOMAS JEFFERSON UNIVERSITY HOSPITAL
2.64,41.41133,-80.37169,12244.06,UPMC HORIZON
3.09,39.97024,-75.60259,17922.71,CHESTER COUNTY HOSPITAL
7.53,39.85598,-75.36791,74104.07,CROZER CHESTER MEDICAL CENTER
2.58,40.83130,-75.72794,11498.09,GNADEN HUETTEN MEMORIAL HOSPITAL
3.27,40.99225,-75.17466,20260.95,POCONO MEDICAL CENTER
2.74,40.37782,-80.06589,13522.79,ST CLAIR MEMORIAL HOSPITAL
4.38,40.12077,-75.11818,34251.98,ABINGTON MEMORIAL HOSPITAL
3.36,40.20064,-74.92952,21417.00,ST MARY MEDICAL CENTER
2.36,40.31802,-79.93494,8682.00,JEFFERSON REGIONAL MEDICAL CENTER
2.72,40.42897,-79.74808,13328.36,WESTERN PENNSYLVANIA HOSP FORBES REGIONAL CAMPUS
3.27,40.81936,-77.84273,20225.55,MOUNT NITTANY MEDICAL CENTER
3.58,41.25855,-75.81041,24141.18,GEISINGER WYOMING VALLEY MEDICAL CENTER
9.32,39.95658,-75.16249,96771.45,HAHNEMANN UNIVERSITY HOSPITAL
3.44,41.86943,-71.37561,22393.18,MEMORIAL HOSPITAL OF RHODE ISLAND
2.98,41.85574,-71.45945,16536.73,ST JOSEPH HEALTH SERVICES OF RI
3.09,41.81254,-71.40760,17951.31,RHODE ISLAND HOSPITAL
3.40,42.00497,-71.49561,21939.94,LANDMARK MEDICAL CENTER,  INC
3.39,41.85172,-71.39826,21814.93,MIRIAM HOSPITAL
3.52,34.96733,-81.94021,23476.47,SPARTANBURG REGIONAL MEDICAL CENTER
2.88,34.69403,-82.98884,15319.39,OCONEE MEDICAL CENTER
3.78,34.02839,-81.03539,26718.16,PALMETTO HEALTH RICHLAND
4.49,34.71787,-80.78844,35683.22,SPRINGS MEMORIAL HOSPITAL
3.93,35.08901,-81.63335,28542.31,UPSTATE CAROLINA MEDICAL CENTER
2.81,34.24654,-80.60702,14457.80,KERSHAW HEALTH
2.80,33.78555,-79.00178,14277.62,CONWAY MEDICAL CENTER
3.67,34.19543,-79.76256,25346.61,MCLEOD REGIONAL MEDICAL CENTER-PEE DEE
2.97,34.18661,-79.32541,16470.53,MARION REGIONAL HOSPITAL
2.94,34.05671,-78.89903,16063.75,LORIS COMMUNITY HOSPITAL
2.80,33.62185,-80.74922,14368.97,TRMC OF ORANGEBURG & CALHOUN
3.05,34.17571,-82.15791,17442.09,SELF REGIONAL HEALTHCARE
3.42,34.81904,-82.41308,22211.50,GREENVILLE MEMORIAL HOSPITAL
3.79,32.97605,-80.07302,26855.23,TRIDENT MEDICAL CENTER
2.93,33.70704,-78.89487,15912.75,GRAND STRAND REG MED CENTER
4.20,34.00754,-81.03270,32043.77,PALMETTO HEALTH BAPTIST
3.43,32.78211,-79.95018,22222.75,ROPER HOSPITAL
2.75,33.59553,-79.02412,13694.46,WACCAMAW COMMUNITY HOSPITAL
2.79,43.53460,-96.71136,14180.43,AVERA MCKENNAN HOSPITAL & UNIVERSITY HEALTH CENTER
3.45,43.53562,-96.74305,22494.00,SANFORD USD MEDICAL CENTER
2.73,35.63906,-88.83207,13379.89,JACKSON-MADISON COUNTY GENERAL HOSPITAL
3.90,36.24440,-86.75204,28268.25,SKYLINE MEDICAL CENTER
2.40,35.93917,-85.01865,9277.38,CUMBERLAND MEDICAL CENTER
2.63,36.58587,-82.25703,12101.68,WELLMONT BRISTOL REGIONAL MEDICAL CENTER
2.82,36.55401,-82.55483,14548.37,WELLMONT HOLSTON VALLEY MEDICAL CENTER
3.05,36.58199,-87.27050,17517.28,GATEWAY MEDICAL CENTER
3.35,34.50579,-92.96678,21224.43,HORIZON MEDICAL CENTER
3.55,35.12837,-89.86202,23762.68,BAPTIST MEMORIAL HOSPITAL
2.69,35.86074,-86.42434,12914.69,MIDDLE TENNESSEE MEDICAL CENTER INC
3.10,35.17733,-86.09081,18078.12,SOUTHERN TENNESSEE MEDICAL CENTER
2.64,36.17121,-85.50938,12276.83,COOKEVILLE REGIONAL MEDICAL CENTER
3.36,36.30767,-82.38497,21453.05,JOHNSON CITY MEDICAL CENTER
2.65,36.47927,-86.88632,12394.08,NORTHCREST MEDICAL CENTER
3.16,35.44041,-84.60773,18871.73,ATHENS REGIONAL MEDICAL CENTER
2.94,36.12859,-86.84559,16019.62,ST THOMAS HOSPITAL
2.96,35.05068,-85.28823,16371.42,ERLANGER MEDICAL CENTER
2.64,35.99233,-83.92697,12291.97,TENNOVA HEALTHCARE
2.65,35.95747,-83.93660,12351.00,FORT SANDERS REGIONAL MEDICAL CENTER
3.03,36.29611,-88.31178,17237.82,HENRY COUNTY MEDICAL CENTER
2.75,36.15388,-86.80249,13711.93,BAPTIST HOSPITAL
2.63,35.96514,-83.18170,12158.67,TENNOVA HEALTHCARE-NEWPORT MEDICAL CENTER
3.22,35.03467,-85.26735,19670.21,PARKRIDGE MEDICAL CENTER
2.42,35.91765,-84.10080,9511.44,PARKWEST MEDICAL CENTER
2.75,36.55057,-82.51465,13720.04,INDIAN PATH MEDICAL CENTER
4.28,35.09925,-89.86301,33018.58,ST FRANCIS HOSPITAL
3.31,35.17731,-84.86873,20720.30,SKYRIDGE MEDICAL CENTER
2.77,36.38340,-85.32302,13901.06,LIVINGSTON REGIONAL HOSPITAL
2.98,35.68445,-88.85461,16568.38,REGIONAL HOSPITAL OF JACKSON
3.19,36.22069,-86.32731,19226.23,UNIVERSITY MEDICAL CENTER
4.80,31.77031,-106.50085,39595.04,PROVIDENCE MEMORIAL HOSPITAL
3.67,33.90296,-98.50035,25268.08,UNITED REGIONAL HEALTH CARE SYSTEM
3.54,30.65598,-96.34672,23718.28,ST JOSEPH REGIONAL HEALTH CENTER
3.80,32.81043,-96.83699,26965.63,PARKLAND HEALTH AND HOSPITAL SYSTEM
3.15,29.31233,-94.77317,18685.12,UNIVERSITY OF TEXAS MEDICAL BRANCH GAL
3.33,32.78994,-96.78044,21066.28,BAYLOR UNIVERSITY MEDICAL CENTER
3.01,28.81269,-96.97780,16935.31,CITIZENS MEDICAL CENTER
4.10,27.53249,-99.47808,30741.47,LAREDO MEDICAL CENTER
4.30,26.17446,-97.67014,33274.76,VHS HARLINGEN HOSPITAL COMPANY LLC
3.75,29.74802,-95.36609,26371.08,ST JOSEPH MEDICAL CENTER
3.97,32.50219,-94.73025,29165.50,GOOD SHEPHERD MEDICAL CENTER
3.58,32.72621,-97.32659,24197.79,JPS HEALTH NETWORK
6.37,33.57524,-101.89272,59463.63,COVENANT MEDICAL CENTER
2.72,31.51444,-97.19927,13357.42,PROVIDENCE HEALTH CENTER
3.04,32.81224,-96.83795,17362.12,UT SOUTHWESTERN UNIVERSITY HOSPITAL
3.71,32.76017,-96.82437,25849.81,METHODIST DALLAS MEDICAL CENTER
2.79,31.07837,-97.36403,14165.62,SCOTT & WHITE MEMORIAL HOSPITAL
3.35,29.43360,-98.49265,21286.54,BAPTIST MEDICAL CENTER
3.08,32.74944,-97.11630,17906.54,TEXAS HEALTH ARLINGTON MEMORIAL HOSPITAL
3.50,29.71431,-95.39680,23112.37,MEMORIAL HERMANN TEXAS MEDICAL CENTER
3.30,32.83520,-96.96101,20647.50,BAYLOR MEDICAL CENTER AT IRVING
3.55,32.82932,-97.21399,23827.36,NORTH HILLS HOSPITAL
3.74,29.66575,-95.18131,26219.58,BAYSHORE MEDICAL CENTER
2.80,29.56876,-97.94776,14332.57,GUADALUPE REGIONAL MEDICAL CENTER
4.84,31.76998,-106.49897,40144.85,LAS PALMAS MEDICAL CENTER
4.63,26.26353,-98.18455,37404.82,SOUTH TEXAS HEALTH SYSTEM
3.06,30.27438,-97.73395,17650.41,UNIVERSITY MEDICAL CENTER AT BRACKENRIDGE
2.89,31.99616,-102.09950,15388.92,MIDLAND MEMORIAL HOSPITAL
3.02,32.73780,-97.33899,17039.48,TEXAS HEALTH HARRIS METHODIST FORT WORTH
4.21,28.80765,-96.99896,32108.86,DETAR HOSPITAL NAVARRO
2.90,31.11326,-97.80076,15528.68,METROPLEX HOSPITAL
2.76,29.37402,-100.89265,13842.54,VAL VERDE REGIONAL MEDICAL CENTER
3.22,27.49018,-97.85078,19667.20,CHRISTUS SPOHN HOSPITAL KLEBERG
2.92,26.19665,-98.31409,15768.03,MISSION REGIONAL MEDICAL CENTER
3.09,29.81230,-95.43010,17934.99,MEMORIAL HERMANN HOSPITAL SYSTEM
3.66,29.70719,-95.40048,25213.25,ST LUKES EPISCOPAL HOSPITAL
3.19,35.19934,-101.92186,19186.86,NORTHWEST TEXAS HOSPITAL
4.25,30.28473,-95.46714,32629.67,CONROE REGIONAL MEDICAL CENTER
2.89,35.19533,-101.91907,15470.19,BAPTIST ST ANTHONYS HEALTH SYSTEM-BAPTIST CAMPUS
2.85,29.85271,-97.94841,14965.85,CENTRAL TEXAS MEDICAL CENTER
2.77,29.68674,-95.38652,13925.28,HARRIS COUNTY HOSPITAL DISTRICT
4.20,31.42009,-100.47013,32079.36,SAN ANGELO COMMUNITY MEDICAL CENTER
2.99,33.12242,-96.12404,16679.04,HUNT REGIONAL MEDICAL CENTER
3.76,29.50795,-98.57224,26509.77,METHODIST HOSPITAL
3.86,32.17167,-95.84417,27769.36,EAST TEXAS MEDICAL CENTER ATHENS
2.66,32.08509,-96.50376,12542.46,NAVARRO REGIONAL HOSPITAL
3.46,29.93570,-93.98900,22720.30,THE MEDICAL CENTER OF SOUTHEAST TEXAS
4.57,32.40574,-99.76486,36667.07,ABILENE REGIONAL MEDICAL CENTER
2.70,31.46574,-100.43466,13037.90,SHANNON MEDICAL CENTER
3.17,29.78143,-95.54541,18970.65,MEMORIAL HERMANN MEMORIAL CITY MEDICAL CENTER
4.44,33.17345,-97.11382,35066.80,DENTON REGIONAL MEDICAL CENTER
4.75,30.01994,-95.44379,39029.19,HOUSTON NORTHWEST MEDICAL CENTER
4.49,33.02168,-96.76621,35667.15,MEDICAL CENTER OF PLANO
3.84,32.23859,-101.49810,27465.00,SCENIC MOUNTAIN MEDICAL CENTER
3.85,31.65212,-94.65488,27644.00,NACOGDOCHES MEDICAL CENTER
4.36,25.97780,-97.51442,34070.93,VALLEY REGIONAL MEDICAL CENTER
4.14,33.04634,-97.00473,31281.82,MEDICAL CENTER OF LEWISVILLE
3.30,30.08682,-95.62403,20598.71,TOMBALL REGIONAL MEDICAL CENTER
3.99,32.73563,-97.34483,29417.77,PLAZA MEDICAL CENTER OF FORT WORTH
3.42,32.67614,-97.32079,22132.31,HUGULEY HEALTH SYSTEM
3.07,29.99677,-95.27641,17701.33,MEMORIAL HERMANN NORTHEAST
3.38,33.58838,-101.89214,21596.15,UNIVERSITY MEDICAL CENTER
3.94,29.35295,-98.54601,28681.72,SOUTHWEST GENERAL HOSPITAL
3.48,30.22723,-97.77447,22966.04,ST DAVID'S SOUTH AUSTIN MEDICAL CENTER
3.47,32.64448,-96.87635,22770.85,METHODIST CHARLTON MEDICAL CENTER
3.13,33.02769,-96.88471,18459.94,BAYLOR MEDICAL CENTER AT CARROLLTON
3.46,32.65818,-97.42078,22639.36,TEXAS HEALTH HARRIS METHODIST HOSPITAL SOUTHWEST F
4.33,27.69288,-97.34476,33660.04,CORPUS CHRISTI MEDICAL CENTER,THE
3.30,30.41163,-97.70649,20694.90,NORTH AUSTIN MEDICAL CENTER
4.64,29.58896,-95.63112,37587.00,METHODIST SUGAR LAND HOSPITAL
4.04,29.96603,-95.55127,29981.67,METHODIST WILLOWBROOK HOSPITAL
3.11,29.78747,-95.78578,18245.67,MEMORIAL HERMANN KATY HOSPITAL
2.52,40.24999,-111.66524,10757.30,UTAH VALLEY REGIONAL MEDICAL CENTER
2.70,37.09986,-113.55271,13032.29,DIXIE REGIONAL MEDICAL CENTER
2.83,40.58979,-111.97499,14716.83,JORDAN VALLEY MEDICAL CENTER
2.84,44.47966,-73.19412,14759.72,FLETCHER ALLEN HOSPITAL OF VERMONT
2.98,43.59828,-72.95512,16609.60,RUTLAND REGIONAL MEDICAL CENTER
2.80,36.89897,-82.07851,14254.75,RUSSELL COUNTY MEDICAL CENTER
2.41,38.40552,-78.85730,9388.04,ROCKINGHAM MEMORIAL HOSPITAL
2.36,39.19345,-78.19599,8777.85,WINCHESTER MEDICAL CENTER INC
2.96,36.86268,-76.30355,16391.21,SENTARA NORFOLK GENERAL HOSPITAL
3.48,38.02573,-78.51526,22926.10,UNIVERSITY OF VIRGINIA MEDICAL CENTER
2.89,36.89933,-76.28157,15431.65,BON SECOURS - DEPAUL MEDICAL CENTER
2.44,36.83716,-76.34786,9745.79,BON SECOURS MARYVIEW MEDICAL CENTER
2.38,38.09436,-78.98659,9053.85,AUGUSTA HEALTH
2.47,37.41368,-79.16870,10123.67,CENTRA  HEALTH, INC
2.70,37.25129,-79.94125,13002.50,CARILION ROANOKE MEMORIAL CENTER
3.28,37.54330,-77.42932,20432.36,MEDICAL COLLEGE OF VIRGINIA HOSPITALS
2.62,37.47512,-75.86264,11978.06,RIVERSIDE SHORE MEMORIAL HOSPITAL
2.86,38.82218,-77.10533,15014.26,INOVA ALEXANDRIA HOSPITAL
2.79,37.14463,-76.51197,14190.33,MARY IMMACULATE HOSPITAL
2.72,37.09020,-80.50370,13344.95,CARILION NEW RIVER VALLEY MEDICAL CENTER
2.85,39.07405,-77.47754,14959.94,INOVA LOUDOUN HOSPITAL
2.99,36.77378,-76.57856,16696.12,SENTARA OBICI HOSPITAL
2.58,36.85098,-76.18989,11536.58,SENTARA LEIGH HOSPITAL
2.61,37.06523,-76.48417,11872.24,RIVERSIDE REGIONAL MEDICAL CENTER
3.55,37.09990,-81.79024,23757.16,CLINCH VALLEY MEDICAL CENTER
2.52,38.85764,-77.22772,10829.71,INOVA FAIRFAX HOSPITAL
3.03,37.33700,-76.74046,17171.69,SENTARA WILLIAMSBURG REGIONAL MEDICAL CENTER
4.37,37.18253,-77.35957,34152.70,SOUTHSIDE REGIONAL MEDICAL CENTER
2.88,37.62931,-77.38804,15320.37,BON SECOURS - MEMORIAL REGIONAL MEDICAL
2.46,38.02176,-78.44530,10012.35,MARTHA JEFFERSON HOSPITAL
2.80,36.69555,-79.86374,14285.61,MEMORIAL HOSPITAL OF MARTINSVILLE & HENRY COUNTY
2.42,37.30288,-78.40196,9511.70,SOUTHSIDE COMMUNITY HOSPITAL, INC
3.86,36.69095,-76.93626,27749.50,SOUTHAMPTON MEMORIAL HOSPITAL
2.69,37.05580,-76.39048,12967.86,SENTARA CAREPLEX HOSPITAL
2.68,38.63463,-77.28361,12800.85,SENTARA POTOMAC HOSPITAL
2.80,36.77664,-76.09682,14294.36,SENTARA PRINCESS ANNE HOSPITAL
3.07,37.79106,-79.88263,17723.58,LEWISGALE HOSPITAL ALLEGHANY
2.94,37.46807,-77.66143,16101.63,BON SECOURS - ST FRANCIS MEDICAL CENTER
3.35,47.71468,-122.33762,21255.00,NORTHWEST HOSPITAL
3.48,47.58295,-122.62506,22892.06,HARRISON MEDICAL CENTER
3.26,46.13039,-122.94110,20176.55,PEACHEALTH ST JOHN MEDICAL CENTER
3.15,45.62460,-122.58145,18718.90,PEACEHEALTH SOUTHWEST MEDICAL CENTER
2.97,47.64936,-117.41194,16427.05,PROVIDENCE SACRED HEART MEDICAL CENTER
2.94,46.28132,-119.28218,16085.62,KADLEC REGIONAL MEDICAL CENTER
2.96,47.60351,-122.32305,16309.81,HARBORVIEW MEDICAL CENTER
3.68,47.70969,-117.40722,25451.31,PROVIDENCE HOLY FAMILY HOSPITAL
3.36,47.17742,-122.28943,21405.83,MULTICARE GOOD SAMARITAN HOSPITAL
2.98,47.44243,-122.21392,16650.24,VALLEY MEDICAL CENTER
3.26,47.25980,-122.45243,20081.95,TACOMA GENERAL ALLENMORE HOSPITAL
3.43,47.29252,-122.32729,22261.05,ST FRANCIS COMMUNITY HOSPITAL
3.78,47.36373,-122.61353,26664.69,ST ANTHONY HOSPITAL
2.97,39.65498,-79.95814,16495.07,WEST VIRGINIA UNIVERSITY HOSPITALS
2.48,39.32836,-80.23964,10271.73,UNITED HOSPITAL CENTER
2.66,38.43236,-82.40067,12511.39,ST MARY'S MEDICAL CENTER
2.82,38.34739,-81.62600,14610.02,CHARLESTON AREA MEDICAL CENTER
2.93,39.66383,-79.94681,15921.67,MONONGALIA COUNTY GENERAL HOSPITAL
2.57,38.92594,-79.84673,11456.27,DAVIS MEMORIAL HOSPITAL
3.12,40.05876,-80.72237,18330.92,OHIO VALLEY MEDICAL CENTER
2.42,39.48229,-80.16519,9442.67,FAIRMONT GENERAL HOSPITAL
3.06,39.27035,-81.56026,17578.56,CAMDEN CLARK MEDICAL CENTER
2.36,37.78754,-81.20183,8777.24,RALEIGH GENERAL HOSPITAL
2.50,44.38171,-89.82976,10477.08,RIVERVIEW HSPTL ASSOC
2.31,44.18700,-88.45431,8052.93,THEDA CLARK MED CTR
2.31,44.01282,-88.60296,8141.00,MERCY MED CTR OF OSHKOSH
3.21,43.06195,-87.87861,19448.26,COLUMBIA ST MARYS HSPTL  MILW (COL & MILW CAMPUS)
3.12,42.68685,-89.03244,18387.95,MERCY HLTH SYS CORP
2.91,44.81192,-91.51352,15737.31,MAYO CLINIC HEALTH SYSTEM EAU CLAIRE HOSPITAL
2.64,42.73444,-87.82788,12240.75,WHEATON FRANCISCAN HEALTHCARE- ALL SAINTS
3.20,43.07633,-89.43133,19347.31,UNIVERSITY OF WI  HOSPITALS & CLINICS AUTHORITY
4.22,42.54868,-89.00822,32285.09,BELOIT MEM HSPTL
2.73,42.66123,-88.49611,13383.38,AURORA LAKELAND MED CTR
2.81,43.07393,-87.97612,14375.12,WHEATON FRANCISCAN, INC- ST JOSEPH
3.68,42.98958,-87.95079,25439.30,AURORA ST LUKES MEDICAL CENTER
3.48,43.00120,-88.02675,22898.65,AURORA WEST ALLIS MEDICAL CENTER
3.11,43.04008,-88.02523,18210.69,FROEDTERT MEM LUTHERAN HSPTL
3.06,42.84802,-106.30851,17652.17,WYOMING MEDICAL CENTER
2.89,41.14037,-104.81660,15464.55,CHEYENNE REGIONAL MEDICAL CENTER
3.07,29.64125,-95.16176,17782.71,ST LUKE'S PATIENTS MEDICAL CENTER
4.42,30.56899,-97.65104,34838.55,SETON MEDICAL CENTER WILLIAMSON
4.23,31.79047,-106.26500,32414.27,SIERRA PROVIDENCE EAST MEDICAL CENTER
4.44,29.61578,-98.47479,35024.23,METHODIST STONE OAK HOSPITAL
2.92,33.59616,-86.66750,15875.50,ST VINCENT'S EAST
2.73,34.43845,-85.75574,13485.75,DEKALB REGIONAL MEDICAL CENTER
3.17,33.25607,-86.81035,19038.28,SHELBY BAPTIST MEDICAL CENTER
2.49,34.74649,-87.69895,10415.45,HELEN KELLER MEMORIAL HOSPITAL
2.21,32.82377,-85.17019,6870.57,GEORGE H. LANIER MEMORIAL HOSPITAL
2.21,32.63806,-85.40413,6841.94,EAST ALABAMA MEDICAL CENTER AND SNF
3.24,33.50619,-86.80210,19911.35,UNIVERSITY OF ALABAMA HOSPITAL
2.57,34.20768,-86.87489,11409.94,CULLMAN REGIONAL MEDICAL CENTER
3.13,33.66767,-85.83420,18423.95,STRINGFELLOW MEMORIAL HOSPITAL
5.41,34.00941,-85.97078,47267.06,GADSDEN REGIONAL MEDICAL CENTER
4.06,34.00426,-86.00339,30251.89,RIVERVIEW REGIONAL MEDICAL CENTER
2.43,34.66171,-86.04665,9579.67,HIGHLANDS MEDICAL CENTER
2.05,32.94573,-85.98570,4876.91,RUSSELL HOSPITAL
2.96,33.65640,-85.82284,16385.35,NORTHEAST ALABAMA REGIONAL MED CENTER
4.02,30.42700,-87.68386,29683.64,SOUTH BALDWIN REGIONAL MEDICAL CENTER
2.15,34.59052,-86.97262,6116.28,DECATUR GENERAL HOSPITAL
3.08,33.20521,-87.52546,17854.04,D C H REGIONAL MEDICAL CENTER
4.09,33.49854,-86.84633,30587.58,BAPTIST MEDICAL CENTER-PRINCETON
2.25,32.43516,-88.32614,7414.33,BRYAN W WHITFIELD MEM HOSP INC
2.95,32.43020,-87.05515,16237.06,VAUGHAN REG MED CENTER PARKWAY CAMPUS
6.33,33.46420,-86.77409,59003.04,BROOKWOOD MEDICAL CENTER
2.75,30.68546,-88.13170,13627.25,SPRINGHILL MEDICAL CENTER
2.85,32.38797,-86.17576,14963.24,BAPTIST MEDICAL CENTER EAST
3.11,33.16547,-86.25380,18175.83,COOSA VALLEY MEDICAL CENTER
3.39,60.94901,-149.17033,21772.22,PROVIDENCE ALASKA MEDICAL CENTER
3.27,61.56297,-149.25782,20287.07,MAT-SU REGIONAL MEDICAL CENTER
3.08,33.46514,-112.05797,17828.15,BANNER GOOD SAMARITAN MEDICAL CENTER
3.32,34.56017,-112.48217,20901.42,YAVAPAI REGIONAL MEDICAL CENTER
3.21,32.88123,-111.71067,19543.64,CASA GRANDE REGIONAL MEDICAL CENTER
4.16,35.20923,-111.64486,31496.08,FLAGSTAFF MEDICAL CENTER
3.76,33.48073,-112.07948,26426.93,ST JOSEPH'S HOSPITAL AND MEDICAL CENTER
3.99,33.29750,-111.87461,29315.58,CHANDLER REGIONAL MEDICAL CENTER
3.90,33.45154,-112.04313,28242.62,ST LUKES MEDICAL CENTER
3.81,33.48885,-111.92387,27030.96,SCOTTSDALE HEALTHCARE-OSBORN MEDICAL CENTER
2.95,31.55116,-110.27248,16211.42,SIERRA VISTA REGIONAL HEALTH CENTER INC
3.46,35.22024,-114.03585,22678.55,KINGMAN REGIONAL MEDICAL CENTER
3.93,33.60432,-112.28378,28557.11,BANNER BOSWELL MEDICAL CENTER
3.33,33.39097,-111.87638,21042.08,BANNER DESERT MEDICAL CENTER
3.47,33.41128,-111.68916,22739.15,BANNER BAYWOOD MEDICAL CENTER
3.55,33.60949,-112.18129,23752.52,BANNER THUNDERBIRD MEDICAL CENTER
3.76,33.65965,-112.37283,26456.52,BANNER DEL E WEBB MEDICAL CENTER
5.48,35.11068,-114.55505,48263.68,WESTERN ARIZONA REGIONAL MEDICAL CTR
3.04,36.10940,-94.16036,17385.38,WASHINGTON REGIONAL MED CTR AT NORTH HILLS
3.01,34.75031,-92.33897,16958.71,ST VINCENT INFIRMARY MEDICAL CENTER
2.66,36.31007,-94.18471,12554.50,MERCY MEDICAL CENTER
2.86,35.25046,-91.70056,15118.02,WHITE COUNTY MEDICAL CENTER
