size_charge,size_pay,lat,lon,charge,pay,name
2.41,2.16,35.83746,-90.70386,6886.29,5129.67,ST BERNARDS MEDICAL CTR
4.02,2.09,36.18082,-94.13644,18160.87,4642.55,NW ARKANSAS HOSPITALS, LLC
4.33,2.11,34.46784,-93.06667,20362.57,4767.75,ST JOSEPHS MERCY HEALTH CENTER INC
2.63,2.04,36.34295,-92.39442,8388.65,4244.22,BAXTER REGIONAL MEDICAL CENTER
3.03,2.09,35.08546,-92.45774,11235.45,4587.55,CONWAY REGIONAL MEDICAL CENTER
3.99,2.06,34.77770,-92.12539,18003.86,4422.57,BAPTIST HEALTH MEDICAL CENTER NORTH LITTLE ROCK
3.86,2.13,35.28275,-93.14901,17098.17,4880.78,ST MARYS REGIONAL MEDICAL CENTER
3.68,2.27,35.14320,-90.18837,15822.69,5895.15,CRITTENDEN MEMORIAL HOSPITAL
2.88,2.10,35.37445,-94.41868,10171.46,4659.65,SPARKS REGIONAL MEDICAL CENTER
4.68,2.06,35.35395,-94.35262,22816.06,4388.28,ST EDWARD MERCY MEDICAL CENTER
4.28,2.18,34.18894,-92.01886,20017.81,5239.62,JEFFERSON REGIONAL MEDICAL CENTER
2.96,2.13,34.35877,-92.78638,10730.17,4857.42,HOT SPRING COUNTY MEDICAL CENTER
5.43,2.12,34.48600,-93.03521,28093.82,4795.73,NATIONAL PARK MEDICAL CENTER
3.22,2.08,34.57290,-92.58508,12586.80,4523.93,SALINE MEMORIAL HOSPITAL
3.82,2.13,33.22053,-92.67102,16756.88,4878.41,MEDICAL CENTER SOUTH ARKANSAS
3.50,2.08,34.74866,-92.35422,14523.64,4566.27,BAPTIST HEALTH MEDICAL CENTER-LITTLE ROCK
3.05,2.14,35.80838,-90.66658,11384.58,4946.92,NEA BAPTIST MEMORIAL HOSPITAL
4.20,2.16,35.76927,-91.63408,19480.56,5133.75,WHITE RIVER MEDICAL CENTER
7.43,2.71,37.63362,-122.08802,42212.75,8965.92,ST ROSE HOSPITAL
7.01,2.35,37.59283,-122.38249,39256.75,6412.00,PENINSULA MEDICAL CENTER
5.65,2.43,38.57053,-121.45216,29703.25,6998.67,MERCY GENERAL HOSPITAL
6.56,2.49,33.97659,-117.38184,36072.00,7418.00,RIVERSIDE COMMUNITY HOSPITAL
5.97,2.61,32.68425,-117.08161,31933.00,8301.12,PARADISE VALLEY HOSPITAL
4.65,2.73,32.75426,-117.16592,22614.32,9117.00,UNIVERSITY OF CALIFORNIA SAN DIEGO MEDICAL CENTER
5.65,2.28,32.77495,-117.01467,29673.19,5961.19,GROSSMONT HOSPITAL
5.46,2.32,39.50528,-121.54100,28359.56,6249.07,OROVILLE HOSPITAL
7.61,2.34,35.38736,-119.01690,43483.94,6364.91,BAKERSFIELD MEMORIAL HOSPITAL
7.04,3.22,37.31288,-121.93329,39442.33,12598.67,SANTA CLARA VALLEY MEDICAL CENTER
4.76,2.22,39.74221,-121.85000,23396.13,5529.73,ENLOE MEDICAL CENTER
7.43,3.65,34.30238,-118.36957,42167.21,15566.14,LAC/OLIVE VIEW-UCLA MEDICAL CENTER
7.53,2.66,37.82206,-122.26275,42876.11,8587.05,ALTA BATES SUMMIT MEDICAL CENTER
7.14,2.40,32.78037,-115.56848,40174.64,6822.18,EL CENTRO REGIONAL MEDICAL CENTER
8.95,2.84,37.79100,-122.43125,52910.07,9865.20,CALIFORNIA PACIFIC MEDICAL CTR-PACIFIC CAMPUS HOSP
7.83,2.72,37.74717,-122.42088,44985.00,9043.86,CALIFORNIA PACIFIC MEDICAL CTR - ST. LUKE'S CAMPUS
4.52,2.41,34.67486,-118.15771,21694.29,6890.58,ANTELOPE VALLEY HOSPITAL MED CENTER
6.46,2.34,36.32737,-119.29548,35352.95,6398.19,KAWEAH DELTA MEDICAL CENTER
5.29,2.58,34.12834,-118.25777,27160.71,8072.71,GLENDALE MEM HOSPITAL & HLTH CENTER
5.21,2.56,36.73000,-119.78000,26541.78,7942.04,COMMUNITY REGIONAL MEDICAL CENTER
5.02,2.76,34.09643,-118.29103,25230.81,9306.00,HOLLYWOOD PRESBYTERIAN MEDICAL CENTER
7.22,2.24,33.78036,-117.86495,40719.06,5648.83,ST JOSEPH HOSPITAL
6.11,2.48,32.75143,-117.16083,32918.63,7385.95,SCRIPPS MERCY HOSPITAL
5.44,2.30,33.73798,-118.30525,28171.67,6118.92,PROVIDENCE LITTLE CO OF MARY MED CTR SAN PEDRO
8.59,2.55,37.95337,-122.33672,50379.24,7831.48,DOCTORS MEDICAL CENTER-SAN PABLO
5.56,2.35,34.21674,-119.15631,29018.47,6412.77,ST JOHNS REGIONAL MEDICAL CENTER
8.15,2.41,37.96987,-121.28873,47266.18,6865.86,ST JOSEPHS MED CENTER OF STOCKTON
7.19,2.62,34.13101,-117.32181,40499.21,8353.00,COMMUNITY HOSPITAL OF SAN BERNARDINO
4.83,2.34,36.83532,-119.76562,23867.73,6378.58,SAINT AGNES MEDICAL CENTER
4.86,2.24,34.10130,-117.63651,24127.00,5660.85,SAN ANTONIO COMMUNITY HOSPITAL
7.70,2.35,32.79949,-117.15394,44076.85,6413.85,SHARP MEMORIAL HOSPITAL
7.87,2.59,38.13118,-122.23732,45309.00,8103.62,SUTTER SOLANO MEDICAL CENTER
7.77,2.72,34.04932,-118.21746,44574.43,9019.07,WHITE MEMORIAL MEDICAL CENTER
5.70,2.73,33.92963,-118.20332,30006.73,9116.64,SAINT FRANCIS MEDICAL CENTER
4.39,2.33,34.95099,-120.41322,20794.31,6332.38,MARIAN MEDICAL CENTER
6.39,2.44,38.57155,-121.46874,34846.22,7103.67,SUTTER GENERAL HOSPITAL
5.81,2.52,34.07558,-118.28424,30777.07,7641.00,TEMPLE COMMUNITY HOSPITAL
7.34,2.38,34.02685,-118.48651,41550.88,6618.76,SANTA MONICA - UCLA MED CTR & ORTHOPAEDIC HOSPITAL
7.07,2.27,33.12535,-117.07336,39668.57,5880.00,PALOMAR MEDICAL CENTER
7.10,2.37,34.22014,-118.53410,39858.89,6566.00,NORTHRIDGE HOSPITAL MEDICAL CENTER
4.38,2.44,36.32362,-119.66726,20740.57,7074.20,ADVENTIST MEDICAL CENTER
10.01,2.36,37.96125,-121.30103,60396.14,6517.29,DAMERON HOSPITAL
10.25,2.80,37.36257,-121.84974,62051.84,9580.35,REGIONAL MEDICAL CENTER OF SAN JOSE
4.51,2.30,33.18402,-117.29661,21656.95,6087.77,TRI-CITY MEDICAL CENTER
7.24,2.41,34.13495,-117.27603,40843.42,6868.50,ST BERNARDINE MEDICAL CENTER
9.01,2.51,34.10081,-118.10588,53293.12,7577.82,SAN GABRIEL VALLEY MEDICAL CENTER
5.43,2.31,39.13822,-121.59436,28112.07,6130.15,RIDEOUT MEMORIAL HOSPITAL
4.51,2.60,34.09638,-118.32518,21650.40,8216.67,HOLLYWOOD COMMUNITY HOSPITAL OF HOLLYWOOD
8.67,2.68,36.57886,-121.91316,50954.12,8790.00,COMMUNITY HOSPITAL OF THE MONTEREY PENINSULA
4.90,2.69,34.03705,-118.26575,24409.00,8825.68,CALIFORNIA HOSPITAL MEDICAL CENTER LA
7.22,2.41,39.22809,-121.04721,40710.08,6841.54,SIERRA NEVADA MEMORIAL HOSPITAL
9.11,2.68,37.78963,-122.41700,54034.75,8745.33,SAINT FRANCIS MEMORIAL HOSPITAL
5.03,2.66,34.28029,-119.25410,25336.85,8609.23,VENTURA COUNTY MEDICAL CENTER
6.21,2.72,37.88664,-121.28308,33593.94,9035.44,SAN JOAQUIN GENERAL HOSPITAL
7.53,2.15,33.89465,-117.92716,42907.53,5060.47,ST JUDE MEDICAL CENTER
8.07,2.26,33.96860,-118.04831,46725.56,5803.94,PRESBYTERIAN INTERCOMMUNITY HOSPITAL
7.51,2.45,38.44369,-122.70138,42787.93,7162.33,SANTA ROSA MEMORIAL HOSPITAL
7.84,2.31,37.51164,-120.83800,45068.08,6129.33,EMANUEL MEDICAL CENTER INC
9.84,2.46,37.91341,-122.04163,59192.67,7194.95,JOHN MUIR MEDICAL CENTER - WALNUT CREEK CAMPUS
5.83,2.59,33.77991,-118.18602,30915.00,8130.23,ST MARY MEDICAL CENTER
11.21,2.68,36.92821,-121.79360,68804.15,8747.85,WATSONVILLE COMMUNITY HOSPITAL
9.82,2.57,37.55717,-121.98126,59048.96,8020.26,WASHINGTON HOSPITAL
9.87,2.38,37.48000,-122.25441,59399.64,6646.91,SEQUOIA HOSPITAL
6.70,2.27,34.58305,-118.14490,37078.83,5848.58,PALMDALE REGIONAL MEDICAL CENTER
3.72,2.46,33.91255,-118.09846,16095.38,7201.77,COAST PLAZA HOSPITAL
8.60,2.41,32.61972,-117.02278,50431.91,6833.55,SHARP CHULA VISTA MEDICAL CENTER
4.96,2.14,33.62229,-117.92995,24796.38,4968.57,HOAG MEMORIAL HOSPITAL PRESBYTERIAN
7.40,2.29,33.84780,-117.93661,42022.88,6033.25,AHMC ANAHEIM REGIONAL MEDICAL CENTER
13.51,4.21,37.75676,-122.40461,85003.78,19511.96,SAN FRANCISCO GENERAL HOSPITAL
5.66,2.67,33.77483,-117.91329,29761.83,8725.92,GARDEN GROVE HOSPITAL & MEDICAL CENTER
7.55,2.54,34.07709,-117.75063,43041.07,7779.13,POMONA VALLEY HOSPITAL MEDICAL CENTER
8.04,2.29,34.15601,-118.32834,46469.30,6016.45,PROVIDENCE SAINT JOSEPH MEDICAL CTR
6.48,2.23,34.28920,-118.74484,35503.55,5628.00,SIMI VALLEY HOSPITAL & HEALTH CARE SERVICES
5.48,2.32,34.13973,-118.03534,28506.96,6233.14,METHODIST HOSPITAL OF SOUTHERN CA
7.74,2.57,34.14987,-118.23117,44378.84,8004.04,GLENDALE ADVENTIST MEDICAL CENTER
9.93,2.85,36.98999,-121.98357,59826.71,9931.94,DOMINICAN HOSPITAL
4.08,2.76,34.07389,-117.35111,18614.81,9326.31,ARROWHEAD REGIONAL MEDICAL CENTER
5.05,2.41,36.06956,-119.02748,25474.41,6845.50,SIERRA VIEW DISTRICT HOSPITAL
7.90,3.12,34.06675,-118.44613,45486.82,11883.12,RONALD REAGAN UCLA MEDICAL CENTER
6.26,3.67,38.00655,-122.13312,33939.25,15731.08,CONTRA COSTA REGIONAL MEDICAL CENTER
5.75,2.63,33.80733,-118.19305,30393.44,8377.50,PACIFIC HOSPITAL OF LONG BEACH
11.51,2.36,34.27915,-118.46006,70932.58,6480.74,PROVIDENCE HOLY CROSS MEDICAL CENTER
6.38,2.42,40.58654,-122.39168,34806.81,6952.95,MERCY MEDICAL CENTER REDDING
6.05,2.54,34.09049,-118.14410,32463.50,7773.94,ALHAMBRA HOSPITAL MEDICAL CENTER
9.04,2.51,37.67947,-122.47447,53528.58,7531.00,SETON MEDICAL CENTER
5.19,2.13,34.03009,-118.47833,26419.07,4912.60,SAINT JOHN'S HEALTH CENTER
6.58,2.55,33.91173,-117.19590,36218.43,7868.71,RIVERSIDE COUNTY REGIONAL MEDICAL CENTER
6.03,2.24,35.37279,-119.02817,32359.57,5694.00,MERCY HOSPITAL
5.70,2.31,34.50107,-117.17285,29994.26,6182.63,ST MARY MEDICAL CENTER
5.38,2.67,37.85593,-122.25730,27763.23,8662.08,ALTA BATES SUMMIT MEDICAL CENTER - ALTA BATES CAMP
8.80,2.35,37.36934,-122.08047,51825.58,6462.58,EL CAMINO HOSPITAL
5.24,2.28,38.76514,-121.24979,26819.14,5978.48,SUTTER ROSEVILLE MEDICAL CENTER
7.02,2.30,37.74409,-121.43469,39335.45,6066.00,SUTTER TRACY COMMUNITY HOSPITAL
6.04,2.18,32.88461,-117.22244,32403.00,5239.00,SCRIPPS MEMORIAL HOSPITAL LA JOLLA
5.94,2.75,34.05076,-117.26395,31707.59,9233.35,LOMA LINDA UNIVERSITY MEDICAL CENTER
4.96,2.34,33.87236,-117.56809,24804.42,6367.58,CORONA REGIONAL MEDICAL CENTER
6.52,2.49,36.65910,-121.64630,35770.19,7426.38,SALINAS VALLEY MEMORIAL HOSPITAL
11.67,2.32,38.12186,-121.28665,72062.44,6214.17,LODI MEMORIAL HOSPITAL
5.94,2.41,32.95813,-115.55388,31739.00,6853.42,PIONEERS MEMORIAL HEALTHCARE DISTRICT
7.89,2.76,33.78798,-117.89026,45424.75,9309.15,UNIVERSITY OF CALIFORNIA IRVINE MED CENTER
3.22,2.47,34.01501,-118.10064,12555.88,7257.00,BEVERLY HOSPITAL
7.55,2.23,33.81131,-118.34364,43055.30,5584.17,TORRANCE MEMORIAL MEDICAL CENTER
8.34,2.29,33.83891,-118.35677,48607.60,6027.20,PROVIDENCE LITTLE COMPANY OF MARY MED CTR TORRANCE
3.69,2.41,36.22008,-119.33764,15840.46,6829.00,TULARE REGIONAL MEDICAL CENTER
9.13,2.42,37.94748,-122.53677,54140.55,6914.09,MARIN GENERAL HOSPITAL
13.48,2.63,38.26174,-122.04662,84822.36,8404.09,NORTHBAY MEDICAL CENTER
6.74,3.11,34.06034,-118.21014,37359.94,11780.81,LAC+USC MEDICAL CENTER
3.49,2.66,34.24018,-118.39632,14431.83,8623.25,PACIFICA HOSPITAL OF THE VALLEY
5.12,2.56,34.08802,-117.89341,25935.00,7910.62,CITRUS VALLEY MEDICAL CENTER-IC CAMPUS
4.69,2.28,33.75117,-116.96028,22934.08,5934.33,HEMET VALLEY MEDICAL CENTER
8.35,2.43,33.93530,-118.13030,48668.43,7020.23,DOWNEY REGIONAL MEDICAL CENTER
7.57,2.33,34.42951,-119.72333,43182.79,6313.58,SANTA BARBARA COTTAGE HOSPITAL
3.49,2.42,33.82557,-117.99493,14486.82,6903.18,WEST ANAHEIM MEDICAL CENTER
7.74,2.33,34.13364,-118.15275,44413.38,6323.03,HUNTINGTON MEMORIAL HOSPITAL
12.00,3.25,37.43436,-122.18013,74384.19,12793.38,STANFORD HOSPITAL
5.77,2.48,37.34027,-120.46817,30525.95,7378.68,MERCY MEDICAL CENTER
7.58,3.01,37.76421,-122.45716,43288.55,11102.45,UCSF MEDICAL CENTER
4.98,2.35,35.38338,-119.01969,24979.29,6408.93,SAN JOAQUIN COMMUNITY HOSPITAL
11.81,2.44,37.66540,-120.99743,73030.80,7088.80,DOCTORS MEDICAL CENTER
4.66,2.50,33.89307,-118.29506,22691.75,7515.25,MEMORIAL HOSPITAL OF GARDENA
6.00,2.55,34.05336,-118.26558,32107.84,7822.34,GOOD SAMARITAN HOSPITAL
6.45,2.41,33.80861,-118.18661,35289.72,6848.91,LONG BEACH MEMORIAL MEDICAL CENTER
6.61,2.50,37.69824,-122.08730,36455.32,7464.61,EDEN MEDICAL CENTER
11.83,2.41,37.98396,-122.03464,73174.81,6867.58,JOHN MUIR MEDICAL CENTER - CONCORD CAMPUS
6.62,2.65,34.06389,-118.27347,36505.40,8562.95,SAINT VINCENT MEDICAL CENTER
7.17,2.63,38.66956,-121.31378,40343.03,8376.59,MERCY SAN JUAN MEDICAL CENTER
5.76,2.70,37.98224,-121.80362,30437.00,8932.21,SUTTER DELTA MEDICAL CENTER
4.80,2.31,33.70376,-117.98776,23719.08,6169.23,HUNTINGTON BEACH HOSPITAL
8.01,2.53,33.68179,-116.23394,46260.17,7678.67,JOHN F KENNEDY MEMORIAL HOSPITAL, INC
8.20,2.34,34.20777,-118.88305,47619.53,6389.00,LOS ROBLES HOSPITAL & MEDICAL CENTER
7.91,2.31,37.66867,-120.97339,45564.69,6156.10,MEMORIAL  MEDICAL CENTER
7.06,2.22,33.56100,-117.66530,39613.69,5510.92,MISSION HOSPITAL REGIONAL MED CENTER
7.34,2.48,33.71466,-117.93322,41581.92,7351.56,FOUNTAIN VALLEY REGIONAL HOSPITAL & MEDICAL CENTER
9.43,2.18,33.76335,-116.40628,56262.18,5237.00,EISENHOWER MEDICAL CENTER
4.99,2.39,33.83340,-118.08118,25054.24,6754.00,TRI-CITY REGIONAL MEDICAL CENTER
4.26,2.42,33.84753,-118.03841,19912.89,6916.95,LA PALMA INTERCOMMUNITY HOSPITAL
7.72,2.29,33.84932,-118.15323,44246.86,6050.14,LAKEWOOD REGIONAL MEDICAL CENTER
3.80,2.37,34.02561,-117.68583,16632.09,6548.73,CHINO VALLEY MEDICAL CENTER
5.89,2.51,38.46387,-121.41645,31359.22,7579.87,METHODIST HOSPITAL OF SACRAMENTO
4.71,2.32,34.13289,-117.87121,23060.17,6198.61,FOOTHILL PRESBYTERIAN HOSPITAL
8.73,2.88,38.55484,-121.45628,51350.41,10143.90,UNIVERSITY OF CALIFORNIA DAVIS MEDICAL CENTER
6.37,2.25,33.60883,-117.70881,34712.68,5763.63,SADDLEBACK MEMORIAL MEDICAL CENTER
5.36,2.58,35.76216,-119.23889,27608.56,8063.25,DELANO REGIONAL MEDICAL CENTER
11.52,2.54,34.07664,-118.37955,71006.05,7752.88,CEDARS-SINAI MEDICAL CENTER
10.48,2.23,35.55536,-120.72067,63705.65,5601.53,TWIN CITIES COMMUNITY HOSPITAL
4.10,2.63,34.01936,-118.18661,18743.00,8382.44,LOS ANGELES COMMUNITY HOSPITAL
5.39,2.23,33.70167,-117.95566,27823.85,5586.08,ORANGE COAST MEMORIAL MEDICAL CENTER
8.62,2.55,37.03560,-121.57109,50610.71,7863.00,SAINT LOUISE REGIONAL HOSPITAL
4.61,2.26,33.55876,-117.18329,22343.45,5789.91,SOUTHWEST HEALTHCARE SYSTEM
4.09,2.54,34.22139,-118.45660,18709.75,7809.08,MISSION COMMUNITY HOSPITAL - PANORAMA
3.74,2.23,34.47174,-117.29791,16238.44,5620.67,DESERT VALLEY HOSPITAL
10.22,2.68,34.06760,-118.12291,61852.14,8785.75,GARFIELD MEDICAL CENTER
6.02,2.63,34.04777,-118.04344,32302.56,8403.50,GREATER EL MONTE COMMUNITY HOSPITAL
6.55,2.43,33.95076,-118.34828,35988.81,7012.43,CENTINELA HOSPITAL MEDICAL CENTER
11.52,2.31,34.05723,-118.36025,70976.58,6152.62,OLYMPIA MEDICAL CENTER
8.39,2.34,34.02303,-118.39741,48935.50,6337.20,BROTMAN MEDICAL CENTER
4.49,2.51,34.07861,-117.69582,21522.47,7580.00,MONTCLAIR HOSPITAL MEDICAL CENTER
12.21,2.33,34.17067,-118.53200,75860.18,6276.94,PROVIDENCE TARZANA MEDICAL CENTER
3.98,2.67,34.06958,-118.26344,17944.16,8661.68,SILVER LAKE MEDICAL CENTER
6.35,2.34,40.58532,-122.38702,34565.61,6381.72,SHASTA REGIONAL MEDICAL CENTER
3.73,2.27,40.41481,-104.70890,16122.15,5857.55,NORTH COLORADO MEDICAL CENTER
4.80,2.11,39.76893,-105.09006,23682.16,4749.20,EXEMPLA LUTHERAN MEDICAL CENTER
3.61,2.10,40.57315,-105.05741,15296.77,4648.08,POUDRE VALLEY HOSPITAL
3.62,2.63,39.72730,-104.99157,15378.79,8410.42,DENVER HEALTH MEDICAL CENTER
4.33,2.19,38.23421,-104.62292,20367.46,5286.61,CENTURA HEALTH-ST MARY CORWIN MEDICAL CENTER
4.61,2.16,38.28184,-104.61256,22361.88,5109.84,PARKVIEW MEDICAL CENTER INC
4.48,2.17,38.83903,-104.80024,21435.58,5150.63,MEMORIAL HOSPITAL CENTRAL
4.37,2.24,39.09046,-108.56190,20638.00,5635.78,ST MARYS HOSPITAL AND MEDICAL CENTER
4.30,2.64,39.74234,-104.84156,20190.91,8497.65,UNIVERSITY OF COLORADO HOSPITAL ANSCHUTZ INPATIENT
3.50,2.09,40.41320,-105.05139,14548.64,4592.09,MCKEE MEDICAL CENTER
4.19,2.14,38.86559,-104.82182,19360.46,4968.15,CENTURA HEALTH-PENROSE ST FRANCIS HEALTH SERVICES
5.49,2.23,39.65399,-104.98116,28553.76,5622.82,SWEDISH MEDICAL CENTER
6.76,2.22,39.86430,-104.98481,37453.73,5551.91,NORTH SUBURBAN MEDICAL CENTER
5.36,2.22,39.84960,-105.01825,27642.29,5519.86,CENTURA HEALTH-ST ANTHONY NORTH HOSPITAL
4.41,2.08,40.45184,-105.19608,20932.92,4545.00,MEDICAL CENTER OF THE ROCKIES
4.17,2.35,41.30978,-72.93806,19234.56,6468.09,HOSPITAL OF ST RAPHAEL
4.25,2.40,41.77507,-72.69941,19842.98,6790.02,ST FRANCIS HOSPITAL & MEDICAL CENTER
5.48,2.37,41.55959,-73.05941,28488.36,6577.50,WATERBURY HOSPITAL
5.35,2.35,41.05562,-73.55390,27537.70,6436.41,STAMFORD HOSPITAL
3.23,2.25,41.33722,-72.10380,12662.42,5750.94,LAWRENCE & MEMORIAL HOSPITAL
4.20,2.59,41.18881,-73.16645,19496.41,8119.27,BRIDGEPORT HOSPITAL
2.52,2.20,41.79153,-73.13382,7653.20,5412.33,CHARLOTTE HUNGERFORD HOSPITAL
2.89,2.40,41.55241,-73.03554,10261.73,6787.20,SAINT MARYS HOSPITAL
3.44,2.24,41.54874,-72.80148,14133.43,5683.71,MIDSTATE MEDICAL CENTER
4.70,2.26,41.03431,-73.63020,22997.64,5830.00,GREENWICH HOSPITAL ASSOCIATION
4.42,2.25,41.55473,-72.64872,20981.12,5736.27,MIDDLESEX HOSPITAL
5.42,2.73,41.30400,-72.93502,28055.49,9135.01,YALE-NEW HAVEN HOSPITAL
3.19,2.25,41.54301,-72.08799,12361.60,5767.04,WILLIAM W BACKUS HOSPITAL
4.27,2.53,41.75412,-72.67927,19920.72,7725.26,HARTFORD HOSPITAL
3.88,2.37,41.20049,-73.20281,17207.84,6558.63,ST VINCENT'S MEDICAL CENTER
3.85,2.20,41.67540,-72.93617,17029.50,5417.58,BRISTOL HOSPITAL
3.45,2.32,41.40474,-73.44739,14203.08,6207.31,DANBURY HOSPITAL
4.39,2.32,41.11147,-73.42010,20766.12,6208.42,NORWALK HOSPITAL ASSOCIATION
3.25,2.30,41.66107,-72.78671,12774.32,6074.80,HOSPITAL OF CENTRAL CONNECTICUT, THE
3.70,2.76,41.73545,-72.79489,15959.85,9290.54,JOHN DEMPSEY HOSPITAL
3.52,2.36,39.69005,-75.68408,14641.30,6525.80,CHRISTIANA CARE HEALTH SERVICES, INC.
3.77,2.31,39.74954,-75.56662,16470.90,6138.29,ST FRANCIS HOSPITAL
3.80,2.22,39.15135,-75.52309,16658.82,5521.86,BAYHEALTH - KENT GENERAL HOSPITAL
3.09,2.36,38.64231,-75.60660,11631.07,6497.50,NANTICOKE MEMORIAL HOSPITAL
3.97,2.14,38.77159,-75.14210,17844.71,4950.57,BEEBE MEDICAL CENTER
4.83,2.46,38.90106,-77.05079,23926.61,7233.52,GEORGE WASHINGTON UNIV HOSPITAL
4.16,2.89,38.91770,-77.02193,19215.30,10227.61,HOWARD UNIVERSITY HOSPITAL
5.19,2.53,38.91221,-77.07588,26404.75,7692.67,GEORGETOWN UNIVERSITY HOSPITAL
3.43,2.40,38.94397,-76.99040,14046.97,6824.06,PROVIDENCE HOSPITAL
4.65,2.37,38.83504,-76.98388,22614.54,6575.00,UNITED MEDICAL CENTER
4.89,2.45,38.92944,-77.01473,24326.92,7110.29,WASHINGTON HOSPITAL CENTER
4.54,2.49,30.34913,-81.66391,21839.25,7404.63,SHANDS JACKSONVILLE MEDICAL CENTER
8.27,2.21,26.50479,-80.06979,48091.94,5485.62,BETHESDA MEMORIAL HOSPITAL
5.27,2.23,28.52517,-81.37729,26967.84,5628.58,ORLANDO HEALTH
4.80,2.22,28.57345,-81.36990,23706.45,5512.66,FLORIDA HOSPITAL
6.60,2.38,25.68309,-80.34038,36330.76,6683.85,BAPTIST HOSPITAL OF MIAMI INC
8.40,2.36,25.78846,-80.21644,49034.42,6524.42,UNIVERSITY OF MIAMI HOSPITAL
3.47,2.13,26.62849,-81.87423,14357.45,4855.79,LEE MEMORIAL HOSPITAL
3.72,2.16,29.20117,-81.05828,16067.85,5131.04,HALIFAX HEALTH MEDICAL CENTER
3.98,2.12,26.15053,-81.79919,17904.24,4844.69,NAPLES COMMUNITY HOSPITAL
4.43,2.07,28.08771,-80.61362,21092.67,4500.74,HOLMES REGIONAL MEDICAL CENTER
4.77,2.94,25.79143,-80.21250,23497.58,10573.91,JACKSON MEMORIAL HOSPITAL
4.17,2.06,28.83363,-82.33561,19264.19,4407.08,CITRUS MEMORIAL HOSPITAL
3.66,2.16,30.47650,-87.21219,15673.58,5109.37,SACRED HEART HOSPITAL
3.77,2.10,30.15963,-85.64818,16433.67,4654.70,BAY MEDICAL CENTER
7.00,2.30,25.86166,-80.21398,39187.57,6118.04,NORTH SHORE MEDICAL CENTER
3.98,2.15,28.54917,-81.52746,17884.31,5054.47,HEALTH CENTRAL
4.18,2.28,27.76332,-82.64325,19344.77,5955.15,BAYFRONT MEDICAL CENTER INC
5.85,2.34,25.81317,-80.13996,31110.23,6399.46,MOUNT SINAI MEDICAL CENTER
4.73,2.16,27.49789,-82.56220,23161.40,5068.00,MANATEE MEMORIAL HOSPITAL
6.21,2.26,26.01867,-80.17981,33637.26,5821.56,MEMORIAL REGIONAL HOSPITAL
3.92,2.42,26.10282,-80.14245,17464.58,6906.92,BROWARD HEALTH BROWARD GENERAL MEDICAL CENTER
4.17,2.13,30.30835,-81.68919,19228.19,4879.49,ST VINCENT'S MEDICAL CENTER
4.70,2.06,28.01404,-82.78368,22957.73,4373.27,MEASE HOSPITAL DUNEDIN
6.02,2.33,27.19837,-80.24306,32265.31,6269.19,MARTIN MEMORIAL MEDICAL CENTER
3.71,2.13,29.04263,-81.31635,16040.67,4889.00,FLORIDA HOSPITAL DELAND
5.91,2.08,28.26092,-82.18802,31482.62,4563.54,FLORIDA HOSPITAL ZEPHYRHILLS
4.07,2.06,26.94042,-82.04094,18520.11,4422.00,CHARLOTTE REGIONAL MEDICAL CENTER
4.42,2.06,27.46707,-81.43358,21013.00,4426.09,HIGHLANDS REGIONAL MEDICAL CENTER
4.16,2.35,25.86856,-80.31222,19175.71,6432.00,PALM SPRINGS GENERAL HOSPITAL
5.21,2.21,28.55140,-81.72120,26598.08,5431.77,SOUTH LAKE HOSPITAL
5.25,2.09,28.02768,-81.72466,26855.12,4618.00,WINTER HAVEN HOSPITAL
7.66,2.48,25.84597,-80.26872,43854.37,7331.30,HIALEAH HOSPITAL
4.42,2.12,28.82358,-81.71133,20990.86,4816.29,FLORIDA HOSPITAL WATERMAN
4.49,2.07,29.17594,-82.13898,21474.35,4475.06,MUNROE REGIONAL MEDICAL CENTER
4.22,2.05,28.25431,-82.71447,19611.00,4340.88,MORTON PLANT NORTH BAY HOSPITAL
4.74,2.10,27.78088,-82.65126,23242.29,4668.14,ST ANTHONY'S HOSPITAL
3.56,2.05,29.24333,-81.10760,14928.55,4301.60,FLORIDA HOSPITAL MEMORIAL MEDICAL CENTER
5.92,2.25,27.09043,-82.44499,31557.06,5719.06,VENICE REGIONAL MEDICAL CENTER
8.68,2.14,28.53906,-82.44193,51030.21,4983.43,BROOKSVILLE REGIONAL HOSPITAL
4.44,2.17,28.91403,-81.28480,21172.71,5175.06,FLORIDA HOSPITAL FISH MEMORIAL
5.35,2.11,26.18711,-80.11941,27582.36,4725.00,HOLY CROSS HOSPITAL INC
4.16,2.22,27.98242,-82.49025,19179.17,5558.29,ST JOSEPH'S HOSPITAL
5.20,2.38,25.77941,-80.29397,26471.23,6628.91,METROPOLITAN HOSPITAL OF MIAMI
4.66,2.09,26.98905,-82.09559,22713.06,4633.61,PEACE RIVER REGIONAL MEDICAL CENTER
6.13,2.22,26.59805,-80.09271,33077.83,5504.75,JFK MEDICAL CENTER
3.65,2.09,28.80659,-81.86906,15579.65,4640.35,LEESBURG REGIONAL MEDICAL CENTER
5.19,2.18,26.27623,-80.12220,26440.07,5210.07,BROWARD HEALTH NORTH BROWARD MEDICAL CENTER
3.83,2.09,27.31827,-82.53140,16879.05,4643.50,SARASOTA MEMORIAL HOSPITAL
5.74,2.29,30.31525,-81.66398,30295.39,6051.52,BAPTIST MEDICAL CENTER
6.07,2.19,29.86371,-81.31749,32639.63,5302.34,FLAGLER HOSPITAL
3.95,2.10,28.33522,-80.72319,17696.19,4701.93,WUESTHOFF MEDICAL CENTER  ROCKLEDGE
4.13,2.10,30.43066,-87.23191,19000.39,4692.83,BAPTIST HOSPITAL
5.12,2.06,27.89590,-81.56547,25954.30,4404.48,LAKE WALES MEDICAL CENTER
4.03,2.05,30.19345,-82.63268,18300.78,4341.74,SHANDS LAKE SHORE REGIONAL MEDICAL CENTER
3.07,2.13,27.65832,-80.39307,11512.77,4906.00,INDIAN RIVER MEDICAL CENTER
5.40,2.11,26.61563,-81.65945,27876.45,4738.36,LEHIGH REGIONAL MEDICAL CENTER
4.69,2.11,27.50001,-81.43962,22896.32,4740.79,FLORIDA HOSPITAL HEARTLAND MEDICAL CENTER
6.43,2.30,28.29946,-81.41021,35154.76,6104.37,OSCEOLA REGIONAL MEDICAL CENTER
4.48,2.62,29.64155,-82.34844,21408.10,8334.85,SHANDS HOSPITAL AT THE UNIVERSITY OF FLORIDA
4.66,2.05,30.27449,-81.40071,22667.23,4298.69,BAPTIST MEDICAL CENTER  BEACHES
4.00,2.21,29.47897,-81.18915,18050.38,5420.54,FLORIDA HOSPITAL FLAGLER
6.57,2.09,30.73540,-86.56171,36149.22,4611.17,NORTH OKALOOSA MEDICAL CENTER
5.05,2.12,30.63421,-87.06708,25465.36,4797.36,SANTA ROSA MEDICAL CENTER
6.17,2.33,25.47971,-80.43038,33330.43,6270.43,HOMESTEAD HOSPITAL
4.10,2.11,27.95192,-82.80379,18790.42,4760.83,MORTON PLANT HOSPITAL
7.34,2.50,27.93740,-82.45927,41533.80,7476.39,TAMPA GENERAL HOSPITAL
6.34,2.16,25.96994,-80.14533,34522.38,5083.24,AVENTURA HOSPITAL AND MEDICAL CENTER
4.95,2.17,30.45726,-84.26175,24766.05,5184.21,TALLAHASSEE MEMORIAL HEALTHCARE
6.14,2.12,28.18120,-81.64018,33138.72,4817.88,HEART OF FLORIDA REGIONAL MEDICAL CENTER
2.67,2.09,30.78675,-85.24189,8718.67,4637.50,JACKSON HOSPITAL
3.88,2.36,24.58076,-81.74233,17222.36,6525.00,LOWER KEYS MEDICAL CENTER
3.48,2.33,30.26389,-81.44283,14398.75,6295.88,MAYO CLINIC
4.69,2.24,30.18340,-82.68783,22902.06,5650.65,LAKE CITY MEDICAL CENTER
4.94,2.11,28.06172,-81.95304,24699.89,4733.87,LAKELAND REGIONAL MEDICAL CENTER
4.68,2.11,28.81611,-81.28351,22873.89,4748.00,CENTRAL FLORIDA REGIONAL HOSPITAL
7.14,2.44,26.12647,-80.20519,40173.12,7067.94,PLANTATION GENERAL HOSPITAL
4.06,2.07,26.35875,-80.10203,18478.52,4497.16,BOCA RATON REGIONAL HOSPITAL
4.47,2.18,28.07111,-82.42342,21366.70,5238.91,FLORIDA HOSPITAL TAMPA
5.24,2.15,26.83035,-80.08655,26787.33,5012.28,PALM BEACH GARDENS MEDICAL CENTER
4.00,2.13,28.36005,-80.62309,18063.00,4902.20,CAPE CANAVERAL HOSPITAL
6.74,2.10,30.28793,-81.60103,37366.12,4704.86,MEMORIAL HOSPITAL JACKSONVILLE
8.40,2.39,25.74360,-80.25465,49009.53,6693.00,CORAL GABLES HOSPITAL
7.46,2.40,25.88563,-80.32635,42409.69,6791.62,PALMETTO GENERAL HOSPITAL
7.14,2.13,26.26259,-80.20292,40189.17,4865.08,NORTHWEST MEDICAL CENTER
6.79,2.06,28.19342,-82.46987,37702.60,4402.45,MEDICAL CENTER OF TRINITY
5.48,2.12,26.20644,-80.11086,28499.36,4809.27,BROWARD HEALTH IMPERIAL POINT MEDICAL CENTER
6.45,2.10,29.66085,-82.41172,35311.23,4667.36,NORTH FLORIDA REGIONAL MEDICAL CENTER
3.86,2.05,27.93758,-82.48933,17067.25,4351.42,MEMORIAL HOSPITAL OF TAMPA
6.46,2.34,25.73195,-80.38580,35346.70,6341.35,KENDALL REGIONAL MEDICAL CENTER
6.06,2.05,29.17550,-82.13680,32584.05,4329.40,OCALA REGIONAL MEDICAL CENTER
5.23,2.05,27.48213,-82.62126,26710.80,4307.53,BLAKE MEDICAL CENTER
5.65,2.11,27.84359,-80.48849,29643.07,4722.43,SEBASTIAN RIVER MEDICAL CENTER
3.96,2.12,26.52735,-81.83337,17763.33,4855.33,GULF COAST MEDICAL CENTER LEE MEM HEALTH SYSTEM
7.36,2.07,30.45448,-86.63362,41702.96,4433.83,FORT WALTON BEACH MEDICAL CENTER
7.20,2.11,26.21219,-80.25478,40554.58,4732.08,UNIVERSITY HOSPITAL AND MEDICAL CENTER
7.12,2.15,30.16550,-81.73775,40000.47,5029.63,ORANGE PARK MEDICAL CENTER
5.69,2.16,26.12354,-80.25951,29968.06,5088.89,WESTSIDE REGIONAL MEDICAL CENTER
7.18,2.23,26.02951,-80.24607,40450.53,5590.82,MEMORIAL HOSPITAL PEMBROKE
6.39,2.16,30.51624,-87.21856,34863.62,5097.00,WEST FLORIDA HOSPITAL
4.29,2.13,29.64481,-81.69431,20114.29,4889.79,PUTNAM COMMUNITY MEDICAL CENTER
5.37,2.03,26.98884,-82.09877,27690.00,4194.36,FAWCETT MEMORIAL HOSPITAL
7.23,2.13,27.82545,-82.70122,40760.04,4859.22,NORTHSIDE HOSPITAL
5.99,2.13,30.18657,-85.66513,32054.73,4868.09,GULF COAST MEDICAL CENTER
5.93,2.17,27.93259,-82.28759,31609.65,5194.80,BRANDON REGIONAL HOSPITAL
4.52,2.06,26.63958,-81.94164,21708.03,4366.48,CAPE CORAL HOSPITAL
5.91,2.22,27.43392,-80.34350,31514.97,5508.21,LAWNWOOD REGIONAL MEDICAL CENTER & HEART INSTITUTE
5.56,2.10,27.91458,-82.80382,29033.07,4676.23,LARGO MEDICAL CENTER
5.16,2.33,30.47616,-84.23140,26219.84,6322.20,CAPITAL REGIONAL MEDICAL CENTER
4.43,2.14,28.00237,-82.57309,21057.93,4934.43,TOWN & COUNTRY HOSPITAL
6.37,2.05,28.36128,-82.68883,34764.13,4312.29,REGIONAL MEDICAL CENTER BAYONET POINT
6.73,2.10,26.43709,-80.12728,37276.72,4700.50,DELRAY MEDICAL CENTER
6.86,2.06,27.71350,-82.36512,38213.17,4370.00,SOUTH BAY HOSPITAL
5.71,2.25,27.28861,-80.29431,30097.48,5709.96,ST LUCIE MEDICAL CENTER
9.96,2.05,28.53585,-82.53404,59995.11,4342.26,OAK HILL HOSPITAL
4.55,2.08,28.03957,-82.70875,21937.42,4512.50,MEASE COUNTRYSIDE HOSPITAL
6.27,2.28,26.68337,-80.25269,34011.00,5972.46,PALMS WEST HOSPITAL
5.01,2.17,26.26841,-80.25571,25142.38,5144.85,CORAL SPRINGS MEDICAL CENTER
6.43,2.33,26.01394,-80.30980,35163.68,6318.84,MEMORIAL HOSPITAL WEST
4.17,2.56,25.74731,-80.31765,19225.93,7927.93,WESTCHESTER GENERAL HOSPITAL
5.61,2.09,26.21388,-81.73257,29409.42,4575.00,PHYSICIANS REGIONAL MEDICAL CENTER - PINE RIDGE
5.47,2.14,26.70181,-80.05055,28381.17,4981.89,GOOD SAMARITAN MEDICAL CENTER
3.79,2.05,28.94952,-81.95843,16610.65,4333.94,VILLAGES REGIONAL HOSPITAL, THE
10.41,2.38,25.72132,-80.27116,63150.18,6663.09,DOCTORS HOSPITAL INC
5.28,2.07,28.24311,-81.30279,27082.36,4453.91,ST CLOUD REGIONAL MEDICAL CENTER
3.93,2.06,30.25377,-81.58270,17529.79,4385.63,ST VINCENT'S MEDICAL CENTER SOUTHSIDE
3.44,2.13,34.78963,-84.98398,14094.68,4918.71,HAMILTON MEDICAL CENTER
3.01,2.22,32.88710,-84.33393,11118.48,5495.05,UPSON REGIONAL MEDICAL CENTER
3.74,2.10,31.22516,-82.34898,16237.59,4689.33,SATILLA REGIONAL MEDICAL CENTER
3.74,2.14,34.94766,-85.26296,16192.55,4969.50,HUTCHESON MEDICAL CENTER
3.76,2.15,33.94791,-83.40531,16383.41,5038.47,ST MARY'S HOSPITAL
3.91,2.25,31.59023,-84.15756,17402.59,5760.30,PHOEBE PUTNEY MEMORIAL HOSPITAL
5.72,2.11,34.24569,-84.49068,30147.00,4765.55,NORTHSIDE HOSPITAL CHEROKEE
3.48,2.33,33.79230,-84.32107,14421.39,6314.29,EMORY UNIVERSITY HOSPITAL
3.17,2.14,33.03204,-85.05781,12224.08,4986.54,WEST GEORGIA MEDICAL CENTER
2.90,2.13,33.60237,-83.84809,10334.00,4873.29,NEWTON MEDICAL CENTER
4.44,2.25,34.51192,-84.92579,21117.14,5731.36,GORDON HOSPITAL
4.06,2.14,32.02825,-81.09977,18508.72,4981.34,CANDLER HOSPITAL
3.14,2.30,31.17425,-81.48459,12033.53,6064.73,SOUTHEAST GEORGIA HEALTH SYSTEM- BRUNSWICK CAMPUS
3.80,2.16,33.47096,-81.98176,16623.35,5112.89,UNIVERSITY HOSPITAL
3.81,2.20,34.30335,-83.81737,16723.00,5403.94,NORTHEAST GEORGIA MEDICAL CENTER, INC
6.42,2.15,34.19990,-84.79378,35118.87,5053.53,CARTERSVILLE MEDICAL CENTER
4.49,2.23,33.23886,-84.26706,21500.40,5604.13,SPALDING REGIONAL MEDICAL CENTER
3.42,2.51,33.47091,-81.98988,13957.33,7558.24,MEDICAL COLLEGE OF GA HOSPITALS AND CLINICS
5.04,2.21,33.96770,-84.55011,25386.61,5443.90,WELLSTAR KENNESTONE HOSPITAL
3.89,2.26,32.03185,-81.09158,17304.96,5820.77,MEMORIAL HEALTH UNIV MED CEN, INC
3.70,2.10,30.82614,-83.97393,15931.31,4645.23,JOHN D ARCHBOLD MEMORIAL HOSPITAL
3.68,2.07,31.98515,-81.15475,15787.53,4444.21,ST JOSEPH'S HOSPITAL - SAVANNAH
3.57,2.16,33.78334,-83.71709,15021.75,5126.17,WALTON REGIONAL MEDICAL CENTER
4.39,2.25,34.26000,-85.17000,20775.31,5710.81,FLOYD MEDICAL CENTER
3.64,2.32,32.46602,-84.98695,15554.61,6213.22,MEDICAL CENTER, THE
3.39,2.13,32.61642,-83.63065,13729.61,4911.03,HOUSTON MEDICAL CENTER
4.60,2.17,31.76996,-82.35014,22286.00,5163.18,APPLING HOSPITAL
4.74,2.32,32.54026,-82.95741,23272.43,6260.57,FAIRVIEW PARK HOSPITAL
3.26,2.15,33.96117,-83.39832,12867.58,5038.61,ATHENS REGIONAL MEDICAL CENTER
4.17,2.20,32.41483,-81.76990,19216.87,5357.60,EAST GEORGIA REGIONAL MEDICAL CENTER
3.18,2.22,33.78956,-84.28077,12299.24,5538.65,DEKALB MEDICAL CENTER
2.88,2.23,33.76810,-84.38616,10155.21,5600.42,EMORY UNIVERSITY HOSPITAL MIDTOWN
3.89,2.51,33.75205,-84.38272,17273.62,7567.51,GRADY MEMORIAL HOSPITAL
3.59,2.08,33.90877,-84.35180,15136.38,4505.12,SAINT JOSEPH'S HOSPITAL OF ATLANTA, INC
4.32,2.14,33.81003,-84.39568,20302.52,4932.76,PIEDMONT HOSPITAL
3.19,2.23,33.96351,-84.01769,12342.50,5593.46,GWINNETT MEDICAL CENTER
3.03,2.05,31.50971,-82.86341,11240.22,4333.78,COFFEE REGIONAL MEDICAL CENTER
3.99,2.21,33.68072,-84.00200,17985.53,5452.41,ROCKDALE MEDICAL CENTER
3.85,2.14,31.47069,-83.50473,17020.05,4928.43,TIFT REGIONAL MEDICAL CENTER
2.98,2.08,31.97683,-83.78280,10841.69,4505.56,CRISP REGIONAL HOSPITAL
3.77,2.25,32.83041,-83.63476,16408.46,5717.75,MEDICAL CENTER OF CENTRAL GEORGIA
7.16,2.38,33.76372,-84.37315,40282.52,6643.00,ATLANTA MEDICAL CENTER
3.56,2.20,30.86250,-83.28630,14970.45,5380.68,SOUTH GEORGIA MEDICAL CENTER
3.88,2.07,32.20903,-82.37585,17175.92,4443.00,MEADOWS REGIONAL MEDICAL CENTER
3.31,2.09,32.50679,-84.95933,13168.72,4606.93,ST FRANCIS HOSPITAL, INC
4.36,2.20,33.85638,-84.60446,20608.70,5359.97,WELLSTAR COBB HOSPITAL
5.02,2.13,31.53017,-84.17516,25259.92,4879.00,PHOEBE NORTH
4.44,2.15,32.84705,-83.61823,21169.13,5065.47,COLISEUM MEDICAL CENTER
4.39,2.21,33.57843,-84.38897,20809.67,5459.90,SOUTHERN REGIONAL MEDICAL CENTER
3.85,2.10,34.25704,-85.16467,17025.09,4666.68,REDMOND REGIONAL MEDICAL CENTER
6.29,2.19,33.48259,-82.09038,34191.69,5343.15,DOCTORS HOSPITAL
3.57,2.10,33.73938,-84.73111,15058.78,4694.43,WELLSTAR DOUGLAS HOSPITAL
2.96,2.12,33.51144,-84.22200,10743.62,4828.88,HENRY MEDICAL CENTER, INC
4.25,2.11,33.87683,-84.02136,19838.97,4749.10,EMORY EASTSIDE MEDICAL CENTER
7.15,2.14,34.06334,-84.31976,40258.08,4966.00,NORTH FULTON REGIONAL HOSPITAL
4.10,2.09,33.45252,-84.50697,18725.00,4624.00,PIEDMONT FAYETTE HOSPITAL
7.92,2.28,33.68000,-84.42685,45645.27,5938.81,SOUTH FULTON MEDICAL CENTER
3.43,2.21,33.70365,-84.14697,14025.57,5471.79,DEKALB MEDICAL CENTER AT HILLANDALE
3.89,2.12,33.39118,-84.81563,17261.25,4841.50,PIEDMONT NEWNAN HOSPITAL, INC
4.19,2.48,21.30780,-157.85505,19391.88,7369.04,THE QUEENS MEDICAL CENTER
3.31,2.36,21.37080,-158.02746,13184.92,6535.50,HAWAII MEDICAL CENTER WEST
2.77,2.22,42.59072,-114.49627,9376.71,5557.57,ST LUKES MAGIC VALLEY RMC
3.68,2.16,43.61218,-116.19234,15788.47,5079.07,ST LUKES REGIONAL MEDICAL CENTER
3.20,2.15,43.61359,-116.25484,12419.56,5062.25,ST ALPHONSUS REGIONAL MEDICAL CENTER
3.56,2.35,42.87331,-112.42180,14992.45,6458.55,PORTNEUF MEDICAL CENTER
3.43,2.16,47.69645,-116.79476,14019.82,5126.64,KOOTENAI MEDICAL CENTER
3.65,2.05,38.90068,-90.16026,15559.88,4356.25,ALTON MEMORIAL HOSPITAL
4.87,2.17,41.52896,-88.13550,24159.17,5159.19,PROVENA ST JOSEPH MEDICAL CENTER
4.26,2.28,42.06550,-87.68428,19896.08,5940.68,EVANSTON HOSPITAL
2.97,2.09,37.80207,-89.02660,10817.21,4607.25,HERRIN HOSPITAL
3.74,2.20,39.93563,-91.39833,16209.90,5378.33,BLESSING HOSPITAL
4.13,2.65,41.86011,-87.69571,18936.43,8584.83,MT SINAI HOSPITAL MEDICAL CENTER
6.34,2.54,41.72930,-88.26976,34558.55,7809.73,COPLEY MEMORIAL HOSPITAL
5.50,3.48,42.07012,-88.33180,28618.87,14386.30,SHERMAN HOSPITAL
2.48,2.02,39.12680,-88.55059,7337.08,4125.08,ST ANTHONYS MEMORIAL HOSPITAL
3.24,2.15,38.52908,-89.11604,12724.74,5002.93,ST MARYS HOSPITAL
4.83,2.43,40.95560,-90.36618,23918.93,6969.57,GALESBURG COTTAGE HOSPITAL
3.70,2.09,38.32292,-88.91026,15915.77,4612.69,GOOD SAMARITAN REGIONAL HLTH CENTER
4.37,2.30,41.72636,-87.56727,20632.51,6090.54,ADVOCATE TRINITY HOSPITAL
4.48,2.41,41.89141,-87.77618,21422.97,6896.84,WEST SUBURBAN MEDICAL CENTER
4.66,2.23,42.05624,-87.74012,22734.11,5604.43,SKOKIE HOSPITAL
4.01,2.22,39.80726,-89.64496,18151.67,5519.17,ST JOHNS HOSPITAL
4.15,2.35,41.83195,-87.79266,19140.35,6415.48,MACNEAL  HOSPITAL
3.91,2.11,41.66900,-87.81414,17407.44,4726.92,PALOS COMMUNITY HOSPITAL
3.87,2.15,41.87870,-87.80322,17133.20,5055.33,RUSH OAK PARK HOSPITAL
4.32,2.34,41.79660,-87.88627,20315.14,6395.07,ADVENTIST LA GRANGE MEMORIAL HOSPITAL
5.08,2.28,40.70200,-89.59222,25689.25,5926.46,SAINT FRANCIS MEDICAL CENTER
5.61,2.42,41.69322,-87.62436,29409.74,6955.17,ROSELAND COMMUNITY HOSPITAL
5.56,2.46,42.02578,-87.68371,29069.55,7193.39,RHC ST FRANCIS HOSPITAL
4.14,2.42,41.96698,-87.64941,19042.64,6939.62,LOUIS A WEISS MEMORIAL HOSPITAL
3.05,2.44,41.87259,-87.76181,11343.75,7081.25,LORETTO HOSPITAL
4.89,2.24,42.37840,-87.83329,24321.48,5694.68,VISTA MEDICAL CENTER EAST
7.00,2.69,41.78829,-87.60485,39164.92,8826.96,THE UNIVERSITY OF CHICAGO MEDICAL CENTER
3.91,2.22,40.11696,-88.21506,17446.25,5497.75,CARLE FOUNDATION HOSPITAL
4.99,2.20,40.13811,-87.64569,25007.60,5383.00,PROVENA UNITED SAMARITANS MEDCTR-LOGAN
5.15,2.44,41.85543,-87.69810,26115.79,7078.74,SAINT ANTHONY HOSPITAL
3.41,2.48,41.77813,-87.63330,13932.31,7349.73,ST BERNARD HOSPITAL
5.51,2.19,40.11739,-88.22714,28651.00,5290.13,PROVENA COVENANT MEDICAL CENTER- URBANA
6.61,2.35,41.97532,-87.69958,36397.04,6447.54,SWEDISH COVENANT HOSPITAL
3.36,2.38,41.95453,-87.65225,13534.50,6667.31,THOREK MEMORIAL HOSPITAL
3.77,2.12,42.31832,-88.27920,16448.67,4808.00,CENTEGRA HEALTH SYSTEM - MC HENRY HOSPITAL
5.82,2.22,41.98743,-87.81440,30873.00,5536.55,RESURRECTION MEDICAL CENTER
3.81,2.22,41.65880,-87.67729,16711.71,5542.42,METROSOUTH MEDICAL CENTER
4.03,2.54,41.87497,-87.66927,18282.93,7773.98,RUSH UNIVERSITY MEDICAL CENTER
4.52,2.16,41.80555,-87.92059,21681.46,5115.85,HINSDALE HOSPITAL
3.47,2.77,41.87381,-87.67421,14308.67,9402.42,JOHN H STROGER JR HOSPITAL
6.91,2.23,38.70148,-90.14382,38509.09,5629.61,GATEWAY REGIONAL MEDICAL CENTER
4.43,2.11,42.25244,-87.86528,21076.00,4736.29,LAKE FOREST HOSPITAL
4.25,2.27,41.76946,-87.69239,19847.80,5887.80,HOLY CROSS HOSPITAL
3.67,2.20,39.86644,-88.96090,15742.93,5382.41,DECATUR MEMORIAL HOSPITAL
3.59,2.17,39.80893,-89.65530,15140.26,5202.29,MEMORIAL MEDICAL CENTER
4.51,2.90,41.86927,-87.67052,21643.55,10320.30,UNIVERSITY OF ILLINOIS HOSPITAL
5.29,2.27,41.12049,-87.87187,27112.68,5849.24,PROVENA ST MARYS HOSPITAL
3.26,2.52,41.84639,-87.62345,12853.49,7622.71,MERCY HOSPITAL AND MEDICAL CENTER
3.20,2.12,37.72790,-89.22058,12405.16,4793.37,MEMORIAL HOSPITAL OF CARBONDALE
3.95,2.30,41.52283,-87.71111,17698.33,6090.42,FRANCISCAN ST JAMES HEALTH
6.38,2.34,41.78566,-88.32886,34834.12,6399.81,PROVENA MERCY MEDICAL CENTER
3.88,2.30,42.27597,-88.40019,17225.93,6103.20,CENTEGRA HEALTH SYSTEM - WOODSTOCK HOSPITAL
5.52,2.50,41.75746,-87.58559,28765.00,7476.50,JACKSON PARK HOSPITAL
4.83,2.17,41.72094,-87.69220,23873.64,5199.58,LITTLE COMPANY OF MARY HOSPITAL
4.88,2.47,41.90414,-87.68254,24271.85,7302.94,ST MARY & ELIZABETH MED CTR-DIVISION CAMPUS
4.38,2.34,41.74948,-87.56909,20706.84,6370.89,SOUTH SHORE HOSPITAL
5.03,2.59,41.93641,-87.65295,25299.54,8134.71,ADVOCATE ILLINOIS MASONIC MEDICAL CENTER
3.91,2.10,38.55020,-90.02146,17440.83,4702.86,MEMORIAL HOSPITAL
3.61,2.23,41.12572,-87.88526,15293.92,5603.65,RIVERSIDE MEDICAL CENTER
4.21,2.20,38.51081,-89.99014,19568.32,5358.00,ST ELIZABETH HOSPITAL
3.47,2.12,39.48849,-88.27581,14337.42,4843.00,SARAH BUSH LINCOLN HEALTH CENTER
4.68,2.23,41.60726,-87.66060,22815.81,5594.02,INGALLS MEMORIAL HOSPITAL
6.96,2.11,41.86362,-87.93567,38906.35,4730.82,ELMHURST MEMORIAL HOSPITAL
5.46,2.16,42.27447,-87.95764,28326.81,5095.78,ADVOCATE CONDELL MEDICAL CENTER
5.50,2.52,41.90078,-87.69925,28619.05,7668.16,NORWEGIAN-AMERICAN HOSPITAL
4.14,2.54,41.72031,-87.73249,19060.32,7755.22,ADVOCATE CHRIST HOSPITAL & MEDICAL CENTER
3.91,2.20,40.70065,-89.59505,17415.50,5418.43,METHODIST MEDICAL CENTER OF ILLINOIS
4.94,2.12,41.88566,-88.34311,24706.67,4796.92,DELNOR COMMUNITY HOSPITAL
3.62,2.21,41.54446,-87.98379,15405.14,5449.52,SILVER CROSS HOSPITAL  AND MEDICAL CENTERS
5.03,2.10,42.03576,-88.32575,25335.40,4698.07,PROVENA - SAINT JOSEPH HOSPITAL
3.52,2.30,42.03837,-87.84820,14659.78,6095.72,ADVOCATE LUTHERAN GENERAL HOSPITAL
4.22,2.54,41.93418,-87.63579,19620.74,7781.95,SAINT JOSEPH HOSPITAL
4.19,2.27,42.26584,-89.07428,19392.35,5901.25,SWEDISH AMERICAN HOSPITAL
4.08,2.11,41.76076,-88.15016,18591.95,4771.86,EDWARD HOSPITAL
4.69,2.08,42.26634,-89.00900,22923.24,4550.14,SAINT ANTHONY MEDICAL CENTER
3.90,2.24,42.29844,-89.09897,17386.05,5645.00,ROCKFORD MEMORIAL HOSPITAL
5.76,2.45,41.89166,-87.84838,30423.08,7131.92,WESTLAKE COMMUNITY HOSPITAL
4.96,2.31,41.87269,-88.15684,24797.88,6148.79,CENTRAL DUPAGE HOSPITAL
4.11,2.17,41.56720,-87.69566,18826.00,5194.54,ADVOCATE SOUTH SUBURBAN HOSPITAL
5.14,2.20,41.94560,-87.76897,26049.96,5403.93,OUR LADY OF THE RESURRECTION MED CTR
4.22,2.26,42.06732,-87.99368,19617.22,5801.59,NORTHWEST COMMUNITY HOSPITAL
4.76,2.12,42.00413,-88.01745,23379.61,4797.28,ALEXIAN BROTHERS MEDICAL CENTER
3.74,2.52,41.86110,-87.83404,16200.69,7611.64,LOYOLA UNIVERSITY MEDICAL CENTER
2.93,2.12,41.48200,-90.57158,10517.30,4826.00,TRINITY ROCK ISLAND
4.61,2.47,41.89477,-87.62131,22345.21,7293.19,NORTHWESTERN MEMORIAL HOSPITAL
4.06,2.11,41.96185,-88.72130,18455.08,4746.08,KISHWAUKEE COMMUNITY HOSPITAL
5.04,2.11,41.81791,-88.00907,25393.42,4741.36,ADVOCATE GOOD SAMARITAN HOSPITAL
3.23,2.21,38.73818,-89.94728,12629.53,5484.76,ANDERSON HOSPITAL
4.50,2.22,42.05260,-88.14173,21550.65,5511.62,ST ALEXIUS MEDICAL CENTER
5.12,2.14,41.68062,-88.08319,25935.73,4972.18,ADVENTIST BOLINGBROOK HOSPITAL
3.60,2.24,41.59920,-87.35764,15268.27,5656.87,METHODIST HOSPITALS INC
4.20,2.15,40.42687,-86.88197,19489.14,5015.09,FRANCISCAN ST ELIZABETH HEALTH - LAFAYETTE CENTRAL
3.47,2.22,41.61514,-87.52413,14300.95,5555.10,FRANCISCAN ST MARGARET HEALTH - HAMMOND
3.19,2.24,41.63466,-87.44901,12342.81,5651.62,ST CATHERINE HOSPITAL INC
2.90,2.12,38.28244,-85.74923,10277.55,4804.23,CLARK MEMORIAL HOSPITAL
3.08,2.13,40.56435,-85.66576,11548.58,4872.25,MARION GENERAL HOSPITAL
3.54,2.19,41.70877,-86.17026,14816.19,5314.87,SAINT JOSEPH REGIONAL MEDICAL CENTER
3.48,2.14,41.70639,-86.89936,14411.42,4964.88,FRANCISCAN ST ANTHONY HEALTH - MICHIGAN CITY
4.04,2.15,41.03874,-85.24876,18363.08,5016.64,LUTHERAN HOSPITAL OF INDIANA
3.66,2.11,41.70568,-85.93404,15646.03,4715.48,ELKHART GENERAL HOSPITAL
4.06,2.14,41.04659,-85.10906,18491.52,4931.10,PARKVIEW REGIONAL MEDICAL CENTER
3.77,2.15,39.48518,-87.40893,16406.95,5032.38,UNION HOSPITAL INC
3.01,2.53,39.78091,-86.17629,11073.60,7727.36,WILLIAM N WISHARD MEMORIAL HOSPITAL
3.84,2.10,39.72432,-86.10055,16956.26,4682.55,FRANCISCAN ST FRANCIS HEALTH - BEECH GROVE
3.63,2.14,41.51266,-87.26125,15480.09,4968.26,ST MARY MEDICAL CENTER INC
4.67,2.16,41.46729,-87.05130,22754.85,5097.82,PORTER VALPARAISO HOSPITAL
3.00,2.05,38.67313,-87.53370,10986.92,4348.46,GOOD SAMARITAN HOSPITAL
3.33,2.05,38.30195,-85.83409,13321.74,4362.50,FLOYD MEMORIAL HOSPITAL AND HEALTH SERVICES
4.96,2.12,39.41951,-87.40898,24825.06,4827.44,TERRE HAUTE REGIONAL HOSPITAL
2.89,2.20,39.86405,-84.88413,10236.82,5415.21,REID HOSPITAL & HEALTH CARE SERVICES
3.43,2.15,39.16006,-86.54038,14045.47,5025.60,INDIANA UNIVERSITY HEALTH BLOOMINGTON HOSPITAL
4.96,2.52,39.79009,-86.16260,24830.00,7634.76,INDIANA UNIVERSITY HEALTH
4.15,2.10,39.60783,-86.35573,19122.00,4695.18,FRANCISCAN ST FRANCIS HEALTH - MOORESVILLE
3.10,2.18,41.68479,-86.25217,11697.00,5209.00,MEMORIAL HOSPITAL OF SOUTH BEND
3.13,2.19,39.65626,-85.13265,11942.93,5313.00,FAYETTE REGIONAL HEALTH SYSTEM
3.11,2.13,38.73589,-85.37996,11821.12,4868.62,KING'S DAUGHTERS' HOSPITAL AND HEALTH SERVICES,THE
3.37,2.20,39.78704,-86.07673,13642.26,5373.00,COMMUNITY HOSPITAL EAST
3.87,2.07,37.98293,-87.57072,17139.98,4458.78,DEACONESS HOSPITAL INC
4.87,2.30,39.91001,-86.19660,24178.62,6052.98,ST VINCENT HOSPITAL & HEALTH SERVICES
4.14,2.18,40.09594,-85.68152,19064.50,5249.36,SAINT JOHN'S HEALTH SYSTEM
5.08,2.22,40.19679,-85.41573,25654.36,5510.60,INDIANA UNIVERSITY HEALTH BALL MEMORIAL HOSPITAL
4.12,2.13,41.49222,-87.52429,18904.06,4859.12,FRANCISCAN ST MARGARET HEALTH - DYER
3.59,2.15,37.96320,-87.50292,15170.70,5063.18,ST MARY'S MEDICAL CENTER OF EVANSVILLE INC
3.13,2.12,39.21585,-85.89683,11964.63,4830.79,COLUMBUS REGIONAL HOSPITAL
3.12,2.13,40.12998,-85.69436,11868.11,4865.56,COMMUNITY HOSPITAL OF ANDERSON AND MADISON COUNTY
3.64,2.13,41.55065,-87.50619,15496.02,4915.28,COMMUNITY HOSPITAL
4.03,2.16,41.39576,-87.36689,18251.52,5109.52,FRANCISCAN ST ANTHONY HEALTH - CROWN POINT
3.85,2.14,39.63776,-86.13260,16997.24,4975.59,COMMUNITY HOSPITAL SOUTH
3.65,2.09,41.24786,-85.82927,15555.92,4596.92,KOSCIUSKO COMMUNITY HOSPITAL
4.42,2.11,39.78047,-86.34084,21014.56,4752.48,IU HEALTH WEST HOSPITAL
3.37,2.14,39.90060,-86.04218,13593.08,4979.50,COMMUNITY HOSPITAL NORTH
3.93,2.09,40.40296,-86.80885,17565.42,4598.47,INDIANA UNIVERSITY HEALTH ARNETT HOSPITAL
3.90,2.19,41.60051,-93.61086,17351.71,5322.36,IOWA LUTHERAN HOSPITAL
3.61,2.25,41.26886,-95.83923,15328.58,5710.33,ALEGENT HEALTH MERCY HOSPITAL
3.36,2.08,41.66411,-91.52841,13518.58,4524.75,MERCY HOSPITAL
2.98,2.08,42.03321,-93.61164,10877.24,4530.29,MARY GREELEY MEDICAL CENTER
2.98,2.10,41.54190,-90.55691,10858.12,4649.59,GENESIS MEDICAL CENTER-DAVENPORT
3.90,2.13,41.98570,-91.66093,17335.22,4890.67,ST LUKES HOSPITAL
3.01,2.11,40.81009,-91.17356,11102.46,4778.31,GREAT RIVER MEDICAL CENTER
4.73,2.50,41.66092,-91.54800,23178.00,7491.69,UNIVERSITY OF IOWA HOSPITAL & CLINICS
3.35,2.09,43.15063,-93.21718,13459.14,4641.21,MERCY MEDICAL CENTER-NORTH IOWA
2.95,2.05,41.97864,-91.65507,10692.73,4300.13,MERCY MEDICAL CENTER - CEDAR RAPIDS
3.62,2.16,41.58955,-93.63248,15375.06,5107.75,IOWA METHODIST MEDICAL CENTER
3.80,2.17,41.59886,-93.62344,16659.49,5168.32,MERCY MEDICAL CENTER-DES MOINES
2.95,2.12,41.02751,-92.38994,10645.67,4824.75,OTTUMWA REGIONAL HEALTH CENTER
3.01,2.10,42.52665,-92.33957,11116.78,4691.59,ALLEN MEMORIAL HOSPITAL
2.71,2.05,42.49632,-90.68587,8985.47,4334.21,THE FINLEY HOSPITAL
3.24,2.18,42.51846,-96.40581,12681.75,5222.94,ST LUKES REGIONAL MEDICAL CENTER
3.59,2.05,42.49250,-96.39975,15149.85,4320.54,MERCY MEDICAL CENTER-SIOUX CITY
3.53,2.11,37.37991,-94.68739,14744.82,4778.00,VIA CHRISTI HOSPITAL PITTSBURG INC
3.61,2.12,38.83324,-97.61028,15318.27,4810.91,SALINA REGIONAL HEALTH CENTER
3.15,2.08,39.05660,-95.69599,12104.11,4538.67,ST FRANCIS HEALTH CENTER INC
3.53,2.17,38.07731,-97.89183,14733.73,5185.53,HUTCHINSON REGIONAL MEDICAL CENTER INC
5.38,2.29,39.05583,-94.60912,27789.23,6034.21,UNIVERSITY OF KANSAS HOSPITAL
4.06,2.14,39.05128,-95.69572,18500.71,4971.04,STORMONT-VAIL HEALTHCARE
5.42,2.06,38.99549,-94.69061,28070.71,4421.96,SHAWNEE MISSION MEDICAL CENTER
3.86,2.35,37.70405,-97.31386,17080.83,6420.28,VIA CHRISTI HOSPITALS WICHITA INC
5.19,2.35,37.69556,-97.29785,26406.20,6435.40,WESLEY MEDICAL CENTER
2.90,2.11,38.97848,-95.24771,10302.56,4750.81,LAWRENCE MEMORIAL HOSPITAL
3.80,2.13,39.12677,-94.78643,16613.32,4900.21,PROVIDENCE MEDICAL CENTER
4.66,2.06,38.90355,-94.66966,22668.91,4371.91,SAINT LUKE'S SOUTH HOSPITAL
2.85,2.05,37.73142,-97.26078,9986.64,4294.00,GALICHIA HEART HOSPITAL LLC
2.90,2.13,39.07816,-84.46695,10327.62,4893.54,ST ELIZABETH FT THOMAS
3.92,2.09,37.11520,-82.81022,17520.55,4638.45,WHITESBURG ARH HOSPITAL
3.79,2.15,38.47021,-82.63498,16567.44,5034.36,KING'S DAUGHTERS' MEDICAL CENTER
3.70,2.25,38.03140,-84.52194,15962.08,5702.38,SAINT JOSEPH HOSPITAL
3.65,2.17,37.11784,-84.10910,15582.95,5199.05,SAINT JOSEPH HOSPITAL LONDON
2.34,2.06,37.71183,-85.87623,6343.55,4427.32,HARDIN MEMORIAL HOSPITAL
4.27,2.44,36.99641,-86.43006,19929.33,7056.27,THE MEDICAL CENTER AT BOWLING GREEN
2.80,2.25,38.18397,-83.43268,9594.18,5744.36,ST CLAIRE REGIONAL MEDICAL CENTER
3.07,2.11,36.60615,-83.74024,11477.43,4773.38,MIDDLESBORO APPALACHIAN REGIONAL HEALTHCARE HOSPIT
2.53,2.08,36.76316,-83.70793,7674.92,4550.85,PINEVILLE COMMUNITY HOSPITAL
3.41,2.14,39.06704,-84.49946,13878.38,4969.72,ST ELIZABETH MEDICAL CENTER NORTH
3.14,2.05,36.60798,-88.30957,11989.57,4359.57,MURRAY-CALLOWAY COUNTY HOSPITAL
4.11,2.17,37.27729,-83.22802,18841.25,5140.12,HAZARD ARH REGIONAL MEDICAL CENTER
3.54,2.13,38.50697,-82.69222,14825.08,4890.62,OUR LADY OF BELLEFONTE HOSPITAL
3.16,2.38,37.76518,-87.10197,12111.09,6641.18,OWENSBORO MEDICAL HEALTH SYSTEM
3.59,2.22,38.24927,-85.75081,15169.85,5546.74,JEWISH HOSPITAL & ST MARY'S HEALTHCARE
5.45,2.29,37.47264,-82.52605,28241.19,6028.56,PIKEVILLE MEDICAL CENTER
3.37,2.17,39.01660,-84.63078,13639.27,5159.80,ST ELIZABETH FLORENCE
2.97,2.15,37.64378,-84.77272,10832.67,5016.00,EPHRAIM MCDOWELL REGIONAL MEDICAL CENTER
3.21,2.20,37.73107,-84.29238,12459.62,5389.77,PATTIE A CLAY REGIONAL MEDICAL CENTER
2.80,2.14,36.80963,-83.31313,9618.32,4951.53,HARLAN APPALACHIAN REGIONAL HEALTHCARE HOSPITAL
3.06,2.14,37.85504,-87.58345,11464.45,4936.82,METHODIST HOSPITAL
4.49,2.54,38.03282,-84.50674,21489.36,7807.85,UNIVERSITY OF KENTUCKY HOSPITAL
2.84,2.14,37.67604,-82.29731,9905.55,4939.73,WILLIAMSON ARH HOSPITAL
3.32,2.13,36.92128,-84.11838,13258.24,4868.16,BAPTIST REGIONAL MEDICAL CENTER
3.01,2.12,37.36583,-85.33917,11085.58,4791.75,TAYLOR REGIONAL HOSPITAL
3.95,2.22,38.24806,-85.75125,17736.83,5558.47,NORTON HOSPITALS, INC
3.68,2.11,37.33959,-87.48988,15808.64,4729.29,REGIONAL MEDICAL CENTER OF HOPKINS COUNTY
2.72,2.03,37.06431,-88.67523,9050.65,4197.15,LOURDES HOSPITAL
3.45,2.14,38.01849,-84.51236,14217.58,4937.17,CENTRAL BAPTIST HOSPITAL
2.99,2.09,37.07404,-88.62685,10949.17,4593.81,WESTERN BAPTIST HOSPITAL
2.34,2.26,36.70006,-85.67862,6383.69,5819.92,MONROE COUNTY MEDICAL CENTER
3.43,2.10,36.75751,-88.65129,14072.55,4697.00,JACKSON PURCHASE MEDICAL CENTER
3.89,2.12,38.16020,-84.90519,17250.00,4835.25,FRANKFORT REGIONAL MEDICAL CENTER
4.47,2.05,38.11425,-82.60321,21386.25,4294.67,THREE RIVERS MEDICAL CENTER
2.93,2.04,38.23898,-85.63941,10554.43,4275.17,BAPTIST HOSPITAL EAST
3.38,2.17,37.08724,-84.61828,13665.56,5198.38,LAKE CUMBERLAND REGIONAL HOSPITAL
4.33,2.46,38.24802,-85.74464,20368.72,7204.89,UNIVERSITY OF LOUISVILLE HOSPITAL
2.46,2.22,37.09412,-85.29359,7245.44,5529.75,WESTLAKE REGIONAL HOSPITAL
3.24,2.10,30.77914,-89.86795,12678.38,4671.54,WASHINGTON ST TAMMANY  REGIONAL MEDICAL CENTER
3.44,2.14,30.20227,-92.01906,14115.62,4965.15,LAFAYETTE GENERAL MEDICAL CENTER
3.62,2.05,29.77956,-90.80568,15394.74,4297.79,THIBODAUX REGIONAL MEDICAL CENTER
3.93,2.59,29.95958,-90.07701,17548.55,8125.82,CHARITY HOSPITAL & MEDICAL CENTER OF LOUI AT NO
2.94,2.15,31.75235,-93.07788,10559.57,5015.00,NATCHITOCHES REGIONAL MEDICAL CENTER
3.68,2.03,30.22981,-93.36867,15805.27,4204.82,WEST CALCASIEU CAMERON HOSPITAL
4.44,2.23,29.69402,-91.20867,21151.62,5616.00,TECHE REGIONAL MEDICAL CENTER
6.00,2.22,30.46813,-90.45814,32111.27,5503.27,NORTH OAKS MEDICAL CENTER, LLC
3.32,2.20,30.54354,-92.07608,13253.17,5388.92,OPELOUSAS GENERAL HEALTH SYSTEM
4.35,2.16,31.28258,-92.46060,20501.33,5109.15,CHRISTUS ST FRANCES CABRINI HOSPITAL
3.57,2.10,30.65001,-91.13821,15042.72,4672.28,LANE REGIONAL MEDICAL CENTER
6.61,2.29,31.31451,-92.44997,36447.85,6028.77,RAPIDES REGIONAL MEDICAL CENTER
5.41,2.29,30.21521,-93.22682,27962.21,5999.00,CHRISTUS ST PATRICK HOSPITAL
3.45,2.26,30.01875,-90.19452,14183.64,5833.82,OCHSNER FOUNDATION HOSPITAL
3.53,2.17,29.89089,-90.09395,14742.65,5205.57,WEST JEFFERSON MEDICAL CENTER
5.66,2.12,30.28456,-89.77038,29722.83,4835.25,SLIDELL MEMORIAL HOSPITAL AND MEDICAL CENTER
3.83,2.17,32.49443,-93.75011,16828.27,5190.27,CHRISTUS SCHUMPERT HEALTH SYSTEM
2.03,2.06,30.22762,-92.36253,4190.91,4427.64,AMERICAN LEGION HOSPITAL
4.98,2.10,30.46834,-90.11383,24935.73,4666.45,ST TAMMANY PARISH HOSPITAL
6.21,2.24,29.92596,-90.09191,33591.62,5673.62,TOURO INFIRMARY
4.38,2.17,30.20458,-93.19774,20752.17,5149.87,LAKE CHARLES MEMORIAL HOSPITAL
3.28,2.29,30.40118,-91.11160,13005.09,6003.91,OUR LADY OF THE LAKE REGIONAL MEDICAL CENTER
2.72,2.22,30.45015,-91.15273,9018.85,5502.76,BATON ROUGE GENERAL MEDICAL CENTER
4.12,2.13,32.51544,-92.63343,18881.04,4894.83,NORTHERN LOUISIANA MEDICAL CENTER
2.39,2.43,32.48177,-93.76264,6706.31,6992.23,LSU HEALTH SCIENCES CENTER - SHREVEPORT
3.14,2.11,30.15052,-92.03698,11990.23,4741.88,OUR LADY OF LOURDES REGIONAL MEDICAL CENTER, INC
4.31,2.11,32.48393,-93.77884,20244.75,4761.46,WILLIS KNIGHTON MEDICAL CENTER
4.10,2.13,32.49997,-92.11359,18749.18,4900.86,ST FRANCIS MEDICAL CENTER
3.38,2.36,32.61700,-93.28566,13684.21,6540.79,MINDEN MEDICAL CENTER
3.48,2.07,30.01438,-90.18155,14376.45,4477.90,EAST JEFFERSON GENERAL HOSPITAL
4.86,2.10,32.51315,-92.15713,24114.46,4671.04,GLENWOOD REGIONAL MEDICAL CENTER
4.23,2.08,31.13861,-93.26892,19699.92,4552.00,BYRD REGIONAL HOSPITAL
2.83,2.17,30.68494,-92.26601,9821.93,5153.57,MERCY REGIONAL MEDICAL CENTER
6.17,2.43,29.95570,-90.07587,33354.08,7018.44,TULANE MEDICAL CENTER
2.39,2.08,32.10429,-92.07602,6738.73,4522.00,CALDWELL MEMORIAL HOSPITAL
3.46,2.09,30.43973,-91.00727,14280.39,4622.78,OCHSNER MEDICAL CENTER-BATON ROUGE
3.94,2.03,32.55761,-93.71874,17611.05,4185.64,WILLIS KNIGHTON BOSSIER HEALTH CENTER
2.90,2.10,30.20918,-90.93215,10277.45,4665.18,ST ELIZABETH HOSPITAL
3.11,2.10,44.81469,-68.77153,11808.55,4668.77,ST JOSEPH HOSPITAL
3.31,2.15,43.65159,-70.26482,13183.08,5027.42,MERCY HOSPITAL
3.74,2.45,43.65325,-70.27533,16242.76,7134.43,MAINE MEDICAL CENTER
3.44,2.21,43.47840,-70.49221,14091.73,5427.93,SOUTHERN MAINE MEDICAL CENTER
3.33,2.20,43.90901,-69.89611,13307.08,5411.92,MID COAST HOSPITAL
2.92,2.19,44.10107,-70.21432,10420.42,5283.16,CENTRAL MAINE MEDICAL CENTER
3.28,2.20,44.80988,-68.74929,12983.12,5367.48,EASTERN MAINE MEDICAL CENTER
3.82,2.21,45.25378,-69.44547,16778.28,5478.44,MAINE GENERAL MEDICAL CENTER
3.35,2.27,44.14436,-69.08577,13464.33,5889.67,PENOBSCOT BAY MEDICAL CENTER
2.38,2.33,39.62183,-77.68219,6640.71,6331.77,MERITUS MEDICAL CENTER
3.16,3.05,39.28817,-76.62438,12115.92,11394.04,UNIVERSITY OF MARYLAND MEDICAL CENTER
2.84,2.76,38.93090,-76.92161,9908.62,9314.15,PRINCE GEORGES HOSPITAL CENTER
2.38,2.32,39.01578,-77.03591,6617.50,6257.53,HOLY CROSS HOSPITAL
2.37,2.31,39.42366,-77.41386,6579.91,6185.09,FREDERICK MEMORIAL HOSPITAL
2.53,2.47,39.54345,-76.09153,7701.68,7299.05,HARFORD MEMORIAL HOSPITAL
2.51,2.46,39.38813,-76.61068,7574.41,7203.67,SAINT JOSEPH MEDICAL CENTER
2.63,2.56,39.29297,-76.61314,8424.90,7919.40,MERCY MEDICAL CENTER INC
3.38,3.28,39.29688,-76.59242,13667.24,12976.17,JOHNS HOPKINS HOSPITAL, THE
2.64,2.57,39.27352,-76.67219,8480.74,7972.02,SAINT AGNES HOSPITAL
2.51,2.45,39.35262,-76.66196,7562.11,7108.45,SINAI HOSPITAL OF BALTIMORE
2.78,2.70,39.28833,-76.64912,9479.83,8911.22,BON SECOURS HOSPITAL
2.65,2.58,39.35169,-76.47919,8578.80,8091.31,FRANKLIN SQUARE HOSPITAL CENTER
2.72,2.64,38.98482,-77.00139,9013.69,8504.36,WASHINGTON ADVENTIST HOSPITAL
2.43,2.37,39.41339,-79.40103,7032.08,6610.33,GARRETT COUNTY MEMORIAL HOSPITAL
2.62,2.56,39.15402,-77.05431,8352.40,7926.60,MONTGOMERY GENERAL HOSPITAL INC
2.55,2.49,38.36248,-75.59799,7846.02,7399.76,PENINSULA REGIONAL MEDICAL CENTER
2.15,2.11,38.99743,-77.11048,5037.58,4735.37,SUBURBAN HOSPITAL
2.49,2.43,38.99014,-76.53398,7440.13,7037.55,ANNE ARUNDEL MEDICAL CENTER
2.60,2.53,39.32930,-76.61432,8192.40,7700.83,UNION MEMORIAL HOSPITAL
2.56,2.50,39.64928,-78.73206,7906.07,7481.31,WESTERN MARYLAND REGIONAL MEDICAL CENTER
2.31,2.26,38.29124,-76.63579,6150.79,5781.52,SAINT MARY'S HOSPITAL
2.68,2.62,39.29100,-76.54623,8791.17,8351.11,JOHNS HOPKINS BAYVIEW MEDICAL CENTER
2.65,2.58,39.60859,-75.83201,8574.00,8059.50,UNION HOSPITAL OF CECIL COUNTY
2.79,2.71,39.55808,-76.99107,9524.97,8953.50,CARROLL HOSPITAL CENTER
2.81,2.73,39.25189,-76.61399,9667.78,9087.74,HARBOR HOSPITAL
2.29,2.24,38.52905,-76.97068,6050.83,5687.74,CIVISTA MEDICAL CENTER
2.41,2.35,38.76970,-76.07697,6850.71,6439.63,MEMORIAL HOSPITAL AT EASTON
2.76,2.68,39.29994,-76.62138,9345.83,8785.08,MARYLAND GENERAL  HOSPITAL
2.47,2.42,38.55963,-76.59455,7304.13,6941.13,CALVERT MEMORIAL HOSPITAL
2.40,2.35,39.35852,-76.78208,6825.47,6438.64,NORTHWEST HOSPITAL CENTER
2.19,2.14,39.13732,-76.62228,5280.33,4963.63,BALTIMORE WASHINGTON  MEDICAL CENTER
2.64,2.57,39.39017,-76.62216,8467.84,7959.76,GREATER BALTIMORE MEDICAL CENTER
2.62,2.55,39.21273,-76.88526,8332.46,7872.93,HOWARD COUNTY GENERAL HOSPITAL
2.35,2.30,39.51870,-76.34688,6443.89,6057.22,UPPER CHESAPEAKE MEDICAL CENTER
2.43,2.37,38.96851,-76.86203,7006.81,6613.36,DOCTORS'  COMMUNITY HOSPITAL
2.51,2.45,38.74827,-76.87590,7597.62,7141.82,SOUTHERN MARYLAND HOSPITAL CENTER
2.40,2.34,39.08690,-76.88163,6763.05,6357.24,LAUREL REGIONAL MEDICAL CENTER
2.54,2.48,39.35962,-76.58851,7796.08,7367.22,GOOD SAMARITAN HOSPITAL
2.57,2.51,39.09796,-77.19799,8003.22,7557.38,SHADY GROVE ADVENTIST HOSPITAL
2.25,2.20,38.72818,-76.99214,5720.82,5380.71,FORT WASHINGTON HOSPITAL
2.60,2.53,38.33876,-75.21128,8221.57,7728.57,ATLANTIC GENERAL HOSPITAL
3.23,2.29,42.54113,-71.76120,12610.46,5982.92,HEALTHALLIANCE HOSPITALS, INC
3.38,2.37,42.37441,-71.13378,13709.00,6605.95,MOUNT AUBURN HOSPITAL
2.63,2.17,41.94236,-71.27364,8398.65,5168.75,STURDY MEMORIAL HOSPITAL
2.72,2.36,42.70912,-71.14877,9018.11,6501.04,LAWRENCE GENERAL HOSPITAL
2.79,2.56,42.37451,-71.10418,9525.35,7940.62,CAMBRIDGE HEALTH ALLIANCE
2.81,2.38,41.65298,-70.27484,9688.15,6639.30,CAPE COD HOSPITAL
2.55,2.15,42.33185,-72.65422,7837.42,4998.42,COOLEY DICKINSON HOSPITAL INC,THE
2.70,2.57,42.27872,-71.06625,8870.43,8013.22,CARNEY HOSPITAL
2.58,2.29,42.07708,-72.04298,8067.26,6002.42,HARRINGTON MEMORIAL HOSPITAL
2.79,2.27,41.69217,-71.16474,9509.68,5858.29,SAINT ANNE'S HOSPITAL
2.72,2.24,42.20038,-72.62762,9009.05,5676.81,HOLYOKE MEDICAL CENTER
2.54,2.19,42.81476,-70.89068,7793.79,5302.00,ANNA JAQUES HOSPITAL
2.90,2.09,42.16849,-72.34130,10314.33,4633.92,WING MEMORIAL HOSPITAL AND MEDICAL CENTER
3.13,2.82,42.35843,-71.05977,11957.31,9781.19,BOSTON MEDICAL CENTER CORPORATION
2.38,2.22,42.56407,-70.87543,6669.15,5549.74,BEVERLY HOSPITAL CORPORATION
4.18,2.29,42.51078,-70.90712,19340.88,5985.24,NORTH SHORE MEDICAL CENTER
2.63,2.64,42.34896,-71.14768,8376.23,8490.55,ST ELIZABETH'S MEDICAL CENTER
2.63,2.33,51.46599,-1.28140,8438.43,6281.52,BERKSHIRE MEDICAL CENTER INC
2.77,2.37,42.03597,-71.09792,9391.55,6558.55,SIGNATURE HEALTHCARE BROCKTON HOSPITAL
2.50,2.21,41.94445,-70.64511,7466.61,5459.39,JORDAN HOSPITAL INC
3.25,2.32,42.64636,-71.34118,12791.08,6211.00,LOWELL GENERAL HOSPITAL
2.98,2.25,42.11449,-72.59502,10858.50,5740.05,MERCY MEDICAL CENTER
2.62,2.23,42.25105,-71.01411,8341.31,5584.31,QUINCY MEDICAL CENTER
2.64,2.24,42.46049,-71.06203,8491.71,5675.74,HALLMARK HEALTH SYSTEM
5.97,2.61,42.36227,-71.06941,31944.30,8285.64,MASSACHUSETTS GENERAL HOSPITAL
2.37,2.24,41.90456,-71.09562,6585.53,5654.63,MORTON HOSPITAL
3.09,2.29,41.70928,-71.14519,11677.20,5990.56,SOUTHCOAST HOSPITAL GROUP, INC
3.19,2.43,42.12077,-72.60525,12382.10,7011.22,BAYSTATE MEDICAL CENTER
2.69,2.23,42.72846,-71.16830,8827.81,5599.88,HOLY FAMILY HOSPITAL
2.78,2.21,42.64529,-71.30052,9470.67,5485.44,SAINTS  MEDICAL CENTER INC
3.14,2.61,42.33719,-71.10939,12007.00,8278.64,BETH ISRAEL DEACONESS MEDICAL CENTER
3.24,2.25,42.13234,-71.52825,12723.65,5755.10,MILFORD REGIONAL MEDICAL CENTER
3.05,2.17,42.17644,-70.95398,11346.62,5148.74,SOUTH SHORE HOSPITAL
3.68,2.19,42.33149,-71.24568,15811.56,5327.69,NEWTON-WELLESLEY HOSPITAL
2.77,2.21,42.46581,-71.12210,9429.46,5473.58,WINCHESTER HOSPITAL
5.56,2.57,42.33600,-71.10704,29060.88,7983.96,BRIGHAM AND WOMEN'S HOSPITAL
2.53,2.28,42.09864,-71.06607,7701.42,5932.52,GOOD SAMARITAN MEDICAL CENTER
3.15,2.61,42.34951,-71.06331,12036.10,8242.52,TUFTS MEDICAL CENTER
3.36,2.48,42.30049,-71.12771,13537.47,7385.53,FAULKNER HOSPITAL
2.53,2.20,42.18869,-71.20197,7688.75,5352.04,NORWOOD HOSPITAL
2.56,2.24,41.56412,-70.62200,7891.38,5669.94,FALMOUTH HOSPITAL
4.40,2.71,42.27720,-71.75922,20871.86,8944.56,UMASS MEMORIAL MEDICAL CENTER INC
2.97,2.44,42.48585,-71.20686,10793.53,7097.56,LAHEY CLINIC HOSPITAL
3.06,2.18,42.76256,-71.04507,11454.79,5259.71,MERRIMACK VALLEY HOSPITAL
2.88,2.27,42.28385,-71.41896,10160.85,5869.88,METROWEST MEDICAL CENTER
2.74,2.33,42.26633,-71.79760,9162.75,6321.67,ST VINCENT HOSPITAL
2.92,2.10,42.39466,-83.40537,10455.55,4701.78,ST MARY MERCY HOSPITAL
2.87,2.23,43.20588,-86.20839,10121.13,5629.32,MERCY HEALTH PARTNERS, MERCY CAMPUS
3.61,2.33,42.28551,-85.58042,15296.66,6300.17,BRONSON METHODIST HOSPITAL
3.43,2.31,42.45741,-83.20513,14019.35,6182.44,PROVIDENCE HOSPITAL AND MEDICAL CENTERS
3.80,2.29,42.29077,-83.21504,16647.26,6003.80,OAKWOOD HOSPITAL AND MEDICAL CENTER
2.61,2.18,42.08955,-86.47781,8254.50,5223.88,LAKELAND HOSPITAL, ST JOSEPH
3.13,2.48,42.41911,-83.18228,11911.22,7374.52,SINAI-GRACE HOSPITAL
3.29,2.36,42.61425,-83.27602,13077.96,6475.10,ST JOSEPH MERCY OAKLAND
2.63,2.09,42.95582,-82.43222,8426.50,4622.67,ST JOSEPH MERCY PORT HURON
4.24,2.24,45.07773,-83.45146,19709.50,5694.17,ALPENA REGIONAL MEDICAL CENTER
2.93,2.32,42.96881,-85.66649,10557.14,6212.67,SPECTRUM HEALTH - BUTTERWORTH CAMPUS
3.59,2.11,43.58941,-83.86908,15173.27,4766.27,MCLAREN BAY REGION
4.46,2.85,42.28388,-83.72960,21277.80,9980.98,UNIVERSITY OF MICHIGAN HEALTH SYSTEM
3.04,2.17,42.61490,-82.96060,11308.78,5155.78,HENRY FORD MACOMB HOSPITAL
3.74,2.55,42.36762,-83.08461,16223.47,7847.90,HENRY FORD HOSPITAL
2.88,2.35,46.54758,-87.39560,10149.92,6473.23,MARQUETTE GENERAL HOSPITAL
2.81,2.17,44.66805,-84.70733,9694.91,5175.64,MERCY HOSPITAL - GRAYLING
2.66,2.30,42.95817,-85.66253,8632.84,6103.13,SAINT MARY'S HEALTH CARE
3.09,2.19,43.22169,-86.24283,11654.50,5297.36,MERCY HEALTH PARTNERS, HACKLEY CAMPUS
4.05,2.34,42.61504,-83.93929,18375.92,6340.92,SAINT JOSEPH MERCY LIVINGSTON HOSPITAL
3.54,2.18,43.42857,-83.95556,14817.96,5229.58,COVENANT MEDICAL CENTER, INC
3.02,2.15,42.77487,-86.11378,11179.00,5060.73,HOLLAND COMMUNITY HOSPITAL
2.83,2.14,42.33111,-85.17817,9785.89,4995.19,BRONSON BATTLE CREEK HOSPITAL
4.33,2.20,43.42612,-83.94185,20371.46,5383.38,ST MARY'S OF MICHIGAN MEDICAL CENTER
3.09,2.12,44.24532,-85.38950,11621.62,4843.00,MERCY HOSPITAL - CADILLAC
3.02,2.15,42.38392,-82.91480,11165.82,4996.55,BEAUMONT HOSPITAL, GROSSE POINTE
4.39,2.14,42.25117,-84.39240,20812.54,4965.73,ALLEGIANCE HEALTH
2.44,2.13,44.26333,-84.24625,7057.00,4885.64,WEST BRANCH REGIONAL MEDICAL CENTER
3.76,2.26,44.76156,-85.64143,16382.42,5822.03,MUNSON MEDICAL CENTER
3.63,2.15,41.91643,-83.39771,15416.27,5015.88,MERCY MEMORIAL HOSPITAL SYSTEM
3.88,2.71,42.35230,-83.05676,17237.47,8961.63,HARPER UNIVERSITY HOSPITAL
3.28,2.20,45.37209,-84.97065,12968.47,5363.76,NORTHERN MICHIGAN REGIONAL HOSPITAL
3.93,2.23,42.30489,-85.56152,17563.84,5620.84,BORGESS MEDICAL CENTER
4.20,2.32,42.51418,-83.19259,19457.46,6216.99,WILLIAM BEAUMONT HOSPITAL
4.01,2.53,43.02135,-83.70308,18141.27,7711.77,HURLEY MEDICAL CENTER
3.47,2.28,43.01399,-83.73250,14297.76,5942.17,MCLAREN FLINT
3.51,2.18,42.27424,-83.36580,14636.02,5240.44,OAKWOOD ANNAPOLIS HOSPITAL
3.18,2.19,42.21065,-83.14861,12285.95,5296.70,HENRY FORD WYANDOTTE HOSPITAL
2.88,2.39,42.46176,-83.37629,10135.90,6706.71,BOTSFORD HOSPITAL
3.74,2.24,42.26181,-83.66003,16212.35,5649.85,ST JOSEPH MERCY HOSPITAL
3.41,2.36,42.41975,-82.91442,13922.13,6482.71,ST JOHN HOSPITAL AND MEDICAL CENTER
3.98,2.27,42.70417,-84.55488,17909.15,5846.91,MCLAREN - GREATER LANSING
4.25,2.24,42.11695,-83.21365,19802.56,5669.12,OAKWOOD SOUTHSHORE MEDICAL CENTER
3.79,2.12,43.06290,-83.32082,16545.42,4835.33,LAPEER REGIONAL MEDICAL CENTER
3.33,2.22,42.50514,-83.00422,13358.48,5505.88,ST JOHN MACOMB-OAKLAND HOSPITAL-MACOMB CENTER
3.95,2.36,42.89254,-83.63621,17709.55,6485.48,GENESYS REGIONAL MEDICAL CENTER - HEALTH PARK
3.08,2.54,42.63849,-83.29062,11577.71,7778.57,MCLAREN OAKLAND
3.21,2.13,42.98625,-82.42802,12506.13,4858.87,PORT HURON HOSPITAL
3.25,2.11,42.27302,-84.95775,12809.82,4723.09,OAKLAWN HOSPITAL
3.15,2.21,43.63618,-84.26187,12077.38,5479.88,MIDMICHIGAN MEDICAL CENTER-MIDLAND
3.01,2.22,42.58900,-82.89799,11116.96,5517.29,MOUNT CLEMENS REGIONAL MEDICAL CENTER
4.50,2.31,42.73767,-84.51698,21564.98,6180.68,EDWARD W SPARROW HOSPITAL
3.29,2.28,42.85736,-85.71774,13074.72,5960.89,METRO HEALTH HOSPITAL
3.23,2.32,42.33215,-83.31195,12602.96,6247.56,GARDEN CITY HOSPITAL
3.83,2.19,42.61826,-83.09239,16839.71,5282.20,WILLIAM BEAUMONT HOSPITAL-TROY
3.53,2.15,42.23506,-83.27602,14749.55,5014.55,OAKWOOD HERITAGE HOSPITAL
4.09,2.59,42.35295,-83.05447,18687.81,8125.40,DETROIT RECEIVING HOSPITAL & UNIV HEALTH CENTER
3.59,2.23,42.59290,-83.49920,15141.25,5562.25,HURON VALLEY-SINAI HOSPITAL
3.68,2.06,42.53914,-83.40777,15779.86,4422.59,HENRY FORD WEST BLOOMFIELD HOSPITAL
4.44,2.18,45.01403,-93.32177,21139.57,5275.57,NORTH MEMORIAL MEDICAL CENTER
3.49,2.82,44.97210,-93.26240,14489.88,9736.44,HENNEPIN COUNTY MEDICAL CENTER
3.78,2.37,44.02052,-92.48292,16494.96,6575.71,MAYO CLINIC - SAINT MARYS HOSPITAL
3.54,2.34,45.57390,-94.16942,14811.55,6341.62,ST CLOUD HOSPITAL
4.89,2.39,44.94214,-93.10858,24302.87,6687.77,UNITED HOSPITAL
4.04,2.22,46.79634,-92.08793,18344.80,5499.53,ST LUKES HOSPITAL
2.62,2.21,44.93031,-93.36276,8360.27,5434.70,PARK NICOLLET METHODIST HOSPITAL
5.61,2.28,44.95248,-93.26196,29397.86,5977.64,ABBOTT NORTHWESTERN HOSPITAL
3.95,2.22,44.94898,-93.10016,17730.29,5531.00,ST JOSEPH'S HOSPITAL
3.77,2.15,44.88645,-93.32693,16425.12,5062.69,FAIRVIEW SOUTHDALE HOSPITAL
4.52,2.57,44.96766,-93.23640,21694.14,7964.50,UNIVERSITY OF MINNESOTA  MEDICAL CENTER, FAIRVIEW
3.06,2.21,44.16396,-94.00412,11458.50,5462.71,MAYO CLINIC HEALTH SYSTEM - MANKATO
3.71,2.42,44.95570,-93.09429,16004.84,6940.44,REGIONS HOSPITAL
4.11,2.17,45.18355,-93.36789,18840.65,5177.95,MERCY HOSPITAL
4.31,2.16,45.10789,-93.25685,20220.08,5094.38,UNITY HOSPITAL
3.81,2.27,45.02892,-93.03418,16722.81,5896.48,HEALTHEAST ST JOHN'S HOSPITAL
4.22,2.14,44.91542,-92.94757,19619.46,4941.54,HEALTHEAST WOODWINDS HOSPITAL
3.57,2.41,32.33069,-90.17030,15033.73,6892.91,UNIVERSITY OF MISSISSIPPI MED CENTER
3.42,2.13,34.24336,-88.71753,13963.19,4906.47,NORTH MISSISSIPPI MEDICAL CENTER
3.24,2.15,34.49648,-89.03326,12703.82,5025.27,BAPTIST MEMORIAL HOSPITAL UNION COUNTY
4.59,2.11,34.93596,-88.55955,22228.92,4744.28,MAGNOLIA REGIONAL HEALTH CENTER
2.26,2.17,34.72982,-88.95062,5795.15,5179.92,TIPPAH COUNTY HOSPITAL
2.90,2.08,33.76246,-89.81743,10309.20,4527.40,GRENADA LAKE MEDICAL CENTER
5.67,2.17,30.36674,-89.11535,29832.57,5145.94,MEMORIAL HOSPITAL AT GULFPORT
2.82,2.07,33.97458,-88.47761,9761.69,4470.38,GILMORE MEMORIAL HOSPITAL
5.21,2.19,32.35265,-90.87788,26570.29,5280.14,RIVER REGION HEALTH SYSTEM
4.02,2.14,34.34899,-89.52062,18182.06,4933.44,BAPTIST MEMORIAL HOSPITAL NORTH MS
4.72,2.08,30.37516,-88.53226,23120.80,4570.08,SINGING RIVER HOSPITAL
4.74,2.28,34.19610,-90.55208,23257.29,5971.54,NORTHWEST MISSISSIPPI REGIONAL MEDICAL CENTER
3.39,2.07,32.33616,-90.15652,13759.09,4478.81,ST DOMINIC-JACKSON MEMORIAL HOSPITAL
2.88,2.09,31.69405,-89.13061,10167.12,4615.27,SOUTH CENTRAL REG MED CTR
2.81,2.14,33.61860,-88.66204,9655.10,4930.00,CLAY COUNTY MEDICAL CENTER
3.26,2.15,32.36983,-88.69702,12847.70,5003.10,RUSH FOUNDATION HOSPITAL
5.84,2.15,32.28805,-90.25566,30997.10,5021.67,CENTRAL MISSISSIPPI MEDICAL CENTER
2.18,2.12,31.67488,-88.64615,5212.46,4822.00,WAYNE GENERAL HOSPITAL
3.22,2.16,31.31872,-89.32955,12538.56,5110.44,FORREST GENERAL HOSPITAL
4.57,2.20,33.41099,-91.03479,22052.81,5406.15,DELTA REGIONAL MEDICAL CENTER
5.89,2.67,31.32573,-89.36670,31375.45,8725.73,WESLEY MEDICAL CENTER
4.34,2.09,32.28618,-90.03434,20458.20,4613.27,CROSSGATES RIVER OAKS HOSPITAL
2.63,2.17,31.24000,-90.45000,8406.68,5170.37,SOUTHWEST MS REGIONAL MEDICAL CENTER
3.49,2.20,33.51824,-90.19832,14482.72,5410.41,GREENWOOD LEFLORE HOSPITAL
3.13,2.14,33.52568,-88.42742,11901.93,4970.33,BAPTIST MEM HOSP/GOLDEN TRIANGLE INC
4.01,2.05,32.31643,-90.17922,18115.62,4292.67,MISSISSIPPI BAPTIST MEDICAL CENTER
2.81,2.05,32.37280,-88.69954,9709.12,4303.65,ANDERSON REGIONAL MEDICAL CENTER
4.87,2.10,31.56044,-91.40317,24144.27,4704.33,NATCHEZ COMMUNITY HOSPITAL/SWING BED
3.47,2.24,34.62445,-89.95655,14317.33,5698.00,NORTH OAK REGIONAL MEDICAL CENTER
3.70,2.19,34.96927,-89.99709,15919.26,5278.09,BAPTIST MEMORIAL HOSPITAL DESOTO
4.77,2.12,37.06032,-94.52747,23495.13,4810.70,ST JOHN'S REGIONAL MEDICAL CENTER
3.41,2.13,38.78060,-90.48379,13878.19,4916.50,SSM ST JOSEPH HEALTH CENTER
3.36,2.29,39.77393,-94.77089,13522.58,5982.45,HEARTLAND REGIONAL MEDICAL CENTER
3.14,2.06,38.69946,-93.22211,12029.07,4428.00,BOTHWELL REGIONAL HEALTH CENTER
3.58,2.04,38.57670,-92.17352,15132.31,4248.00,ST MARYS HEALTH CENTER
3.70,2.28,37.95144,-91.75940,15909.67,5977.50,PHELPS COUNTY REGIONAL MEDICAL CENTER
4.59,2.13,38.64281,-90.44448,22207.62,4856.00,MERCY HOSPITAL ST LOUIS
2.87,2.05,38.16498,-90.38082,10111.73,4313.67,JEFFERSON REGIONAL MEDICAL CENTER
5.72,2.20,39.00717,-94.55925,30134.83,5396.59,RESEARCH MEDICAL CENTER
3.63,2.30,38.63524,-90.26508,15435.18,6096.34,BARNES JEWISH HOSPITAL
3.09,2.16,37.14560,-93.28037,11677.25,5136.92,COX MEDICAL CENTER
3.25,2.64,39.08401,-94.57591,12755.67,8452.29,TRUMAN MEDICAL CENTER HOSPITAL HILL
5.34,2.41,39.24809,-94.64928,27493.64,6893.09,ST LUKES NORTHLAND HOSPITAL
2.91,2.13,39.17288,-91.87692,10383.27,4917.18,AUDRAIN MEDICAL CENTER
4.77,2.17,37.17999,-93.27409,23478.47,5143.85,ST JOHN'S REGIONAL HEALTH CENTER
3.69,2.02,38.94903,-92.31563,15887.72,4116.78,BOONE HOSPITAL CENTER
4.02,2.23,39.42385,-92.41354,18196.91,5596.36,MOBERLY REGIONAL MEDICAL CENTER
3.05,2.04,38.50661,-90.38025,11354.08,4272.24,ST ANTHONY'S MEDICAL CENTER
3.93,2.16,38.52738,-90.47501,17559.17,5085.89,SSM ST CLARE HEALTH CENTER
4.89,2.07,38.93592,-94.60376,24315.52,4490.62,ST JOSEPH MEDICAL CENTER
3.41,2.34,38.63268,-90.31089,13893.38,6358.95,SSM ST MARYS HEALTH CENTER
3.62,2.17,36.64970,-93.22138,15413.10,5168.33,SKAGGS REGIONAL MEDICAL CENTER
5.68,2.14,39.04749,-94.34105,29866.06,4953.88,CENTERPOINT MEDICAL CENTER OF INDEPENDENCE, LLC
4.35,2.10,39.14957,-94.55148,20515.93,4655.77,NORTH KANSAS CITY HOSPITAL
3.87,2.10,38.75097,-90.43255,17129.40,4704.53,SSM DEPAUL HEALTH CENTER
4.64,2.56,38.62280,-90.24049,22594.00,7906.48,ST LOUIS UNIVERSITY HOSPITAL
3.27,2.05,38.63702,-90.44699,12932.86,4362.41,MISSOURI BAPTIST MEDICAL CENTER
4.19,2.11,37.31072,-89.53990,19389.14,4760.43,SOUTHEAST MISSOURI HOSPITAL
3.76,2.21,36.88988,-89.58365,16338.75,5470.89,MISSOURI DELTA MEDICAL CENTER
2.89,2.12,37.79962,-90.44045,10261.25,4814.25,MINERAL AREA REGIONAL MEDICAL CENTER
4.81,2.20,36.78510,-90.42779,23749.95,5398.95,POPLAR BLUFF REGIONAL MEDICAL CENTER
3.93,2.15,37.05238,-94.52777,17587.33,5032.44,FREEMAN HEALTH SYSTEM - FREEMAN WEST
6.45,2.24,39.04761,-94.59037,35335.26,5644.35,ST LUKES HOSPITAL OF KANSAS CITY
3.91,2.30,38.95171,-92.33407,17446.48,6097.97,UNIVERSITY OF MISSOURI HEALTH CARE
2.82,2.07,37.78031,-90.43967,9749.64,4475.73,PARKLAND HEALTH CENTER
3.93,2.10,38.58103,-90.45144,17530.47,4670.93,DES PERES HOSPITAL
3.40,2.07,39.27591,-94.42572,13861.43,4499.00,LIBERTY HOSPITAL
3.52,2.17,38.65123,-90.50301,14704.25,5179.20,ST LUKES HOSPITAL
3.34,2.13,38.77576,-90.23906,13428.80,4872.33,CHRISTIAN HOSPITAL NORTHEAST
4.91,2.28,37.30401,-89.57190,24468.22,5954.74,ST FRANCIS MEDICAL CENTER
3.68,2.24,38.12027,-92.68146,15773.27,5659.64,LAKE REGIONAL HEALTH SYSTEM
3.39,2.04,38.79427,-90.58049,13731.75,4243.83,BARNES-JEWISH ST PETERS HOSPITAL
2.86,2.19,37.60022,-93.42237,10059.80,5314.27,CITIZENS MEMORIAL HOSPITAL
3.32,2.09,38.80334,-90.77619,13242.92,4592.00,SSM ST JOSEPH HOSPITAL WEST
4.17,2.15,38.58425,-90.22739,19283.33,5058.42,ST ALEXIUS HOSPITAL
5.33,2.10,38.94062,-94.37842,27419.33,4651.67,SAINT LUKE'S EAST LEE'S SUMMIT HOSPITAL
2.70,2.16,45.78958,-108.51283,8876.13,5133.93,BILLINGS CLINIC HOSPITAL
2.75,2.19,47.49139,-111.26255,9283.53,5286.87,BENEFIS HOSPITALS INC
3.83,2.07,46.87545,-114.00033,16879.55,4493.82,ST PATRICK HOSPITAL
3.87,2.22,45.79337,-108.51928,17119.19,5513.88,ST VINCENT HEALTHCARE
3.77,2.19,40.78318,-96.63709,16426.79,5281.65,BRYANLGH MEDICAL CENTER
3.90,2.32,41.25522,-95.97892,17368.04,6263.32,THE NEBRASKA MEDICAL CENTER
3.29,2.15,40.80816,-96.62689,13090.17,5020.50,SAINT ELIZABETH REGIONAL MEDICAL CENTER
3.46,2.08,40.92425,-98.37053,14275.69,4544.54,ST FRANCIS MEDICAL CENTER
5.16,2.22,41.25797,-96.04164,26187.25,5531.58,THE NEBRASKA METHODIST HOSPITAL
4.69,2.07,41.23771,-96.18052,22924.08,4471.58,ALEGENT HEALTH LAKESIDE HOSPITAL
4.97,2.24,39.52637,-119.79456,24916.79,5661.24,RENOWN REGIONAL MEDICAL CENTER
7.98,2.31,36.13459,-115.13576,46062.49,6177.17,SUNRISE HOSPITAL AND MEDICAL CENTER
10.85,2.43,36.19568,-115.12284,66311.62,7019.71,NORTH VISTA HOSPITAL
5.11,2.52,36.15896,-115.16558,25846.52,7666.26,UMC OF SOUTHERN NEVADA
6.61,2.21,36.03931,-114.98259,36449.42,5488.25,SAINT ROSE DOMINICAN HOSPITAL - DE LIMA
4.42,2.31,39.20247,-119.78446,20986.86,6157.32,CARSON TAHOE REGIONAL MEDICAL CENTER
6.50,2.36,36.16380,-115.16574,35688.95,6497.57,VALLEY HOSPITAL MEDICAL CENTER
8.17,2.18,36.11363,-115.12573,47392.42,5223.33,DESERT SPRINGS HOSPITAL
8.02,2.23,36.21599,-115.25095,46369.29,5569.29,MOUNTAINVIEW HOSPITAL
6.74,2.22,36.16586,-115.32436,37322.59,5547.29,SUMMERLIN HOSPITAL MEDICAL CENTER
11.72,2.28,36.09056,-115.24058,72401.38,5965.77,SPRING VALLEY HOSPITAL MEDICAL CENTER
5.60,2.24,36.05712,-115.27116,29303.14,5648.81,SAINT ROSE DOMINICAN HOSPITAL - SAN MARTIN CAMPUS
5.74,2.16,36.28588,-115.28772,30276.62,5101.23,CENTENNIAL HILLS HOSPITAL MEDICAL CENTER
3.32,2.17,43.19846,-71.56230,13274.68,5183.42,CONCORD HOSPITAL
3.59,2.45,43.67286,-72.27232,15150.36,7141.86,MARY HITCHCOCK MEMORIAL HOSPITAL
2.94,2.23,42.75004,-71.48100,10616.25,5590.88,ST JOSEPH HOSPITAL
3.28,2.17,43.00792,-71.46807,13016.38,5176.77,ELLIOT HOSPITAL
4.04,2.16,43.21231,-70.87499,18343.00,5087.69,WENTWORTH-DOUGLASS HOSPITAL
2.77,2.17,42.75623,-71.46059,9423.23,5138.54,SOUTHERN NH MEDICAL CENTER
3.55,2.16,42.99121,-71.47426,14898.72,5092.80,CATHOLIC MEDICAL CENTER
7.89,2.37,40.88346,-74.05564,45439.81,6579.40,HACKENSACK UNIVERSITY MEDICAL CENTER
10.13,2.83,40.71011,-74.21368,61179.28,9840.78,NEWARK BETH ISRAEL MEDICAL CENTER
7.64,2.44,40.79576,-73.99575,43669.76,7099.66,PALISADES MEDICAL CTR-NY PRESBYTERIAN HEALTHCARE S
3.96,2.30,40.53142,-74.86080,17753.92,6081.92,HUNTERDON MEDICAL CENTER
6.66,2.37,40.84945,-74.13768,36770.88,6574.06,ST MARY'S HOSPITAL, PASSAIC
6.32,2.28,40.88275,-74.01021,34387.44,5972.07,HOLY NAME MEDICAL CENTER
8.30,2.31,40.78556,-74.17598,48337.14,6177.21,CLARA MAASS MEDICAL CENTER
4.35,2.20,40.35684,-74.66166,20491.36,5390.82,UNIVERSITY MEDICAL CENTER AT PRINCETON
4.07,2.16,39.08752,-74.81657,18564.45,5101.50,CAPE REGIONAL MEDICAL CENTER INC
5.93,2.31,40.98359,-74.10047,31615.88,6125.31,VALLEY HOSPITAL
5.90,2.56,39.94152,-75.11680,31429.75,7945.15,COOPER UNIVERSITY HOSPITAL
6.73,2.39,40.78883,-74.46620,37240.50,6701.83,MORRISTOWN MEMORIAL HOSPITAL
20.00,3.03,40.73417,-74.04977,130689.71,11217.29,CHRIST HOSPITAL
6.65,2.22,40.95858,-74.31000,36702.05,5532.05,CHILTON HOSPITAL
7.58,2.53,40.90215,-74.16634,43231.78,7686.36,ST JOSEPH'S REGIONAL MEDICAL CENTER
9.25,2.39,40.21634,-74.74143,55027.39,6742.06,ST FRANCIS MEDICAL CENTER
7.24,2.26,39.78261,-74.91670,40840.64,5800.33,VIRTUA WEST JERSEY HOSPITALS BERLIN
10.15,2.20,40.61288,-74.29092,61328.84,5415.42,ROBERT WOOD JOHNSON UNIVERSITY HOSPITAL AT RAHWAY
15.46,2.25,40.66805,-74.11334,98719.21,5739.00,BAYONNE HOSPITAL CENTER
6.76,2.41,40.66005,-74.21417,37463.79,6864.36,TRINITAS REGIONAL MEDICAL CENTER
9.75,2.37,41.05754,-74.76857,58528.14,6568.00,NEWTON MEMORIAL HOSPITAL
7.38,2.33,39.92695,-75.09537,41815.23,6276.53,OUR LADY OF LOURDES MEDICAL CENTER
7.36,2.24,39.44743,-75.05838,41695.68,5689.66,SOUTH JERSEY HEALTHCARE REGIONAL MEDICAL CENTER
7.70,2.15,40.35309,-74.06484,44132.48,5007.63,RIVERVIEW MEDICAL CENTER
10.17,2.55,40.49581,-74.44980,61496.67,7879.38,ROBERT WOOD JOHNSON UNIVERSITY HOSPITAL
8.01,2.38,40.51891,-74.28183,46254.55,6637.39,RARITAN BAY MEDICAL CENTER
6.44,2.54,40.74132,-74.03369,35253.15,7769.23,HOBOKEN UNIVERSITY MEDICAL CENTER
7.44,2.18,39.96484,-74.21708,42259.12,5238.29,COMMUNITY MEDICAL CENTER
7.85,2.30,40.29209,-74.80327,45187.11,6093.21,CAPITAL HEALTH MEDICAL CENTER - HOPEWELL
7.96,2.38,40.90400,-73.96847,45909.18,6653.06,ENGLEWOOD HOSPITAL AND MEDICAL CENTER
7.41,2.22,39.31464,-74.59391,42050.17,5512.37,SHORE MEDICAL CENTER
10.13,2.38,40.56804,-74.59579,61174.71,6679.26,SOMERSET MEDICAL CENTER
6.77,2.22,40.89538,-74.46479,37554.65,5517.74,SAINT CLARE'S HOSPITAL
5.74,2.43,40.71264,-74.35460,30316.16,6971.68,OVERLOOK HOSPITAL
7.30,2.14,40.07832,-74.13009,41279.11,4934.28,OCEAN MEDICAL CENTER
6.10,2.46,40.81058,-74.20459,32829.23,7228.86,MOUNTAINSIDE HOSPITAL
7.40,2.15,39.98588,-74.79393,42010.92,5052.79,VIRTUA MEMORIAL HOSPITAL OF BURLINGTON COUNTY
9.19,2.34,40.70180,-75.17825,54565.74,6393.26,ST LUKE'S WARREN HOSPITAL
8.99,2.17,40.04632,-74.88059,53169.06,5165.32,LOURDES MEDICAL CENTER OF BURLINGTON COUNTY
9.06,2.28,39.35775,-74.43449,53667.06,5945.08,ATLANTICARE REGIONAL MEDICAL CENTER - CITY DIV
7.21,2.15,39.58815,-75.18044,40641.59,5016.47,SOUTH JERSEY HEALTHCARE-ELMER HOSPITAL
10.95,2.45,40.50214,-74.46015,67010.81,7121.69,SAINT PETER'S UNIVERSITY HOSPITAL
7.58,2.27,40.21065,-74.03566,43268.08,5890.21,JERSEY SHORE UNIVERSITY MEDICAL CENTER
7.45,2.62,40.71663,-74.05013,42348.39,8357.75,LIBERTYHEALTH-JERSEY CITY MEDICAL CENTER CAMPUS
9.89,2.54,40.29563,-73.98518,59496.41,7762.34,MONMOUTH MEDICAL CENTER
8.43,2.47,40.76190,-74.30335,49226.74,7299.91,SAINT BARNABAS MEDICAL CENTER
7.98,2.20,39.84392,-75.14985,46088.78,5365.09,UNDERWOOD - MEMORIAL HOSPITAL
6.69,2.34,40.75402,-74.21335,37014.85,6352.69,EAST ORANGE GENERAL HOSPITAL
7.44,2.21,40.07503,-74.21832,42241.39,5442.22,KIMBALL MEDICAL CENTER
8.40,2.38,39.82811,-75.00895,49055.00,6648.11,KENNEDY UNIVERSITY HOSPITAL - STRATFORD DIV
5.20,2.20,39.59285,-75.44416,26487.88,5402.94,MEMORIAL HOSPITAL OF SALEM COUNTY
7.89,2.34,40.23629,-74.75256,45408.50,6363.68,CAPITAL HEALTH SYSTEM-FULD CAMPUS
5.09,2.52,40.74323,-74.17431,25716.38,7614.46,SAINT MICHAEL'S MEDICAL CENTER, INC
8.20,2.31,40.55784,-74.34970,47630.64,6161.18,JFK MEDICAL CTR - ANTHONY M. YELENCSICS COMMUNITY
8.40,2.15,40.21575,-74.67273,49023.83,5037.43,ROBERT WOOD JOHNSON UNIVERSITY HOSPITAL HAMILTON
6.58,2.19,40.23861,-74.31289,36189.81,5292.39,CENTRASTATE MEDICAL CENTER
6.72,2.13,40.40516,-74.19203,37179.81,4901.93,BAYSHORE COMMUNITY HOSPITAL
5.88,2.21,39.66213,-74.26392,31294.43,5472.17,SOUTHERN OCEAN MEDICAL CENTER
7.10,2.94,40.73925,-74.19276,39886.69,10573.31,UMDNJ UNIVERSITY HOSPITAL
3.35,2.65,35.08838,-106.61590,13487.16,8586.42,UNM HOSPITAL
3.68,2.43,35.65960,-105.94578,15775.76,6970.12,ST VINCENT HOSPITAL
2.89,2.30,36.72387,-108.21749,10240.60,6063.53,SAN JUAN REGIONAL MEDICAL CENTER
5.81,2.43,33.42340,-104.52748,30828.75,7032.00,EASTERN NEW MEXICO MEDICAL CENTER
3.95,2.12,35.08603,-106.63950,17685.00,4807.60,LOVELACE MEDICAL CENTER
4.22,2.20,32.26331,-107.74805,19592.55,5387.00,MIMBRES MEMORIAL HOSPITAL
3.81,2.21,32.29186,-106.73470,16744.58,5431.00,MEMORIAL MEDICAL CENTER INC
3.90,2.29,35.08102,-106.63392,17353.93,6010.10,PRESBYTERIAN HOSPITAL
3.91,2.10,34.41937,-103.23173,17390.42,4694.50,PLAINS REGIONAL MEDICAL CENTER  CLOVIS
2.71,2.44,36.78555,-108.68703,8948.77,7073.00,NORTHERN NAVAJO MEDICAL CENTER
5.97,2.14,32.44263,-104.25776,31890.27,4974.53,CARLSBAD MEDICAL CENTER
5.36,2.29,32.76065,-103.18088,27650.81,6038.06,LEA REGIONAL MEDICAL CENTER
3.54,2.13,32.32310,-106.72900,14816.43,4895.00,MOUNTAIN VIEW REGIONAL MEDICAL CENTER
3.11,2.07,42.67460,-73.74858,11756.33,4469.20,ALBANY MEMORIAL HOSPITAL
4.28,2.29,41.92720,-73.99535,20006.57,6048.86,KINGSTON HOSPITAL
3.59,2.39,42.87482,-78.84942,15166.76,6689.13,KALEIDA HEALTH
2.64,2.51,40.92963,-73.89840,8497.46,7543.29,ST JOSEPH'S MEDICAL CENTER
3.10,3.14,40.83139,-73.90306,11753.47,11984.53,BRONX-LEBANON HOSPITAL CENTER
2.76,2.11,42.09299,-75.93704,9303.90,4742.10,OUR LADY OF LOURDES MEMORIAL HOSPITAL, INC
4.68,2.44,42.65345,-73.77543,22836.55,7075.97,ALBANY MEDICAL CENTER HOSPITAL
3.03,2.84,40.70141,-73.81630,11194.14,9886.81,JAMAICA HOSPITAL MEDICAL CENTER
3.63,2.55,40.61384,-73.94851,15449.32,7843.51,NEW YORK COMMUNITY HOSPITAL OF BROOKLYN, INC.
6.71,2.36,41.69441,-73.93432,37166.15,6508.28,VASSAR BROTHERS MEDICAL CENTER
5.04,2.93,40.79041,-73.95386,25377.54,10505.89,MOUNT SINAI HOSPITAL
3.52,2.80,40.72548,-73.55287,14679.47,9595.41,NASSAU UNIVERSITY MEDICAL CENTER
5.13,2.64,40.63588,-74.10556,25977.38,8493.38,RICHMOND UNIVERSITY MEDICAL CENTER
4.46,2.44,40.72567,-73.24189,21325.29,7073.04,SOUTHSIDE HOSPITAL
3.27,2.11,43.09840,-75.27819,12914.33,4746.06,FAXTON-ST LUKE'S HEALTHCARE
4.79,2.22,40.87946,-73.41621,23607.66,5491.52,HUNTINGTON HOSPITAL
5.65,2.80,40.80556,-73.96131,29672.98,9599.89,ST LUKE'S ROOSEVELT HOSPITAL
3.00,2.05,42.95425,-74.21527,11035.11,4318.94,ST MARY'S HOSPITAL AT AMSTERDAM
4.95,2.65,40.74722,-73.82521,24761.49,8559.35,NEW YORK HOSPITAL MEDICAL CENTER OF QUEENS
3.88,2.94,40.68983,-73.97794,17227.35,10610.98,BROOKLYN HOSPITAL CENTER AT DOWNTOWN CAMPUS
4.02,2.08,42.65583,-73.80372,18198.11,4562.95,ST PETER'S HOSPITAL
6.38,2.92,40.87987,-73.87996,34783.52,10476.38,MONTEFIORE MEDICAL CENTER
3.44,2.23,40.94161,-73.83650,14104.57,5614.79,LAWRENCE HOSPITAL CENTER
3.62,2.84,40.71016,-74.00464,15379.54,9906.31,NEW YORK DOWNTOWN HOSPITAL
4.93,2.38,41.71846,-73.92710,24617.95,6671.14,ST FRANCIS HOSPITAL
2.92,2.10,43.00584,-78.17670,10483.93,4703.87,UNITED MEMORIAL MEDICAL CENTER
2.53,2.05,42.87616,-77.28907,7740.54,4297.38,F F THOMPSON HOSPITAL
3.73,2.18,42.92866,-78.84819,16118.96,5239.58,SISTERS OF CHARITY HOSPITAL
2.68,3.09,40.81770,-73.92401,8742.16,11660.55,LINCOLN MEDICAL & MENTAL HEALTH CENTER
2.44,2.17,44.85685,-74.29199,7085.31,5166.25,ALICE HYDE MEDICAL CENTER
3.61,2.59,40.91304,-73.84024,15292.86,8128.36,MOUNT VERNON HOSPITAL
3.17,2.25,42.10076,-76.82800,12209.79,5765.79,ARNOT OGDEN MEDICAL CENTER
2.68,2.14,42.24595,-73.77855,8755.00,4946.11,COLUMBIA MEMORIAL HOSPITAL
2.17,2.13,42.12242,-77.95056,5139.00,4864.50,JONES MEMORIAL HOSPITAL
5.64,2.80,40.76487,-73.95398,29633.21,9627.33,NEW YORK-PRESBYTERIAN HOSPITAL
2.81,2.07,42.09049,-78.42780,9698.47,4482.67,OLEAN GENERAL HOSPITAL
5.45,2.34,41.09642,-73.92501,28281.62,6375.35,NYACK HOSPITAL
6.12,2.56,40.77686,-73.70212,32970.85,7896.76,NORTH SHORE UNIVERSITY HOSPITAL
5.48,2.29,40.93376,-72.67383,28444.60,5997.47,PECONIC BAY MEDICAL CENTER
7.52,2.56,40.77362,-73.96093,42836.91,7909.36,LENOX HILL HOSPITAL
3.30,2.28,43.19244,-77.58590,13115.05,5919.30,ROCHESTER GENERAL HOSPITAL
5.57,2.26,41.44138,-74.36821,29108.81,5826.28,ORANGE REGIONAL MEDICAL CENTER
3.69,3.14,40.85407,-73.84688,15901.93,11980.54,JACOBI MEDICAL CENTER
3.27,2.94,40.74465,-73.88620,12935.19,10612.50,ELMHURST HOSPITAL CENTER
7.42,2.36,41.36763,-74.68150,42135.46,6494.31,BON SECOURS COMMUNITY HOSPITAL
3.49,2.34,43.05571,-76.14981,14456.57,6369.80,ST JOSEPH'S HOSPITAL HEALTH CENTER
6.66,2.30,40.78000,-72.97763,36757.87,6112.25,BROOKHAVEN MEMORIAL HOSPITAL MEDICAL CENTER
5.56,2.86,40.68964,-73.99657,29024.79,10015.53,LONG ISLAND COLLEGE HOSPITAL
3.09,2.12,42.81963,-73.91653,11616.79,4821.79,ELLIS HOSPITAL
5.70,2.41,41.11299,-74.13732,30034.61,6841.03,GOOD SAMARITAN HOSPITAL OF SUFFERN
4.34,2.54,40.58440,-74.08507,20455.08,7809.71,STATEN ISLAND UNIVERSITY HOSPITAL
3.34,2.21,41.19677,-73.72572,13409.55,5446.00,NORTHERN WESTCHESTER HOSPITAL
2.90,2.21,43.17738,-78.67123,10299.95,5469.27,EASTERN NIAGARA HOSPITAL
2.54,2.17,43.13562,-77.60602,7772.94,5173.44,HIGHLAND HOSPITAL
6.60,2.52,40.74083,-73.64306,36388.64,7607.73,WINTHROP-UNIVERSITY HOSPITAL
6.66,2.87,40.73265,-73.98162,36796.56,10090.64,BETH ISRAEL MEDICAL CENTER
3.42,2.24,42.60884,-76.18764,13948.77,5697.38,CORTLAND REGIONAL MEDICAL CENTER, INC
2.78,2.08,42.73354,-73.67249,9492.64,4534.21,SAMARITAN HOSPITAL
4.54,2.30,40.87062,-73.62249,21830.16,6114.42,GLEN COVE HOSPITAL
6.31,2.42,40.80462,-73.67023,34340.65,6908.50,ST FRANCIS HOSPITAL, ROSLYN
4.01,2.65,40.91276,-73.78720,18120.35,8526.60,SOUND SHORE MEDICAL CENTER OF WESTSCHESTER
5.94,2.26,40.94000,-73.05510,31677.45,5802.98,JOHN T MATHER MEMORIAL HOSPITAL  OF PORT JEFFERSON
3.32,2.10,43.30652,-73.64663,13292.10,4690.72,GLENS FALLS HOSPITAL
3.90,2.77,40.75543,-73.81532,17377.73,9419.14,FLUSHING HOSPITAL MEDICAL CENTER
4.94,2.80,40.63937,-73.99851,24658.94,9638.12,MAIMONIDES MEDICAL CENTER
6.01,2.85,40.75332,-73.70899,32207.12,9967.61,LONG ISLAND JEWISH MEDICAL CENTER
3.75,3.02,40.58549,-73.96558,16292.14,11190.81,CONEY ISLAND HOSPITAL
2.98,2.22,44.67677,-74.98237,10859.54,5505.00,CANTON-POTSDAM HOSPITAL
5.12,2.31,40.65189,-73.63096,25912.26,6185.29,SOUTH NASSAU COMMUNITIES HOSPITAL
2.71,3.03,40.78443,-73.94474,9004.68,11201.64,METROPOLITAN HOSPITAL CENTER
5.24,2.60,40.65957,-73.93378,26794.44,8231.72,KINGSBROOK JEWISH MEDICAL CENTER
3.50,3.11,40.65660,-73.94468,14514.87,11772.10,KINGS COUNTY HOSPITAL CENTER
3.15,2.28,43.04139,-76.13803,12063.23,5938.77,CROUSE HOSPITAL
4.05,3.11,40.74178,-73.98236,18436.27,11764.20,BELLEVUE HOSPITAL CENTER
4.58,2.53,40.96967,-73.88447,22165.91,7682.91,ST JOHN'S RIVERSIDE HOSPITAL
8.83,2.79,40.74335,-73.97408,52078.00,9539.14,NYU HOSPITALS CENTER
4.24,2.12,43.22952,-75.44361,19748.80,4819.60,ROME MEMORIAL HOSPITAL, INC
3.49,2.21,43.45491,-76.51645,14481.00,5434.61,OSWEGO HOSPITAL
3.12,2.48,42.92531,-78.83111,11868.88,7348.31,ERIE COUNTY MEDICAL CENTER
4.82,2.85,40.70419,-73.91754,23800.29,9933.62,WYCKOFF HEIGHTS MEDICAL CENTER
4.79,2.04,43.08561,-73.79712,23622.47,4281.53,SARATOGA HOSPITAL
3.03,2.17,43.19054,-77.70177,11202.48,5149.35,UNITY HOSPITAL OF ROCHESTER
2.72,2.18,42.48019,-79.33423,9009.33,5224.60,BROOKS MEMORIAL HOSPITAL
3.65,2.93,40.71730,-73.80353,15565.08,10555.58,QUEENS HOSPITAL CENTER
3.99,2.89,40.65533,-73.91221,17951.51,10213.09,BROOKDALE HOSPITAL MEDICAL CENTER
7.09,2.90,41.08773,-73.80395,39814.25,10323.38,WESTCHESTER MEDICAL CENTER
4.11,2.73,40.66762,-73.97850,18799.02,9127.95,NEW YORK METHODIST HOSPITAL
2.61,2.09,42.08997,-79.23058,8300.18,4599.00,WOMAN'S CHRISTIAN ASSOCIATION
3.71,3.14,40.81477,-73.94027,16021.87,11989.33,HARLEM HOSPITAL CENTER
4.16,2.60,43.04269,-76.14043,19171.46,8192.25,UNIVERSITY HOSPITAL S U N Y HEALTH SCIENCE CENTER
3.53,2.18,43.08176,-75.26587,14751.50,5243.14,ST ELIZABETH MEDICAL CENTER
3.55,2.41,44.70022,-73.47100,14892.26,6848.26,CHAMPLAIN VALLEY PHYSICIANS HOSPITAL MEDICAL CTR
4.74,2.26,40.68896,-73.63259,23291.58,5778.12,MERCY MEDICAL CENTER
6.62,2.44,41.10880,-73.86355,36476.25,7061.25,PHELPS MEMORIAL HOSPITAL ASSN
5.17,2.27,41.50307,-74.01517,26270.37,5877.19,ST LUKE'S CORNWALL HOSPITAL
5.05,2.25,41.29201,-73.89529,25421.92,5769.31,HUDSON VALLEY HOSPITAL CENTER
3.95,2.19,43.06952,-74.33001,17698.08,5296.75,NATHAN LITTAUER HOSPITAL
2.98,2.12,42.14073,-77.04745,10855.71,4805.93,CORNING HOSPITAL
3.76,2.60,43.12266,-77.62360,16351.30,8204.62,STRONG MEMORIAL HOSPITAL
6.84,2.32,40.69327,-73.29412,38015.71,6223.72,GOOD SAMARITAN HOSPITAL MEDICAL CENTER
4.35,2.25,41.02614,-73.76978,20501.84,5755.47,WHITE PLAINS HOSPITAL CENTER
3.06,2.81,40.64666,-74.02049,11468.74,9668.16,LUTHERAN MEDICAL CENTER
5.01,2.35,40.83778,-73.85417,25193.00,6450.09,NEW YORK WESTCHESTER SQUARE MEDICAL CENTER
4.70,2.31,40.77481,-73.47968,23004.61,6172.13,PLAINVIEW HOSPITAL
4.61,2.29,40.72593,-73.47844,22381.76,6027.67,ST JOSEPH HOSPITAL
3.87,3.03,40.65508,-73.94521,17165.57,11204.73,UNIVERSITY HOSPITAL OF BROOKLYN ( DOWNSTATE )
4.41,2.51,40.72931,-73.85219,20959.36,7543.72,FOREST HILLS HOSPITAL
4.69,2.27,40.68104,-73.68633,22880.31,5853.21,FRANKLIN HOSPITAL
2.51,2.92,40.87986,-73.88041,7581.91,10486.91,NORTH CENTRAL BRONX HOSPITAL
5.52,2.31,41.70887,-74.73736,28766.64,6181.64,CATSKILL REGIONAL MEDICAL CENTER
5.14,2.69,40.90922,-73.11520,26075.39,8851.44,UNIVERSITY HOSPITAL ( STONY BROOK )
3.60,2.19,42.11422,-75.95851,15223.67,5331.78,UNITED HEALTH SERVICES HOSPITALS, INC
4.40,3.04,40.59803,-73.75296,20896.23,11273.34,ST JOHN'S EPISCOPAL HOSPITAL AT SOUTH SHORE
3.69,3.07,40.69947,-73.94279,15856.00,11509.77,WOODHULL MEDICAL AND MENTAL HEALTH CENTER
4.63,2.94,40.67816,-73.93768,22517.12,10627.68,INTERFAITH MEDICAL CENTER
3.80,3.04,40.85263,-73.89184,16676.35,11314.15,ST BARNABAS HOSPITAL
6.49,2.22,40.85738,-73.18681,35549.30,5541.48,ST CATHERINE OF SIENA HOSPITAL
2.98,2.18,35.43754,-80.60147,10906.34,5209.86,CAROLINAS MEDICAL CENTER-NORTHEAST
3.10,2.20,35.57658,-82.54922,11744.39,5389.03,MEMORIAL MISSION HOSPITAL AND ASHEVILLE SURGERY CE
3.01,2.17,36.48826,-80.61222,11065.88,5177.38,NORTHERN HOSPITAL OF SURRY COUNTY
3.42,2.18,35.95000,-80.00000,13951.48,5230.24,HIGH POINT REGIONAL HOSPITAL
3.39,2.17,34.75124,-79.46789,13740.52,5202.52,SCOTLAND MEMORIAL HOSPITAL
2.88,2.24,35.39772,-77.95250,10150.98,5660.50,WAYNE MEMORIAL HOSPITAL
3.05,2.15,35.36251,-81.96692,11355.21,5065.58,RUTHERFORD HOSPITAL INC
3.20,2.25,36.07581,-80.29779,12418.19,5756.59,FORSYTH MEMORIAL HOSPITAL
3.74,2.13,35.68172,-80.47072,16208.75,4875.15,ROWAN REGIONAL MEDICAL CENTER
3.02,2.12,35.32080,-82.46812,11189.48,4827.19,MARGARET R PARDEE MEMORIAL HOSPITAL
4.12,2.12,35.46894,-79.18668,18901.23,4852.77,CENTRAL CAROLINA HOSPITAL
3.61,2.16,35.30288,-81.53571,15292.86,5103.14,CLEVELAND REGIONAL MEDICAL CENTER
3.32,2.15,35.00670,-78.32412,13235.36,5015.43,SAMPSON REGIONAL MEDICAL CENTER
2.97,2.18,35.29053,-77.58307,10788.41,5240.67,LENOIR MEMORIAL HOSPITAL
4.90,2.28,35.03156,-78.93205,24414.05,5936.95,CAPE FEAR VALLEY MEDICAL CENTER
4.36,2.61,36.00850,-78.94006,20607.97,8267.12,DUKE UNIVERSITY HOSPITAL
3.20,2.18,35.27341,-81.13688,12430.20,5258.20,GASTON MEMORIAL HOSPITAL
3.99,2.30,36.09904,-78.30111,17977.76,6079.29,FRANKLIN REGIONAL MEDICAL CENTER
3.35,2.12,35.24106,-81.35660,13451.92,4787.23,KINGS MOUNTAIN HOSPITAL INC
2.37,2.14,35.54918,-77.03985,6610.27,4937.33,BEAUFORT COUNTY MEDICAL CENTER
3.67,2.16,35.79986,-80.87863,15701.26,5092.00,IREDELL MEMORIAL HOSPITAL INC
3.94,2.46,35.60726,-77.40477,17607.12,7231.85,PITT COUNTY MEMORIAL HOSPITAL
3.37,2.15,35.91058,-81.53512,13633.15,4998.70,CALDWELL MEMORIAL HOSPITAL
3.67,2.16,34.76273,-77.38582,15699.12,5131.44,ONSLOW MEMORIAL HOSPITAL
3.12,2.51,36.09062,-80.27161,11871.21,7600.48,NORTH CAROLINA BAPTIST HOSPITAL
3.56,2.31,34.63723,-79.01213,14991.36,6180.11,SOUTHEASTERN REGIONAL MEDICAL CENTER
3.16,2.28,36.19878,-81.65223,12114.71,5941.21,WATAUGA MEDICAL CENTER
3.69,2.18,35.22196,-80.83287,15861.08,5267.08,PRESBYTERIAN HOSPITAL
2.67,2.14,36.49464,-79.73929,8671.48,4987.91,MOREHEAD MEMORIAL HOSPITAL
3.09,2.63,35.90529,-79.04963,11639.57,8443.66,UNIVERSITY OF NORTH CAROLINA HOSPITAL
2.65,2.10,36.15893,-81.15703,8566.00,4690.29,WILKES REGIONAL MEDICAL CENTER
3.14,2.19,34.33747,-78.69425,11980.08,5285.76,COLUMBUS REGIONAL HEALTHCARE SYSTEM
4.35,2.27,35.78523,-78.58836,20493.03,5844.47,WAKEMED, RALEIGH CAMPUS
2.90,2.15,36.06347,-79.50208,10313.59,5012.85,ALAMANCE REGIONAL MEDICAL CENTER
3.34,2.29,35.30715,-78.63474,13374.27,6031.39,BETSY JOHNSON REGIONAL  HOSPITAL
4.01,2.09,35.82915,-78.61922,18109.48,4578.48,DUKE HEALTH RALEIGH HOSPITAL
3.28,2.26,34.96821,-80.07673,13016.36,5834.36,ANSON COMMUNITY HOSPITAL
4.31,2.28,35.50624,-78.32511,20243.45,5915.61,JOHNSTON MEMORIAL HOSPITAL
3.08,2.26,36.09251,-79.78855,11597.84,5776.55,MOSES H CONE MEMORIAL HOSPITAL, THE
3.56,2.15,36.26164,-80.83882,14969.19,5063.38,HUGH CHATHAM MEMORIAL HOSPITAL
3.25,2.11,35.21029,-80.82084,12781.67,4736.56,CAROLINAS MED CENTER-MERCY
3.50,2.21,36.28555,-76.99489,14567.33,5427.27,ROANOKE CHOWAN HOSPITAL
4.03,2.15,34.90228,-79.71125,18281.00,5005.19,SANDHILLS REGIONAL MEDICAL CENTER
3.59,2.25,35.92115,-77.55585,15203.68,5705.88,HERITAGE HOSPITAL
3.68,2.25,36.32690,-76.22370,15804.07,5766.20,ALBEMARLE HOSPITAL AUTHORITY
3.77,2.44,35.20397,-80.83908,16464.38,7062.33,CAROLINAS MEDICAL CENTER/BEHAV HEALTH
3.55,2.08,35.81801,-78.70283,14911.68,4539.97,REX HOSPITAL
3.40,2.17,35.20554,-79.45645,13850.51,5179.19,FIRSTHEALTH MOORE REGIONAL HOSPITAL
4.71,2.08,35.73751,-81.33702,23058.29,4533.24,FRYE REGIONAL MEDICAL CENTER
3.47,2.16,35.71177,-79.81489,14310.25,5100.17,RANDOLPH HOSPITAL
4.55,2.19,35.71850,-77.94518,21940.78,5308.97,WILSON MEDICAL CENTER
2.76,2.21,34.97382,-80.52250,9337.08,5461.31,CAROLINAS MEDICAL CENTER-UNION
2.86,2.27,35.11420,-77.06568,9999.37,5866.29,CAROLINA EAST MEDICAL CENTER
2.91,2.22,36.32959,-78.39916,10408.68,5517.95,MARIA PARHAM MEDICAL CENTER
3.41,2.28,34.23786,-77.94764,13871.30,5920.98,NEW HANOVER REGIONAL MEDICAL CENTER
3.08,2.29,34.72615,-76.75452,11585.44,6046.00,CARTERET GENERAL HOSPITAL
4.35,2.21,35.47011,-81.23593,20505.88,5463.75,CAROLINAS MEDICAL CENTER-LINCOLN
3.41,2.27,35.97538,-77.85012,13897.26,5905.21,NASH GENERAL HOSPITAL
3.24,2.18,36.43295,-77.64729,12711.45,5236.15,HALIFAX REGIONAL MEDICAL CENTER INC
3.69,2.21,36.04960,-78.90617,15857.70,5476.72,DURHAM REGIONAL HOSPITAL
3.33,2.25,35.30611,-80.74708,13372.63,5763.41,CAROLINAS MED CTR-UNIVERSITY
3.47,2.08,35.11432,-80.71971,14289.00,4558.87,PRESBYTERIAN HOSPITAL MATTHEWS
4.83,2.15,35.74046,-78.78127,23894.80,5026.20,WAKEMED, CARY HOSPITAL
2.52,2.07,35.52586,-82.94351,7606.33,4465.83,MEDWEST HAYWOOD
3.28,2.15,48.23258,-101.28843,12974.75,5049.08,TRINITY HOSPITALS
2.95,2.24,46.88496,-96.78609,10676.89,5664.79,SANFORD MEDICAL CENTER FARGO
2.48,2.23,46.80798,-100.78229,7380.95,5609.16,MEDCENTER ONE
2.99,2.26,47.91045,-97.06742,10963.80,5798.27,ALTRU HOSPITAL
3.50,2.11,39.08582,-84.34886,14544.28,4754.89,MERCY HOSPITAL ANDERSON
3.37,2.63,39.13707,-84.50392,13603.63,8381.02,UNIVERSITY HOSPITAL, INC
4.16,2.19,40.03064,-83.03440,19152.83,5339.79,RIVERSIDE METHODIST HOSPITAL
3.64,2.21,38.75320,-82.97800,15503.00,5439.25,SOUTHERN OHIO MEDICAL CENTER
3.14,2.07,40.73578,-84.08630,11999.06,4449.50,LIMA MEMORIAL HEALTH SYSTEM
2.41,2.08,40.51393,-81.45644,6830.17,4563.61,UNION HOSPITAL
3.11,2.11,40.57098,-83.12972,11821.35,4720.18,MARION GENERAL HOSPITAL
2.85,2.15,40.11479,-82.94677,9951.88,5009.65,MOUNT CARMEL ST ANN'S HOSPITAL
3.87,2.17,39.20680,-84.38093,17136.32,5165.58,JEWISH HOSPITAL, LLC
3.75,2.31,39.96098,-82.99077,16327.03,6162.20,GRANT MEDICAL CENTER
4.59,2.17,41.01476,-81.58913,22218.94,5186.00,SUMMA HEALTH SYSTEM BARBERTON HOSPITAL
5.12,2.23,41.08161,-81.50007,25967.47,5619.68,SUMMA HEALTH SYSTEMS HOSPITALS
3.28,2.11,41.44642,-82.70864,13014.76,4715.92,FIRELANDS REGIONAL MEDICAL CENTER
3.79,2.18,41.07747,-81.53042,16585.32,5240.10,AKRON GENERAL MEDICAL CENTER
2.86,2.21,39.95805,-83.02191,10016.40,5463.17,MOUNT CARMEL HEALTH
2.20,2.02,40.82041,-81.93422,5382.87,4123.33,WOOSTER COMMUNITY HOSPITAL
3.06,2.18,39.97510,-82.01812,11460.82,5227.76,GENESIS HEALTHCARE SYSTEM
2.84,2.06,41.38265,-81.73127,9883.32,4387.52,PARMA COMMUNITY GENERAL HOSPITAL
3.94,2.42,41.61788,-83.61632,17620.04,6960.21,UNIVERSITY OF TOLEDO MEDICAL CENTER
5.63,2.23,39.74547,-84.18523,29549.05,5627.18,MIAMI VALLEY HOSPITAL
5.92,2.19,39.78778,-84.23493,31541.60,5322.54,GOOD SAMARITAN HOSPITAL
2.99,2.10,38.84439,-82.23902,10928.23,4709.69,HOLZER MEDICAL CENTER
5.43,2.16,41.23549,-80.79865,28146.80,5068.24,TRUMBULL MEMORIAL HOSPITAL
3.03,2.08,39.31257,-84.51774,11192.25,4542.58,MERCY HOSPITAL FAIRFIELD
3.57,2.60,41.46088,-81.69763,15050.48,8165.73,METRO HEALTH MEDICAL CENTER
3.70,2.15,41.11441,-80.65565,15922.87,5015.67,ST ELIZABETH HEALTH CENTER
2.85,2.08,41.22570,-82.60491,9935.46,4558.85,FISHER-TITUS HOSPITAL
3.67,2.11,40.74115,-84.11804,15736.81,4725.50,ST RITA'S MEDICAL CENTER
5.71,2.21,41.67775,-83.59589,30101.86,5425.86,TOLEDO HOSPITAL THE
2.81,2.11,40.81219,-81.39625,9649.84,4754.26,MERCY MEDICAL CENTER
2.87,2.13,39.71750,-82.57772,10085.57,4917.95,FAIRFIELD MEDICAL CENTER
3.37,2.38,41.58130,-81.48979,13650.58,6666.95,UHHS RICHMOND HEIGHTS HOSPITAL
4.47,2.11,39.49896,-84.31496,21363.44,4755.00,ATRIUM MEDICAL CENTER
4.83,2.15,41.45013,-81.82397,23916.51,5038.77,FAIRVIEW HOSPITAL
3.32,2.08,41.17554,-81.24915,13294.21,4550.17,ROBINSON MEMORIAL HOSPITAL
4.32,2.18,39.69724,-84.19232,20299.95,5212.64,KETTERING MEDICAL CENTER
3.44,2.08,40.09873,-80.72072,14090.91,4562.45,EAST OHIO REGIONAL HOSPITAL
3.50,2.08,41.59825,-81.54884,14533.58,4573.63,EUCLID HOSPITAL
2.78,2.13,40.79609,-81.40360,9490.85,4896.08,AULTMAN HOSPITAL
4.53,2.42,39.99445,-83.01872,21780.77,6903.58,OHIO STATE UNIVERSITY HOSPITALS
3.37,2.14,39.92755,-83.81573,13626.33,4986.81,SPRINGFIELD REGIONAL MEDICAL CENTER
3.59,2.11,41.48724,-81.70707,15171.07,4771.80,LUTHERAN HOSPITAL
3.42,2.09,41.55725,-83.68141,13944.74,4581.47,ST LUKE'S HOSPITAL
2.69,2.12,40.62149,-80.58651,8846.33,4796.33,EAST LIVERPOOL CITY HOSPITAL
4.21,2.05,41.66317,-81.24696,19533.18,4322.08,LAKE HEALTH
4.66,2.43,41.52522,-81.58267,22675.78,6996.87,HURON HOSPITAL
4.00,2.40,41.66810,-83.54275,18062.95,6806.45,MERCY ST VINCENT MEDICAL CENTER
3.65,2.07,39.13628,-84.60485,15611.09,4501.27,MERCY FRANCISCAN HOSPITAL WESTERN HILLS
3.52,2.05,41.39496,-81.53484,14667.86,4359.21,UHHS BEDFORD MEDICAL CENTER
3.30,2.07,40.75264,-82.52803,13144.50,4474.67,MEDCENTRAL HEALTH SYSTEM
3.16,2.13,41.43653,-81.94451,12166.05,4920.05,ST JOHN MEDICAL CENTER
3.28,2.17,41.88034,-80.79553,12991.00,5139.24,ASHTABULA COUNTY MEDICAL CENTER
2.76,2.09,40.90221,-81.10269,9352.07,4606.40,ALLIANCE COMMUNITY HOSPITAL
4.28,2.10,39.41551,-84.57263,20026.07,4663.33,FORT HAMILTON HUGHES MEMORIAL HOSPITAL
6.01,2.34,39.76950,-84.20285,32229.50,6357.05,GRANDVIEW HOSPITAL & MEDICAL CENTER
4.60,2.27,39.13975,-84.52173,22265.88,5851.67,GOOD SAMARITAN HOSPITAL
3.89,2.53,41.50772,-81.60592,17288.62,7682.05,UNIVERSITY HOSPITALS OF CLEVELAND
4.05,2.24,41.13385,-80.65678,18383.73,5656.73,NORTHSIDE MEDICAL CENTER
4.10,2.06,41.42112,-81.59808,18788.65,4409.41,MARYMOUNT HOSPITAL
3.98,2.24,41.44829,-81.53736,17945.77,5689.00,SOUTH POINTE HOSPITAL
2.88,2.07,41.36649,-82.09708,10205.20,4498.60,EMH REGIONAL MEDICAL CENTER
3.44,2.07,39.43061,-81.46454,14096.50,4487.60,MARIETTA MEMORIAL HOSPITAL
4.83,2.50,39.95311,-83.13803,23885.00,7504.73,DOCTORS HOSPITAL
4.76,2.07,41.37028,-81.83189,23400.62,4463.81,SOUTHWEST GENERAL HEALTH CENTER
3.24,2.15,39.39463,-82.96979,12731.33,5007.76,ADENA REGIONAL MEDICAL CENTER
4.34,2.14,41.23046,-80.77749,20453.74,4939.00,ST JOSEPH HEALTH CENTER
3.25,2.24,39.12105,-84.51059,12750.68,5678.79,CHRIST HOSPITAL
3.54,2.11,41.43688,-82.23761,14800.50,4757.36,MERCY REGIONAL MEDICAL CENTER
3.64,2.15,40.08748,-84.22920,15488.27,5029.73,UPPER VALLEY MEDICAL CENTER
2.61,2.17,39.44359,-83.84001,8300.00,5178.08,CLINTON MEMORIAL HOSPITAL
3.87,2.13,39.25076,-84.34341,17148.89,4862.32,BETHESDA NORTH HOSPITAL
5.02,2.39,41.50248,-81.62110,25219.69,6705.23,CLEVELAND CLINIC
2.48,2.19,40.04115,-81.57789,7331.83,5319.33,SOUTHEASTERN OHIO REGIONAL MEDICAL CENTER
2.78,2.10,40.35601,-80.62502,9476.57,4665.57,TRINITY MEDICAL CTR EAST&TRINITY MEDICAL CTR WEST
4.11,2.10,41.48479,-81.79649,18852.25,4668.54,LAKEWOOD HOSPITAL
2.52,2.17,40.04876,-82.45029,7637.53,5137.60,LICKING MEMORIAL HOSPITAL
3.98,2.07,41.52013,-81.43291,17898.47,4440.13,HILLCREST HOSPITAL
3.40,2.12,39.20463,-84.57093,13823.32,4809.19,MERCY FRANCISCAN HOSPITAL - MT AIRY
3.94,2.14,39.63778,-84.24864,17605.75,4992.06,KETTERING MEDICAL CENTER - SYCAMORE
5.36,2.08,41.69195,-83.62455,27601.69,4517.69,MERCY ST ANNE HOSPITAL
3.67,2.04,40.99498,-80.66192,15728.46,4278.08,ST ELIZABETH BOARDMAN HEALTH CENTER
4.73,2.22,39.35830,-84.36785,23181.33,5516.08,WEST CHESTER MEDICAL CENTER
5.28,2.55,36.14687,-95.96841,27080.24,7825.78,HILLCREST MEDICAL CENTER
3.00,2.09,36.87520,-94.87633,11005.86,4611.43,INTEGRIS BAPTIST REG HEALTH CENTER
4.75,2.10,35.22999,-97.44074,23364.38,4669.81,NORMAN REGIONAL HEALTH SYSTEM
4.30,2.07,35.60735,-97.59693,20139.05,4473.18,MERCY HEALTH CENTER, INC
5.39,2.17,34.00655,-96.39398,27855.54,5203.04,MEDICAL CENTER OF SOUTHEASTERN OKLAHOMA
3.39,2.08,36.75199,-95.94089,13786.67,4524.58,JANE PHILLIPS MEDICAL CENTER
3.14,2.12,34.63509,-99.31700,12019.21,4806.84,JACKSON COUNTY MEMORIAL HOSPITAL
3.29,2.04,34.52030,-97.97604,13079.57,4247.50,DUNCAN REGIONAL HOSPITAL, INC
3.76,2.12,35.75351,-95.40612,16392.90,4850.10,MUSKOGEE REGIONAL MEDICAL CENTER
5.59,2.30,35.52960,-97.57496,29253.15,6088.78,INTEGRIS BAPTIST MEDICAL CENTER
4.12,2.09,35.52531,-97.58461,18892.83,4607.00,DEACONESS HOSPITAL
3.24,2.33,35.47800,-97.52352,12701.88,6313.53,ST ANTHONY HOSPITAL
2.80,2.11,35.04453,-94.61214,9589.91,4776.73,EASTERN OKLAHOMA MEDICAL CENTER
4.32,2.15,34.18908,-97.14128,20302.68,5054.00,MERCY MEMORIAL HEALTH CENTER
2.41,2.15,33.88091,-94.81273,6849.21,5011.43,MCCURTAIN MEMORIAL HOSPITAL
3.34,2.10,34.60992,-98.43419,13388.00,4712.11,COMANCHE COUNTY MEMORIAL HOSPITAL
2.63,2.11,36.65318,-95.15577,8384.91,4765.55,CRAIG GENERAL HOSPITAL
3.98,2.39,36.14675,-95.99969,17937.35,6736.85,OKLAHOMA STATE UNIVERSITY MEDICAL CENTER
3.76,2.17,36.06135,-95.95154,16384.09,5162.45,SAINT FRANCIS HOSPITAL, INC
2.69,2.16,34.01224,-95.49661,8826.82,5069.82,CHOCTAW MEMORIAL HOSPITAL
5.14,2.45,35.48138,-97.49624,26046.12,7162.24,O U MEDICAL CENTER
6.13,2.05,35.46721,-97.39370,33043.31,4359.31,MIDWEST REGIONAL MEDICAL CENTER
4.91,2.17,35.42168,-97.53306,24444.21,5187.97,INTEGRIS SOUTHWEST MEDICAL CENTER
3.32,2.12,36.13393,-95.96718,13288.52,4839.86,ST JOHN MEDICAL CENTER, INC
2.69,2.13,35.36359,-96.93791,8839.45,4922.00,UNITY HEALTH CENTER
2.15,2.10,35.80907,-94.64301,5032.77,4665.85,MEMORIAL HOSPITAL OF STILWELL
3.99,2.15,36.03590,-95.86511,17985.17,5032.83,SOUTHCREST HOSPITAL
3.56,2.29,45.50973,-122.77368,14924.21,6036.79,PROVIDENCE ST VINCENT MEDICAL CENTER
3.60,2.59,45.49956,-122.68802,15247.32,8142.21,OHSU HOSPITAL AND CLINICS
3.92,2.29,44.60322,-123.25312,17491.82,6043.82,GOOD SAMARITAN REGIONAL MEDICAL CENTER
4.24,2.44,45.53028,-122.69692,19774.53,7037.80,LEGACY GOOD SAMARITAN MEDICAL CENTER
4.20,2.22,42.31769,-122.83333,19432.33,5552.40,ROGUE VALLEY MEDICAL CENTER
3.22,2.21,44.93267,-123.03418,12586.32,5425.26,SALEM HOSPITAL
2.93,2.23,45.52677,-122.61469,10500.09,5568.22,PROVIDENCE PORTLAND MEDICAL CENTER
3.39,2.26,42.34086,-122.86108,13744.46,5832.23,PROVIDENCE MEDFORD MEDICAL CENTER
2.95,2.25,44.08146,-123.02694,10686.75,5752.88,SACRED HEART MEDICAL CENTER - RIVERBEND
4.24,2.12,41.40075,-75.64594,19755.73,4840.18,COMMUNITY MEDICAL CENTER
3.67,2.33,40.35127,-79.84949,15735.35,6316.40,UPMC MCKEESPORT
4.09,2.06,40.25296,-76.92151,18670.07,4430.07,HOLY SPIRIT HOSPITAL
5.66,2.51,40.96789,-76.60506,29744.54,7592.33,GEISINGER MEDICAL CENTER
4.91,2.18,42.11102,-80.07912,24434.67,5273.93,SAINT VINCENT HEALTH CENTER
5.28,2.12,40.25092,-75.27204,27050.13,4839.80,LANSDALE HOSPITAL
2.52,2.06,40.97877,-76.88593,7611.33,4371.08,EVANGELICAL COMMUNITY HOSPITAL
2.71,2.17,41.01409,-80.35398,8976.07,5142.80,JAMESON MEMORIAL HOSPITAL
7.73,2.20,40.07880,-75.21107,44330.72,5360.00,CHESTNUT HILL HOSPITAL
13.50,3.01,40.00504,-75.15155,84932.67,11078.33,TEMPLE UNIVERSITY HOSPITAL
3.83,2.46,40.43609,-79.98537,16887.00,7239.31,UPMC MERCY
2.97,2.16,40.68423,-76.18761,10770.65,5127.12,SCHUYLKILL MEDICAL CENTER - SOUTH JACKSON STREET
3.02,2.04,40.69101,-76.18682,11186.50,4271.11,SCHUYLKILL MEDICAL CENTER - EAST NORWEGIAN STREET
5.59,2.12,40.43850,-75.34895,29269.54,4807.85,ST LUKE'S QUAKERTOWN HOSPITAL
2.69,2.10,40.71251,-80.32136,8802.56,4653.22,HERITAGE VALLEY BEAVER
2.51,2.10,39.90180,-79.73854,7555.00,4649.94,UNIONTOWN HOSPITAL
3.33,2.20,40.18302,-80.24767,13363.07,5398.20,WASHINGTON HOSPITAL, THE
4.27,2.27,40.33271,-75.95020,19964.44,5902.53,READING HOSPITAL MEDICAL CENTER
3.22,2.15,41.24548,-77.01438,12566.81,5055.19,WILLIAMSPORT REGIONAL MEDICAL CENTER
3.09,2.51,39.94604,-76.71884,11638.10,7554.98,YORK HOSPITAL
3.22,2.17,40.61795,-77.56734,12546.18,5142.55,LEWISTOWN HOSPITAL
5.41,2.25,40.60811,-75.39260,28000.29,5728.98,ST LUKE'S HOSPITAL BETHLEHEM
