size_charge,size_pay,lat,lon,charge,pay,name
2.74,2.19,35.83746,-90.70386,14580.94,8634.35,ST BERNARDS MEDICAL CTR
3.96,2.11,34.77770,-92.12539,27749.42,7791.92,BAPTIST HEALTH MEDICAL CENTER NORTH LITTLE ROCK
3.37,2.16,35.37445,-94.41868,21369.40,8348.20,SPARKS REGIONAL MEDICAL CENTER
5.48,2.17,35.35395,-94.35262,44105.00,8478.83,ST EDWARD MERCY MEDICAL CENTER
4.27,2.25,34.18894,-92.01886,31025.95,9330.14,JEFFERSON REGIONAL MEDICAL CENTER
3.58,2.17,34.74866,-92.35422,23624.29,8460.92,BAPTIST HEALTH MEDICAL CENTER-LITTLE ROCK
4.52,2.18,35.76927,-91.63408,33745.14,8538.07,WHITE RIVER MEDICAL CENTER
7.28,2.44,40.78366,-124.14246,63433.23,11385.85,ST JOSEPH HOSPITAL
6.18,2.51,37.76862,-122.43525,51583.82,12168.00,CALIFORNIA PACIFIC MEDICAL CTR-DAVIES CAMPUS HOSP
5.81,2.28,32.77495,-117.01467,47589.81,9678.38,GROSSMONT HOSPITAL
5.81,2.41,39.50528,-121.54100,47594.24,11040.24,OROVILLE HOSPITAL
6.45,2.44,35.38736,-119.01690,54483.92,11353.42,BAKERSFIELD MEMORIAL HOSPITAL
9.00,3.80,37.31288,-121.93329,81956.92,25975.00,SANTA CLARA VALLEY MEDICAL CENTER
6.50,2.27,39.74221,-121.85000,55047.76,9562.82,ENLOE MEDICAL CENTER
8.22,3.16,37.79100,-122.43125,73517.79,19072.68,CALIFORNIA PACIFIC MEDICAL CTR-PACIFIC CAMPUS HOSP
4.51,2.55,34.67486,-118.15771,33620.96,12584.25,ANTELOPE VALLEY HOSPITAL MED CENTER
6.85,2.53,36.32737,-119.29548,58795.19,12373.81,KAWEAH DELTA MEDICAL CENTER
12.20,2.76,34.12834,-118.25777,116368.36,14831.82,GLENDALE MEM HOSPITAL & HLTH CENTER
5.04,2.73,36.73000,-119.78000,39329.76,14488.96,COMMUNITY REGIONAL MEDICAL CENTER
8.24,2.98,34.09643,-118.29103,73790.58,17196.17,HOLLYWOOD PRESBYTERIAN MEDICAL CENTER
7.01,2.34,33.78036,-117.86495,60474.25,10253.30,ST JOSEPH HOSPITAL
5.16,2.66,32.75143,-117.16083,40616.10,13734.29,SCRIPPS MERCY HOSPITAL
8.48,2.57,37.95337,-122.33672,76332.27,12742.18,DOCTORS MEDICAL CENTER-SAN PABLO
7.46,2.44,37.96987,-121.28873,65371.29,11398.64,ST JOSEPHS MED CENTER OF STOCKTON
5.04,2.34,36.83532,-119.76562,39312.00,10271.85,SAINT AGNES MEDICAL CENTER
6.44,2.48,32.79949,-117.15394,54401.36,11808.00,SHARP MEMORIAL HOSPITAL
5.52,2.61,34.07558,-118.28424,44509.45,13195.64,TEMPLE COMMUNITY HOSPITAL
12.06,3.31,34.02685,-118.48651,114873.69,20763.15,SANTA MONICA - UCLA MED CTR & ORTHOPAEDIC HOSPITAL
6.81,2.66,34.22014,-118.53410,58404.29,13774.90,NORTHRIDGE HOSPITAL MEDICAL CENTER
6.69,2.55,39.13822,-121.59436,57068.11,12572.21,RIDEOUT MEMORIAL HOSPITAL
3.93,2.71,34.09638,-118.32518,27379.69,14289.56,HOLLYWOOD COMMUNITY HOSPITAL OF HOLLYWOOD
7.17,2.63,37.32710,-121.93863,62211.50,13381.08,O'CONNOR HOSPITAL
6.12,2.26,33.89465,-117.92716,50997.87,9401.60,ST JUDE MEDICAL CENTER
7.51,2.38,33.96860,-118.04831,65866.87,10673.27,PRESBYTERIAN INTERCOMMUNITY HOSPITAL
8.64,2.46,37.91341,-122.04163,78042.43,11596.00,JOHN MUIR MEDICAL CENTER - WALNUT CREEK CAMPUS
15.68,2.88,37.55717,-121.98126,153770.92,16154.33,WASHINGTON HOSPITAL
5.42,2.32,34.58305,-118.14490,43385.76,10074.06,PALMDALE REGIONAL MEDICAL CENTER
8.53,2.64,34.07709,-117.75063,76813.61,13480.44,POMONA VALLEY HOSPITAL MEDICAL CENTER
12.53,2.48,34.15601,-118.32834,119919.83,11809.38,PROVIDENCE SAINT JOSEPH MEDICAL CTR
7.26,2.38,34.13973,-118.03534,63241.06,10754.44,METHODIST HOSPITAL OF SOUTHERN CA
10.86,2.68,34.14987,-118.23117,101881.83,13949.22,GLENDALE ADVENTIST MEDICAL CENTER
10.47,3.84,34.06675,-118.44613,97727.64,26389.91,RONALD REAGAN UCLA MEDICAL CENTER
11.17,2.41,34.27915,-118.46006,105280.41,11070.18,PROVIDENCE HOLY CROSS MEDICAL CENTER
5.51,2.47,40.58654,-122.39168,44407.07,11661.64,MERCY MEDICAL CENTER REDDING
8.71,2.53,37.69502,-121.88095,78840.91,12364.91,VALLEYCARE MEDICAL CENTER
5.75,2.32,34.03009,-118.47833,46959.38,10128.94,SAINT JOHN'S HEALTH CENTER
5.70,2.27,35.37279,-119.02817,46385.36,9500.18,MERCY HOSPITAL
4.43,2.41,34.50107,-117.17285,32733.53,11006.41,ST MARY MEDICAL CENTER
8.00,2.84,37.85593,-122.25730,71140.08,15643.62,ALTA BATES SUMMIT MEDICAL CENTER - ALTA BATES CAMP
7.51,2.59,37.36934,-122.08047,65853.14,12934.50,EL CAMINO HOSPITAL
5.06,2.31,38.76514,-121.24979,39492.86,9943.86,SUTTER ROSEVILLE MEDICAL CENTER
6.25,2.91,34.05076,-117.26395,52344.93,16385.50,LOMA LINDA UNIVERSITY MEDICAL CENTER
9.39,2.54,37.97780,-120.37150,86132.33,12494.67,SONORA REGIONAL MEDICAL CENTER
4.59,2.51,32.95813,-115.55388,34487.77,12111.15,PIONEERS MEMORIAL HEALTHCARE DISTRICT
12.76,2.87,33.81131,-118.34364,122375.71,15965.64,TORRANCE MEMORIAL MEDICAL CENTER
7.48,2.32,33.83891,-118.35677,65543.42,10041.12,PROVIDENCE LITTLE COMPANY OF MARY MED CTR TORRANCE
4.52,2.59,34.08802,-117.89341,33726.47,12952.73,CITRUS VALLEY MEDICAL CENTER-IC CAMPUS
6.98,2.41,33.93530,-118.13030,60193.36,11046.18,DOWNEY REGIONAL MEDICAL CENTER
5.46,2.28,34.27459,-119.25812,43802.12,9600.12,COMMUNITY MEMORIAL HOSPITAL SAN BUENAVENTURA
8.14,2.55,34.13364,-118.15275,72635.26,12581.26,HUNTINGTON MEMORIAL HOSPITAL
9.87,3.21,37.43436,-122.18013,91241.69,19654.69,STANFORD HOSPITAL
5.34,2.57,37.34027,-120.46817,42555.40,12727.67,MERCY MEDICAL CENTER
20.00,2.84,37.66540,-120.99743,200216.92,15638.54,DOCTORS MEDICAL CENTER
10.74,2.32,34.20285,-118.62962,100633.67,10047.50,WEST HILLS HOSPITAL & MEDICAL CENTER
8.26,2.61,33.80861,-118.18661,73913.00,13240.83,LONG BEACH MEMORIAL MEDICAL CENTER
5.58,2.56,37.69824,-122.08730,45090.33,12692.60,EDEN MEDICAL CENTER
12.64,2.57,37.98396,-122.03464,121036.47,12731.71,JOHN MUIR MEDICAL CENTER - CONCORD CAMPUS
7.18,2.73,34.06389,-118.27347,62349.36,14535.82,SAINT VINCENT MEDICAL CENTER
7.98,2.46,38.66956,-121.31378,70895.44,11533.00,MERCY SAN JUAN MEDICAL CENTER
8.04,2.57,37.98224,-121.80362,71585.25,12819.58,SUTTER DELTA MEDICAL CENTER
10.70,2.56,34.20777,-118.88305,100152.18,12678.82,LOS ROBLES HOSPITAL & MEDICAL CENTER
7.88,2.45,37.66867,-120.97339,69832.00,11477.42,MEMORIAL  MEDICAL CENTER
6.84,2.36,33.56100,-117.66530,58729.55,10540.18,MISSION HOSPITAL REGIONAL MED CENTER
7.01,2.59,33.71466,-117.93322,60510.86,12944.57,FOUNTAIN VALLEY REGIONAL HOSPITAL & MEDICAL CENTER
10.34,2.39,33.76335,-116.40628,96369.10,10813.41,EISENHOWER MEDICAL CENTER
4.76,2.46,33.83340,-118.08118,36346.31,11556.15,TRI-CITY REGIONAL MEDICAL CENTER
6.97,2.98,38.55484,-121.45628,60112.69,17164.08,UNIVERSITY OF CALIFORNIA DAVIS MEDICAL CENTER
12.80,3.00,34.07664,-118.37955,122764.11,17377.74,CEDARS-SINAI MEDICAL CENTER
7.04,2.82,34.01936,-118.18661,60786.94,15500.19,LOS ANGELES COMMUNITY HOSPITAL
3.25,2.59,34.22139,-118.45660,20117.27,12933.82,MISSION COMMUNITY HOSPITAL - PANORAMA
4.31,2.32,34.47174,-117.29791,31486.29,10114.67,DESERT VALLEY HOSPITAL
6.67,2.49,33.95076,-118.34828,56819.48,11894.57,CENTINELA HOSPITAL MEDICAL CENTER
8.28,2.36,34.05723,-118.36025,74212.81,10480.33,OLYMPIA MEDICAL CENTER
4.23,2.26,34.16028,-118.44948,30654.92,9474.54,SHERMAN OAKS HOSPITAL
5.08,2.37,32.77629,-117.05730,39745.86,10564.50,ALVARADO HOSPITAL MEDICAL CENTER
10.64,2.37,34.17067,-118.53200,99542.14,10569.57,PROVIDENCE TARZANA MEDICAL CENTER
4.81,2.80,34.06958,-118.26344,36902.86,15258.29,SILVER LAKE MEDICAL CENTER
5.41,2.40,40.58532,-122.38702,43343.41,10985.34,SHASTA REGIONAL MEDICAL CENTER
3.80,2.22,40.41481,-104.70890,25956.30,9041.78,NORTH COLORADO MEDICAL CENTER
5.44,2.14,39.76893,-105.09006,43618.08,8180.77,EXEMPLA LUTHERAN MEDICAL CENTER
3.26,2.21,38.83903,-104.80024,20215.92,8947.15,MEMORIAL HOSPITAL CENTRAL
5.38,2.82,39.74234,-104.84156,42943.09,15445.36,UNIVERSITY OF COLORADO HOSPITAL ANSCHUTZ INPATIENT
4.74,2.18,38.86559,-104.82182,36078.46,8612.38,CENTURA HEALTH-PENROSE ST FRANCIS HEALTH SERVICES
6.02,2.29,39.67005,-104.97490,49855.31,9748.92,CENTURA HEALTH-PORTER ADVENTIST HOSPITAL
5.07,2.48,41.30978,-72.93806,39676.05,11819.85,HOSPITAL OF ST RAPHAEL
4.78,2.57,41.77507,-72.69941,36534.86,12776.62,ST FRANCIS HOSPITAL & MEDICAL CENTER
5.37,2.75,41.55959,-73.05941,42929.82,14692.00,WATERBURY HOSPITAL
4.98,2.42,41.05562,-73.55390,38692.12,11204.24,STAMFORD HOSPITAL
2.97,2.31,41.33722,-72.10380,17104.84,10007.44,LAWRENCE & MEMORIAL HOSPITAL
4.54,2.65,41.18881,-73.16645,34000.50,13591.64,BRIDGEPORT HOSPITAL
3.11,2.53,41.55241,-73.03554,18573.79,12311.29,SAINT MARYS HOSPITAL
4.31,2.29,41.54874,-72.80148,31496.92,9725.83,MIDSTATE MEDICAL CENTER
4.53,2.27,41.55473,-72.64872,33857.50,9532.50,MIDDLESEX HOSPITAL
4.80,2.78,41.30400,-72.93502,36736.08,14992.75,YALE-NEW HAVEN HOSPITAL
3.04,2.53,41.54301,-72.08799,17837.67,12286.33,WILLIAM W BACKUS HOSPITAL
3.57,2.59,41.75412,-72.67927,23470.58,12959.73,HARTFORD HOSPITAL
5.94,2.58,41.20049,-73.20281,48973.05,12896.47,ST VINCENT'S MEDICAL CENTER
4.09,2.47,41.40474,-73.44739,29096.12,11663.44,DANBURY HOSPITAL
3.81,2.40,41.11147,-73.42010,26145.14,10959.57,NORWALK HOSPITAL ASSOCIATION
3.74,2.38,41.66107,-72.78671,25323.74,10753.05,HOSPITAL OF CENTRAL CONNECTICUT, THE
3.77,2.44,39.69005,-75.68408,25618.48,11417.39,CHRISTIANA CARE HEALTH SERVICES, INC.
3.61,2.23,39.15135,-75.52309,23916.27,9094.80,BAYHEALTH - KENT GENERAL HOSPITAL
4.05,2.21,38.77159,-75.14210,28690.65,8867.00,BEEBE MEDICAL CENTER
6.58,2.59,38.90106,-77.05079,55917.00,12981.55,GEORGE WASHINGTON UNIV HOSPITAL
6.17,2.65,38.91221,-77.07588,51515.91,13580.82,GEORGETOWN UNIVERSITY HOSPITAL
3.51,2.48,38.94397,-76.99040,22919.23,11850.31,PROVIDENCE HOSPITAL
4.09,2.50,38.92944,-77.01473,29118.03,11963.69,WASHINGTON HOSPITAL CENTER
5.77,2.28,26.50479,-80.06979,47181.13,9674.27,BETHESDA MEMORIAL HOSPITAL
6.53,2.36,28.52517,-81.37729,55386.34,10539.02,ORLANDO HEALTH
5.84,2.31,28.57345,-81.36990,47907.06,9957.40,FLORIDA HOSPITAL
6.98,2.44,25.68309,-80.34038,60152.40,11364.80,BAPTIST HOSPITAL OF MIAMI INC
7.94,2.46,25.78846,-80.21644,70551.50,11561.83,UNIVERSITY OF MIAMI HOSPITAL
3.98,2.28,26.62849,-81.87423,27903.00,9636.40,LEE MEMORIAL HOSPITAL
5.18,2.26,26.15053,-81.79919,40829.36,9465.96,NAPLES COMMUNITY HOSPITAL
5.50,2.17,28.08771,-80.61362,44321.00,8462.64,HOLMES REGIONAL MEDICAL CENTER
4.50,3.00,25.79143,-80.21250,33512.21,17441.93,JACKSON MEMORIAL HOSPITAL
3.51,2.19,30.47650,-87.21219,22901.50,8676.07,SACRED HEART HOSPITAL
3.52,2.14,30.15963,-85.64818,22952.44,8117.19,BAY MEDICAL CENTER
3.25,2.09,28.63051,-80.82437,20027.67,7628.58,PARRISH MEDICAL CENTER
6.46,2.36,25.86166,-80.21398,54591.50,10557.33,NORTH SHORE MEDICAL CENTER
6.77,2.43,25.81317,-80.13996,57932.50,11216.78,MOUNT SINAI MEDICAL CENTER
6.11,2.21,27.49789,-82.56220,50837.08,8885.54,MANATEE MEMORIAL HOSPITAL
6.05,2.26,26.01867,-80.17981,50186.76,9439.94,MEMORIAL REGIONAL HOSPITAL
4.15,2.48,26.10282,-80.14245,29790.42,11831.21,BROWARD HEALTH BROWARD GENERAL MEDICAL CENTER
3.70,2.13,30.30835,-81.68919,24942.38,8044.38,ST VINCENT'S MEDICAL CENTER
3.59,2.16,29.04263,-81.31635,23694.73,8397.13,FLORIDA HOSPITAL DELAND
6.23,2.27,28.55140,-81.72120,52173.09,9593.09,SOUTH LAKE HOSPITAL
4.16,2.06,28.82358,-81.71133,29848.36,7279.79,FLORIDA HOSPITAL WATERMAN
5.07,2.12,29.17594,-82.13898,39661.74,7930.96,MUNROE REGIONAL MEDICAL CENTER
4.06,2.12,27.78088,-82.65126,28837.00,7884.83,ST ANTHONY'S HOSPITAL
3.11,2.14,29.24333,-81.10760,18540.45,8106.82,FLORIDA HOSPITAL MEMORIAL MEDICAL CENTER
5.54,2.08,27.09043,-82.44499,44699.79,7488.00,VENICE REGIONAL MEDICAL CENTER
5.87,2.21,28.91403,-81.28480,48233.83,8853.83,FLORIDA HOSPITAL FISH MEMORIAL
5.55,2.15,26.18711,-80.11941,44823.48,8277.00,HOLY CROSS HOSPITAL INC
4.13,2.23,27.98242,-82.49025,29567.03,9099.63,ST JOSEPH'S HOSPITAL
4.79,2.16,26.98905,-82.09559,36609.64,8403.55,PEACE RIVER REGIONAL MEDICAL CENTER
6.17,2.22,26.59805,-80.09271,51532.25,8996.17,JFK MEDICAL CENTER
4.03,2.14,28.80659,-81.86906,28484.27,8177.00,LEESBURG REGIONAL MEDICAL CENTER
3.95,2.09,27.31827,-82.53140,27633.39,7654.28,SARASOTA MEMORIAL HOSPITAL
5.38,2.36,30.31525,-81.66398,42984.70,10539.56,BAPTIST MEDICAL CENTER
5.06,2.27,29.86371,-81.31749,39504.90,9588.00,FLAGLER HOSPITAL
3.82,2.15,28.33522,-80.72319,26191.54,8296.00,WUESTHOFF MEDICAL CENTER  ROCKLEDGE
2.72,2.15,27.65832,-80.39307,14334.00,8207.29,INDIAN RIVER MEDICAL CENTER
4.03,2.15,27.50001,-81.43962,28479.95,8275.74,FLORIDA HOSPITAL HEARTLAND MEDICAL CENTER
7.18,2.55,28.29946,-81.41021,62323.36,12518.36,OSCEOLA REGIONAL MEDICAL CENTER
4.45,2.77,29.64155,-82.34844,32996.75,14897.05,SHANDS HOSPITAL AT THE UNIVERSITY OF FLORIDA
7.22,2.15,30.73540,-86.56171,62762.73,8239.13,NORTH OKALOOSA MEDICAL CENTER
4.29,2.14,27.95192,-82.80379,31254.88,8192.47,MORTON PLANT HOSPITAL
12.64,3.27,27.93740,-82.45927,121053.55,20264.45,TAMPA GENERAL HOSPITAL
7.11,2.31,25.96994,-80.14533,61556.00,9950.67,AVENTURA HOSPITAL AND MEDICAL CENTER
4.30,2.21,30.45726,-84.26175,31330.71,8867.71,TALLAHASSEE MEMORIAL HEALTHCARE
5.65,2.18,28.18120,-81.64018,45917.00,8620.00,HEART OF FLORIDA REGIONAL MEDICAL CENTER
4.58,2.16,28.06172,-81.95304,34420.48,8308.52,LAKELAND REGIONAL MEDICAL CENTER
5.49,2.44,26.12647,-80.20519,44120.38,11344.69,PLANTATION GENERAL HOSPITAL
4.10,2.12,26.35875,-80.10203,29226.16,7950.00,BOCA RATON REGIONAL HOSPITAL
4.74,2.13,28.07111,-82.42342,36106.57,8071.86,FLORIDA HOSPITAL TAMPA
6.54,2.12,26.83035,-80.08655,55437.91,7958.55,PALM BEACH GARDENS MEDICAL CENTER
7.11,2.21,30.28793,-81.60103,61557.76,8851.41,MEMORIAL HOSPITAL JACKSONVILLE
6.58,2.13,28.19342,-82.46987,55912.55,8051.73,MEDICAL CENTER OF TRINITY
3.97,2.19,26.20644,-80.11086,27788.00,8696.86,BROWARD HEALTH IMPERIAL POINT MEDICAL CENTER
5.44,2.13,29.66085,-82.41172,43637.59,7995.95,NORTH FLORIDA REGIONAL MEDICAL CENTER
5.66,2.07,29.17550,-82.13680,45953.78,7411.11,OCALA REGIONAL MEDICAL CENTER
4.78,2.11,27.48213,-82.62126,36560.92,7844.00,BLAKE MEDICAL CENTER
4.14,2.14,26.52735,-81.83337,29620.61,8128.83,GULF COAST MEDICAL CENTER LEE MEM HEALTH SYSTEM
8.37,2.11,30.45448,-86.63362,75139.64,7844.27,FORT WALTON BEACH MEDICAL CENTER
9.98,2.15,30.16550,-81.73775,92441.25,8279.44,ORANGE PARK MEDICAL CENTER
6.61,2.10,30.51624,-87.21856,56184.46,7710.85,WEST FLORIDA HOSPITAL
3.40,2.15,29.64481,-81.69431,21728.07,8246.27,PUTNAM COMMUNITY MEDICAL CENTER
5.93,2.10,26.98884,-82.09877,48890.00,7701.00,FAWCETT MEMORIAL HOSPITAL
5.85,2.19,27.93259,-82.28759,48077.33,8665.80,BRANDON REGIONAL HOSPITAL
8.11,2.27,27.91458,-82.80382,72367.05,9556.62,LARGO MEDICAL CENTER
4.54,2.16,26.92138,-80.09708,33952.73,8397.93,JUPITER MEDICAL CENTER
5.50,2.20,30.47616,-84.23140,44314.93,8785.47,CAPITAL REGIONAL MEDICAL CENTER
9.13,2.30,26.43709,-80.12728,83350.65,9871.95,DELRAY MEDICAL CENTER
6.86,2.26,27.28861,-80.29431,58852.36,9383.18,ST LUCIE MEDICAL CENTER
6.11,2.07,28.53585,-82.53404,50819.08,7407.17,OAK HILL HOSPITAL
4.95,2.15,28.03957,-82.70875,38363.18,8256.55,MEASE COUNTRYSIDE HOSPITAL
7.55,2.32,26.26841,-80.25571,66297.69,10046.77,CORAL SPRINGS MEDICAL CENTER
3.33,2.60,25.74731,-80.31765,20915.91,13061.55,WESTCHESTER GENERAL HOSPITAL
7.37,2.14,26.21388,-81.73257,64415.82,8138.82,PHYSICIANS REGIONAL MEDICAL CENTER - PINE RIDGE
3.93,2.08,28.94952,-81.95843,27364.50,7484.44,VILLAGES REGIONAL HOSPITAL, THE
3.94,2.18,34.78963,-84.98398,27496.71,8562.14,HAMILTON MEDICAL CENTER
4.93,2.14,34.17863,-84.13992,38143.06,8176.76,NORTHSIDE HOSPITAL FORSYTH
3.42,2.48,33.79230,-84.32107,21877.23,11770.08,EMORY UNIVERSITY HOSPITAL
4.15,2.17,32.02825,-81.09977,29806.69,8421.69,CANDLER HOSPITAL
3.46,2.36,31.17425,-81.48459,22332.92,10543.54,SOUTHEAST GEORGIA HEALTH SYSTEM- BRUNSWICK CAMPUS
3.86,2.21,33.47096,-81.98176,26615.27,8931.55,UNIVERSITY HOSPITAL
4.46,2.17,34.30335,-83.81737,33072.58,8463.95,NORTHEAST GEORGIA MEDICAL CENTER, INC
5.49,2.18,33.96770,-84.55011,44136.08,8526.60,WELLSTAR KENNESTONE HOSPITAL
3.89,2.29,32.03185,-81.09158,26982.40,9734.07,MEMORIAL HEALTH UNIV MED CEN, INC
3.49,2.24,34.26000,-85.17000,22647.58,9259.42,FLOYD MEDICAL CENTER
3.70,2.18,32.61642,-83.63065,24873.71,8540.07,HOUSTON MEDICAL CENTER
3.75,2.21,33.96117,-83.39832,25488.92,8846.67,ATHENS REGIONAL MEDICAL CENTER
3.69,2.30,33.78956,-84.28077,24806.92,9864.42,DEKALB MEDICAL CENTER
2.97,2.29,33.76810,-84.38616,17069.48,9766.52,EMORY UNIVERSITY HOSPITAL MIDTOWN
3.93,2.70,33.75205,-84.38272,27392.08,14197.33,GRADY MEMORIAL HOSPITAL
4.89,2.19,33.90877,-84.35180,37723.84,8704.56,SAINT JOSEPH'S HOSPITAL OF ATLANTA, INC
3.96,2.16,33.81003,-84.39568,27740.22,8392.30,PIEDMONT HOSPITAL
3.55,2.17,33.96351,-84.01769,23300.15,8504.05,GWINNETT MEDICAL CENTER
5.89,2.36,31.47069,-83.50473,48476.91,10461.55,TIFT REGIONAL MEDICAL CENTER
4.30,2.41,32.83041,-83.63476,31341.90,11004.19,MEDICAL CENTER OF CENTRAL GEORGIA
3.61,2.14,30.86250,-83.28630,23908.73,8157.93,SOUTH GEORGIA MEDICAL CENTER
4.73,2.24,33.85638,-84.60446,35969.20,9224.80,WELLSTAR COBB HOSPITAL
3.52,2.10,34.25704,-85.16467,22989.21,7703.29,REDMOND REGIONAL MEDICAL CENTER
3.21,2.19,33.51144,-84.22200,19599.50,8723.33,HENRY MEDICAL CENTER, INC
5.17,2.14,33.87683,-84.02136,40724.57,8152.71,EMORY EASTSIDE MEDICAL CENTER
3.28,2.12,30.89823,-83.33519,20443.92,7913.85,SMITH NORTHVIEW HOSPITAL
3.20,2.12,33.45252,-84.50697,19556.40,7879.47,PIEDMONT FAYETTE HOSPITAL
6.39,2.90,21.30780,-157.85505,53798.88,16265.25,THE QUEENS MEDICAL CENTER
5.43,2.83,21.30226,-157.85092,43510.46,15575.23,STRAUB CLINIC AND HOSPITAL
3.03,2.20,43.61359,-116.25484,17743.33,8832.58,ST ALPHONSUS REGIONAL MEDICAL CENTER
3.07,2.20,47.69645,-116.79476,18162.38,8772.08,KOOTENAI MEDICAL CENTER
3.84,2.08,38.90068,-90.16026,26477.17,7464.33,ALTON MEMORIAL HOSPITAL
4.71,2.22,41.52896,-88.13550,35746.95,9055.61,PROVENA ST JOSEPH MEDICAL CENTER
4.35,2.32,42.06550,-87.68428,31887.59,10039.22,EVANSTON HOSPITAL
3.49,2.15,37.80207,-89.02660,22614.15,8218.31,HERRIN HOSPITAL
4.65,2.26,39.93563,-91.39833,35104.28,9466.00,BLESSING HOSPITAL
5.22,2.25,41.72930,-88.26976,41283.16,9363.95,COPLEY MEMORIAL HOSPITAL
4.77,2.22,42.07012,-88.33180,36457.23,9042.31,SHERMAN HOSPITAL
2.44,2.13,38.52908,-89.11604,11351.07,8001.14,ST MARYS HOSPITAL
3.71,2.39,41.83195,-87.79266,25059.58,10788.58,MACNEAL  HOSPITAL
4.53,2.16,41.66900,-87.81414,33814.03,8365.10,PALOS COMMUNITY HOSPITAL
5.45,2.25,41.79660,-87.88627,43762.06,9367.28,ADVENTIST LA GRANGE MEMORIAL HOSPITAL
5.26,2.35,40.70200,-89.59222,41665.76,10392.67,SAINT FRANCIS MEDICAL CENTER
6.26,2.55,42.02578,-87.68371,52420.64,12561.73,RHC ST FRANCIS HOSPITAL
4.87,2.29,42.37840,-87.83329,37489.09,9738.73,VISTA MEDICAL CENTER EAST
6.54,2.58,41.78829,-87.60485,55428.77,12911.15,THE UNIVERSITY OF CHICAGO MEDICAL CENTER
5.35,2.39,40.11696,-88.21506,42633.82,10779.47,CARLE FOUNDATION HOSPITAL
4.77,2.21,40.13811,-87.64569,36467.79,8843.57,PROVENA UNITED SAMARITANS MEDCTR-LOGAN
6.09,2.34,40.11739,-88.22714,50625.18,10289.27,PROVENA COVENANT MEDICAL CENTER- URBANA
4.88,2.24,41.98743,-87.81440,37573.86,9213.76,RESURRECTION MEDICAL CENTER
3.73,2.30,41.65880,-87.67729,25214.42,9900.05,METROSOUTH MEDICAL CENTER
3.92,2.70,41.87497,-87.66927,27236.31,14186.35,RUSH UNIVERSITY MEDICAL CENTER
5.12,2.72,41.80555,-87.92059,40206.12,14348.12,HINSDALE HOSPITAL
5.24,2.69,41.76946,-87.69239,41430.58,14098.17,HOLY CROSS HOSPITAL
3.99,2.17,39.86644,-88.96090,27995.47,8509.12,DECATUR MEMORIAL HOSPITAL
4.27,2.25,39.80893,-89.65530,31070.46,9377.15,MEMORIAL MEDICAL CENTER
4.94,2.99,41.86927,-87.67052,38212.27,17280.18,UNIVERSITY OF ILLINOIS HOSPITAL
5.12,2.24,41.12049,-87.87187,40139.89,9232.47,PROVENA ST MARYS HOSPITAL
2.99,2.57,41.84639,-87.62345,17231.29,12812.50,MERCY HOSPITAL AND MEDICAL CENTER
2.96,2.19,37.72790,-89.22058,16959.18,8685.64,MEMORIAL HOSPITAL OF CARBONDALE
4.02,2.35,41.52283,-87.71111,28389.68,10372.58,FRANCISCAN ST JAMES HEALTH
3.69,2.19,42.27597,-88.40019,24796.25,8681.25,CENTEGRA HEALTH SYSTEM - WOODSTOCK HOSPITAL
4.44,2.19,41.72094,-87.69220,32917.91,8686.18,LITTLE COMPANY OF MARY HOSPITAL
5.25,2.60,41.90414,-87.68254,41554.44,13037.00,ST MARY & ELIZABETH MED CTR-DIVISION CAMPUS
4.51,2.33,38.55020,-90.02146,33595.23,10220.50,MEMORIAL HOSPITAL
3.74,2.14,38.51081,-89.99014,25300.44,8093.12,ST ELIZABETH HOSPITAL
6.96,2.18,41.86362,-87.93567,59936.64,8617.48,ELMHURST MEMORIAL HOSPITAL
6.18,2.23,42.27447,-87.95764,51632.83,9144.39,ADVOCATE CONDELL MEDICAL CENTER
4.67,2.46,41.72031,-87.73249,35301.93,11634.20,ADVOCATE CHRIST HOSPITAL & MEDICAL CENTER
6.35,2.17,41.88566,-88.34311,53375.36,8483.27,DELNOR COMMUNITY HOSPITAL
4.37,2.20,41.54446,-87.98379,32091.21,8759.71,SILVER CROSS HOSPITAL  AND MEDICAL CENTERS
5.04,2.39,42.03837,-87.84820,39310.64,10866.72,ADVOCATE LUTHERAN GENERAL HOSPITAL
4.85,2.47,41.93418,-87.63579,37290.52,11686.57,SAINT JOSEPH HOSPITAL
5.07,2.30,42.26584,-89.07428,39630.50,9858.05,SWEDISH AMERICAN HOSPITAL
4.48,2.11,42.26634,-89.00900,33332.46,7819.15,SAINT ANTHONY MEDICAL CENTER
5.14,2.36,42.29844,-89.09897,40356.40,10533.53,ROCKFORD MEMORIAL HOSPITAL
7.05,2.50,41.87269,-88.15684,60993.50,12029.57,CENTRAL DUPAGE HOSPITAL
4.52,2.25,41.94560,-87.76897,33708.48,9303.10,OUR LADY OF THE RESURRECTION MED CTR
4.46,2.14,42.06732,-87.99368,33091.38,8141.97,NORTHWEST COMMUNITY HOSPITAL
5.70,2.22,42.00413,-88.01745,46436.59,9044.32,ALEXIAN BROTHERS MEDICAL CENTER
3.56,2.58,41.86110,-87.83404,23391.20,12827.40,LOYOLA UNIVERSITY MEDICAL CENTER
3.10,2.18,41.48200,-90.57158,18417.30,8574.55,TRINITY ROCK ISLAND
4.76,2.58,41.89477,-87.62131,36268.28,12823.91,NORTHWESTERN MEMORIAL HOSPITAL
4.32,2.13,41.81791,-88.00907,31566.48,8007.48,ADVOCATE GOOD SAMARITAN HOSPITAL
5.46,2.19,42.05260,-88.14173,43888.15,8630.15,ST ALEXIUS MEDICAL CENTER
3.72,2.29,41.59920,-87.35764,25104.92,9717.54,METHODIST HOSPITALS INC
3.84,2.28,41.63466,-87.44901,26473.75,9636.83,ST CATHERINE HOSPITAL INC
3.96,2.25,41.70877,-86.17026,27706.04,9288.22,SAINT JOSEPH REGIONAL MEDICAL CENTER
4.33,2.18,41.03874,-85.24876,31745.64,8617.18,LUTHERAN HOSPITAL OF INDIANA
3.76,2.20,41.70568,-85.93404,25580.58,8772.00,ELKHART GENERAL HOSPITAL
3.60,2.18,41.04659,-85.10906,23799.75,8559.58,PARKVIEW REGIONAL MEDICAL CENTER
4.98,2.19,39.48518,-87.40893,38735.79,8703.36,UNION HOSPITAL INC
4.22,2.09,39.72432,-86.10055,30528.36,7620.00,FRANCISCAN ST FRANCIS HEALTH - BEECH GROVE
4.48,2.20,41.51266,-87.26125,33338.92,8830.58,ST MARY MEDICAL CENTER INC
5.56,2.21,41.46729,-87.05130,44940.47,8848.53,PORTER VALPARAISO HOSPITAL
2.85,2.08,38.67313,-87.53370,15806.86,7518.64,GOOD SAMARITAN HOSPITAL
4.36,2.25,38.30195,-85.83409,32039.09,9314.55,FLOYD MEMORIAL HOSPITAL AND HEALTH SERVICES
3.34,2.27,39.86405,-84.88413,21008.92,9529.69,REID HOSPITAL & HEALTH CARE SERVICES
3.56,2.20,39.16006,-86.54038,23414.71,8780.94,INDIANA UNIVERSITY HEALTH BLOOMINGTON HOSPITAL
4.39,2.63,39.79009,-86.16260,32316.83,13412.26,INDIANA UNIVERSITY HEALTH
3.72,2.25,41.68479,-86.25217,25118.18,9369.36,MEMORIAL HOSPITAL OF SOUTH BEND
4.06,2.25,39.78704,-86.07673,28795.22,9352.72,COMMUNITY HOSPITAL EAST
4.40,2.11,37.98293,-87.57072,32413.83,7830.86,DEACONESS HOSPITAL INC
5.14,2.29,39.91001,-86.19660,40445.21,9803.14,ST VINCENT HOSPITAL & HEALTH SERVICES
4.36,2.18,40.09594,-85.68152,31968.62,8559.62,SAINT JOHN'S HEALTH SYSTEM
4.32,2.21,40.19679,-85.41573,31571.12,8877.47,INDIANA UNIVERSITY HEALTH BALL MEMORIAL HOSPITAL
3.45,2.09,37.96320,-87.50292,22264.94,7634.06,ST MARY'S MEDICAL CENTER OF EVANSVILLE INC
3.95,2.18,41.55065,-87.50619,27592.67,8581.45,COMMUNITY HOSPITAL
4.37,2.17,41.39576,-87.36689,32106.25,8471.08,FRANCISCAN ST ANTHONY HEALTH - CROWN POINT
3.36,2.13,42.03321,-93.61164,21314.75,8009.75,MARY GREELEY MEDICAL CENTER
3.15,2.15,41.54190,-90.55691,19032.74,8271.37,GENESIS MEDICAL CENTER-DAVENPORT
3.33,2.18,41.98570,-91.66093,20937.70,8562.90,ST LUKES HOSPITAL
3.46,2.16,41.26786,-95.83505,22356.57,8310.71,JENNIE EDMUNDSON HOSPITAL
3.34,2.06,41.97864,-91.65507,20999.05,7279.43,MERCY MEDICAL CENTER - CEDAR RAPIDS
6.58,2.59,41.58955,-93.63248,55906.00,12970.44,IOWA METHODIST MEDICAL CENTER
4.42,2.23,41.59886,-93.62344,32679.38,9133.84,MERCY MEDICAL CENTER-DES MOINES
2.49,2.12,42.52665,-92.33957,11942.18,7966.64,ALLEN MEMORIAL HOSPITAL
3.22,2.13,42.49250,-96.39975,19723.08,8036.62,MERCY MEDICAL CENTER-SIOUX CITY
2.87,2.07,39.05660,-95.69599,15953.82,7335.91,ST FRANCIS HEALTH CENTER INC
4.58,2.20,39.05128,-95.69572,34408.64,8752.50,STORMONT-VAIL HEALTHCARE
5.75,2.12,38.99549,-94.69061,46930.14,7873.57,SHAWNEE MISSION MEDICAL CENTER
5.68,2.49,37.70405,-97.31386,46163.23,11947.33,VIA CHRISTI HOSPITALS WICHITA INC
5.22,2.22,37.69556,-97.29785,41231.08,9045.17,WESLEY MEDICAL CENTER
3.82,2.18,39.12677,-94.78643,26231.00,8531.83,PROVIDENCE MEDICAL CENTER
3.25,2.22,38.47021,-82.63498,20088.50,8961.54,KING'S DAUGHTERS' MEDICAL CENTER
3.68,2.12,38.03140,-84.52194,24741.88,7951.72,SAINT JOSEPH HOSPITAL
3.34,2.22,37.11784,-84.10910,20997.00,9035.58,SAINT JOSEPH HOSPITAL LONDON
2.44,2.09,37.71183,-85.87623,11372.93,7615.13,HARDIN MEMORIAL HOSPITAL
4.34,2.20,36.99641,-86.43006,31764.33,8805.33,THE MEDICAL CENTER AT BOWLING GREEN
3.64,2.21,39.06704,-84.49946,24325.14,8876.52,ST ELIZABETH MEDICAL CENTER NORTH
3.32,2.33,37.76518,-87.10197,20781.58,10142.63,OWENSBORO MEDICAL HEALTH SYSTEM
3.68,2.28,38.24927,-85.75081,24736.35,9696.08,JEWISH HOSPITAL & ST MARY'S HEALTHCARE
3.91,2.34,36.86034,-87.49528,27154.08,10242.31,JENNIE STUART MEDICAL CENTER
4.15,2.50,38.03282,-84.50674,29797.00,12049.36,UNIVERSITY OF KENTUCKY HOSPITAL
3.73,2.22,36.92128,-84.11838,25244.55,8981.73,BAPTIST REGIONAL MEDICAL CENTER
3.52,2.24,38.24806,-85.75125,22976.51,9262.31,NORTON HOSPITALS, INC
2.99,2.00,37.06431,-88.67523,17292.17,6636.67,LOURDES HOSPITAL
3.10,2.20,38.01849,-84.51236,18491.67,8734.72,CENTRAL BAPTIST HOSPITAL
2.94,2.11,37.07404,-88.62685,16786.92,7793.00,WESTERN BAPTIST HOSPITAL
3.62,2.11,38.23898,-85.63941,24083.30,7822.17,BAPTIST HOSPITAL EAST
4.24,2.15,29.59851,-90.71397,30681.44,8236.12,TERREBONNE GENERAL MEDICAL CENTER
6.02,2.24,30.46813,-90.45814,49900.11,9201.19,NORTH OAKS MEDICAL CENTER, LLC
4.41,2.29,31.28258,-92.46060,32564.62,9711.00,CHRISTUS ST FRANCES CABRINI HOSPITAL
5.74,2.21,31.31451,-92.44997,46807.31,8848.94,RAPIDES REGIONAL MEDICAL CENTER
6.99,2.38,30.21521,-93.22682,60325.09,10707.27,CHRISTUS ST PATRICK HOSPITAL
3.72,2.43,30.01875,-90.19452,25095.59,11308.48,OCHSNER FOUNDATION HOSPITAL
6.20,2.47,30.46834,-90.11383,51755.94,11694.88,ST TAMMANY PARISH HOSPITAL
3.87,2.27,29.92596,-90.09191,26746.07,9537.27,TOURO INFIRMARY
5.32,2.22,30.20458,-93.19774,42335.54,9011.92,LAKE CHARLES MEMORIAL HOSPITAL
3.29,2.17,30.40118,-91.11160,20470.33,8457.76,OUR LADY OF THE LAKE REGIONAL MEDICAL CENTER
2.49,2.24,30.45015,-91.15273,11946.13,9269.60,BATON ROUGE GENERAL MEDICAL CENTER
2.84,2.12,30.15052,-92.03698,15655.71,7906.24,OUR LADY OF LOURDES REGIONAL MEDICAL CENTER, INC
4.98,2.34,32.48393,-93.77884,38639.31,10250.73,WILLIS KNIGHTON MEDICAL CENTER
4.22,2.51,32.49997,-92.11359,30546.44,12153.96,ST FRANCIS MEDICAL CENTER
4.38,2.21,30.01438,-90.18155,32194.44,8885.67,EAST JEFFERSON GENERAL HOSPITAL
5.99,2.19,32.51315,-92.15713,49536.31,8699.44,GLENWOOD REGIONAL MEDICAL CENTER
3.19,2.41,43.65325,-70.27533,19391.19,11003.88,MAINE MEDICAL CENTER
3.73,2.25,44.10107,-70.21432,25205.85,9289.38,CENTRAL MAINE MEDICAL CENTER
3.60,2.27,44.80988,-68.74929,23816.60,9560.80,EASTERN MAINE MEDICAL CENTER
2.11,2.07,39.28817,-76.62438,7816.29,7347.21,UNIVERSITY OF MARYLAND MEDICAL CENTER
2.93,2.83,39.01578,-77.03591,16587.50,15592.25,HOLY CROSS HOSPITAL
2.43,2.38,39.42366,-77.41386,11271.25,10672.89,FREDERICK MEMORIAL HOSPITAL
2.23,2.18,39.38813,-76.61068,9155.73,8606.33,SAINT JOSEPH MEDICAL CENTER
2.90,2.81,39.29688,-76.59242,16338.33,15400.08,JOHNS HOPKINS HOSPITAL, THE
2.55,2.48,39.27352,-76.67219,12568.19,11814.05,SAINT AGNES HOSPITAL
2.48,2.43,39.35262,-76.66196,11839.93,11239.93,SINAI HOSPITAL OF BALTIMORE
2.83,2.76,39.35169,-76.47919,15613.58,14768.73,FRANKLIN SQUARE HOSPITAL CENTER
2.47,2.40,38.98482,-77.00139,11658.46,10958.85,WASHINGTON ADVENTIST HOSPITAL
2.37,2.31,38.36248,-75.59799,10562.55,9928.80,PENINSULA REGIONAL MEDICAL CENTER
2.56,2.49,38.99014,-76.53398,12691.72,11930.11,ANNE ARUNDEL MEDICAL CENTER
2.61,2.54,39.32930,-76.61432,13226.00,12432.36,UNION MEMORIAL HOSPITAL
2.64,2.57,39.64928,-78.73206,13533.42,12721.42,WESTERN MARYLAND REGIONAL MEDICAL CENTER
2.30,2.25,39.29100,-76.54623,9885.29,9292.36,JOHNS HOPKINS BAYVIEW MEDICAL CENTER
2.43,2.37,38.76970,-76.07697,11300.94,10622.71,MEMORIAL HOSPITAL AT EASTON
2.56,2.49,39.29994,-76.62138,12681.38,11920.62,MARYLAND GENERAL  HOSPITAL
2.67,2.59,39.35852,-76.78208,13831.33,13001.60,NORTHWEST HOSPITAL CENTER
2.61,2.54,39.13732,-76.62228,13176.12,12432.79,BALTIMORE WASHINGTON  MEDICAL CENTER
2.53,2.46,39.21273,-76.88526,12334.50,11594.42,HOWARD COUNTY GENERAL HOSPITAL
2.55,2.48,38.74827,-76.87590,12581.33,11826.53,SOUTHERN MARYLAND HOSPITAL CENTER
2.12,2.07,39.35962,-76.58851,7900.07,7434.21,GOOD SAMARITAN HOSPITAL
2.51,2.46,39.09796,-77.19799,12174.52,11553.57,SHADY GROVE ADVENTIST HOSPITAL
2.50,2.43,42.70912,-71.14877,12019.00,11298.85,LAWRENCE GENERAL HOSPITAL
2.74,2.48,41.65298,-70.27484,14564.50,11801.68,CAPE COD HOSPITAL
3.20,2.34,41.69217,-71.16474,19578.50,10332.58,SAINT ANNE'S HOSPITAL
2.79,2.95,42.35843,-71.05977,15170.92,16887.94,BOSTON MEDICAL CENTER CORPORATION
4.49,2.33,42.51078,-70.90712,33450.35,10205.00,NORTH SHORE MEDICAL CENTER
2.33,2.74,42.34896,-71.14768,10192.00,14566.18,ST ELIZABETH'S MEDICAL CENTER
3.23,2.52,51.46599,-1.28140,19897.62,12203.67,BERKSHIRE MEDICAL CENTER INC
3.25,2.45,42.03597,-71.09792,20111.75,11447.75,SIGNATURE HEALTHCARE BROCKTON HOSPITAL
2.48,2.23,41.94445,-70.64511,11761.00,9138.19,JORDAN HOSPITAL INC
3.03,2.30,42.11449,-72.59502,17740.18,9866.27,MERCY MEDICAL CENTER
2.40,2.29,42.46049,-71.06203,10979.07,9748.50,HALLMARK HEALTH SYSTEM
6.55,2.80,42.36227,-71.06941,55584.42,15280.32,MASSACHUSETTS GENERAL HOSPITAL
3.11,2.39,41.70928,-71.14519,18525.98,10857.02,SOUTHCOAST HOSPITAL GROUP, INC
2.95,2.51,42.12077,-72.60525,16844.34,12089.62,BAYSTATE MEDICAL CENTER
3.06,2.79,42.33719,-71.10939,18032.69,15128.08,BETH ISRAEL DEACONESS MEDICAL CENTER
2.67,2.26,42.17644,-70.95398,13827.52,9483.55,SOUTH SHORE HOSPITAL
3.93,2.25,42.33149,-71.24568,27406.56,9334.12,NEWTON-WELLESLEY HOSPITAL
2.57,2.23,42.46581,-71.12210,12713.09,9146.91,WINCHESTER HOSPITAL
2.67,2.25,42.25232,-71.07515,13810.27,9367.27,MILTON HOSPITAL INC
5.47,2.62,42.33600,-71.10704,43984.62,13301.46,BRIGHAM AND WOMEN'S HOSPITAL
2.70,2.32,42.09864,-71.06607,14136.07,10124.57,GOOD SAMARITAN MEDICAL CENTER
3.14,2.70,42.34951,-71.06331,18938.44,14149.81,TUFTS MEDICAL CENTER
3.15,2.38,42.30049,-71.12771,18986.27,10775.55,FAULKNER HOSPITAL
2.24,2.23,41.56412,-70.62200,9178.18,9154.91,FALMOUTH HOSPITAL
3.62,2.51,42.27720,-71.75922,24007.00,12161.79,UMASS MEMORIAL MEDICAL CENTER INC
2.62,2.39,42.48585,-71.20686,13307.11,10869.89,LAHEY CLINIC HOSPITAL
2.92,2.38,42.28385,-71.41896,16579.95,10724.26,METROWEST MEDICAL CENTER
3.31,2.25,42.39466,-83.40537,20734.13,9299.16,ST MARY MERCY HOSPITAL
4.65,2.47,42.28551,-85.58042,35085.42,11737.65,BRONSON METHODIST HOSPITAL
3.39,2.39,42.45741,-83.20513,21541.32,10846.38,PROVIDENCE HOSPITAL AND MEDICAL CENTERS
4.15,2.42,42.29077,-83.21504,29747.70,11150.74,OAKWOOD HOSPITAL AND MEDICAL CENTER
2.99,2.21,42.08955,-86.47781,17247.94,8915.17,LAKELAND HOSPITAL, ST JOSEPH
3.47,2.55,42.41911,-83.18228,22490.16,12504.68,SINAI-GRACE HOSPITAL
2.93,2.41,42.61425,-83.27602,16672.81,11091.10,ST JOSEPH MERCY OAKLAND
4.12,2.32,45.07773,-83.45146,29397.73,10064.00,ALPENA REGIONAL MEDICAL CENTER
2.91,2.37,42.96881,-85.66649,16471.00,10615.32,SPECTRUM HEALTH - BUTTERWORTH CAMPUS
3.05,2.11,43.58941,-83.86908,17926.42,7840.38,MCLAREN BAY REGION
3.90,2.72,42.28388,-83.72960,27099.35,14377.78,UNIVERSITY OF MICHIGAN HEALTH SYSTEM
3.18,2.21,42.61490,-82.96060,19368.74,8943.02,HENRY FORD MACOMB HOSPITAL
3.55,2.62,42.36762,-83.08461,23352.54,13352.04,HENRY FORD HOSPITAL
3.98,2.23,43.42857,-83.95556,27942.11,9158.95,COVENANT MEDICAL CENTER, INC
2.71,2.13,42.33111,-85.17817,14226.07,8081.86,BRONSON BATTLE CREEK HOSPITAL
3.73,2.21,43.42612,-83.94185,25231.75,8932.67,ST MARY'S OF MICHIGAN MEDICAL CENTER
3.09,2.27,42.38392,-82.91480,18369.29,9582.64,BEAUMONT HOSPITAL, GROSSE POINTE
4.03,2.16,42.25117,-84.39240,28496.33,8305.75,ALLEGIANCE HEALTH
5.15,2.57,44.76156,-85.64143,40462.25,12784.58,MUNSON MEDICAL CENTER
4.06,2.86,42.35230,-83.05676,28782.00,15854.86,HARPER UNIVERSITY HOSPITAL
3.76,2.34,42.30489,-85.56152,25559.83,10253.56,BORGESS MEDICAL CENTER
4.01,2.41,42.51418,-83.19259,28276.77,11099.63,WILLIAM BEAUMONT HOSPITAL
3.55,2.67,43.02135,-83.70308,23350.20,13824.75,HURLEY MEDICAL CENTER
3.25,2.34,43.01399,-83.73250,20033.68,10263.00,MCLAREN FLINT
4.43,2.35,42.27424,-83.36580,32726.53,10429.00,OAKWOOD ANNAPOLIS HOSPITAL
3.07,2.23,42.21065,-83.14861,18173.00,9089.60,HENRY FORD WYANDOTTE HOSPITAL
3.32,2.47,42.46176,-83.37629,20884.41,11738.18,BOTSFORD HOSPITAL
3.32,2.22,42.26181,-83.66003,20807.43,8980.08,ST JOSEPH MERCY HOSPITAL
3.03,2.45,42.41975,-82.91442,17744.44,11443.00,ST JOHN HOSPITAL AND MEDICAL CENTER
4.34,2.34,42.70417,-84.55488,31847.54,10312.85,MCLAREN - GREATER LANSING
3.06,2.26,42.11695,-83.21365,18011.64,9387.50,OAKWOOD SOUTHSHORE MEDICAL CENTER
4.00,2.32,42.50514,-83.00422,28119.88,10097.27,ST JOHN MACOMB-OAKLAND HOSPITAL-MACOMB CENTER
3.54,2.42,42.89254,-83.63621,23171.84,11145.65,GENESYS REGIONAL MEDICAL CENTER - HEALTH PARK
4.70,2.92,42.63849,-83.29062,35712.71,16525.21,MCLAREN OAKLAND
3.81,2.21,42.98625,-82.42802,26127.62,8893.31,PORT HURON HOSPITAL
3.16,2.29,42.58900,-82.89799,19102.33,9767.92,MOUNT CLEMENS REGIONAL MEDICAL CENTER
4.20,2.39,42.73767,-84.51698,30294.89,10859.96,EDWARD W SPARROW HOSPITAL
2.99,2.35,42.85736,-85.71774,17295.18,10439.36,METRO HEALTH HOSPITAL
4.74,2.23,42.67850,-83.14771,36051.80,9134.80,CRITTENTON HOSPITAL MEDICAL CENTER
4.32,2.22,42.61826,-83.09239,31616.76,8969.00,WILLIAM BEAUMONT HOSPITAL-TROY
3.81,2.23,42.23506,-83.27602,26151.67,9094.93,OAKWOOD HERITAGE HOSPITAL
4.37,2.60,42.35295,-83.05447,32168.27,13092.82,DETROIT RECEIVING HOSPITAL & UNIV HEALTH CENTER
3.49,2.09,42.53914,-83.40777,22702.00,7552.14,HENRY FORD WEST BLOOMFIELD HOSPITAL
4.14,2.22,45.01403,-93.32177,29646.09,8979.77,NORTH MEMORIAL MEDICAL CENTER
4.47,2.96,44.97210,-93.26240,33186.92,17002.15,HENNEPIN COUNTY MEDICAL CENTER
3.77,2.53,44.02052,-92.48292,25678.25,12342.55,MAYO CLINIC - SAINT MARYS HOSPITAL
3.75,2.38,45.57390,-94.16942,25497.61,10741.72,ST CLOUD HOSPITAL
6.39,2.37,44.94214,-93.10858,53854.07,10644.67,UNITED HOSPITAL
2.69,2.23,44.93031,-93.36276,14042.91,9114.50,PARK NICOLLET METHODIST HOSPITAL
6.26,2.29,44.95248,-93.26196,52474.36,9732.56,ABBOTT NORTHWESTERN HOSPITAL
4.27,2.28,44.94898,-93.10016,31045.77,9660.77,ST JOSEPH'S HOSPITAL
4.39,2.59,44.96766,-93.23640,32366.91,12946.09,UNIVERSITY OF MINNESOTA  MEDICAL CENTER, FAIRVIEW
3.06,2.24,44.16396,-94.00412,18057.38,9214.38,MAYO CLINIC HEALTH SYSTEM - MANKATO
3.44,2.49,44.95570,-93.09429,22160.17,11945.78,REGIONS HOSPITAL
3.46,2.22,45.10789,-93.25685,22373.36,9028.27,UNITY HOSPITAL
3.12,2.19,34.24336,-88.71753,18671.89,8682.32,NORTH MISSISSIPPI MEDICAL CENTER
4.52,2.17,30.36674,-89.11535,33722.54,8440.15,MEMORIAL HOSPITAL AT GULFPORT
7.98,2.55,30.37516,-88.53226,70913.92,12566.92,SINGING RIVER HOSPITAL
3.18,2.06,32.33616,-90.15652,19322.20,7331.67,ST DOMINIC-JACKSON MEMORIAL HOSPITAL
3.42,2.17,31.31872,-89.32955,21857.14,8513.14,FORREST GENERAL HOSPITAL
4.66,2.27,33.41099,-91.03479,35291.55,9514.27,DELTA REGIONAL MEDICAL CENTER
6.17,2.22,31.32573,-89.36670,51446.36,9032.27,WESLEY MEDICAL CENTER
4.66,2.32,33.51824,-90.19832,35273.92,10087.50,GREENWOOD LEFLORE HOSPITAL
2.93,2.18,33.52568,-88.42742,16591.64,8582.18,BAPTIST MEM HOSP/GOLDEN TRIANGLE INC
4.71,2.14,32.31643,-90.17922,35825.32,8153.86,MISSISSIPPI BAPTIST MEDICAL CENTER
4.43,2.22,34.96927,-89.99709,32796.26,8970.79,BAPTIST MEMORIAL HOSPITAL DESOTO
3.69,2.19,38.78060,-90.48379,24788.85,8707.08,SSM ST JOSEPH HEALTH CENTER
4.65,2.38,39.77393,-94.77089,35186.00,10774.72,HEARTLAND REGIONAL MEDICAL CENTER
5.55,2.36,38.64281,-90.44448,44802.12,10471.00,MERCY HOSPITAL ST LOUIS
2.48,2.13,38.16498,-90.38082,11820.06,8073.00,JEFFERSON REGIONAL MEDICAL CENTER
3.21,2.23,39.71116,-91.45071,19680.08,9123.33,HANNIBAL REGIONAL HOSPITAL
3.97,2.34,38.63524,-90.26508,27817.74,10316.94,BARNES JEWISH HOSPITAL
3.72,2.17,37.14560,-93.28037,25171.78,8443.33,COX MEDICAL CENTER
4.63,2.22,37.17999,-93.27409,34950.62,8984.33,ST JOHN'S REGIONAL HEALTH CENTER
4.77,2.11,38.94903,-92.31563,36388.55,7856.82,BOONE HOSPITAL CENTER
3.40,2.12,38.50661,-90.38025,21650.43,7873.52,ST ANTHONY'S MEDICAL CENTER
4.82,2.16,38.52738,-90.47501,36917.31,8332.06,SSM ST CLARE HEALTH CENTER
3.60,2.40,38.63268,-90.31089,23885.79,10946.05,SSM ST MARYS HEALTH CENTER
5.86,2.12,39.04749,-94.34105,48154.27,7888.27,CENTERPOINT MEDICAL CENTER OF INDEPENDENCE, LLC
3.58,2.10,39.14957,-94.55148,23654.73,7696.60,NORTH KANSAS CITY HOSPITAL
3.68,2.15,38.75097,-90.43255,24752.36,8218.64,SSM DEPAUL HEALTH CENTER
7.98,3.02,38.62280,-90.24049,70952.79,17635.79,ST LOUIS UNIVERSITY HOSPITAL
3.04,2.07,38.63702,-90.44699,17850.91,7430.09,MISSOURI BAPTIST MEDICAL CENTER
4.27,2.18,37.05238,-94.52777,31073.81,8534.31,FREEMAN HEALTH SYSTEM - FREEMAN WEST
7.22,2.36,39.04761,-94.59037,62825.86,10498.36,ST LUKES HOSPITAL OF KANSAS CITY
3.40,2.18,39.27591,-94.42572,21683.08,8625.92,LIBERTY HOSPITAL
4.51,2.13,38.65123,-90.50301,33636.95,8074.80,ST LUKES HOSPITAL
3.51,2.07,38.77576,-90.23906,22875.20,7435.00,CHRISTIAN HOSPITAL NORTHEAST
3.22,2.09,38.79427,-90.58049,19721.56,7657.88,BARNES-JEWISH ST PETERS HOSPITAL
3.53,2.08,38.80334,-90.77619,23128.08,7507.85,SSM ST JOSEPH HOSPITAL WEST
3.21,2.24,45.78958,-108.51283,19632.08,9207.83,BILLINGS CLINIC HOSPITAL
2.85,2.22,45.79337,-108.51928,15749.08,9023.69,ST VINCENT HEALTHCARE
4.59,2.19,40.78318,-96.63709,34510.00,8708.52,BRYANLGH MEDICAL CENTER
4.88,2.51,41.25522,-95.97892,37575.83,12083.13,THE NEBRASKA MEDICAL CENTER
4.47,2.49,41.25797,-96.04164,33177.75,11930.40,THE NEBRASKA METHODIST HOSPITAL
4.99,2.69,41.23897,-96.03162,38805.00,14023.07,ALEGENT HEALTH BERGAN MERCY MEDICAL CENTER
4.51,2.27,39.52637,-119.79456,33594.88,9573.88,RENOWN REGIONAL MEDICAL CENTER
9.70,2.90,36.13459,-115.13576,89497.29,16364.50,SUNRISE HOSPITAL AND MEDICAL CENTER
9.29,2.57,36.16380,-115.16574,84993.94,12716.12,VALLEY HOSPITAL MEDICAL CENTER
11.03,2.24,36.21599,-115.25095,103744.92,9167.08,MOUNTAINVIEW HOSPITAL
15.95,2.76,36.16586,-115.32436,156639.00,14809.81,SUMMERLIN HOSPITAL MEDICAL CENTER
3.01,2.25,42.75623,-71.46059,17505.75,9290.67,SOUTHERN NH MEDICAL CENTER
3.65,2.13,42.98369,-70.93511,24403.82,8063.18,EXETER HOSPITAL INC
9.94,2.55,40.88346,-74.05564,92014.13,12556.40,HACKENSACK UNIVERSITY MEDICAL CENTER
6.09,2.52,40.53142,-74.86080,50584.27,12211.00,HUNTERDON MEDICAL CENTER
7.62,2.58,40.84945,-74.13768,67057.00,12915.07,ST MARY'S HOSPITAL, PASSAIC
5.29,2.34,40.88275,-74.01021,42005.78,10296.81,HOLY NAME MEDICAL CENTER
7.99,2.40,40.78556,-74.17598,71101.65,10899.31,CLARA MAASS MEDICAL CENTER
6.38,2.40,40.98359,-74.10047,53711.21,10979.67,VALLEY HOSPITAL
7.90,2.84,39.94152,-75.11680,70044.58,15673.00,COOPER UNIVERSITY HOSPITAL
6.30,2.46,40.78883,-74.46620,52854.97,11635.83,MORRISTOWN MEMORIAL HOSPITAL
8.84,2.54,40.73417,-74.04977,80192.50,12432.69,CHRIST HOSPITAL
6.93,2.29,40.95858,-74.31000,59679.00,9757.33,CHILTON HOSPITAL
9.72,2.66,40.90215,-74.16634,89618.26,13741.52,ST JOSEPH'S REGIONAL MEDICAL CENTER
10.58,2.53,40.21634,-74.74143,98946.64,12285.14,ST FRANCIS MEDICAL CENTER
8.09,2.26,39.78261,-74.91670,72184.62,9399.48,VIRTUA WEST JERSEY HOSPITALS BERLIN
6.61,2.52,40.66005,-74.21417,56195.43,12244.14,TRINITAS REGIONAL MEDICAL CENTER
9.25,2.27,41.05754,-74.76857,84632.18,9552.29,NEWTON MEMORIAL HOSPITAL
5.86,2.36,39.92695,-75.09537,48143.07,10491.50,OUR LADY OF LOURDES MEDICAL CENTER
5.78,2.30,39.44743,-75.05838,47255.21,9903.07,SOUTH JERSEY HEALTHCARE REGIONAL MEDICAL CENTER
12.41,2.77,40.49581,-74.44980,118544.92,14920.54,ROBERT WOOD JOHNSON UNIVERSITY HOSPITAL
7.80,2.45,40.51891,-74.28183,69012.08,11518.06,RARITAN BAY MEDICAL CENTER
7.71,2.67,40.74132,-74.03369,68059.40,13841.93,HOBOKEN UNIVERSITY MEDICAL CENTER
7.68,2.21,39.96484,-74.21708,67677.60,8939.24,COMMUNITY MEDICAL CENTER
7.62,2.44,40.90400,-73.96847,67093.11,11375.00,ENGLEWOOD HOSPITAL AND MEDICAL CENTER
7.12,2.20,39.31464,-74.59391,61686.61,8739.83,SHORE MEDICAL CENTER
8.04,2.28,40.56804,-74.59579,71642.44,9600.22,SOMERSET MEDICAL CENTER
6.29,2.29,40.89538,-74.46479,52813.39,9784.56,SAINT CLARE'S HOSPITAL
5.67,2.42,40.71264,-74.35460,46124.32,11114.19,OVERLOOK HOSPITAL
7.63,2.18,40.07832,-74.13009,67228.94,8590.65,OCEAN MEDICAL CENTER
6.73,2.32,39.98588,-74.79393,57558.71,10033.82,VIRTUA MEMORIAL HOSPITAL OF BURLINGTON COUNTY
7.88,2.42,40.70180,-75.17825,69824.22,11174.44,ST LUKE'S WARREN HOSPITAL
9.48,2.32,39.35775,-74.43449,87127.48,10070.87,ATLANTICARE REGIONAL MEDICAL CENTER - CITY DIV
7.68,2.39,40.21065,-74.03566,67768.81,10884.07,JERSEY SHORE UNIVERSITY MEDICAL CENTER
9.40,2.76,40.71663,-74.05013,86180.36,14795.82,LIBERTYHEALTH-JERSEY CITY MEDICAL CENTER CAMPUS
11.10,2.78,40.29563,-73.98518,104476.80,14979.70,MONMOUTH MEDICAL CENTER
10.25,2.67,40.76190,-74.30335,95350.72,13817.48,SAINT BARNABAS MEDICAL CENTER
12.02,2.69,39.84392,-75.14985,114379.17,14097.50,UNDERWOOD - MEMORIAL HOSPITAL
5.67,2.39,40.75402,-74.21335,46157.95,10872.33,EAST ORANGE GENERAL HOSPITAL
8.22,2.29,40.07503,-74.21832,73560.00,9704.55,KIMBALL MEDICAL CENTER
8.23,2.47,39.82811,-75.00895,73633.13,11697.94,KENNEDY UNIVERSITY HOSPITAL - STRATFORD DIV
6.07,2.27,39.59285,-75.44416,50387.72,9553.00,MEMORIAL HOSPITAL OF SALEM COUNTY
5.07,2.54,40.74323,-74.17431,39600.92,12421.33,SAINT MICHAEL'S MEDICAL CENTER, INC
8.26,2.37,40.55784,-74.34970,73990.11,10603.22,JFK MEDICAL CTR - ANTHONY M. YELENCSICS COMMUNITY
7.88,2.20,40.21575,-74.67273,69913.96,8823.08,ROBERT WOOD JOHNSON UNIVERSITY HOSPITAL HAMILTON
6.49,2.24,40.23861,-74.31289,54888.48,9226.85,CENTRASTATE MEDICAL CENTER
5.25,2.18,40.40516,-74.19203,41537.56,8586.11,BAYSHORE COMMUNITY HOSPITAL
4.35,2.46,36.72387,-108.21749,31938.38,11627.31,SAN JUAN REGIONAL MEDICAL CENTER
3.67,2.38,35.08102,-106.63392,24592.00,10732.00,PRESBYTERIAN HOSPITAL
4.50,2.42,41.92720,-73.99535,33528.37,11165.89,KINGSTON HOSPITAL
3.35,2.46,42.87482,-78.84942,21103.18,11587.04,KALEIDA HEALTH
4.28,2.50,42.65345,-73.77543,31194.62,11966.12,ALBANY MEDICAL CENTER HOSPITAL
5.82,2.42,41.69441,-73.93432,47726.22,11178.36,VASSAR BROTHERS MEDICAL CENTER
5.05,3.13,40.79041,-73.95386,39388.91,18763.66,MOUNT SINAI HOSPITAL
4.41,3.08,40.72548,-73.55287,32538.18,18212.18,NASSAU UNIVERSITY MEDICAL CENTER
6.09,2.56,40.72567,-73.24189,50634.06,12643.33,SOUTHSIDE HOSPITAL
3.31,2.15,43.09840,-75.27819,20679.62,8213.54,FAXTON-ST LUKE'S HEALTHCARE
4.65,2.31,40.87946,-73.41621,35184.88,9923.38,HUNTINGTON HOSPITAL
5.17,2.99,40.80556,-73.96131,40699.56,17273.75,ST LUKE'S ROOSEVELT HOSPITAL
5.75,2.81,40.74722,-73.82521,46959.37,15342.83,NEW YORK HOSPITAL MEDICAL CENTER OF QUEENS
4.20,2.12,42.65583,-73.80372,30346.50,7975.65,ST PETER'S HOSPITAL
6.08,3.02,40.87987,-73.87996,50489.88,17635.02,MONTEFIORE MEDICAL CENTER
4.11,2.31,40.94161,-73.83650,29371.57,9989.35,LAWRENCE HOSPITAL CENTER
3.86,2.28,42.92866,-78.84819,26632.45,9603.27,SISTERS OF CHARITY HOSPITAL
3.34,2.19,42.10076,-76.82800,21006.82,8655.95,ARNOT OGDEN MEDICAL CENTER
6.18,3.05,40.76487,-73.95398,51635.85,17939.44,NEW YORK-PRESBYTERIAN HOSPITAL
7.11,2.74,40.77686,-73.70212,61597.49,14576.73,NORTH SHORE UNIVERSITY HOSPITAL
6.67,2.36,40.93376,-72.67383,56912.06,10547.88,PECONIC BAY MEDICAL CENTER
11.01,2.82,40.77362,-73.96093,103531.78,15446.89,LENOX HILL HOSPITAL
3.31,2.34,43.19244,-77.58590,20733.67,10248.29,ROCHESTER GENERAL HOSPITAL
6.52,2.38,41.44138,-74.36821,55254.45,10681.75,ORANGE REGIONAL MEDICAL CENTER
3.56,2.33,43.05571,-76.14981,23459.04,10216.04,ST JOSEPH'S HOSPITAL HEALTH CENTER
6.83,2.31,40.78000,-72.97763,58548.11,10003.07,BROOKHAVEN MEMORIAL HOSPITAL MEDICAL CENTER
4.41,2.20,42.81963,-73.91653,32537.68,8770.26,ELLIS HOSPITAL
4.15,2.63,43.96519,-75.91511,29765.36,13432.36,SAMARITAN MEDICAL CENTER
6.05,2.45,41.11299,-74.13732,50156.54,11424.08,GOOD SAMARITAN HOSPITAL OF SUFFERN
5.07,2.66,40.58440,-74.08507,39674.15,13781.38,STATEN ISLAND UNIVERSITY HOSPITAL
5.68,2.61,40.74083,-73.64306,46210.77,13153.97,WINTHROP-UNIVERSITY HOSPITAL
5.51,2.88,40.73265,-73.98162,44373.57,16111.06,BETH ISRAEL MEDICAL CENTER
5.97,2.27,40.94000,-73.05510,49344.76,9544.18,JOHN T MATHER MEMORIAL HOSPITAL  OF PORT JEFFERSON
3.78,2.26,43.30652,-73.64663,25743.65,9403.60,GLENS FALLS HOSPITAL
4.12,2.92,40.75543,-73.81532,29475.09,16565.09,FLUSHING HOSPITAL MEDICAL CENTER
8.80,3.51,40.63937,-73.99851,79777.18,22852.16,MAIMONIDES MEDICAL CENTER
6.05,2.92,40.75332,-73.70899,50196.43,16484.90,LONG ISLAND JEWISH MEDICAL CENTER
3.60,3.15,40.58549,-73.96558,23875.92,19020.67,CONEY ISLAND HOSPITAL
4.97,2.34,40.65189,-73.63096,38568.86,10341.75,SOUTH NASSAU COMMUNITIES HOSPITAL
5.71,2.79,40.65957,-73.93378,46561.00,15147.70,KINGSBROOK JEWISH MEDICAL CENTER
3.22,2.36,43.04139,-76.13803,19736.79,10455.21,CROUSE HOSPITAL
5.29,2.66,40.96967,-73.88447,42045.79,13729.12,ST JOHN'S RIVERSIDE HOSPITAL
6.45,2.75,40.74335,-73.97408,54497.28,14695.25,NYU HOSPITALS CENTER
4.52,3.02,40.70419,-73.91754,33773.89,17599.22,WYCKOFF HEIGHTS MEDICAL CENTER
2.98,2.23,43.19054,-77.70177,17217.46,9097.23,UNITY HOSPITAL OF ROCHESTER
4.19,2.87,40.66762,-73.97850,30144.05,16034.95,NEW YORK METHODIST HOSPITAL
3.99,2.64,43.04269,-76.14043,28051.83,13569.33,UNIVERSITY HOSPITAL S U N Y HEALTH SCIENCE CENTER
3.39,2.45,44.70022,-73.47100,21547.08,11489.75,CHAMPLAIN VALLEY PHYSICIANS HOSPITAL MEDICAL CTR
4.70,2.30,41.50307,-74.01517,35723.00,9839.56,ST LUKE'S CORNWALL HOSPITAL
3.28,2.53,43.12266,-77.62360,20447.25,12366.06,STRONG MEMORIAL HOSPITAL
7.36,2.41,40.69327,-73.29412,64270.62,11021.12,GOOD SAMARITAN HOSPITAL MEDICAL CENTER
4.48,2.35,41.02614,-73.76978,33291.74,10431.16,WHITE PLAINS HOSPITAL CENTER
4.26,3.13,40.64666,-74.02049,30894.40,18789.80,LUTHERAN MEDICAL CENTER
4.39,2.38,40.77481,-73.47968,32323.87,10747.20,PLAINVIEW HOSPITAL
2.73,3.11,40.65508,-73.94521,14531.67,18539.33,UNIVERSITY HOSPITAL OF BROOKLYN ( DOWNSTATE )
4.64,2.58,40.72931,-73.85219,35011.00,12907.61,FOREST HILLS HOSPITAL
5.82,2.36,40.68104,-73.68633,47731.00,10560.67,FRANKLIN HOSPITAL
6.12,2.84,40.90922,-73.11520,50919.54,15715.46,UNIVERSITY HOSPITAL ( STONY BROOK )
3.99,2.30,42.11422,-75.95851,28075.06,9852.44,UNITED HEALTH SERVICES HOSPITALS, INC
4.35,3.36,40.85263,-73.89184,31922.55,21243.82,ST BARNABAS HOSPITAL
5.47,2.30,40.85738,-73.18681,43919.78,9824.30,ST CATHERINE OF SIENA HOSPITAL
3.08,2.25,35.43754,-80.60147,18288.11,9293.89,CAROLINAS MEDICAL CENTER-NORTHEAST
3.33,2.35,35.57658,-82.54922,20893.00,10414.94,MEMORIAL MISSION HOSPITAL AND ASHEVILLE SURGERY CE
3.93,2.19,35.95000,-80.00000,27360.00,8691.69,HIGH POINT REGIONAL HOSPITAL
4.13,2.98,35.39772,-77.95250,29546.15,17218.23,WAYNE MEMORIAL HOSPITAL
4.00,2.39,36.07581,-80.29779,28163.76,10789.72,FORSYTH MEMORIAL HOSPITAL
4.75,2.34,35.03156,-78.93205,36170.96,10281.08,CAPE FEAR VALLEY MEDICAL CENTER
4.33,2.66,36.00850,-78.94006,31704.85,13749.00,DUKE UNIVERSITY HOSPITAL
3.99,2.28,35.27341,-81.13688,28025.70,9672.00,GASTON MEMORIAL HOSPITAL
4.15,2.12,35.79986,-80.87863,29733.82,7960.64,IREDELL MEMORIAL HOSPITAL INC
3.22,2.45,35.60726,-77.40477,19793.41,11500.55,PITT COUNTY MEMORIAL HOSPITAL
4.73,2.45,34.76273,-77.38582,35983.91,11457.00,ONSLOW MEMORIAL HOSPITAL
4.37,3.21,36.09062,-80.27161,32094.44,19647.64,NORTH CAROLINA BAPTIST HOSPITAL
5.06,2.70,34.63723,-79.01213,39555.71,14124.24,SOUTHEASTERN REGIONAL MEDICAL CENTER
3.51,2.25,35.22196,-80.83287,22862.93,9296.60,PRESBYTERIAN HOSPITAL
3.04,2.18,36.49464,-79.73929,17797.23,8604.62,MOREHEAD MEMORIAL HOSPITAL
3.62,2.81,35.90529,-79.04963,24025.15,15390.12,UNIVERSITY OF NORTH CAROLINA HOSPITAL
3.70,2.34,35.78523,-78.58836,24874.62,10335.54,WAKEMED, RALEIGH CAMPUS
3.30,2.34,36.09251,-79.78855,20607.80,10255.00,MOSES H CONE MEMORIAL HOSPITAL, THE
3.50,2.16,35.21029,-80.82084,22766.70,8329.65,CAROLINAS MED CENTER-MERCY
3.36,2.47,35.20397,-80.83908,21220.67,11709.52,CAROLINAS MEDICAL CENTER/BEHAV HEALTH
4.53,2.16,35.81801,-78.70283,33805.39,8368.28,REX HOSPITAL
3.92,2.21,35.20554,-79.45645,27269.53,8843.35,FIRSTHEALTH MOORE REGIONAL HOSPITAL
2.70,2.23,34.97382,-80.52250,14204.73,9156.00,CAROLINAS MEDICAL CENTER-UNION
3.41,2.30,35.11420,-77.06568,21778.85,9845.10,CAROLINA EAST MEDICAL CENTER
3.19,2.27,34.23786,-77.94764,19476.78,9592.81,NEW HANOVER REGIONAL MEDICAL CENTER
2.87,2.28,34.72615,-76.75452,16011.23,9663.15,CARTERET GENERAL HOSPITAL
3.90,2.30,36.04960,-78.90617,27116.37,9815.21,DURHAM REGIONAL HOSPITAL
3.49,2.14,35.11432,-80.71971,22712.64,8128.18,PRESBYTERIAN HOSPITAL MATTHEWS
4.22,2.12,35.74046,-78.78127,30469.50,7900.17,WAKEMED, CARY HOSPITAL
3.05,2.23,46.88496,-96.78609,17917.78,9160.26,SANFORD MEDICAL CENTER FARGO
3.06,2.70,39.13707,-84.50392,18048.24,14128.59,UNIVERSITY HOSPITAL, INC
2.73,2.05,40.73578,-84.08630,14436.79,7191.36,LIMA MEMORIAL HEALTH SYSTEM
2.81,2.16,40.11479,-82.94677,15338.50,8340.12,MOUNT CARMEL ST ANN'S HOSPITAL
4.02,2.23,39.20680,-84.38093,28340.29,9074.06,JEWISH HOSPITAL, LLC
3.96,2.35,39.96098,-82.99077,27685.56,10399.81,GRANT MEDICAL CENTER
6.08,2.37,41.08161,-81.50007,50559.23,10564.85,SUMMA HEALTH SYSTEMS HOSPITALS
3.10,2.10,41.38265,-81.73127,18472.27,7666.91,PARMA COMMUNITY GENERAL HOSPITAL
2.98,2.13,41.44642,-82.70864,17186.44,7998.78,FIRELANDS REGIONAL MEDICAL CENTER
4.02,2.33,41.07747,-81.53042,28396.80,10165.16,AKRON GENERAL MEDICAL CENTER
2.60,2.21,39.95805,-83.02191,13042.43,8913.96,MOUNT CARMEL HEALTH
3.28,2.25,39.97510,-82.01812,20375.57,9303.00,GENESIS HEALTHCARE SYSTEM
3.62,2.21,39.74547,-84.18523,24041.40,8870.27,MIAMI VALLEY HOSPITAL
6.11,2.27,39.78778,-84.23493,50852.43,9575.64,GOOD SAMARITAN HOSPITAL
4.11,2.13,41.23549,-80.79865,29293.29,8074.21,TRUMBULL MEMORIAL HOSPITAL
3.27,2.70,41.46088,-81.69763,20317.79,14120.57,METRO HEALTH MEDICAL CENTER
3.76,2.18,41.11441,-80.65565,25561.05,8525.45,ST ELIZABETH HEALTH CENTER
4.25,2.13,40.74115,-84.11804,30868.76,8015.00,ST RITA'S MEDICAL CENTER
5.41,2.28,41.67775,-83.59589,43299.80,9634.50,TOLEDO HOSPITAL THE
3.14,2.33,40.81219,-81.39625,18874.75,10219.75,MERCY MEDICAL CENTER
4.40,2.18,41.45013,-81.82397,32500.86,8577.21,FAIRVIEW HOSPITAL
3.62,2.17,41.63639,-83.48640,24031.45,8483.55,MERCY ST CHARLES HOSPITAL
3.18,2.25,40.79609,-81.40360,19370.63,9333.21,AULTMAN HOSPITAL
9.23,3.31,39.99445,-83.01872,84388.96,20769.79,OHIO STATE UNIVERSITY HOSPITALS
3.49,2.16,39.92755,-83.81573,22684.56,8329.19,SPRINGFIELD REGIONAL MEDICAL CENTER
3.97,2.10,41.66317,-81.24696,27834.68,7715.26,LAKE HEALTH
4.19,2.50,41.66810,-83.54275,30173.85,11961.62,MERCY ST VINCENT MEDICAL CENTER
2.93,2.11,40.75264,-82.52803,16688.19,7870.19,MEDCENTRAL HEALTH SYSTEM
2.92,2.15,41.43653,-81.94451,16564.94,8281.00,ST JOHN MEDICAL CENTER
3.87,2.57,41.50772,-81.60592,26694.07,12720.30,UNIVERSITY HOSPITALS OF CLEVELAND
3.55,2.12,41.36649,-82.09708,23293.35,7932.18,EMH REGIONAL MEDICAL CENTER
3.19,2.03,39.43061,-81.46454,19441.06,7007.38,MARIETTA MEMORIAL HOSPITAL
3.74,2.06,41.37028,-81.83189,25370.31,7281.92,SOUTHWEST GENERAL HEALTH CENTER
3.01,2.10,41.43688,-82.23761,17540.83,7673.25,MERCY REGIONAL MEDICAL CENTER
3.76,2.15,39.25076,-84.34341,25596.35,8241.82,BETHESDA NORTH HOSPITAL
5.44,2.44,41.50248,-81.62110,43679.24,11384.82,CLEVELAND CLINIC
3.05,2.15,40.35601,-80.62502,17967.31,8220.00,TRINITY MEDICAL CTR EAST&TRINITY MEDICAL CTR WEST
3.93,2.12,41.52013,-81.43291,27428.05,7930.14,HILLCREST HOSPITAL
2.93,2.03,40.99498,-80.66192,16625.44,7008.22,ST ELIZABETH BOARDMAN HEALTH CENTER
5.38,2.39,36.14687,-95.96841,42982.80,10802.00,HILLCREST MEDICAL CENTER
5.54,2.09,36.39385,-97.87094,44672.00,7606.73,ST MARY'S REGIONAL MEDICAL CENTER
5.59,2.39,35.52960,-97.57496,45272.94,10826.38,INTEGRIS BAPTIST MEDICAL CENTER
4.28,2.43,35.47800,-97.52352,31163.73,11228.00,ST ANTHONY HOSPITAL
3.44,2.19,36.06135,-95.95154,22138.78,8718.09,SAINT FRANCIS HOSPITAL, INC
6.41,2.52,35.48138,-97.49624,54079.71,12257.79,O U MEDICAL CENTER
6.16,2.13,35.46721,-97.39370,51412.27,8038.64,MIDWEST REGIONAL MEDICAL CENTER
3.48,2.15,36.13393,-95.96718,22523.00,8288.05,ST JOHN MEDICAL CENTER, INC
3.40,2.30,45.50973,-122.77368,21727.09,9844.36,PROVIDENCE ST VINCENT MEDICAL CENTER
6.08,2.92,42.31769,-122.83333,50559.45,16544.27,ROGUE VALLEY MEDICAL CENTER
3.38,2.25,44.93267,-123.03418,21526.46,9324.23,SALEM HOSPITAL
3.18,2.27,45.52677,-122.61469,19274.43,9566.36,PROVIDENCE PORTLAND MEDICAL CENTER
4.60,2.63,44.08146,-123.02694,34559.69,13409.38,SACRED HEART MEDICAL CENTER - RIVERBEND
5.28,2.11,40.25296,-76.92151,41861.70,7843.35,HOLY SPIRIT HOSPITAL
13.56,2.97,40.00504,-75.15155,130932.55,17121.36,TEMPLE UNIVERSITY HOSPITAL
3.90,2.58,40.43609,-79.98537,27038.91,12855.64,UPMC MERCY
2.85,2.06,40.69101,-76.18682,15730.58,7324.83,SCHUYLKILL MEDICAL CENTER - EAST NORWEGIAN STREET
2.68,2.08,40.65191,-79.72877,13935.92,7461.75,ALLE KISKI MEDICAL CENTER
2.96,2.17,40.71251,-80.32136,16981.75,8503.75,HERITAGE VALLEY BEAVER
4.08,2.32,40.33271,-75.95020,28970.67,10052.42,READING HOSPITAL MEDICAL CENTER
3.25,2.42,39.94604,-76.71884,20128.07,11130.86,YORK HOSPITAL
5.73,2.34,40.60811,-75.39260,46734.92,10330.19,ST LUKE'S HOSPITAL BETHLEHEM
4.79,2.94,42.13338,-80.08703,36604.21,16792.21,UPMC HAMOT
3.25,2.34,40.25661,-76.87572,20078.57,10317.21,PINNACLE HEALTH HOSPITALS
3.11,2.11,40.52204,-78.39824,18608.18,7814.71,ALTOONA REGIONAL HEALTH SYSTEM
3.69,2.31,41.98012,-76.52072,24761.83,9945.25,ROBERT PACKER HOSPITAL
2.80,2.11,41.36116,-79.70065,15283.33,7802.33,UPMC NORTHWEST
4.50,2.38,40.04740,-76.30540,33526.72,10737.49,LANCASTER GENERAL HOSPITAL
4.33,2.04,40.57319,-80.01455,31696.77,7042.85,UPMC PASSAVANT
3.00,2.23,40.32674,-78.92197,17345.17,9085.25,CONEMAUGH VALLEY MEMORIAL HOSPITAL
4.98,2.37,40.07160,-74.98341,38670.67,10643.20,ARIA HEALTH
5.08,2.24,41.41107,-75.65091,39784.33,9174.50,MOSES TAYLOR HOSPITAL
7.48,2.19,40.24397,-75.61364,65623.00,8678.50,POTTSTOWN MEMORIAL MEDICAL CENTER
5.45,2.34,40.60000,-75.47000,43714.00,10310.44,LEHIGH VALLEY HOSPITAL
4.21,2.14,41.25860,-75.86729,30352.88,8116.88,WILKES-BARRE GENERAL HOSPITAL
2.88,2.04,40.30103,-79.55505,16084.45,7119.73,EXCELA HEALTH WESTMORELAND REGIONAL HOSPITAL
2.74,2.03,40.20313,-79.92616,14633.00,7012.08,MONONGAHELA VALLEY HOSPITAL
4.13,2.26,39.93492,-77.64744,29494.92,9474.58,CHAMBERSBURG HOSPITAL
5.84,2.18,40.04475,-75.50425,47984.00,8597.36,MAIN LINE HOSPITAL PAOLI
6.16,2.50,39.92871,-75.26873,51391.82,12064.55,MERCY FITZGERALD HOSPITAL
8.46,2.32,40.68708,-75.24272,76097.64,10069.14,EASTON HOSPITAL
9.03,2.71,40.44190,-79.96044,82289.07,14253.83,UPMC PRESBYTERIAN SHADYSIDE
6.28,2.60,39.94969,-75.15712,52672.57,13137.09,THOMAS JEFFERSON UNIVERSITY HOSPITAL
14.06,2.44,39.85598,-75.36791,136313.91,11395.82,CROZER CHESTER MEDICAL CENTER
3.49,2.11,40.94875,-75.96386,22644.95,7804.47,HAZLETON GENERAL HOSPITAL
6.49,2.30,39.98905,-75.27707,54949.86,9913.71,MAIN LINE HOSPITAL LANKENAU
3.79,2.31,40.99225,-75.17466,25938.85,10014.40,POCONO MEDICAL CENTER
5.16,2.22,40.05931,-75.04140,40589.73,8983.82,NAZARETH HOSPITAL
7.68,2.19,39.91254,-75.43047,67685.05,8633.58,RIDDLE MEMORIAL HOSPITAL
3.10,2.03,40.37782,-80.06589,18472.17,6979.25,ST CLAIR MEMORIAL HOSPITAL
7.25,2.27,40.12077,-75.11818,63078.35,9552.23,ABINGTON MEMORIAL HOSPITAL
3.23,2.16,41.41276,-75.65399,19818.56,8304.31,REGIONAL HOSPITAL OF SCRANTON
4.74,2.17,40.20064,-74.92952,36126.41,8419.24,ST MARY MEDICAL CENTER
7.36,2.38,40.64463,-75.40842,64282.87,10761.07,LEHIGH VALLEY HOSPITAL - MUHLENBERG
2.39,2.12,40.42897,-79.74808,10782.11,7898.00,WESTERN PENNSYLVANIA HOSP FORBES REGIONAL CAMPUS
4.71,2.25,41.25855,-75.81041,35782.50,9295.67,GEISINGER WYOMING VALLEY MEDICAL CENTER
13.57,2.85,39.95658,-75.16249,131090.67,15808.00,HAHNEMANN UNIVERSITY HOSPITAL
3.89,2.56,41.81254,-71.40760,27009.50,12702.81,RHODE ISLAND HOSPITAL
5.70,2.40,41.70541,-71.47790,46395.45,10927.77,KENT COUNTY MEMORIAL HOSPITAL
5.77,2.56,41.85172,-71.39826,47208.73,12706.91,MIRIAM HOSPITAL
3.89,2.77,32.78272,-79.94543,27007.20,14904.93,MUSC MEDICAL CENTER
4.22,2.26,34.96733,-81.94021,30488.63,9481.42,SPARTANBURG REGIONAL MEDICAL CENTER
4.48,2.15,34.69403,-82.98884,33290.00,8208.17,OCONEE MEDICAL CENTER
4.65,2.41,34.02839,-81.03539,35143.33,11015.50,PALMETTO HEALTH RICHLAND
3.22,2.10,34.01469,-81.01343,19770.09,7720.73,SISTERS OF CHARITY PROVIDENCE HOSPITALS
7.29,2.29,34.51119,-82.64683,63513.10,9763.65,ANMED HEALTH
3.77,2.26,34.19543,-79.76256,25661.12,9422.59,MCLEOD REGIONAL MEDICAL CENTER-PEE DEE
3.93,2.29,33.92320,-80.34308,27446.31,9733.31,TUOMEY HEALTHCARE SYSTEM
4.39,2.37,34.81904,-82.41308,32349.83,10567.00,GREENVILLE MEMORIAL HOSPITAL
6.03,2.20,32.97605,-80.07302,49969.67,8766.60,TRIDENT MEDICAL CENTER
6.05,2.06,33.70704,-78.89487,50146.38,7285.23,GRAND STRAND REG MED CENTER
4.45,2.17,32.78211,-79.95018,32942.27,8475.82,ROPER HOSPITAL
5.33,2.18,34.19543,-79.76256,42408.41,8521.59,CAROLINAS HOSPITAL SYSTEM
5.27,2.42,43.53460,-96.71136,41755.75,11166.25,AVERA MCKENNAN HOSPITAL & UNIVERSITY HEALTH CENTER
4.35,2.25,43.53562,-96.74305,31896.09,9340.91,SANFORD USD MEDICAL CENTER
3.22,2.17,35.63906,-88.83207,19708.36,8485.12,JACKSON-MADISON COUNTY GENERAL HOSPITAL
3.77,2.05,35.75588,-83.95808,25668.45,7177.27,BLOUNT MEMORIAL HOSPITAL
4.49,2.27,35.93985,-83.94326,33459.48,9566.10,UNIVERSITY OF TN MEMORIAL HOSPITAL
3.66,2.10,36.55401,-82.55483,24461.54,7679.62,WELLMONT HOLSTON VALLEY MEDICAL CENTER
5.46,2.57,36.14316,-86.80048,43820.61,12733.72,VANDERBILT UNIVERSITY HOSPITAL
5.73,2.38,35.12837,-89.86202,46723.47,10690.79,BAPTIST MEMORIAL HOSPITAL
4.15,2.42,35.13640,-90.01928,29715.94,11125.71,METHODIST HEALTHCARE MEMPHIS HOSPITALS
3.48,2.13,35.86074,-86.42434,22545.04,8082.21,MIDDLE TENNESSEE MEDICAL CENTER INC
4.69,2.18,36.30767,-82.38497,35611.62,8553.91,JOHNSON CITY MEDICAL CENTER
3.49,2.11,35.60668,-87.06635,22703.18,7848.27,MAURY REGIONAL HOSPITAL
3.71,2.09,36.12859,-86.84559,25033.42,7626.47,ST THOMAS HOSPITAL
3.70,2.06,35.04157,-85.26037,24901.18,7308.12,MEMORIAL HEALTHCARE SYSTEM, INC
3.13,2.05,35.99233,-83.92697,18786.43,7188.48,TENNOVA HEALTHCARE
4.00,2.05,35.95747,-83.93660,28197.71,7226.43,FORT SANDERS REGIONAL MEDICAL CENTER
4.75,2.21,36.15310,-86.80910,36237.12,8859.82,CENTENNIAL MEDICAL CENTER
3.67,2.16,35.91765,-84.10080,24578.67,8387.60,PARKWEST MEDICAL CENTER
6.63,2.26,35.09925,-89.86301,56376.38,9400.31,ST FRANCIS HOSPITAL
3.77,2.32,33.90296,-98.50035,25713.36,10125.18,UNITED REGIONAL HEALTH CARE SYSTEM
5.10,2.20,30.65598,-96.34672,39994.44,8807.50,ST JOSEPH REGIONAL HEALTH CENTER
4.11,2.39,32.78994,-96.78044,29319.19,10821.00,BAYLOR UNIVERSITY MEDICAL CENTER
3.57,2.10,28.81269,-96.97780,23541.64,7676.45,CITIZENS MEDICAL CENTER
4.73,2.36,27.53249,-99.47808,35976.57,10511.70,LAREDO MEDICAL CENTER
4.17,2.37,26.17446,-97.67014,29947.72,10569.78,VHS HARLINGEN HOSPITAL COMPANY LLC
4.93,2.33,30.08729,-94.13292,38151.79,10134.00,CHRISTUS HOSPITAL
4.82,2.17,32.50219,-94.73025,36960.64,8509.25,GOOD SHEPHERD MEDICAL CENTER
8.87,2.20,33.57524,-101.89272,80546.78,8753.98,COVENANT MEDICAL CENTER
4.34,2.20,31.51444,-97.19927,31846.18,8786.27,PROVIDENCE HEALTH CENTER
3.65,2.34,32.81224,-96.83795,24333.15,10300.31,UT SOUTHWESTERN UNIVERSITY HOSPITAL
5.36,2.28,27.77751,-97.39515,42762.60,9648.67,CHRISTUS SPOHN HOSPITAL CORPUS CHRISTI
3.43,2.32,31.07837,-97.36403,22061.17,10034.74,SCOTT & WHITE MEMORIAL HOSPITAL
5.80,2.15,30.30491,-97.74540,47538.89,8218.19,SETON MEDICAL CENTER AUSTIN
5.66,2.25,29.43360,-98.49265,45999.91,9367.31,BAPTIST MEDICAL CENTER
5.11,2.30,32.74944,-97.11630,40111.21,9859.79,TEXAS HEALTH ARLINGTON MEMORIAL HOSPITAL
5.69,2.87,29.71431,-95.39680,46325.44,16026.75,MEMORIAL HERMANN TEXAS MEDICAL CENTER
3.13,2.12,29.02970,-95.45243,18813.15,7876.08,BRAZOSPORT REGIONAL HEALTH SYSTEM
4.49,2.26,32.83520,-96.96101,33380.00,9428.83,BAYLOR MEDICAL CENTER AT IRVING
6.06,2.14,32.33824,-95.29122,50265.33,8145.44,EAST TEXAS MEDICAL CENTER
4.62,2.22,29.66575,-95.18131,34837.62,9029.25,BAYSHORE MEDICAL CENTER
5.40,2.12,32.34280,-95.29201,43190.48,7951.45,MOTHER FRANCES HOSPITAL
6.27,2.31,31.76998,-106.49897,52506.79,10022.21,LAS PALMAS MEDICAL CENTER
5.44,2.45,26.26353,-98.18455,43646.91,11469.82,SOUTH TEXAS HEALTH SYSTEM
3.27,2.20,26.15260,-97.97995,20315.77,8830.62,KNAPP MEDICAL CENTER
3.56,2.21,31.99616,-102.09950,23465.62,8918.31,MIDLAND MEMORIAL HOSPITAL
4.94,2.26,32.73780,-97.33899,38232.21,9433.34,TEXAS HEALTH HARRIS METHODIST FORT WORTH
4.34,2.31,32.73070,-97.34379,31853.67,9984.94,BAYLOR ALL SAINTS MEDICAL CENTER AT FW
4.95,2.12,28.80765,-96.99896,38411.17,7966.17,DETAR HOSPITAL NAVARRO
4.43,2.43,26.19665,-98.31409,32772.94,11230.69,MISSION REGIONAL MEDICAL CENTER
3.72,2.32,29.81230,-95.43010,25161.00,10051.81,MEMORIAL HERMANN HOSPITAL SYSTEM
5.26,3.06,29.70719,-95.40048,41735.24,18041.45,ST LUKES EPISCOPAL HOSPITAL
6.78,2.10,31.33632,-94.74205,58032.92,7736.33,MEMORIAL HEALTH SYSTEM OF EAST TEXAS- LUFKIN
7.21,2.23,30.28473,-95.46714,62657.20,9130.70,CONROE REGIONAL MEDICAL CENTER
4.58,2.15,32.47171,-99.73315,34392.36,8202.82,HENDRICK MEDICAL CENTER
3.87,2.08,35.19533,-101.91907,26736.68,7543.36,BAPTIST ST ANTHONYS HEALTH SYSTEM-BAPTIST CAMPUS
4.29,2.50,29.42825,-98.49859,31226.56,11977.37,CHRISTUS SANTA ROSA HOSPITAL
3.29,2.22,32.91949,-96.66214,20470.31,8980.81,BAYLOR MEDICAL CENTER AT GARLAND
4.61,2.18,30.07104,-94.11927,34662.11,8609.50,MEMORIAL HERMANN BAPTIST BEAUMONT HOSPITAL
5.67,2.34,29.71020,-95.39956,46144.10,10317.13,METHODIST HOSPITAL,THE
5.13,2.31,29.50795,-98.57224,40350.81,9936.51,METHODIST HOSPITAL
8.05,2.28,33.15951,-96.63675,71671.83,9700.28,MEDICAL CENTER OF MCKINNEY
7.03,2.37,29.76963,-94.97926,60758.76,10625.06,SAN JACINTO METHODIST HOSPITAL
4.21,2.27,30.28957,-97.72584,30353.70,9573.85,ST DAVIDS MEDICAL CENTER
2.41,2.17,29.69329,-96.78466,11022.29,8428.07,COLORADO FAYETTE MEDICAL CENTER
4.73,2.28,32.88076,-96.76226,36001.53,9645.11,TEXAS HEALTH PRESBYTERIAN HOSPITAL  DALLAS
5.11,2.33,33.66003,-96.59459,40082.26,10204.42,TEXAS HEALTH PRESBYTERIAN HOSPITAL-WNJ
3.90,2.10,32.93228,-97.09436,27052.73,7694.53,BAYLOR REGIONAL MEDICAL CENTER AT GRAPEVINE
4.59,2.14,31.46574,-100.43466,34445.47,8172.65,SHANNON MEDICAL CENTER
6.65,2.17,29.54043,-95.12730,56621.36,8494.32,CLEAR LAKE REGIONAL MEDICAL CENTER
5.47,2.11,33.17345,-97.11382,43974.86,7786.50,DENTON REGIONAL MEDICAL CENTER
6.05,2.30,30.01994,-95.44379,50167.56,9891.94,HOUSTON NORTHWEST MEDICAL CENTER
4.06,2.11,32.83479,-97.12428,28812.92,7863.33,TEXAS HEALTH HARRIS METHODIST HURST-EULESS-BEDFORD
5.23,2.35,29.72913,-95.59429,41320.33,10414.11,WEST HOUSTON MEDICAL CENTER
6.54,2.25,32.91132,-96.77424,55473.18,9359.91,MEDICAL CITY DALLAS HOSPITAL
6.23,2.36,33.02168,-96.76621,52099.27,10473.80,MEDICAL CENTER OF PLANO
6.58,2.20,31.77757,-106.48060,55861.11,8819.22,SIERRA MEDICAL CENTER
4.84,2.13,30.08682,-95.62403,37162.67,8075.05,TOMBALL REGIONAL MEDICAL CENTER
5.06,2.14,32.67614,-97.32079,39539.91,8135.00,HUGULEY HEALTH SYSTEM
4.65,2.57,33.58838,-101.89214,35155.80,12762.20,UNIVERSITY MEDICAL CENTER
5.04,2.48,29.35295,-98.54601,39298.73,11844.55,SOUTHWEST GENERAL HOSPITAL
6.30,2.41,26.18586,-98.22085,52850.00,10995.20,RIO GRANDE REGIONAL HOSPITAL
6.11,2.17,30.22723,-97.77447,50835.21,8485.16,ST DAVID'S SOUTH AUSTIN MEDICAL CENTER
6.98,2.36,30.51034,-97.71486,60244.33,10460.50,ROUND ROCK MEDICAL CENTER
4.41,2.22,32.64448,-96.87635,32537.75,9020.75,METHODIST CHARLTON MEDICAL CENTER
7.43,2.25,30.05004,-95.25454,65025.47,9377.00,KINGWOOD MEDICAL CENTER
7.07,2.27,27.69288,-97.34476,61154.29,9550.86,CORPUS CHRISTI MEDICAL CENTER,THE
4.50,2.08,33.46323,-94.07490,33543.43,7513.57,CHRISTUS ST MICHAEL HEALTH SYSTEM
5.44,2.33,30.41163,-97.70649,43594.11,10148.16,NORTH AUSTIN MEDICAL CENTER
3.79,2.01,29.58896,-95.63112,25882.58,6731.92,METHODIST SUGAR LAND HOSPITAL
5.66,2.17,29.96603,-95.55127,46046.73,8518.07,METHODIST WILLOWBROOK HOSPITAL
3.09,2.21,29.78747,-95.78578,18379.73,8926.87,MEMORIAL HERMANN KATY HOSPITAL
4.66,2.44,26.25286,-98.20590,35247.88,11417.69,DOCTORS HOSPITAL AT RENAISSANCE
4.36,2.25,40.24999,-111.66524,32034.73,9296.00,UTAH VALLEY REGIONAL MEDICAL CENTER
2.90,2.59,44.47966,-73.19412,16330.19,13023.12,FLETCHER ALLEN HOSPITAL OF VERMONT
2.85,2.21,38.40552,-78.85730,15775.14,8876.54,ROCKINGHAM MEMORIAL HOSPITAL
2.99,2.20,39.19345,-78.19599,17255.21,8803.94,WINCHESTER MEDICAL CENTER INC
4.50,2.50,36.86268,-76.30355,33481.72,11976.60,SENTARA NORFOLK GENERAL HOSPITAL
3.25,2.14,36.89933,-76.28157,20083.62,8166.69,BON SECOURS - DEPAUL MEDICAL CENTER
3.12,2.19,36.71272,-78.91362,18724.17,8698.08,HALIFAX REGIONAL HOSPITAL
3.57,2.18,36.83716,-76.34786,23542.17,8540.75,BON SECOURS MARYVIEW MEDICAL CENTER
2.81,2.19,38.09436,-78.98659,15339.93,8706.36,AUGUSTA HEALTH
2.85,2.18,37.41368,-79.16870,15743.59,8569.66,CENTRA  HEALTH, INC
5.00,2.30,38.31158,-77.48061,38868.13,9822.74,MARY WASHINGTON HOSPITAL, INC
3.56,2.17,38.71322,-77.80895,23442.92,8456.08,THE FAUQUIER HOSPITAL, INC
3.85,2.35,37.25129,-79.94125,26500.94,10396.00,CARILION ROANOKE MEMORIAL CENTER
4.90,2.71,37.54330,-77.42932,37791.69,14323.06,MEDICAL COLLEGE OF VIRGINIA HOSPITALS
3.48,2.24,38.82218,-77.10533,22592.08,9267.25,INOVA ALEXANDRIA HOSPITAL
3.38,2.22,38.76723,-77.48754,21458.53,9039.07,PRINCE WILLIAM HOSPITAL
4.78,2.35,36.85098,-76.18989,36482.82,10424.00,SENTARA LEIGH HOSPITAL
5.47,2.25,37.26336,-80.03166,43987.11,9286.83,LEWISGALE MEDICAL CENTER
4.05,2.26,38.88916,-77.12796,28658.94,9464.69,VIRGINIA HOSPITAL CENTER - ARLINGTON
3.71,2.09,36.86449,-76.02844,25040.65,7599.94,SENTARA VIRGINIA BEACH GENERAL HOSPITAL
4.76,2.18,37.58440,-77.51252,36319.18,8578.45,BON SECOURS - ST MARYS HOSPITAL OF RICHMOND
4.42,2.67,38.85764,-77.22772,32676.96,13878.85,INOVA FAIRFAX HOSPITAL
8.21,2.25,37.18253,-77.35957,73409.86,9276.71,SOUTHSIDE REGIONAL MEDICAL CENTER
4.14,2.18,36.57812,-79.40453,29605.08,8545.00,DANVILLE REGIONAL MEDICAL CENTER
3.61,2.15,36.69555,-79.86374,23974.54,8242.00,MEMORIAL HOSPITAL OF MARTINSVILLE & HENRY COUNTY
3.03,2.17,38.88483,-77.37995,17693.93,8453.50,INOVA FAIR OAKS HOSPITAL
6.00,2.14,37.51021,-77.59525,49706.53,8101.89,CJW MEDICAL CENTER
7.02,2.20,37.60459,-77.53929,60622.81,8835.54,HENRICO DOCTORS' HOSPITAL
3.54,2.08,36.77664,-76.09682,23245.92,7505.85,SENTARA PRINCESS ANNE HOSPITAL
3.43,2.12,36.74610,-76.24609,22055.94,7961.13,CHESAPEAKE REGIONAL MEDICAL CENTER
4.51,2.23,47.71468,-122.33762,33658.00,9056.91,NORTHWEST HOSPITAL
3.43,2.82,47.64928,-122.30681,21990.67,15408.47,UNIVERSITY OF WASHINGTON MEDICAL CTR
3.48,2.27,48.00091,-122.20600,22522.07,9496.73,PROVIDENCE REGIONAL MEDICAL CENTER EVERETT
4.36,2.32,47.33947,-122.26677,31993.62,10102.92,AUBURN REGIONAL MEDICAL CENTER
5.08,2.27,47.05286,-122.84707,39718.88,9564.50,PROVIDENCE ST PETER HOSPITAL
5.16,2.54,47.60869,-122.32128,40673.52,12401.05,SWEDISH MEDICAL CENTER
3.17,2.29,48.77371,-122.47344,19221.91,9709.55,ST JOSEPH MEDICAL CENTER
3.18,2.31,46.59360,-120.54741,19377.19,9953.94,YAKIMA VALLEY MEMORIAL HOSPITAL
4.93,2.26,47.58295,-122.62506,38158.05,9482.91,HARRISON MEDICAL CENTER
4.00,2.32,46.13039,-122.94110,28187.09,10042.09,PEACHEALTH ST JOHN MEDICAL CENTER
4.15,2.31,45.62460,-122.58145,29730.12,9958.65,PEACEHEALTH SOUTHWEST MEDICAL CENTER
3.33,2.16,47.61943,-122.18605,20938.44,8345.61,OVERLAKE HOSPITAL MEDICAL CENTER
4.67,2.42,47.64936,-117.41194,35309.91,11172.73,PROVIDENCE SACRED HEART MEDICAL CENTER
4.53,2.38,46.28132,-119.28218,33811.84,10733.74,KADLEC REGIONAL MEDICAL CENTER
3.54,2.73,47.60351,-122.32305,23216.46,14455.46,HARBORVIEW MEDICAL CENTER
4.66,2.26,47.17742,-122.28943,35215.69,9481.77,MULTICARE GOOD SAMARITAN HOSPITAL
4.68,2.41,47.44243,-122.21392,35503.64,11018.79,VALLEY MEDICAL CENTER
6.23,2.35,47.24670,-122.44841,52113.46,10359.00,ST JOSEPH MEDICAL CENTER
4.78,2.23,47.71603,-122.17867,36581.00,9080.55,EVERGREEN HOSPITAL MEDICAL CENTER
4.96,2.39,47.25980,-122.45243,38507.23,10784.86,TACOMA GENERAL ALLENMORE HOSPITAL
4.13,2.54,39.65498,-79.95814,29496.20,12492.85,WEST VIRGINIA UNIVERSITY HOSPITALS
3.15,2.20,39.32836,-80.23964,18983.00,8775.83,UNITED HOSPITAL CENTER
2.53,2.02,40.39520,-80.52796,12290.09,6808.09,WEIRTON MEDICAL CENTER
3.75,2.20,38.43236,-82.40067,25473.00,8814.31,ST MARY'S MEDICAL CENTER
3.81,2.29,38.34739,-81.62600,26146.46,9728.08,CHARLESTON AREA MEDICAL CENTER
3.24,2.06,39.66383,-79.94681,19925.27,7279.33,MONONGALIA COUNTY GENERAL HOSPITAL
3.60,2.13,39.27035,-81.56026,23832.75,8012.75,CAMDEN CLARK MEDICAL CENTER
2.88,2.14,37.78754,-81.20183,16086.09,8091.73,RALEIGH GENERAL HOSPITAL
3.55,2.21,43.01152,-88.24308,23264.12,8859.00,WAUKESHA MEMORIAL HOSPITAL
3.70,2.21,44.96738,-89.66994,24881.11,8846.78,ASPIRUS WAUSAU HOSPITAL
3.82,2.39,44.67759,-90.17818,26175.21,10847.47,MINISTRY SAINT JOSEPH'S HOSPITAL
3.23,2.10,44.81192,-91.51352,19872.18,7742.45,MAYO CLINIC HEALTH SYSTEM EAU CLAIRE HOSPITAL
3.41,2.16,44.50173,-88.01254,21809.08,8409.25,ST VINCENT HSPTL
4.63,2.46,43.05867,-89.40269,34960.54,11616.42,ST MARY'S HOSPITAL
4.46,2.34,43.06432,-89.40100,33080.12,10323.88,MERITER HSPTL
3.50,2.35,42.73444,-87.82788,22727.05,10378.19,WHEATON FRANCISCAN HEALTHCARE- ALL SAINTS
5.68,3.42,43.07633,-89.43133,46179.79,21956.00,UNIVERSITY OF WI  HOSPITALS & CLINICS AUTHORITY
3.45,2.47,43.07393,-87.97612,22204.88,11729.24,WHEATON FRANCISCAN, INC- ST JOSEPH
4.94,2.43,42.98958,-87.95079,38292.00,11281.03,AURORA ST LUKES MEDICAL CENTER
4.78,2.19,43.00120,-88.02675,36509.60,8642.60,AURORA WEST ALLIS MEDICAL CENTER
3.00,2.48,43.04008,-88.02523,17344.50,11833.89,FROEDTERT MEM LUTHERAN HSPTL
4.41,2.43,42.84802,-106.30851,32564.69,11296.00,WYOMING MEDICAL CENTER
4.37,2.18,31.21673,-85.36307,32120.31,8616.23,SOUTHEAST ALABAMA MEDICAL CENTER
4.75,2.11,34.80175,-87.67514,36261.91,7798.91,ELIZA COFFEE MEMORIAL HOSPITAL
3.14,2.35,33.50619,-86.80210,18892.36,10410.50,UNIVERSITY OF ALABAMA HOSPITAL
3.13,2.10,34.20768,-86.87489,18768.50,7719.58,CULLMAN REGIONAL MEDICAL CENTER
4.70,2.22,34.72007,-86.58108,35634.32,8955.76,HUNTSVILLE HOSPITAL
7.54,2.08,34.00941,-85.97078,66209.36,7543.00,GADSDEN REGIONAL MEDICAL CENTER
7.57,2.10,34.00426,-86.00339,66489.22,7714.50,RIVERVIEW REGIONAL MEDICAL CENTER
4.37,2.11,31.23767,-85.45625,32163.36,7771.91,FLOWERS HOSPITAL
4.43,2.44,33.50734,-86.78958,32761.19,11406.19,ST VINCENT'S BIRMINGHAM
3.82,2.07,33.65640,-85.82284,26255.80,7426.60,NORTHEAST ALABAMA REGIONAL MED CENTER
4.04,2.28,30.68199,-88.19897,28574.53,9606.80,PROVIDENCE HOSPITAL
5.12,2.23,33.20521,-87.52546,40155.24,9098.71,D C H REGIONAL MEDICAL CENTER
7.07,2.25,33.49854,-86.84633,61158.80,9271.67,BAPTIST MEDICAL CENTER-PRINCETON
16.73,2.42,33.46420,-86.77409,165102.85,11200.92,BROOKWOOD MEDICAL CENTER
3.17,2.05,30.68546,-88.13170,19218.54,7158.00,SPRINGHILL MEDICAL CENTER
3.35,2.25,32.25294,-110.88135,21115.29,9279.07,TUCSON MEDICAL CENTER
3.43,2.22,32.22734,-111.00065,21987.91,9002.82,CARONDELET ST  MARYS HOSPITAL
4.03,2.27,33.56894,-112.07108,28450.33,9581.00,JOHN C LINCOLN NORTH MOUNTAIN HOSPITAL
3.88,2.30,32.88123,-111.71067,26904.45,9856.45,CASA GRANDE REGIONAL MEDICAL CENTER
6.53,2.29,33.29750,-111.87461,55367.86,9716.86,CHANDLER REGIONAL MEDICAL CENTER
4.51,2.26,33.48885,-111.92387,33606.92,9477.33,SCOTTSDALE HEALTHCARE-OSBORN MEDICAL CENTER
7.05,2.22,33.60432,-112.28378,60921.25,9022.33,BANNER BOSWELL MEDICAL CENTER
5.31,2.88,32.24152,-110.94631,42245.27,16061.87,UNIVERSITY OF ARIZONA MEDICAL CTR-UNIVERSIT, THE
4.86,2.38,33.39097,-111.87638,37399.84,10689.68,BANNER DESERT MEDICAL CENTER
3.53,2.11,32.32103,-111.01102,23132.25,7873.19,NORTHWEST MEDICAL CENTER
5.69,2.23,33.58235,-111.88527,46374.19,9097.69,SCOTTSDALE HEALTHCARE-SHEA MEDICAL CENTER
4.85,2.13,33.41128,-111.68916,37244.68,8057.95,BANNER BAYWOOD MEDICAL CENTER
4.06,2.26,33.60949,-112.18129,28767.56,9454.06,BANNER THUNDERBIRD MEDICAL CENTER
4.67,2.79,33.65947,-111.95626,35374.62,15110.69,MAYO CLINIC HOSPITAL
7.18,2.42,33.28686,-111.75246,62391.00,11205.00,MERCY GILBERT MEDICAL CENTER
6.06,2.20,33.38269,-111.72100,50344.36,8739.18,BANNER GATEWAY MEDICAL CENTER
3.76,2.17,34.75031,-92.33897,25562.47,8489.53,ST VINCENT INFIRMARY MEDICAL CENTER
3.92,2.13,35.25046,-91.70056,27258.79,8021.00,WHITE COUNTY MEDICAL CENTER
